[{"poiid":"B2094757D06EAAFE419C","title":"南翔地铁站","lon":"121.32427277","lat":"31.297083592","category":"36","category_name":"地铁站","address":"上海轨道交通 十一号线 轨交南翔站 11"},{"poiid":"B2094654D46BABFF4398","title":"古猗园","lon":"121.31596","lat":"31.29164","category":"240","category_name":"国家级景点","address":"嘉定区南翔镇沪宜路218号"},{"poiid":"B2094757D568A6FB489B","title":"中冶祥腾城市广场","lon":"121.327364","lat":"31.302838","category":"47","category_name":"住宅区","address":"嘉定区真南路4500号(11号线南翔站对面)"},{"poiid":"B2094757D06FA2FC479B","title":"金地格林世界","lon":"121.32311061","lat":"31.298570324","category":"47","category_name":"住宅区","address":"嘉定区南翔镇瑞林路68号(沪嘉高速丰翔路路口)"},{"poiid":"B2094757D06EAAF5419F","title":"南翔漪园小笼馆","lon":"121.314494054","lat":"31.292691793","category":"68","category_name":"快餐厅","address":"嘉定区南翔镇古漪园路288号(近古漪园北门)"},{"poiid":"B2094757D06FA2F8499E","title":"南翔镇","lon":"121.32083892","lat":"31.293945312","category":"260","category_name":"其他","address":"上海嘉定区南翔镇"},{"poiid":"B2094757D06AABF8479F","title":"南翔绿谷别墅","lon":"121.329919","lat":"31.296186","category":"47","category_name":"住宅区","address":"上海市嘉定区南翔镇虹光路111号"},{"poiid":"B2094757D06FAAFF459B","title":"古猗园餐厅","lon":"121.31639","lat":"31.29069","category":"68","category_name":"快餐厅","address":"嘉定区南翔镇沪宜公路218号古猗园南大门(古猗园路沪宜公路)"},{"poiid":"B2094751DA6EA7F5479C","title":"星巴克南翔祥腾广场店","lon":"121.3228","lat":"31.296463","category":"247","category_name":"餐饮美食","address":"嘉定区佳通路31弄3号中冶翔腾城市广场2楼(近11号线南翔站)"},{"poiid":"B2094654D46BA4FE4393","title":"南翔小笼(古猗园路)","lon":"121.31492","lat":"31.2904","category":"257","category_name":"中餐厅","address":""},{"poiid":"B2094654DB69A6FE489F","title":"古漪园","lon":"121.31603","lat":"31.29213","category":"196","category_name":"公园","address":"上海市嘉定区沪宜公路218号"},{"poiid":"B2094757D06FA3FD4799","title":"S5沪嘉高速南翔收费站","lon":"121.325303892","lat":"31.2968820244","category":"267","category_name":"收费站","address":"上海S5沪嘉高速南翔收费站(近丰翔路)"},{"poiid":"B2094750D26BA7F9429A","title":"南翔医院","lon":"121.317955","lat":"31.290615","category":"162","category_name":"医院","address":"众仁路495号"},{"poiid":"B2094757D06FA7FC4092","title":"沪嘉高速公路","lon":"121.34194886","lat":"31.292617122","category":"260","category_name":"其他","address":"上海S5 A12"},{"poiid":"B2094757D068ABFF449A","title":"南翔金地格林","lon":"121.32389068","lat":"31.300073623","category":"47","category_name":"住宅区","address":"上海嘉定南翔镇芳林路"},{"poiid":"B2094655D264A2F5459E","title":"南翔古镇","lon":"121.31557","lat":"31.2895","category":"250","category_name":"公园户外","address":"嘉定区南翔镇人民街(生产街南华路间)"},{"poiid":"B2094757D068A1FC4692","title":"家乐福(南翔店)","lon":"121.33281769559676","lat":"31.304198465976114","category":"118","category_name":"超级市场","address":"上海嘉定区丰翔路3168号"},{"poiid":"B2094654DB69A6FE439C","title":"金地格林春晓","lon":"121.32337","lat":"31.29254","category":"47","category_name":"住宅区","address":"上海市嘉定区真南路4233号"},{"poiid":"B2094757D064A0FF489B","title":"宏立瑞园","lon":"121.32707785316","lat":"31.297452736929","category":"252","category_name":"楼宇机构","address":"上海南翔镇宝翔路560弄"},{"poiid":"B2094757D064AAF5499E","title":"味千拉面","lon":"121.32508392","lat":"31.298980353","category":"247","category_name":"餐饮美食","address":"上海近郊嘉定区丰翔路3168号家乐福超市1楼(近宝翔路)  "},{"poiid":"B2094752D368A1FF409F","title":"捞王猪肚鸡","lon":"121.322586","lat":"31.294815","category":"247","category_name":"餐饮美食","address":"上海市嘉定区南翔镇中冶翔腾城市广场二楼"},{"poiid":"B2094757D064A7F5449D","title":"嘉定区第六税务所","lon":"121.32426392","lat":"31.295500281","category":"500","category_name":"未知分类","address":"上海市嘉定区真南路4268号"},{"poiid":"B2094752D56DA4FD469B","title":"荷泰东南亚风味餐厅","lon":"121.317225","lat":"31.297102","category":"247","category_name":"餐饮美食","address":"中冶祥腾广场"},{"poiid":"B2094654DB69A5F54493","title":"格林豪泰酒店(南翔店)","lon":"121.32161","lat":"31.29403","category":"216","category_name":"经济型连锁酒店","address":"普陀区众仁路与真南路交叉口(南翔镇政府斜对面)"},{"poiid":"B2094752D26EA1FE489C","title":"麦当劳","lon":"121.325317","lat":"31.297104","category":"247","category_name":"餐饮美食","address":"南翔中冶祥腾广场"},{"poiid":"B2094654D46BA4FE419F","title":"永翔新苑","lon":"121.332","lat":"31.2968","category":"47","category_name":"住宅区","address":"众仁路388弄"},{"poiid":"B2094757DB6CA7FD4492","title":"嘉定新城","lon":"121.327738","lat":"31.296815","category":"47","category_name":"住宅区","address":"嘉定区"},{"poiid":"B2094757D06AABF44692","title":"凯旋宫酒楼(南翔店)","lon":"121.32478942","lat":"31.298657497","category":"76","category_name":"上海菜","address":"嘉定区丰翔路3168号(近真南路)"},{"poiid":"B2094757D568A7FC499F","title":"古猗庄园","lon":"121.33028","lat":"31.294357","category":"47","category_name":"住宅区","address":"中国上海市嘉定区G204"},{"poiid":"B2094757D16AA3F8429F","title":"味之都(南翔镇店)","lon":"121.32844","lat":"31.30149","category":"68","category_name":"快餐厅","address":"嘉定区南翔镇丰翔路3618号家乐福1楼(近沪宜公路)"},{"poiid":"B2094757D06BABFD489A","title":"南翔税务所","lon":"121.32702892","lat":"31.296008292","category":"500","category_name":"未知分类","address":"上海真南路4268号"},{"poiid":"B2094655D268ABFF4999","title":"沪嘉高速公路收费站","lon":"121.3291","lat":"31.29587","category":"267","category_name":"收费站","address":""},{"poiid":"B2094752D765A6F4459D","title":"保利国际影城","lon":"121.322063","lat":"31.295258","category":"500","category_name":"未知分类","address":null},{"poiid":"B2094757D06AAAFF439F","title":"嘉定二中","lon":"121.31111145","lat":"31.2952690125","category":"55","category_name":"中学","address":"嘉定区德华路388号"},{"poiid":"B2094752D565A4F5419B","title":"满记甜品","lon":"121.32264","lat":"31.296045","category":"247","category_name":"餐饮美食","address":"上海市嘉定区真南路4368弄7号01层08室"},{"poiid":"B2094757D064A5FA439A","title":"金地格林世界圣琼斯湾","lon":"121.32882015978","lat":"31.308314978731","category":"500","category_name":"未知分类","address":"上海金地格林世界圣琼斯湾"},{"poiid":"B2094757D16DA1FB4692","title":"南翔文广中心","lon":"121.31328892","lat":"31.299913373","category":"500","category_name":"未知分类","address":"嘉定区古猗园路737号"},{"poiid":"B2094752DA6BA2F5459D","title":"保利国际影城","lon":"121.322398","lat":"31.295178","category":"500","category_name":"未知分类","address":"上海市 嘉定区真南路4500号"},{"poiid":"B2094753D76CA4F8479B","title":"上海保利国际影城祥腾店","lon":"121.32801","lat":"31.294763","category":"248","category_name":"生活娱乐","address":"上海市嘉定区真南路4368弄"},{"poiid":"B2094753D665A6FA449C","title":"捞王锅物料理","lon":"121.326644","lat":"31.293373","category":"247","category_name":"餐饮美食","address":"上海市 中冶翔腾广场"},{"poiid":"B2094757D16EABFB489A","title":"金座KTV","lon":"121.32587","lat":"31.29821","category":"170","category_name":"KTV","address":"嘉定区南翔镇丰翔路3168号家乐福3楼(沪嘉高速西北角)"},{"poiid":"B2094757D16CABF44698","title":"上海蓝天经济城","lon":"121.323598","lat":"31.295479","category":"500","category_name":"未知分类","address":"上海嘉定南翔真南路4268号"},{"poiid":"B2094654DB6AA3FF439B","title":"上海市地方税务局嘉定区第六税务所","lon":"121.32359","lat":"31.29547","category":"250","category_name":"公园户外","address":"嘉定区南翔镇真南路4268号"},{"poiid":"B2094757D16FAAF5449E","title":"绿谷别墅","lon":"121.33026392","lat":"31.296353299","category":"47","category_name":"住宅区","address":"上海市嘉定区丰翔路"},{"poiid":"B2094753D26DABFE4992","title":"比比客BBQ","lon":"121.321729","lat":"31.295146","category":"247","category_name":"餐饮美食","address":"上海市 真南路4500号中冶祥腾城市广场1楼1313室"},{"poiid":"B2094654D46BA5F8419E","title":"曙光苑(丰翔路)","lon":"121.32737","lat":"31.30015","category":"47","category_name":"住宅区","address":""},{"poiid":"B2094654D46BA4FE4192","title":"嘉定区国家税务局第六税务所","lon":"121.3236","lat":"31.29548","category":"250","category_name":"公园户外","address":"真南路4268"},{"poiid":"B2094655D36DA7F94699","title":"众仁路","lon":"121.32286","lat":"31.29474","category":"38","category_name":"公交车站","address":""},{"poiid":"B2094654D46BA4FE4193","title":"南翔工商所","lon":"121.3236","lat":"31.29547","category":"250","category_name":"公园户外","address":"真南路4268"},{"poiid":"B2094757D169A4FE4798","title":"久斯台球俱乐部(嘉定店)","lon":"121.32584","lat":"31.29836","category":"171","category_name":"台球厅","address":"嘉定区南翔镇丰翔路3168号家乐福3楼(近家乐福南翔店)"},{"poiid":"B2094757D06EAAFE419C","title":"南翔地铁站","lon":"121.32427277","lat":"31.297083592","category":"36","category_name":"地铁站","address":"上海轨道交通 十一号线 轨交南翔站 11"},{"poiid":"B2094654D46BABFF4398","title":"古猗园","lon":"121.31596","lat":"31.29164","category":"240","category_name":"国家级景点","address":"嘉定区南翔镇沪宜路218号"},{"poiid":"B2094757D568A6FB489B","title":"中冶祥腾城市广场","lon":"121.327364","lat":"31.302838","category":"47","category_name":"住宅区","address":"嘉定区真南路4500号(11号线南翔站对面)"},{"poiid":"B2094757D06FA2FC479B","title":"金地格林世界","lon":"121.32311061","lat":"31.298570324","category":"47","category_name":"住宅区","address":"嘉定区南翔镇瑞林路68号(沪嘉高速丰翔路路口)"},{"poiid":"B2094757D06EAAF5419F","title":"南翔漪园小笼馆","lon":"121.314494054","lat":"31.292691793","category":"68","category_name":"快餐厅","address":"嘉定区南翔镇古漪园路288号(近古漪园北门)"},{"poiid":"B2094757D06FA2F8499E","title":"南翔镇","lon":"121.32083892","lat":"31.293945312","category":"260","category_name":"其他","address":"上海嘉定区南翔镇"},{"poiid":"B2094757D06AABF8479F","title":"南翔绿谷别墅","lon":"121.329919","lat":"31.296186","category":"47","category_name":"住宅区","address":"上海市嘉定区南翔镇虹光路111号"},{"poiid":"B2094757D06FAAFF459B","title":"古猗园餐厅","lon":"121.31639","lat":"31.29069","category":"68","category_name":"快餐厅","address":"嘉定区南翔镇沪宜公路218号古猗园南大门(古猗园路沪宜公路)"},{"poiid":"B2094751DA6EA7F5479C","title":"星巴克南翔祥腾广场店","lon":"121.3228","lat":"31.296463","category":"247","category_name":"餐饮美食","address":"嘉定区佳通路31弄3号中冶翔腾城市广场2楼(近11号线南翔站)"},{"poiid":"B2094654D46BA4FE4393","title":"南翔小笼(古猗园路)","lon":"121.31492","lat":"31.2904","category":"257","category_name":"中餐厅","address":""},{"poiid":"B2094654DB69A6FE489F","title":"古漪园","lon":"121.31603","lat":"31.29213","category":"196","category_name":"公园","address":"上海市嘉定区沪宜公路218号"},{"poiid":"B2094757D06FA3FD4799","title":"S5沪嘉高速南翔收费站","lon":"121.325303892","lat":"31.2968820244","category":"267","category_name":"收费站","address":"上海S5沪嘉高速南翔收费站(近丰翔路)"},{"poiid":"B2094750D26BA7F9429A","title":"南翔医院","lon":"121.317955","lat":"31.290615","category":"162","category_name":"医院","address":"众仁路495号"},{"poiid":"B2094757D06FA7FC4092","title":"沪嘉高速公路","lon":"121.34194886","lat":"31.292617122","category":"260","category_name":"其他","address":"上海S5 A12"},{"poiid":"B2094757D068ABFF449A","title":"南翔金地格林","lon":"121.32389068","lat":"31.300073623","category":"47","category_name":"住宅区","address":"上海嘉定南翔镇芳林路"},{"poiid":"B2094655D264A2F5459E","title":"南翔古镇","lon":"121.31557","lat":"31.2895","category":"250","category_name":"公园户外","address":"嘉定区南翔镇人民街(生产街南华路间)"},{"poiid":"B2094757D068A1FC4692","title":"家乐福(南翔店)","lon":"121.33281769559676","lat":"31.304198465976114","category":"118","category_name":"超级市场","address":"上海嘉定区丰翔路3168号"},{"poiid":"B2094654DB69A6FE439C","title":"金地格林春晓","lon":"121.32337","lat":"31.29254","category":"47","category_name":"住宅区","address":"上海市嘉定区真南路4233号"},{"poiid":"B2094757D064A0FF489B","title":"宏立瑞园","lon":"121.32707785316","lat":"31.297452736929","category":"252","category_name":"楼宇机构","address":"上海南翔镇宝翔路560弄"},{"poiid":"B2094757D064AAF5499E","title":"味千拉面","lon":"121.32508392","lat":"31.298980353","category":"247","category_name":"餐饮美食","address":"上海近郊嘉定区丰翔路3168号家乐福超市1楼(近宝翔路)  "},{"poiid":"B2094752D368A1FF409F","title":"捞王猪肚鸡","lon":"121.322586","lat":"31.294815","category":"247","category_name":"餐饮美食","address":"上海市嘉定区南翔镇中冶翔腾城市广场二楼"},{"poiid":"B2094757D064A7F5449D","title":"嘉定区第六税务所","lon":"121.32426392","lat":"31.295500281","category":"500","category_name":"未知分类","address":"上海市嘉定区真南路4268号"},{"poiid":"B2094752D56DA4FD469B","title":"荷泰东南亚风味餐厅","lon":"121.317225","lat":"31.297102","category":"247","category_name":"餐饮美食","address":"中冶祥腾广场"},{"poiid":"B2094654DB69A5F54493","title":"格林豪泰酒店(南翔店)","lon":"121.32161","lat":"31.29403","category":"216","category_name":"经济型连锁酒店","address":"普陀区众仁路与真南路交叉口(南翔镇政府斜对面)"},{"poiid":"B2094752D26EA1FE489C","title":"麦当劳","lon":"121.325317","lat":"31.297104","category":"247","category_name":"餐饮美食","address":"南翔中冶祥腾广场"},{"poiid":"B2094654D46BA4FE419F","title":"永翔新苑","lon":"121.332","lat":"31.2968","category":"47","category_name":"住宅区","address":"众仁路388弄"},{"poiid":"B2094757DB6CA7FD4492","title":"嘉定新城","lon":"121.327738","lat":"31.296815","category":"47","category_name":"住宅区","address":"嘉定区"},{"poiid":"B2094757D06AABF44692","title":"凯旋宫酒楼(南翔店)","lon":"121.32478942","lat":"31.298657497","category":"76","category_name":"上海菜","address":"嘉定区丰翔路3168号(近真南路)"},{"poiid":"B2094757D568A7FC499F","title":"古猗庄园","lon":"121.33028","lat":"31.294357","category":"47","category_name":"住宅区","address":"中国上海市嘉定区G204"},{"poiid":"B2094757D16AA3F8429F","title":"味之都(南翔镇店)","lon":"121.32844","lat":"31.30149","category":"68","category_name":"快餐厅","address":"嘉定区南翔镇丰翔路3618号家乐福1楼(近沪宜公路)"},{"poiid":"B2094757D06BABFD489A","title":"南翔税务所","lon":"121.32702892","lat":"31.296008292","category":"500","category_name":"未知分类","address":"上海真南路4268号"},{"poiid":"B2094655D268ABFF4999","title":"沪嘉高速公路收费站","lon":"121.3291","lat":"31.29587","category":"267","category_name":"收费站","address":""},{"poiid":"B2094752D765A6F4459D","title":"保利国际影城","lon":"121.322063","lat":"31.295258","category":"500","category_name":"未知分类","address":null},{"poiid":"B2094757D06AAAFF439F","title":"嘉定二中","lon":"121.31111145","lat":"31.2952690125","category":"55","category_name":"中学","address":"嘉定区德华路388号"},{"poiid":"B2094752D565A4F5419B","title":"满记甜品","lon":"121.32264","lat":"31.296045","category":"247","category_name":"餐饮美食","address":"上海市嘉定区真南路4368弄7号01层08室"},{"poiid":"B2094757D064A5FA439A","title":"金地格林世界圣琼斯湾","lon":"121.32882015978","lat":"31.308314978731","category":"500","category_name":"未知分类","address":"上海金地格林世界圣琼斯湾"},{"poiid":"B2094757D16DA1FB4692","title":"南翔文广中心","lon":"121.31328892","lat":"31.299913373","category":"500","category_name":"未知分类","address":"嘉定区古猗园路737号"},{"poiid":"B2094752DA6BA2F5459D","title":"保利国际影城","lon":"121.322398","lat":"31.295178","category":"500","category_name":"未知分类","address":"上海市 嘉定区真南路4500号"},{"poiid":"B2094753D76CA4F8479B","title":"上海保利国际影城祥腾店","lon":"121.32801","lat":"31.294763","category":"248","category_name":"生活娱乐","address":"上海市嘉定区真南路4368弄"},{"poiid":"B2094753D665A6FA449C","title":"捞王锅物料理","lon":"121.326644","lat":"31.293373","category":"247","category_name":"餐饮美食","address":"上海市 中冶翔腾广场"},{"poiid":"B2094757D16EABFB489A","title":"金座KTV","lon":"121.32587","lat":"31.29821","category":"170","category_name":"KTV","address":"嘉定区南翔镇丰翔路3168号家乐福3楼(沪嘉高速西北角)"},{"poiid":"B2094757D16CABF44698","title":"上海蓝天经济城","lon":"121.323598","lat":"31.295479","category":"500","category_name":"未知分类","address":"上海嘉定南翔真南路4268号"},{"poiid":"B2094654DB6AA3FF439B","title":"上海市地方税务局嘉定区第六税务所","lon":"121.32359","lat":"31.29547","category":"250","category_name":"公园户外","address":"嘉定区南翔镇真南路4268号"},{"poiid":"B2094757D16FAAF5449E","title":"绿谷别墅","lon":"121.33026392","lat":"31.296353299","category":"47","category_name":"住宅区","address":"上海市嘉定区丰翔路"},{"poiid":"B2094753D26DABFE4992","title":"比比客BBQ","lon":"121.321729","lat":"31.295146","category":"247","category_name":"餐饮美食","address":"上海市 真南路4500号中冶祥腾城市广场1楼1313室"},{"poiid":"B2094654D46BA5F8419E","title":"曙光苑(丰翔路)","lon":"121.32737","lat":"31.30015","category":"47","category_name":"住宅区","address":""},{"poiid":"B2094654D46BA4FE4192","title":"嘉定区国家税务局第六税务所","lon":"121.3236","lat":"31.29548","category":"250","category_name":"公园户外","address":"真南路4268"},{"poiid":"B2094655D36DA7F94699","title":"众仁路","lon":"121.32286","lat":"31.29474","category":"38","category_name":"公交车站","address":""},{"poiid":"B2094654D46BA4FE4193","title":"南翔工商所","lon":"121.3236","lat":"31.29547","category":"250","category_name":"公园户外","address":"真南路4268"},{"poiid":"B2094757D169A4FE4798","title":"久斯台球俱乐部(嘉定店)","lon":"121.32584","lat":"31.29836","category":"171","category_name":"台球厅","address":"嘉定区南翔镇丰翔路3168号家乐福3楼(近家乐福南翔店)"},{"poiid":"B2094757D06EAAFE419C","title":"南翔地铁站","lon":"121.32427277","lat":"31.297083592","category":"36","category_name":"地铁站","address":"上海轨道交通 十一号线 轨交南翔站 11"},{"poiid":"B2094654D46BABFF4398","title":"古猗园","lon":"121.31596","lat":"31.29164","category":"240","category_name":"国家级景点","address":"嘉定区南翔镇沪宜路218号"},{"poiid":"B2094757D568A6FB489B","title":"中冶祥腾城市广场","lon":"121.327364","lat":"31.302838","category":"47","category_name":"住宅区","address":"嘉定区真南路4500号(11号线南翔站对面)"},{"poiid":"B2094757D06FA2FC479B","title":"金地格林世界","lon":"121.32311061","lat":"31.298570324","category":"47","category_name":"住宅区","address":"嘉定区南翔镇瑞林路68号(沪嘉高速丰翔路路口)"},{"poiid":"B2094757D06EAAF5419F","title":"南翔漪园小笼馆","lon":"121.314494054","lat":"31.292691793","category":"68","category_name":"快餐厅","address":"嘉定区南翔镇古漪园路288号(近古漪园北门)"},{"poiid":"B2094757D06FA2F8499E","title":"南翔镇","lon":"121.32083892","lat":"31.293945312","category":"260","category_name":"其他","address":"上海嘉定区南翔镇"},{"poiid":"B2094757D06AABF8479F","title":"南翔绿谷别墅","lon":"121.329919","lat":"31.296186","category":"47","category_name":"住宅区","address":"上海市嘉定区南翔镇虹光路111号"},{"poiid":"B2094757D06FAAFF459B","title":"古猗园餐厅","lon":"121.31639","lat":"31.29069","category":"68","category_name":"快餐厅","address":"嘉定区南翔镇沪宜公路218号古猗园南大门(古猗园路沪宜公路)"},{"poiid":"B2094751DA6EA7F5479C","title":"星巴克南翔祥腾广场店","lon":"121.3228","lat":"31.296463","category":"247","category_name":"餐饮美食","address":"嘉定区佳通路31弄3号中冶翔腾城市广场2楼(近11号线南翔站)"},{"poiid":"B2094654D46BA4FE4393","title":"南翔小笼(古猗园路)","lon":"121.31492","lat":"31.2904","category":"257","category_name":"中餐厅","address":""},{"poiid":"B2094654DB69A6FE489F","title":"古漪园","lon":"121.31603","lat":"31.29213","category":"196","category_name":"公园","address":"上海市嘉定区沪宜公路218号"},{"poiid":"B2094757D06FA3FD4799","title":"S5沪嘉高速南翔收费站","lon":"121.325303892","lat":"31.2968820244","category":"267","category_name":"收费站","address":"上海S5沪嘉高速南翔收费站(近丰翔路)"},{"poiid":"B2094750D26BA7F9429A","title":"南翔医院","lon":"121.317955","lat":"31.290615","category":"162","category_name":"医院","address":"众仁路495号"},{"poiid":"B2094757D06FA7FC4092","title":"沪嘉高速公路","lon":"121.34194886","lat":"31.292617122","category":"260","category_name":"其他","address":"上海S5 A12"},{"poiid":"B2094757D068ABFF449A","title":"南翔金地格林","lon":"121.32389068","lat":"31.300073623","category":"47","category_name":"住宅区","address":"上海嘉定南翔镇芳林路"},{"poiid":"B2094655D264A2F5459E","title":"南翔古镇","lon":"121.31557","lat":"31.2895","category":"250","category_name":"公园户外","address":"嘉定区南翔镇人民街(生产街南华路间)"},{"poiid":"B2094757D068A1FC4692","title":"家乐福(南翔店)","lon":"121.33281769559676","lat":"31.304198465976114","category":"118","category_name":"超级市场","address":"上海嘉定区丰翔路3168号"},{"poiid":"B2094654DB69A6FE439C","title":"金地格林春晓","lon":"121.32337","lat":"31.29254","category":"47","category_name":"住宅区","address":"上海市嘉定区真南路4233号"},{"poiid":"B2094757D064A0FF489B","title":"宏立瑞园","lon":"121.32707785316","lat":"31.297452736929","category":"252","category_name":"楼宇机构","address":"上海南翔镇宝翔路560弄"},{"poiid":"B2094757D064AAF5499E","title":"味千拉面","lon":"121.32508392","lat":"31.298980353","category":"247","category_name":"餐饮美食","address":"上海近郊嘉定区丰翔路3168号家乐福超市1楼(近宝翔路)  "},{"poiid":"B2094752D368A1FF409F","title":"捞王猪肚鸡","lon":"121.322586","lat":"31.294815","category":"247","category_name":"餐饮美食","address":"上海市嘉定区南翔镇中冶翔腾城市广场二楼"},{"poiid":"B2094757D064A7F5449D","title":"嘉定区第六税务所","lon":"121.32426392","lat":"31.295500281","category":"500","category_name":"未知分类","address":"上海市嘉定区真南路4268号"},{"poiid":"B2094752D56DA4FD469B","title":"荷泰东南亚风味餐厅","lon":"121.317225","lat":"31.297102","category":"247","category_name":"餐饮美食","address":"中冶祥腾广场"},{"poiid":"B2094654DB69A5F54493","title":"格林豪泰酒店(南翔店)","lon":"121.32161","lat":"31.29403","category":"216","category_name":"经济型连锁酒店","address":"普陀区众仁路与真南路交叉口(南翔镇政府斜对面)"},{"poiid":"B2094752D26EA1FE489C","title":"麦当劳","lon":"121.325317","lat":"31.297104","category":"247","category_name":"餐饮美食","address":"南翔中冶祥腾广场"},{"poiid":"B2094654D46BA4FE419F","title":"永翔新苑","lon":"121.332","lat":"31.2968","category":"47","category_name":"住宅区","address":"众仁路388弄"},{"poiid":"B2094757DB6CA7FD4492","title":"嘉定新城","lon":"121.327738","lat":"31.296815","category":"47","category_name":"住宅区","address":"嘉定区"},{"poiid":"B2094757D06AABF44692","title":"凯旋宫酒楼(南翔店)","lon":"121.32478942","lat":"31.298657497","category":"76","category_name":"上海菜","address":"嘉定区丰翔路3168号(近真南路)"},{"poiid":"B2094757D568A7FC499F","title":"古猗庄园","lon":"121.33028","lat":"31.294357","category":"47","category_name":"住宅区","address":"中国上海市嘉定区G204"},{"poiid":"B2094757D16AA3F8429F","title":"味之都(南翔镇店)","lon":"121.32844","lat":"31.30149","category":"68","category_name":"快餐厅","address":"嘉定区南翔镇丰翔路3618号家乐福1楼(近沪宜公路)"},{"poiid":"B2094757D06BABFD489A","title":"南翔税务所","lon":"121.32702892","lat":"31.296008292","category":"500","category_name":"未知分类","address":"上海真南路4268号"},{"poiid":"B2094655D268ABFF4999","title":"沪嘉高速公路收费站","lon":"121.3291","lat":"31.29587","category":"267","category_name":"收费站","address":""},{"poiid":"B2094752D765A6F4459D","title":"保利国际影城","lon":"121.322063","lat":"31.295258","category":"500","category_name":"未知分类","address":null},{"poiid":"B2094757D06AAAFF439F","title":"嘉定二中","lon":"121.31111145","lat":"31.2952690125","category":"55","category_name":"中学","address":"嘉定区德华路388号"},{"poiid":"B2094752D565A4F5419B","title":"满记甜品","lon":"121.32264","lat":"31.296045","category":"247","category_name":"餐饮美食","address":"上海市嘉定区真南路4368弄7号01层08室"},{"poiid":"B2094757D064A5FA439A","title":"金地格林世界圣琼斯湾","lon":"121.32882015978","lat":"31.308314978731","category":"500","category_name":"未知分类","address":"上海金地格林世界圣琼斯湾"},{"poiid":"B2094757D16DA1FB4692","title":"南翔文广中心","lon":"121.31328892","lat":"31.299913373","category":"500","category_name":"未知分类","address":"嘉定区古猗园路737号"},{"poiid":"B2094752DA6BA2F5459D","title":"保利国际影城","lon":"121.322398","lat":"31.295178","category":"500","category_name":"未知分类","address":"上海市 嘉定区真南路4500号"},{"poiid":"B2094753D76CA4F8479B","title":"上海保利国际影城祥腾店","lon":"121.32801","lat":"31.294763","category":"248","category_name":"生活娱乐","address":"上海市嘉定区真南路4368弄"},{"poiid":"B2094753D665A6FA449C","title":"捞王锅物料理","lon":"121.326644","lat":"31.293373","category":"247","category_name":"餐饮美食","address":"上海市 中冶翔腾广场"},{"poiid":"B2094757D16EABFB489A","title":"金座KTV","lon":"121.32587","lat":"31.29821","category":"170","category_name":"KTV","address":"嘉定区南翔镇丰翔路3168号家乐福3楼(沪嘉高速西北角)"},{"poiid":"B2094757D16CABF44698","title":"上海蓝天经济城","lon":"121.323598","lat":"31.295479","category":"500","category_name":"未知分类","address":"上海嘉定南翔真南路4268号"},{"poiid":"B2094654DB6AA3FF439B","title":"上海市地方税务局嘉定区第六税务所","lon":"121.32359","lat":"31.29547","category":"250","category_name":"公园户外","address":"嘉定区南翔镇真南路4268号"},{"poiid":"B2094757D16FAAF5449E","title":"绿谷别墅","lon":"121.33026392","lat":"31.296353299","category":"47","category_name":"住宅区","address":"上海市嘉定区丰翔路"},{"poiid":"B2094753D26DABFE4992","title":"比比客BBQ","lon":"121.321729","lat":"31.295146","category":"247","category_name":"餐饮美食","address":"上海市 真南路4500号中冶祥腾城市广场1楼1313室"},{"poiid":"B2094654D46BA5F8419E","title":"曙光苑(丰翔路)","lon":"121.32737","lat":"31.30015","category":"47","category_name":"住宅区","address":""},{"poiid":"B2094654D46BA4FE4192","title":"嘉定区国家税务局第六税务所","lon":"121.3236","lat":"31.29548","category":"250","category_name":"公园户外","address":"真南路4268"},{"poiid":"B2094655D36DA7F94699","title":"众仁路","lon":"121.32286","lat":"31.29474","category":"38","category_name":"公交车站","address":""},{"poiid":"B2094654D46BA4FE4193","title":"南翔工商所","lon":"121.3236","lat":"31.29547","category":"250","category_name":"公园户外","address":"真南路4268"},{"poiid":"B2094757D169A4FE4798","title":"久斯台球俱乐部(嘉定店)","lon":"121.32584","lat":"31.29836","category":"171","category_name":"台球厅","address":"嘉定区南翔镇丰翔路3168号家乐福3楼(近家乐福南翔店)"},{"poiid":"B2094757D06EAAFE419C","title":"南翔地铁站","lon":"121.32427277","lat":"31.297083592","category":"36","category_name":"地铁站","address":"上海轨道交通 十一号线 轨交南翔站 11"},{"poiid":"B2094654D46BABFF4398","title":"古猗园","lon":"121.31596","lat":"31.29164","category":"240","category_name":"国家级景点","address":"嘉定区南翔镇沪宜路218号"},{"poiid":"B2094757D568A6FB489B","title":"中冶祥腾城市广场","lon":"121.327364","lat":"31.302838","category":"47","category_name":"住宅区","address":"嘉定区真南路4500号(11号线南翔站对面)"},{"poiid":"B2094757D06FA2FC479B","title":"金地格林世界","lon":"121.32311061","lat":"31.298570324","category":"47","category_name":"住宅区","address":"嘉定区南翔镇瑞林路68号(沪嘉高速丰翔路路口)"},{"poiid":"B2094757D06EAAF5419F","title":"南翔漪园小笼馆","lon":"121.314494054","lat":"31.292691793","category":"68","category_name":"快餐厅","address":"嘉定区南翔镇古漪园路288号(近古漪园北门)"},{"poiid":"B2094757D06FA2F8499E","title":"南翔镇","lon":"121.32083892","lat":"31.293945312","category":"260","category_name":"其他","address":"上海嘉定区南翔镇"},{"poiid":"B2094757D06AABF8479F","title":"南翔绿谷别墅","lon":"121.329919","lat":"31.296186","category":"47","category_name":"住宅区","address":"上海市嘉定区南翔镇虹光路111号"},{"poiid":"B2094757D06FAAFF459B","title":"古猗园餐厅","lon":"121.31639","lat":"31.29069","category":"68","category_name":"快餐厅","address":"嘉定区南翔镇沪宜公路218号古猗园南大门(古猗园路沪宜公路)"},{"poiid":"B2094751DA6EA7F5479C","title":"星巴克南翔祥腾广场店","lon":"121.3228","lat":"31.296463","category":"247","category_name":"餐饮美食","address":"嘉定区佳通路31弄3号中冶翔腾城市广场2楼(近11号线南翔站)"},{"poiid":"B2094654D46BA4FE4393","title":"南翔小笼(古猗园路)","lon":"121.31492","lat":"31.2904","category":"257","category_name":"中餐厅","address":""},{"poiid":"B2094654DB69A6FE489F","title":"古漪园","lon":"121.31603","lat":"31.29213","category":"196","category_name":"公园","address":"上海市嘉定区沪宜公路218号"},{"poiid":"B2094757D06FA3FD4799","title":"S5沪嘉高速南翔收费站","lon":"121.325303892","lat":"31.2968820244","category":"267","category_name":"收费站","address":"上海S5沪嘉高速南翔收费站(近丰翔路)"},{"poiid":"B2094750D26BA7F9429A","title":"南翔医院","lon":"121.317955","lat":"31.290615","category":"162","category_name":"医院","address":"众仁路495号"},{"poiid":"B2094757D06FA7FC4092","title":"沪嘉高速公路","lon":"121.34194886","lat":"31.292617122","category":"260","category_name":"其他","address":"上海S5 A12"},{"poiid":"B2094757D068ABFF449A","title":"南翔金地格林","lon":"121.32389068","lat":"31.300073623","category":"47","category_name":"住宅区","address":"上海嘉定南翔镇芳林路"},{"poiid":"B2094655D264A2F5459E","title":"南翔古镇","lon":"121.31557","lat":"31.2895","category":"250","category_name":"公园户外","address":"嘉定区南翔镇人民街(生产街南华路间)"},{"poiid":"B2094757D068A1FC4692","title":"家乐福(南翔店)","lon":"121.33281769559676","lat":"31.304198465976114","category":"118","category_name":"超级市场","address":"上海嘉定区丰翔路3168号"},{"poiid":"B2094654DB69A6FE439C","title":"金地格林春晓","lon":"121.32337","lat":"31.29254","category":"47","category_name":"住宅区","address":"上海市嘉定区真南路4233号"},{"poiid":"B2094757D064A0FF489B","title":"宏立瑞园","lon":"121.32707785316","lat":"31.297452736929","category":"252","category_name":"楼宇机构","address":"上海南翔镇宝翔路560弄"},{"poiid":"B2094757D064AAF5499E","title":"味千拉面","lon":"121.32508392","lat":"31.298980353","category":"247","category_name":"餐饮美食","address":"上海近郊嘉定区丰翔路3168号家乐福超市1楼(近宝翔路)  "},{"poiid":"B2094752D368A1FF409F","title":"捞王猪肚鸡","lon":"121.322586","lat":"31.294815","category":"247","category_name":"餐饮美食","address":"上海市嘉定区南翔镇中冶翔腾城市广场二楼"},{"poiid":"B2094757D064A7F5449D","title":"嘉定区第六税务所","lon":"121.32426392","lat":"31.295500281","category":"500","category_name":"未知分类","address":"上海市嘉定区真南路4268号"},{"poiid":"B2094752D56DA4FD469B","title":"荷泰东南亚风味餐厅","lon":"121.317225","lat":"31.297102","category":"247","category_name":"餐饮美食","address":"中冶祥腾广场"},{"poiid":"B2094654DB69A5F54493","title":"格林豪泰酒店(南翔店)","lon":"121.32161","lat":"31.29403","category":"216","category_name":"经济型连锁酒店","address":"普陀区众仁路与真南路交叉口(南翔镇政府斜对面)"},{"poiid":"B2094752D26EA1FE489C","title":"麦当劳","lon":"121.325317","lat":"31.297104","category":"247","category_name":"餐饮美食","address":"南翔中冶祥腾广场"},{"poiid":"B2094654D46BA4FE419F","title":"永翔新苑","lon":"121.332","lat":"31.2968","category":"47","category_name":"住宅区","address":"众仁路388弄"},{"poiid":"B2094757DB6CA7FD4492","title":"嘉定新城","lon":"121.327738","lat":"31.296815","category":"47","category_name":"住宅区","address":"嘉定区"},{"poiid":"B2094757D06AABF44692","title":"凯旋宫酒楼(南翔店)","lon":"121.32478942","lat":"31.298657497","category":"76","category_name":"上海菜","address":"嘉定区丰翔路3168号(近真南路)"},{"poiid":"B2094757D568A7FC499F","title":"古猗庄园","lon":"121.33028","lat":"31.294357","category":"47","category_name":"住宅区","address":"中国上海市嘉定区G204"},{"poiid":"B2094757D16AA3F8429F","title":"味之都(南翔镇店)","lon":"121.32844","lat":"31.30149","category":"68","category_name":"快餐厅","address":"嘉定区南翔镇丰翔路3618号家乐福1楼(近沪宜公路)"},{"poiid":"B2094757D06BABFD489A","title":"南翔税务所","lon":"121.32702892","lat":"31.296008292","category":"500","category_name":"未知分类","address":"上海真南路4268号"},{"poiid":"B2094655D268ABFF4999","title":"沪嘉高速公路收费站","lon":"121.3291","lat":"31.29587","category":"267","category_name":"收费站","address":""},{"poiid":"B2094752D765A6F4459D","title":"保利国际影城","lon":"121.322063","lat":"31.295258","category":"500","category_name":"未知分类","address":null},{"poiid":"B2094757D06AAAFF439F","title":"嘉定二中","lon":"121.31111145","lat":"31.2952690125","category":"55","category_name":"中学","address":"嘉定区德华路388号"},{"poiid":"B2094752D565A4F5419B","title":"满记甜品","lon":"121.32264","lat":"31.296045","category":"247","category_name":"餐饮美食","address":"上海市嘉定区真南路4368弄7号01层08室"},{"poiid":"B2094757D064A5FA439A","title":"金地格林世界圣琼斯湾","lon":"121.32882015978","lat":"31.308314978731","category":"500","category_name":"未知分类","address":"上海金地格林世界圣琼斯湾"},{"poiid":"B2094757D16DA1FB4692","title":"南翔文广中心","lon":"121.31328892","lat":"31.299913373","category":"500","category_name":"未知分类","address":"嘉定区古猗园路737号"},{"poiid":"B2094752DA6BA2F5459D","title":"保利国际影城","lon":"121.322398","lat":"31.295178","category":"500","category_name":"未知分类","address":"上海市 嘉定区真南路4500号"},{"poiid":"B2094753D76CA4F8479B","title":"上海保利国际影城祥腾店","lon":"121.32801","lat":"31.294763","category":"248","category_name":"生活娱乐","address":"上海市嘉定区真南路4368弄"},{"poiid":"B2094753D665A6FA449C","title":"捞王锅物料理","lon":"121.326644","lat":"31.293373","category":"247","category_name":"餐饮美食","address":"上海市 中冶翔腾广场"},{"poiid":"B2094757D16EABFB489A","title":"金座KTV","lon":"121.32587","lat":"31.29821","category":"170","category_name":"KTV","address":"嘉定区南翔镇丰翔路3168号家乐福3楼(沪嘉高速西北角)"},{"poiid":"B2094757D16CABF44698","title":"上海蓝天经济城","lon":"121.323598","lat":"31.295479","category":"500","category_name":"未知分类","address":"上海嘉定南翔真南路4268号"},{"poiid":"B2094654DB6AA3FF439B","title":"上海市地方税务局嘉定区第六税务所","lon":"121.32359","lat":"31.29547","category":"250","category_name":"公园户外","address":"嘉定区南翔镇真南路4268号"},{"poiid":"B2094757D16FAAF5449E","title":"绿谷别墅","lon":"121.33026392","lat":"31.296353299","category":"47","category_name":"住宅区","address":"上海市嘉定区丰翔路"},{"poiid":"B2094753D26DABFE4992","title":"比比客BBQ","lon":"121.321729","lat":"31.295146","category":"247","category_name":"餐饮美食","address":"上海市 真南路4500号中冶祥腾城市广场1楼1313室"},{"poiid":"B2094654D46BA5F8419E","title":"曙光苑(丰翔路)","lon":"121.32737","lat":"31.30015","category":"47","category_name":"住宅区","address":""},{"poiid":"B2094654D46BA4FE4192","title":"嘉定区国家税务局第六税务所","lon":"121.3236","lat":"31.29548","category":"250","category_name":"公园户外","address":"真南路4268"},{"poiid":"B2094655D36DA7F94699","title":"众仁路","lon":"121.32286","lat":"31.29474","category":"38","category_name":"公交车站","address":""},{"poiid":"B2094654D46BA4FE4193","title":"南翔工商所","lon":"121.3236","lat":"31.29547","category":"250","category_name":"公园户外","address":"真南路4268"},{"poiid":"B2094757D169A4FE4798","title":"久斯台球俱乐部(嘉定店)","lon":"121.32584","lat":"31.29836","category":"171","category_name":"台球厅","address":"嘉定区南翔镇丰翔路3168号家乐福3楼(近家乐福南翔店)"}]