[{"poiid":"B2094757D069A0F5459B","title":"金山城市沙滩","lon":"121.34800112","lat":"30.708106956","category":"500","category_name":"未知分类","address":"上海市金山区沪杭公路7741号"},{"poiid":"B2094757D068A3F9499B","title":"滨海皇家金煦大酒店","lon":"121.34416903","lat":"30.704743411","category":"76","category_name":"上海菜","address":"近郊金山石化新城路1号(近金山城市沙滩)"},{"poiid":"B2094655D268A6FA459A","title":"金山城市沙滩(北一门)","lon":"121.3511","lat":"30.71108","category":"680","category_name":"楼宇机构","address":""},{"poiid":"B2094757D069A7FE439D","title":"滨海公园","lon":"121.34492638","lat":"30.70620388","category":"196","category_name":"公园","address":"近郊金山区石化街道新城路16号"},{"poiid":"B2094654DB69A0FE4693","title":"上海金山沙滩排球场","lon":"121.34556","lat":"30.705","category":"233","category_name":"户外健身场所","address":"近郊金山区新城路5号城市沙滩内(南康路新城路)"},{"poiid":"B2094757D06BA2FF4592","title":"金山宾馆","lon":"121.34306287","lat":"30.715717598","category":"217","category_name":"旅馆招待所","address":"近郊金山区石化金一东路1号"},{"poiid":"B2094757D069A0FD489C","title":"塞纳河畔(金山店)","lon":"121.3443","lat":"30.71614","category":"75","category_name":"浙江菜","address":"近郊石化蒙山路333号(沪杭公路金一东路)"},{"poiid":"B2094757DB6FA4FC419B","title":"City Bread","lon":"121.347846","lat":"30.710801","category":"112","category_name":"糕饼店","address":"金山区石化象州路81号(蒙山路口)"},{"poiid":"B2094757D165A6F4499E","title":"台州火车站","lon":"121.35884426","lat":"30.705528283","category":"22","category_name":"火车站","address":"上海台州火车站"},{"poiid":"B2094757D168A1FC4493","title":"上海海滨皇家金熙大酒店","lon":"121.34396206","lat":"30.704881286","category":"217","category_name":"旅馆招待所","address":"上海金山区石化新城路1号"},{"poiid":"B2094757D66BA7FF4499","title":"蒙山餐厅","lon":"121.34773","lat":"30.709151","category":"76","category_name":"上海菜","address":"近郊金山区石化蒙山路(近乐购购物中心)"},{"poiid":"B2094654DB69A1FA4098","title":"金山区石化社区卫生服务中心","lon":"121.35047","lat":"30.71162","category":"162","category_name":"医院","address":"象州路12"},{"poiid":"B2094655D268A7FE429C","title":"金山城市沙滩(北门)","lon":"121.348","lat":"30.70845","category":"680","category_name":"楼宇机构","address":""},{"poiid":"B2094757D66DA4F84599","title":"金山城市沙滩世游赛赛场","lon":"121.34811634","lat":"30.706189957","category":"500","category_name":"未知分类","address":"上海金山新城路"},{"poiid":"B2094654DB69A0FE419E","title":"上海市金山区海滨体育场","lon":"121.34233","lat":"30.70689","category":"224","category_name":"综合体育馆","address":"近郊金山区石化合浦路147号(合浦路荔浦路)"},{"poiid":"B2094655D36CA7FB449D","title":"海滨公园","lon":"121.34333","lat":"30.70772","category":"38","category_name":"公交车站","address":""},{"poiid":"B2094654DB69A1FA499E","title":"金山区石化街道十二村","lon":"121.34746","lat":"30.70955","category":"47","category_name":"住宅区","address":""},{"poiid":"B2094654DB69A1FA4198","title":"石化十三村小区(象州路)","lon":"121.34909","lat":"30.71085","category":"47","category_name":"住宅区","address":""},{"poiid":"B2094654DB64A7F8439B","title":"石化十三村小区(西门)","lon":"121.34786","lat":"30.70946","category":"47","category_name":"住宅区","address":""},{"poiid":"B2094655D268A6FA4492","title":"芸海大楼","lon":"121.35023","lat":"30.71041","category":"47","category_name":"住宅区","address":"鸿芸小区"},{"poiid":"B2094654DB69A1FA4099","title":"上海市金山区牙病防治所","lon":"121.35047","lat":"30.71162","category":"162","category_name":"医院","address":"近郊金山区象州路12号3楼(富川路象州路)"},{"poiid":"B2094654DB69A1F54398","title":"十二村小区(象州路)","lon":"121.34612","lat":"30.70941","category":"47","category_name":"住宅区","address":""},{"poiid":"B2094654DB69A1FA409F","title":"鸿芸小区","lon":"121.35027","lat":"30.710682","category":"47","category_name":"住宅区","address":"鸿芸小区"},{"poiid":"B2094654DB69A1F5479D","title":"金山轮滑球馆","lon":"121.34412","lat":"30.70564","category":"220","category_name":"运动场所","address":"近郊金山区石化新城路5号(近沪杭公路)"},{"poiid":"B2094655D26FAAFD489E","title":"鸿海大楼(北门)","lon":"121.35029","lat":"30.71098","category":"47","category_name":"住宅区","address":"鸿芸小区"},{"poiid":"B2094655D268A6FA4493","title":"芸海大楼(北门)","lon":"121.35029","lat":"30.71098","category":"47","category_name":"住宅区","address":"鸿芸小区"},{"poiid":"B2094750DB6CA1F4469A","title":"金山城市沙滩","lon":"121.346443","lat":"30.707511","category":"248","category_name":"生活娱乐","address":"金山区石化镇海滨"},{"poiid":"B2094655D268A7FA499C","title":"上海小南国金山店","lon":"121.34374","lat":"30.71495","category":"76","category_name":"上海菜","address":"近郊金山区石化金一东路1号金山宾馆1楼"},{"poiid":"B2094757D065AAF9479C","title":"欣达食苑","lon":"121.34259","lat":"30.71013","category":"76","category_name":"上海菜","address":"近郊金山区石化新城路十一村4号(近驿宾楼)"},{"poiid":"B2094654DB69A1F5439A","title":"良友金伴NO.462","lon":"121.34642","lat":"30.71029","category":"117","category_name":"便民商店/便利店","address":"象州路105"},{"poiid":"B2094655D268A6FB479F","title":"石化十一村","lon":"121.34067","lat":"30.708725","category":"47","category_name":"住宅区","address":"荔浦路112号"},{"poiid":"B2094654DB69A1FA409E","title":"上海市金山区石化地段医院","lon":"121.35047","lat":"30.71162","category":"162","category_name":"医院","address":"金山区象州路12号"},{"poiid":"B2094750D26AAAFE479E","title":"金山城市沙灘","lon":"121.340965","lat":"30.711114","category":"500","category_name":"未知分类","address":null},{"poiid":"B2094757D66EAAF8469D","title":"石化海棠新村","lon":"121.34915161","lat":"30.709688186","category":"500","category_name":"未知分类","address":"上海市金山区石化蒙山路"},{"poiid":"B2094654DB69A0FD439F","title":"三品香(北随塘河路)","lon":"121.33973","lat":"30.71044","category":"257","category_name":"中餐厅","address":"近郊金山区北随塘河路219号"},{"poiid":"B2094654DB69A1F5439D","title":"乐厦商场","lon":"121.34577","lat":"30.7102","category":"119","category_name":"商场","address":"象州路119"},{"poiid":"B2094654DB69A0FE439E","title":"驿宾楼","lon":"121.34324","lat":"30.70979","category":"46","category_name":"楼宇","address":"新城路105"},{"poiid":"B2094654DB64A7F84398","title":"石化街道九村小区","lon":"121.34848","lat":"30.71205","category":"47","category_name":"住宅区","address":""},{"poiid":"B209475CD565A7F8469F","title":"little cafe（小咖啡）","lon":"121.347724","lat":"30.710731","category":"500","category_name":"未知分类","address":"上海市 蒙山路46号"},{"poiid":"B2094654DB69A1F94892","title":"十村小区","lon":"121.35184","lat":"30.713615","category":"47","category_name":"住宅区","address":"象州路11弄"},{"poiid":"B2094654DB69A1F54092","title":"石化商厦","lon":"121.34601","lat":"30.71086","category":"119","category_name":"商场","address":""},{"poiid":"B2094655D268A6FB4793","title":"上海市金山区海滨体育场(北门)","lon":"121.34217","lat":"30.7074","category":"224","category_name":"综合体育馆","address":"合浦路147"},{"poiid":"B2094757D164ABFC419F","title":"海滨皇家金煦大酒店","lon":"121.344125","lat":"30.704996","category":"217","category_name":"旅馆招待所","address":"上海金山新城路1号"},{"poiid":"B2094757D66EA4F5499C","title":"金山嘴海鲜","lon":"121.34378534","lat":"30.705143332","category":"500","category_name":"未知分类","address":"上海金山嘴"},{"poiid":"B2094757D16DAAFB499E","title":"金山区教师进修学院","lon":"121.345139645","lat":"30.7129103158","category":"253","category_name":"校园生活","address":"柳城路280号"},{"poiid":"B2094655D268A6FB489A","title":"滨海公园(西门)","lon":"121.34426","lat":"30.70659","category":"680","category_name":"楼宇机构","address":"新城路16"},{"poiid":"B2094654DB69A0FE429A","title":"良友金伴便利连锁NO.457","lon":"121.34357","lat":"30.70852","category":"117","category_name":"便民商店/便利店","address":"新城路77"},{"poiid":"B2094654DB69A0FC4192","title":"北随塘河路商业街","lon":"121.34066","lat":"30.71186","category":"116","category_name":"特色商业街","address":""},{"poiid":"B2094654DB69A1F5419B","title":"青年游乐场","lon":"121.34601","lat":"30.71086","category":"195","category_name":"游乐场","address":"象州路"},{"poiid":"B2094655D26FAAFD4899","title":"十村小区(三号门)","lon":"121.35108","lat":"30.71261","category":"47","category_name":"住宅区","address":""},{"poiid":"B2094757D069A0F5459B","title":"金山城市沙滩","lon":"121.34800112","lat":"30.708106956","category":"500","category_name":"未知分类","address":"上海市金山区沪杭公路7741号"},{"poiid":"B2094757D068A3F9499B","title":"滨海皇家金煦大酒店","lon":"121.34416903","lat":"30.704743411","category":"76","category_name":"上海菜","address":"近郊金山石化新城路1号(近金山城市沙滩)"},{"poiid":"B2094655D268A6FA459A","title":"金山城市沙滩(北一门)","lon":"121.3511","lat":"30.71108","category":"680","category_name":"楼宇机构","address":""},{"poiid":"B2094757D069A7FE439D","title":"滨海公园","lon":"121.34492638","lat":"30.70620388","category":"196","category_name":"公园","address":"近郊金山区石化街道新城路16号"},{"poiid":"B2094654DB69A0FE4693","title":"上海金山沙滩排球场","lon":"121.34556","lat":"30.705","category":"233","category_name":"户外健身场所","address":"近郊金山区新城路5号城市沙滩内(南康路新城路)"},{"poiid":"B2094757D06BA2FF4592","title":"金山宾馆","lon":"121.34306287","lat":"30.715717598","category":"217","category_name":"旅馆招待所","address":"近郊金山区石化金一东路1号"},{"poiid":"B2094757D069A0FD489C","title":"塞纳河畔(金山店)","lon":"121.3443","lat":"30.71614","category":"75","category_name":"浙江菜","address":"近郊石化蒙山路333号(沪杭公路金一东路)"},{"poiid":"B2094757DB6FA4FC419B","title":"City Bread","lon":"121.347846","lat":"30.710801","category":"112","category_name":"糕饼店","address":"金山区石化象州路81号(蒙山路口)"},{"poiid":"B2094757D165A6F4499E","title":"台州火车站","lon":"121.35884426","lat":"30.705528283","category":"22","category_name":"火车站","address":"上海台州火车站"},{"poiid":"B2094757D168A1FC4493","title":"上海海滨皇家金熙大酒店","lon":"121.34396206","lat":"30.704881286","category":"217","category_name":"旅馆招待所","address":"上海金山区石化新城路1号"},{"poiid":"B2094757D66BA7FF4499","title":"蒙山餐厅","lon":"121.34773","lat":"30.709151","category":"76","category_name":"上海菜","address":"近郊金山区石化蒙山路(近乐购购物中心)"},{"poiid":"B2094654DB69A1FA4098","title":"金山区石化社区卫生服务中心","lon":"121.35047","lat":"30.71162","category":"162","category_name":"医院","address":"象州路12"},{"poiid":"B2094655D268A7FE429C","title":"金山城市沙滩(北门)","lon":"121.348","lat":"30.70845","category":"680","category_name":"楼宇机构","address":""},{"poiid":"B2094757D66DA4F84599","title":"金山城市沙滩世游赛赛场","lon":"121.34811634","lat":"30.706189957","category":"500","category_name":"未知分类","address":"上海金山新城路"},{"poiid":"B2094654DB69A0FE419E","title":"上海市金山区海滨体育场","lon":"121.34233","lat":"30.70689","category":"224","category_name":"综合体育馆","address":"近郊金山区石化合浦路147号(合浦路荔浦路)"},{"poiid":"B2094655D36CA7FB449D","title":"海滨公园","lon":"121.34333","lat":"30.70772","category":"38","category_name":"公交车站","address":""},{"poiid":"B2094654DB69A1FA499E","title":"金山区石化街道十二村","lon":"121.34746","lat":"30.70955","category":"47","category_name":"住宅区","address":""},{"poiid":"B2094654DB69A1FA4198","title":"石化十三村小区(象州路)","lon":"121.34909","lat":"30.71085","category":"47","category_name":"住宅区","address":""},{"poiid":"B2094654DB64A7F8439B","title":"石化十三村小区(西门)","lon":"121.34786","lat":"30.70946","category":"47","category_name":"住宅区","address":""},{"poiid":"B2094655D268A6FA4492","title":"芸海大楼","lon":"121.35023","lat":"30.71041","category":"47","category_name":"住宅区","address":"鸿芸小区"},{"poiid":"B2094654DB69A1FA4099","title":"上海市金山区牙病防治所","lon":"121.35047","lat":"30.71162","category":"162","category_name":"医院","address":"近郊金山区象州路12号3楼(富川路象州路)"},{"poiid":"B2094654DB69A1F54398","title":"十二村小区(象州路)","lon":"121.34612","lat":"30.70941","category":"47","category_name":"住宅区","address":""},{"poiid":"B2094654DB69A1FA409F","title":"鸿芸小区","lon":"121.35027","lat":"30.710682","category":"47","category_name":"住宅区","address":"鸿芸小区"},{"poiid":"B2094654DB69A1F5479D","title":"金山轮滑球馆","lon":"121.34412","lat":"30.70564","category":"220","category_name":"运动场所","address":"近郊金山区石化新城路5号(近沪杭公路)"},{"poiid":"B2094655D26FAAFD489E","title":"鸿海大楼(北门)","lon":"121.35029","lat":"30.71098","category":"47","category_name":"住宅区","address":"鸿芸小区"},{"poiid":"B2094655D268A6FA4493","title":"芸海大楼(北门)","lon":"121.35029","lat":"30.71098","category":"47","category_name":"住宅区","address":"鸿芸小区"},{"poiid":"B2094750DB6CA1F4469A","title":"金山城市沙滩","lon":"121.346443","lat":"30.707511","category":"248","category_name":"生活娱乐","address":"金山区石化镇海滨"},{"poiid":"B2094655D268A7FA499C","title":"上海小南国金山店","lon":"121.34374","lat":"30.71495","category":"76","category_name":"上海菜","address":"近郊金山区石化金一东路1号金山宾馆1楼"},{"poiid":"B2094757D065AAF9479C","title":"欣达食苑","lon":"121.34259","lat":"30.71013","category":"76","category_name":"上海菜","address":"近郊金山区石化新城路十一村4号(近驿宾楼)"},{"poiid":"B2094654DB69A1F5439A","title":"良友金伴NO.462","lon":"121.34642","lat":"30.71029","category":"117","category_name":"便民商店/便利店","address":"象州路105"},{"poiid":"B2094655D268A6FB479F","title":"石化十一村","lon":"121.34067","lat":"30.708725","category":"47","category_name":"住宅区","address":"荔浦路112号"},{"poiid":"B2094654DB69A1FA409E","title":"上海市金山区石化地段医院","lon":"121.35047","lat":"30.71162","category":"162","category_name":"医院","address":"金山区象州路12号"},{"poiid":"B2094750D26AAAFE479E","title":"金山城市沙灘","lon":"121.340965","lat":"30.711114","category":"500","category_name":"未知分类","address":null},{"poiid":"B2094757D66EAAF8469D","title":"石化海棠新村","lon":"121.34915161","lat":"30.709688186","category":"500","category_name":"未知分类","address":"上海市金山区石化蒙山路"},{"poiid":"B2094654DB69A0FD439F","title":"三品香(北随塘河路)","lon":"121.33973","lat":"30.71044","category":"257","category_name":"中餐厅","address":"近郊金山区北随塘河路219号"},{"poiid":"B2094654DB69A1F5439D","title":"乐厦商场","lon":"121.34577","lat":"30.7102","category":"119","category_name":"商场","address":"象州路119"},{"poiid":"B2094654DB69A0FE439E","title":"驿宾楼","lon":"121.34324","lat":"30.70979","category":"46","category_name":"楼宇","address":"新城路105"},{"poiid":"B2094654DB64A7F84398","title":"石化街道九村小区","lon":"121.34848","lat":"30.71205","category":"47","category_name":"住宅区","address":""},{"poiid":"B209475CD565A7F8469F","title":"little cafe（小咖啡）","lon":"121.347724","lat":"30.710731","category":"500","category_name":"未知分类","address":"上海市 蒙山路46号"},{"poiid":"B2094654DB69A1F94892","title":"十村小区","lon":"121.35184","lat":"30.713615","category":"47","category_name":"住宅区","address":"象州路11弄"},{"poiid":"B2094654DB69A1F54092","title":"石化商厦","lon":"121.34601","lat":"30.71086","category":"119","category_name":"商场","address":""},{"poiid":"B2094655D268A6FB4793","title":"上海市金山区海滨体育场(北门)","lon":"121.34217","lat":"30.7074","category":"224","category_name":"综合体育馆","address":"合浦路147"},{"poiid":"B2094757D164ABFC419F","title":"海滨皇家金煦大酒店","lon":"121.344125","lat":"30.704996","category":"217","category_name":"旅馆招待所","address":"上海金山新城路1号"},{"poiid":"B2094757D66EA4F5499C","title":"金山嘴海鲜","lon":"121.34378534","lat":"30.705143332","category":"500","category_name":"未知分类","address":"上海金山嘴"},{"poiid":"B2094757D16DAAFB499E","title":"金山区教师进修学院","lon":"121.345139645","lat":"30.7129103158","category":"253","category_name":"校园生活","address":"柳城路280号"},{"poiid":"B2094655D268A6FB489A","title":"滨海公园(西门)","lon":"121.34426","lat":"30.70659","category":"680","category_name":"楼宇机构","address":"新城路16"},{"poiid":"B2094654DB69A0FE429A","title":"良友金伴便利连锁NO.457","lon":"121.34357","lat":"30.70852","category":"117","category_name":"便民商店/便利店","address":"新城路77"},{"poiid":"B2094654DB69A0FC4192","title":"北随塘河路商业街","lon":"121.34066","lat":"30.71186","category":"116","category_name":"特色商业街","address":""},{"poiid":"B2094654DB69A1F5419B","title":"青年游乐场","lon":"121.34601","lat":"30.71086","category":"195","category_name":"游乐场","address":"象州路"},{"poiid":"B2094655D26FAAFD4899","title":"十村小区(三号门)","lon":"121.35108","lat":"30.71261","category":"47","category_name":"住宅区","address":""},{"poiid":"B2094757D069A0F5459B","title":"金山城市沙滩","lon":"121.34800112","lat":"30.708106956","category":"500","category_name":"未知分类","address":"上海市金山区沪杭公路7741号"},{"poiid":"B2094757D068A3F9499B","title":"滨海皇家金煦大酒店","lon":"121.34416903","lat":"30.704743411","category":"76","category_name":"上海菜","address":"近郊金山石化新城路1号(近金山城市沙滩)"},{"poiid":"B2094655D268A6FA459A","title":"金山城市沙滩(北一门)","lon":"121.3511","lat":"30.71108","category":"680","category_name":"楼宇机构","address":""},{"poiid":"B2094757D069A7FE439D","title":"滨海公园","lon":"121.34492638","lat":"30.70620388","category":"196","category_name":"公园","address":"近郊金山区石化街道新城路16号"},{"poiid":"B2094654DB69A0FE4693","title":"上海金山沙滩排球场","lon":"121.34556","lat":"30.705","category":"233","category_name":"户外健身场所","address":"近郊金山区新城路5号城市沙滩内(南康路新城路)"},{"poiid":"B2094757D06BA2FF4592","title":"金山宾馆","lon":"121.34306287","lat":"30.715717598","category":"217","category_name":"旅馆招待所","address":"近郊金山区石化金一东路1号"},{"poiid":"B2094757D069A0FD489C","title":"塞纳河畔(金山店)","lon":"121.3443","lat":"30.71614","category":"75","category_name":"浙江菜","address":"近郊石化蒙山路333号(沪杭公路金一东路)"},{"poiid":"B2094757DB6FA4FC419B","title":"City Bread","lon":"121.347846","lat":"30.710801","category":"112","category_name":"糕饼店","address":"金山区石化象州路81号(蒙山路口)"},{"poiid":"B2094757D165A6F4499E","title":"台州火车站","lon":"121.35884426","lat":"30.705528283","category":"22","category_name":"火车站","address":"上海台州火车站"},{"poiid":"B2094757D168A1FC4493","title":"上海海滨皇家金熙大酒店","lon":"121.34396206","lat":"30.704881286","category":"217","category_name":"旅馆招待所","address":"上海金山区石化新城路1号"},{"poiid":"B2094757D66BA7FF4499","title":"蒙山餐厅","lon":"121.34773","lat":"30.709151","category":"76","category_name":"上海菜","address":"近郊金山区石化蒙山路(近乐购购物中心)"},{"poiid":"B2094654DB69A1FA4098","title":"金山区石化社区卫生服务中心","lon":"121.35047","lat":"30.71162","category":"162","category_name":"医院","address":"象州路12"},{"poiid":"B2094655D268A7FE429C","title":"金山城市沙滩(北门)","lon":"121.348","lat":"30.70845","category":"680","category_name":"楼宇机构","address":""},{"poiid":"B2094757D66DA4F84599","title":"金山城市沙滩世游赛赛场","lon":"121.34811634","lat":"30.706189957","category":"500","category_name":"未知分类","address":"上海金山新城路"},{"poiid":"B2094654DB69A0FE419E","title":"上海市金山区海滨体育场","lon":"121.34233","lat":"30.70689","category":"224","category_name":"综合体育馆","address":"近郊金山区石化合浦路147号(合浦路荔浦路)"},{"poiid":"B2094655D36CA7FB449D","title":"海滨公园","lon":"121.34333","lat":"30.70772","category":"38","category_name":"公交车站","address":""},{"poiid":"B2094654DB69A1FA499E","title":"金山区石化街道十二村","lon":"121.34746","lat":"30.70955","category":"47","category_name":"住宅区","address":""},{"poiid":"B2094654DB69A1FA4198","title":"石化十三村小区(象州路)","lon":"121.34909","lat":"30.71085","category":"47","category_name":"住宅区","address":""},{"poiid":"B2094654DB64A7F8439B","title":"石化十三村小区(西门)","lon":"121.34786","lat":"30.70946","category":"47","category_name":"住宅区","address":""},{"poiid":"B2094655D268A6FA4492","title":"芸海大楼","lon":"121.35023","lat":"30.71041","category":"47","category_name":"住宅区","address":"鸿芸小区"},{"poiid":"B2094654DB69A1FA4099","title":"上海市金山区牙病防治所","lon":"121.35047","lat":"30.71162","category":"162","category_name":"医院","address":"近郊金山区象州路12号3楼(富川路象州路)"},{"poiid":"B2094654DB69A1F54398","title":"十二村小区(象州路)","lon":"121.34612","lat":"30.70941","category":"47","category_name":"住宅区","address":""},{"poiid":"B2094654DB69A1FA409F","title":"鸿芸小区","lon":"121.35027","lat":"30.710682","category":"47","category_name":"住宅区","address":"鸿芸小区"},{"poiid":"B2094654DB69A1F5479D","title":"金山轮滑球馆","lon":"121.34412","lat":"30.70564","category":"220","category_name":"运动场所","address":"近郊金山区石化新城路5号(近沪杭公路)"},{"poiid":"B2094655D26FAAFD489E","title":"鸿海大楼(北门)","lon":"121.35029","lat":"30.71098","category":"47","category_name":"住宅区","address":"鸿芸小区"},{"poiid":"B2094655D268A6FA4493","title":"芸海大楼(北门)","lon":"121.35029","lat":"30.71098","category":"47","category_name":"住宅区","address":"鸿芸小区"},{"poiid":"B2094750DB6CA1F4469A","title":"金山城市沙滩","lon":"121.346443","lat":"30.707511","category":"248","category_name":"生活娱乐","address":"金山区石化镇海滨"},{"poiid":"B2094655D268A7FA499C","title":"上海小南国金山店","lon":"121.34374","lat":"30.71495","category":"76","category_name":"上海菜","address":"近郊金山区石化金一东路1号金山宾馆1楼"},{"poiid":"B2094757D065AAF9479C","title":"欣达食苑","lon":"121.34259","lat":"30.71013","category":"76","category_name":"上海菜","address":"近郊金山区石化新城路十一村4号(近驿宾楼)"},{"poiid":"B2094654DB69A1F5439A","title":"良友金伴NO.462","lon":"121.34642","lat":"30.71029","category":"117","category_name":"便民商店/便利店","address":"象州路105"},{"poiid":"B2094655D268A6FB479F","title":"石化十一村","lon":"121.34067","lat":"30.708725","category":"47","category_name":"住宅区","address":"荔浦路112号"},{"poiid":"B2094654DB69A1FA409E","title":"上海市金山区石化地段医院","lon":"121.35047","lat":"30.71162","category":"162","category_name":"医院","address":"金山区象州路12号"},{"poiid":"B2094750D26AAAFE479E","title":"金山城市沙灘","lon":"121.340965","lat":"30.711114","category":"500","category_name":"未知分类","address":null},{"poiid":"B2094757D66EAAF8469D","title":"石化海棠新村","lon":"121.34915161","lat":"30.709688186","category":"500","category_name":"未知分类","address":"上海市金山区石化蒙山路"},{"poiid":"B2094654DB69A0FD439F","title":"三品香(北随塘河路)","lon":"121.33973","lat":"30.71044","category":"257","category_name":"中餐厅","address":"近郊金山区北随塘河路219号"},{"poiid":"B2094654DB69A1F5439D","title":"乐厦商场","lon":"121.34577","lat":"30.7102","category":"119","category_name":"商场","address":"象州路119"},{"poiid":"B2094654DB69A0FE439E","title":"驿宾楼","lon":"121.34324","lat":"30.70979","category":"46","category_name":"楼宇","address":"新城路105"},{"poiid":"B2094654DB64A7F84398","title":"石化街道九村小区","lon":"121.34848","lat":"30.71205","category":"47","category_name":"住宅区","address":""},{"poiid":"B209475CD565A7F8469F","title":"little cafe（小咖啡）","lon":"121.347724","lat":"30.710731","category":"500","category_name":"未知分类","address":"上海市 蒙山路46号"},{"poiid":"B2094654DB69A1F94892","title":"十村小区","lon":"121.35184","lat":"30.713615","category":"47","category_name":"住宅区","address":"象州路11弄"},{"poiid":"B2094654DB69A1F54092","title":"石化商厦","lon":"121.34601","lat":"30.71086","category":"119","category_name":"商场","address":""},{"poiid":"B2094655D268A6FB4793","title":"上海市金山区海滨体育场(北门)","lon":"121.34217","lat":"30.7074","category":"224","category_name":"综合体育馆","address":"合浦路147"},{"poiid":"B2094757D164ABFC419F","title":"海滨皇家金煦大酒店","lon":"121.344125","lat":"30.704996","category":"217","category_name":"旅馆招待所","address":"上海金山新城路1号"},{"poiid":"B2094757D66EA4F5499C","title":"金山嘴海鲜","lon":"121.34378534","lat":"30.705143332","category":"500","category_name":"未知分类","address":"上海金山嘴"},{"poiid":"B2094757D16DAAFB499E","title":"金山区教师进修学院","lon":"121.345139645","lat":"30.7129103158","category":"253","category_name":"校园生活","address":"柳城路280号"},{"poiid":"B2094655D268A6FB489A","title":"滨海公园(西门)","lon":"121.34426","lat":"30.70659","category":"680","category_name":"楼宇机构","address":"新城路16"},{"poiid":"B2094654DB69A0FE429A","title":"良友金伴便利连锁NO.457","lon":"121.34357","lat":"30.70852","category":"117","category_name":"便民商店/便利店","address":"新城路77"},{"poiid":"B2094654DB69A0FC4192","title":"北随塘河路商业街","lon":"121.34066","lat":"30.71186","category":"116","category_name":"特色商业街","address":""},{"poiid":"B2094654DB69A1F5419B","title":"青年游乐场","lon":"121.34601","lat":"30.71086","category":"195","category_name":"游乐场","address":"象州路"},{"poiid":"B2094655D26FAAFD4899","title":"十村小区(三号门)","lon":"121.35108","lat":"30.71261","category":"47","category_name":"住宅区","address":""},{"poiid":"B2094757D069A0F5459B","title":"金山城市沙滩","lon":"121.34800112","lat":"30.708106956","category":"500","category_name":"未知分类","address":"上海市金山区沪杭公路7741号"},{"poiid":"B2094757D068A3F9499B","title":"滨海皇家金煦大酒店","lon":"121.34416903","lat":"30.704743411","category":"76","category_name":"上海菜","address":"近郊金山石化新城路1号(近金山城市沙滩)"},{"poiid":"B2094655D268A6FA459A","title":"金山城市沙滩(北一门)","lon":"121.3511","lat":"30.71108","category":"680","category_name":"楼宇机构","address":""},{"poiid":"B2094757D069A7FE439D","title":"滨海公园","lon":"121.34492638","lat":"30.70620388","category":"196","category_name":"公园","address":"近郊金山区石化街道新城路16号"},{"poiid":"B2094654DB69A0FE4693","title":"上海金山沙滩排球场","lon":"121.34556","lat":"30.705","category":"233","category_name":"户外健身场所","address":"近郊金山区新城路5号城市沙滩内(南康路新城路)"},{"poiid":"B2094757D06BA2FF4592","title":"金山宾馆","lon":"121.34306287","lat":"30.715717598","category":"217","category_name":"旅馆招待所","address":"近郊金山区石化金一东路1号"},{"poiid":"B2094757D069A0FD489C","title":"塞纳河畔(金山店)","lon":"121.3443","lat":"30.71614","category":"75","category_name":"浙江菜","address":"近郊石化蒙山路333号(沪杭公路金一东路)"},{"poiid":"B2094757DB6FA4FC419B","title":"City Bread","lon":"121.347846","lat":"30.710801","category":"112","category_name":"糕饼店","address":"金山区石化象州路81号(蒙山路口)"},{"poiid":"B2094757D165A6F4499E","title":"台州火车站","lon":"121.35884426","lat":"30.705528283","category":"22","category_name":"火车站","address":"上海台州火车站"},{"poiid":"B2094757D168A1FC4493","title":"上海海滨皇家金熙大酒店","lon":"121.34396206","lat":"30.704881286","category":"217","category_name":"旅馆招待所","address":"上海金山区石化新城路1号"},{"poiid":"B2094757D66BA7FF4499","title":"蒙山餐厅","lon":"121.34773","lat":"30.709151","category":"76","category_name":"上海菜","address":"近郊金山区石化蒙山路(近乐购购物中心)"},{"poiid":"B2094654DB69A1FA4098","title":"金山区石化社区卫生服务中心","lon":"121.35047","lat":"30.71162","category":"162","category_name":"医院","address":"象州路12"},{"poiid":"B2094655D268A7FE429C","title":"金山城市沙滩(北门)","lon":"121.348","lat":"30.70845","category":"680","category_name":"楼宇机构","address":""},{"poiid":"B2094757D66DA4F84599","title":"金山城市沙滩世游赛赛场","lon":"121.34811634","lat":"30.706189957","category":"500","category_name":"未知分类","address":"上海金山新城路"},{"poiid":"B2094654DB69A0FE419E","title":"上海市金山区海滨体育场","lon":"121.34233","lat":"30.70689","category":"224","category_name":"综合体育馆","address":"近郊金山区石化合浦路147号(合浦路荔浦路)"},{"poiid":"B2094655D36CA7FB449D","title":"海滨公园","lon":"121.34333","lat":"30.70772","category":"38","category_name":"公交车站","address":""},{"poiid":"B2094654DB69A1FA499E","title":"金山区石化街道十二村","lon":"121.34746","lat":"30.70955","category":"47","category_name":"住宅区","address":""},{"poiid":"B2094654DB69A1FA4198","title":"石化十三村小区(象州路)","lon":"121.34909","lat":"30.71085","category":"47","category_name":"住宅区","address":""},{"poiid":"B2094654DB64A7F8439B","title":"石化十三村小区(西门)","lon":"121.34786","lat":"30.70946","category":"47","category_name":"住宅区","address":""},{"poiid":"B2094655D268A6FA4492","title":"芸海大楼","lon":"121.35023","lat":"30.71041","category":"47","category_name":"住宅区","address":"鸿芸小区"},{"poiid":"B2094654DB69A1FA4099","title":"上海市金山区牙病防治所","lon":"121.35047","lat":"30.71162","category":"162","category_name":"医院","address":"近郊金山区象州路12号3楼(富川路象州路)"},{"poiid":"B2094654DB69A1F54398","title":"十二村小区(象州路)","lon":"121.34612","lat":"30.70941","category":"47","category_name":"住宅区","address":""},{"poiid":"B2094654DB69A1FA409F","title":"鸿芸小区","lon":"121.35027","lat":"30.710682","category":"47","category_name":"住宅区","address":"鸿芸小区"},{"poiid":"B2094654DB69A1F5479D","title":"金山轮滑球馆","lon":"121.34412","lat":"30.70564","category":"220","category_name":"运动场所","address":"近郊金山区石化新城路5号(近沪杭公路)"},{"poiid":"B2094655D26FAAFD489E","title":"鸿海大楼(北门)","lon":"121.35029","lat":"30.71098","category":"47","category_name":"住宅区","address":"鸿芸小区"},{"poiid":"B2094655D268A6FA4493","title":"芸海大楼(北门)","lon":"121.35029","lat":"30.71098","category":"47","category_name":"住宅区","address":"鸿芸小区"},{"poiid":"B2094750DB6CA1F4469A","title":"金山城市沙滩","lon":"121.346443","lat":"30.707511","category":"248","category_name":"生活娱乐","address":"金山区石化镇海滨"},{"poiid":"B2094655D268A7FA499C","title":"上海小南国金山店","lon":"121.34374","lat":"30.71495","category":"76","category_name":"上海菜","address":"近郊金山区石化金一东路1号金山宾馆1楼"},{"poiid":"B2094757D065AAF9479C","title":"欣达食苑","lon":"121.34259","lat":"30.71013","category":"76","category_name":"上海菜","address":"近郊金山区石化新城路十一村4号(近驿宾楼)"},{"poiid":"B2094654DB69A1F5439A","title":"良友金伴NO.462","lon":"121.34642","lat":"30.71029","category":"117","category_name":"便民商店/便利店","address":"象州路105"},{"poiid":"B2094655D268A6FB479F","title":"石化十一村","lon":"121.34067","lat":"30.708725","category":"47","category_name":"住宅区","address":"荔浦路112号"},{"poiid":"B2094654DB69A1FA409E","title":"上海市金山区石化地段医院","lon":"121.35047","lat":"30.71162","category":"162","category_name":"医院","address":"金山区象州路12号"},{"poiid":"B2094750D26AAAFE479E","title":"金山城市沙灘","lon":"121.340965","lat":"30.711114","category":"500","category_name":"未知分类","address":null},{"poiid":"B2094757D66EAAF8469D","title":"石化海棠新村","lon":"121.34915161","lat":"30.709688186","category":"500","category_name":"未知分类","address":"上海市金山区石化蒙山路"},{"poiid":"B2094654DB69A0FD439F","title":"三品香(北随塘河路)","lon":"121.33973","lat":"30.71044","category":"257","category_name":"中餐厅","address":"近郊金山区北随塘河路219号"},{"poiid":"B2094654DB69A1F5439D","title":"乐厦商场","lon":"121.34577","lat":"30.7102","category":"119","category_name":"商场","address":"象州路119"},{"poiid":"B2094654DB69A0FE439E","title":"驿宾楼","lon":"121.34324","lat":"30.70979","category":"46","category_name":"楼宇","address":"新城路105"},{"poiid":"B2094654DB64A7F84398","title":"石化街道九村小区","lon":"121.34848","lat":"30.71205","category":"47","category_name":"住宅区","address":""},{"poiid":"B209475CD565A7F8469F","title":"little cafe（小咖啡）","lon":"121.347724","lat":"30.710731","category":"500","category_name":"未知分类","address":"上海市 蒙山路46号"},{"poiid":"B2094654DB69A1F94892","title":"十村小区","lon":"121.35184","lat":"30.713615","category":"47","category_name":"住宅区","address":"象州路11弄"},{"poiid":"B2094654DB69A1F54092","title":"石化商厦","lon":"121.34601","lat":"30.71086","category":"119","category_name":"商场","address":""},{"poiid":"B2094655D268A6FB4793","title":"上海市金山区海滨体育场(北门)","lon":"121.34217","lat":"30.7074","category":"224","category_name":"综合体育馆","address":"合浦路147"},{"poiid":"B2094757D164ABFC419F","title":"海滨皇家金煦大酒店","lon":"121.344125","lat":"30.704996","category":"217","category_name":"旅馆招待所","address":"上海金山新城路1号"},{"poiid":"B2094757D66EA4F5499C","title":"金山嘴海鲜","lon":"121.34378534","lat":"30.705143332","category":"500","category_name":"未知分类","address":"上海金山嘴"},{"poiid":"B2094757D16DAAFB499E","title":"金山区教师进修学院","lon":"121.345139645","lat":"30.7129103158","category":"253","category_name":"校园生活","address":"柳城路280号"},{"poiid":"B2094655D268A6FB489A","title":"滨海公园(西门)","lon":"121.34426","lat":"30.70659","category":"680","category_name":"楼宇机构","address":"新城路16"},{"poiid":"B2094654DB69A0FE429A","title":"良友金伴便利连锁NO.457","lon":"121.34357","lat":"30.70852","category":"117","category_name":"便民商店/便利店","address":"新城路77"},{"poiid":"B2094654DB69A0FC4192","title":"北随塘河路商业街","lon":"121.34066","lat":"30.71186","category":"116","category_name":"特色商业街","address":""},{"poiid":"B2094654DB69A1F5419B","title":"青年游乐场","lon":"121.34601","lat":"30.71086","category":"195","category_name":"游乐场","address":"象州路"},{"poiid":"B2094655D26FAAFD4899","title":"十村小区(三号门)","lon":"121.35108","lat":"30.71261","category":"47","category_name":"住宅区","address":""}]