[{"poiid":"B2094654D564ABF5429B","title":"上海市第一妇婴保健院门诊部","lon":"121.45657","lat":"31.22004","category":"162","category_name":"医院","address":"上海徐汇区长乐路536号(近襄阳北路)"},{"poiid":"B2094655D26AABFF429D","title":"食道园","lon":"121.453704054","lat":"31.218146793","category":"95","category_name":"日本料理","address":"卢湾区长乐路433号(近襄阳北路)"},{"poiid":"B2094753DA6FA7FE4292","title":"赵小姐不等位","lon":"121.454994","lat":"31.219198","category":"500","category_name":"未知分类","address":"上海市 长乐路628号"},{"poiid":"B2094753D76FAAFA449C","title":"上海滩国泰旗舰店","lon":"121.466011","lat":"31.216125","category":"249","category_name":"购物服务","address":"淮海中路868号"},{"poiid":"B209475CD564A7F84292","title":"上海滩新天地店","lon":"121.47463","lat":"31.22164","category":"119","category_name":"商场","address":"\"太仓路181弄新天地北里15号\r\n\""},{"poiid":"B209475CD564A7F8439E","title":"上海滩中信泰富店","lon":"121.45602","lat":"31.22851","category":"119","category_name":"商场","address":"\"南京西路1168号中信泰富广场，店铺号221.\r\n\""},{"poiid":"B2094750D56EA5FF4299","title":"新斗记","lon":"121.454566","lat":"31.21754","category":"72","category_name":"广东菜","address":"徐汇区新乐路47号(近襄阳北路)"},{"poiid":"B2094655D26AA1F5419C","title":"首席公馆","lon":"121.45526","lat":"31.21793","category":"247","category_name":"餐饮美食","address":"徐汇区新乐路82号(近襄阳北路)"},{"poiid":"B2094757D06FA7FA4099","title":"藏乐坊(长乐路店)","lon":"121.45664","lat":"31.21979","category":"72","category_name":"广东菜","address":"徐汇区长乐路333号(近陕西南路或襄阳北路)"},{"poiid":"B2094757DB68A7FE489D","title":"上海市第一妇婴保健院","lon":"121.45662","lat":"31.22003","category":"68","category_name":"快餐厅","address":"徐汇区长乐路536号(近襄阳北路)"},{"poiid":"B2094757D06FAAF94298","title":"Le Saleya","lon":"121.4557","lat":"31.21946","category":"94","category_name":"西餐厅","address":"徐汇区长乐路570弄1号(近襄阳北路)"},{"poiid":"B2094750D66CABFE4592","title":"兰心大剧院","lon":"121.45774","lat":"31.219259","category":"248","category_name":"生活娱乐","address":"茂名南路57号"},{"poiid":"B2094752D06CA0FE4793","title":"海面馆","lon":"121.4565","lat":"31.219706","category":"247","category_name":"餐饮美食","address":"长乐路333号"},{"poiid":"B2094757D06FA1F44198","title":"博多新记(新乐路店)","lon":"121.45502","lat":"31.21728","category":"72","category_name":"广东菜","address":"徐汇区新乐路90号(近襄阳北路)"},{"poiid":"B2094654DA6EA2FB459A","title":"爱美高大厦","lon":"121.456","lat":"31.2186","category":"46","category_name":"楼宇","address":"越秀区广州沿江中路298号"},{"poiid":"B2094757D06EABF5449F","title":"FOSSETTE 酒窝","lon":"121.45537031","lat":"31.218434844","category":"94","category_name":"西餐厅","address":"徐汇区襄阳北路93号-3(近新乐路)"},{"poiid":"B2094757D068A2FD479B","title":"邮电医院","lon":"121.453616","lat":"31.218576733","category":"162","category_name":"医院","address":"上海徐汇区长乐路666号(近襄阳路)"},{"poiid":"B2094757D068A7FF459A","title":"J&amp;Eleven 型人坊","lon":"121.457576","lat":"31.217483403","category":"148","category_name":"美容美发店","address":"上海新乐路11号"},{"poiid":"B2094654D564ABF54893","title":"葡萄园(新乐路)","lon":"121.45533","lat":"31.21751","category":"76","category_name":"上海菜","address":"徐汇区新乐路55号(近襄阳北路)"},{"poiid":"B2094655D264A0F5439F","title":"上海市第一妇婴保健院贵宾门诊","lon":"121.45587","lat":"31.21997","category":"162","category_name":"医院","address":"长乐路560"},{"poiid":"B2094757D56CA4FA429E","title":"星巴克 东方巴黎店 Starbucks Cafe","lon":"121.46096356062","lat":"31.215774641273","category":"247","category_name":"餐饮美食","address":"南昌路559号"},{"poiid":"B2094655D26FABFF429A","title":"Garden Books","lon":"121.4574","lat":"31.21998","category":"65","category_name":"咖啡厅","address":"长乐路325"},{"poiid":"B2094757D16BA1FF4199","title":"绝口老弄堂爆鱼面馆","lon":"121.45657973","lat":"31.219079062","category":"68","category_name":"快餐厅","address":"卢湾区陕西南路63弄1号(近淮海路)"},{"poiid":"B2094655D36DA1F4479C","title":"襄阳北路长乐路","lon":"121.45542","lat":"31.21831","category":"38","category_name":"公交车站","address":""},{"poiid":"B2094757D568AAFF4199","title":"Southern Belle","lon":"121.454345","lat":"31.21859111","category":"260","category_name":"其他","address":"卢湾区长乐路433号(近襄阳北路)"},{"poiid":"B2094757D068A6FC4398","title":"永隆港式茶餐厅","lon":"121.45623","lat":"31.21676","category":"72","category_name":"广东菜","address":"徐汇区襄阳北路100号(近襄阳公园)"},{"poiid":"B2094757D069A6F8499A","title":"酒池星座(新乐路店)","lon":"121.45520224","lat":"31.217771601","category":"260","category_name":"其他","address":"徐汇区新乐路86号(近襄阳北路)"},{"poiid":"B2094757D068A1FF4293","title":"鸡大牌 陕西南路店","lon":"121.457501","lat":"31.220225","category":"68","category_name":"快餐厅","address":"卢湾区陕西南路162号"},{"poiid":"B2094654DA6DAAFB4298","title":"云海大厦","lon":"121.456","lat":"31.2181","category":"46","category_name":"楼宇","address":"浦东新区金湘路225弄"},{"poiid":"B2094757D06FABF5419C","title":"韬奋西文书局","lon":"121.45547361","lat":"31.219961281","category":"125","category_name":"书店","address":"上海卢湾区长乐路325号(近陕西南路)"},{"poiid":"B2094757D068ABFC4192","title":"Wine &amp; Tapas","lon":"121.456431081","lat":"31.2197908079","category":"94","category_name":"西餐厅","address":"上海徐汇区长乐路333号(近陕西南路)"},{"poiid":"B2094654DA6DAAFA469A","title":"启华大厦","lon":"121.455","lat":"31.2171","category":"46","category_name":"楼宇","address":"闸北区江场西路38号(近共和新路)"},{"poiid":"B2094655D36CA3FA429D","title":"3.Top Restaurant & Bar","lon":"121.45618","lat":"31.2178","category":"260","category_name":"其他","address":"徐汇区新乐路47号(近襄阳路)"},{"poiid":"B2094757D16DA2F4469F","title":"莹七","lon":"121.454920738","lat":"31.2175930308","category":"247","category_name":"餐饮美食","address":"上海市静安区巨鹿路"},{"poiid":"B2094757D06FA4FD4599","title":"94路终点站","lon":"121.45541827","lat":"31.218314632","category":"38","category_name":"公交车站","address":"上海襄阳北路(近新乐路)"},{"poiid":"B2094757D16DA6FF4498","title":"ICC环茂广场","lon":"121.455246738","lat":"31.2172880243","category":"500","category_name":"未知分类","address":"上海淮海中路999号"},{"poiid":"B2094750D76EA1FA489A","title":"襄阳壹号","lon":"121.455","lat":"31.2207","category":"76","category_name":"上海菜","address":"静安区襄阳北路1号(近巨鹿路)"},{"poiid":"B2094757D069A4FC439C","title":"祖冲之路科苑路(张江高科地铁站)站","lon":"121.45736536","lat":"31.220134127","category":"36","category_name":"地铁站","address":"上海祖冲之路(161,188,609,636,778,桥六,桥五,东川,塘川,张江有轨,张江环,张南)"},{"poiid":"B2094757D068AAFB469B","title":"武当功夫牛肉面","lon":"121.45644273","lat":"31.218805056","category":"257","category_name":"中餐厅","address":"徐汇区襄阳北路100号(淮海路新乐路间)"},{"poiid":"B2094757D665A2F44198","title":"穗寿司","lon":"121.455256","lat":"31.219569","category":"95","category_name":"日本料理","address":"徐汇区长乐路427号(近襄阳北路)"},{"poiid":"B2094757D069A5F5459C","title":"艾维庭美容身心会馆(襄北店)","lon":"121.454983383","lat":"31.2194469938","category":"148","category_name":"美容美发店","address":"上海静安区襄阳北路55号1-4楼(近长乐路)"},{"poiid":"B2094757D164ABFE4998","title":"锦仓文华大酒店","lon":"121.454800238","lat":"31.2205295934","category":"500","category_name":"未知分类","address":"上海南京西路1225号"},{"poiid":"B2094757D06BA3FB499A","title":"康骏会馆(巨鹿路店)","lon":"121.45502471","lat":"31.218477249","category":"149","category_name":"洗浴推拿场所","address":"静安区巨鹿路768号巨富大厦2楼(近富民路)"},{"poiid":"B2094757D064A0FF4292","title":"Bar. Constellation NO.1","lon":"121.45455058","lat":"31.21742718","category":"172","category_name":"酒吧","address":"上海徐汇区新乐路86号"},{"poiid":"B2094751D46BA3FB429F","title":"质馆咖啡茂名路店","lon":"121.456627","lat":"31.219475","category":"247","category_name":"餐饮美食","address":"上海市茂名南路131弄1号乙"},{"poiid":"B2094757D66BA1F4409C","title":"好古 1931 Restaurant","lon":"121.46187173592","lat":"31.21589239643","category":"76","category_name":"上海菜","address":"卢湾区茂名南路112号(近南昌路)"},{"poiid":"B2094655D26EA5F9419D","title":"La perla冰淇淋(长乐路店)","lon":"121.45724","lat":"31.21984","category":"113","category_name":"冷饮店","address":"卢湾区长乐路325号外文书店内(近陕西南路)"},{"poiid":"B2094757D068AAF4439C","title":"承承","lon":"121.45421","lat":"31.21703","category":"68","category_name":"快餐厅","address":"徐汇区新乐路145号(东湖路新乐路)"},{"poiid":"B2094757D169A4FC449C","title":"Room","lon":"121.45444673","lat":"31.220689096","category":"500","category_name":"未知分类","address":"上海襄阳北路1号2楼"},{"poiid":"B2094654DB6BA6FC449E","title":"大大旺特色馄饨 长乐路","lon":"121.45457953245","lat":"31.218611440753","category":"68","category_name":"快餐厅","address":"卢湾区长乐路409号(近襄阳北路)"},{"poiid":"B2094654D564ABF5429B","title":"上海市第一妇婴保健院门诊部","lon":"121.45657","lat":"31.22004","category":"162","category_name":"医院","address":"上海徐汇区长乐路536号(近襄阳北路)"},{"poiid":"B2094655D26AABFF429D","title":"食道园","lon":"121.453704054","lat":"31.218146793","category":"95","category_name":"日本料理","address":"卢湾区长乐路433号(近襄阳北路)"},{"poiid":"B2094753DA6FA7FE4292","title":"赵小姐不等位","lon":"121.454994","lat":"31.219198","category":"500","category_name":"未知分类","address":"上海市 长乐路628号"},{"poiid":"B2094753D76FAAFA449C","title":"上海滩国泰旗舰店","lon":"121.466011","lat":"31.216125","category":"249","category_name":"购物服务","address":"淮海中路868号"},{"poiid":"B209475CD564A7F84292","title":"上海滩新天地店","lon":"121.47463","lat":"31.22164","category":"119","category_name":"商场","address":"\"太仓路181弄新天地北里15号\r\n\""},{"poiid":"B209475CD564A7F8439E","title":"上海滩中信泰富店","lon":"121.45602","lat":"31.22851","category":"119","category_name":"商场","address":"\"南京西路1168号中信泰富广场，店铺号221.\r\n\""},{"poiid":"B2094750D56EA5FF4299","title":"新斗记","lon":"121.454566","lat":"31.21754","category":"72","category_name":"广东菜","address":"徐汇区新乐路47号(近襄阳北路)"},{"poiid":"B2094655D26AA1F5419C","title":"首席公馆","lon":"121.45526","lat":"31.21793","category":"247","category_name":"餐饮美食","address":"徐汇区新乐路82号(近襄阳北路)"},{"poiid":"B2094757D06FA7FA4099","title":"藏乐坊(长乐路店)","lon":"121.45664","lat":"31.21979","category":"72","category_name":"广东菜","address":"徐汇区长乐路333号(近陕西南路或襄阳北路)"},{"poiid":"B2094757DB68A7FE489D","title":"上海市第一妇婴保健院","lon":"121.45662","lat":"31.22003","category":"68","category_name":"快餐厅","address":"徐汇区长乐路536号(近襄阳北路)"},{"poiid":"B2094757D06FAAF94298","title":"Le Saleya","lon":"121.4557","lat":"31.21946","category":"94","category_name":"西餐厅","address":"徐汇区长乐路570弄1号(近襄阳北路)"},{"poiid":"B2094750D66CABFE4592","title":"兰心大剧院","lon":"121.45774","lat":"31.219259","category":"248","category_name":"生活娱乐","address":"茂名南路57号"},{"poiid":"B2094752D06CA0FE4793","title":"海面馆","lon":"121.4565","lat":"31.219706","category":"247","category_name":"餐饮美食","address":"长乐路333号"},{"poiid":"B2094757D06FA1F44198","title":"博多新记(新乐路店)","lon":"121.45502","lat":"31.21728","category":"72","category_name":"广东菜","address":"徐汇区新乐路90号(近襄阳北路)"},{"poiid":"B2094654DA6EA2FB459A","title":"爱美高大厦","lon":"121.456","lat":"31.2186","category":"46","category_name":"楼宇","address":"越秀区广州沿江中路298号"},{"poiid":"B2094757D06EABF5449F","title":"FOSSETTE 酒窝","lon":"121.45537031","lat":"31.218434844","category":"94","category_name":"西餐厅","address":"徐汇区襄阳北路93号-3(近新乐路)"},{"poiid":"B2094757D068A2FD479B","title":"邮电医院","lon":"121.453616","lat":"31.218576733","category":"162","category_name":"医院","address":"上海徐汇区长乐路666号(近襄阳路)"},{"poiid":"B2094757D068A7FF459A","title":"J&amp;Eleven 型人坊","lon":"121.457576","lat":"31.217483403","category":"148","category_name":"美容美发店","address":"上海新乐路11号"},{"poiid":"B2094654D564ABF54893","title":"葡萄园(新乐路)","lon":"121.45533","lat":"31.21751","category":"76","category_name":"上海菜","address":"徐汇区新乐路55号(近襄阳北路)"},{"poiid":"B2094655D264A0F5439F","title":"上海市第一妇婴保健院贵宾门诊","lon":"121.45587","lat":"31.21997","category":"162","category_name":"医院","address":"长乐路560"},{"poiid":"B2094757D56CA4FA429E","title":"星巴克 东方巴黎店 Starbucks Cafe","lon":"121.46096356062","lat":"31.215774641273","category":"247","category_name":"餐饮美食","address":"南昌路559号"},{"poiid":"B2094655D26FABFF429A","title":"Garden Books","lon":"121.4574","lat":"31.21998","category":"65","category_name":"咖啡厅","address":"长乐路325"},{"poiid":"B2094757D16BA1FF4199","title":"绝口老弄堂爆鱼面馆","lon":"121.45657973","lat":"31.219079062","category":"68","category_name":"快餐厅","address":"卢湾区陕西南路63弄1号(近淮海路)"},{"poiid":"B2094655D36DA1F4479C","title":"襄阳北路长乐路","lon":"121.45542","lat":"31.21831","category":"38","category_name":"公交车站","address":""},{"poiid":"B2094757D568AAFF4199","title":"Southern Belle","lon":"121.454345","lat":"31.21859111","category":"260","category_name":"其他","address":"卢湾区长乐路433号(近襄阳北路)"},{"poiid":"B2094757D068A6FC4398","title":"永隆港式茶餐厅","lon":"121.45623","lat":"31.21676","category":"72","category_name":"广东菜","address":"徐汇区襄阳北路100号(近襄阳公园)"},{"poiid":"B2094757D069A6F8499A","title":"酒池星座(新乐路店)","lon":"121.45520224","lat":"31.217771601","category":"260","category_name":"其他","address":"徐汇区新乐路86号(近襄阳北路)"},{"poiid":"B2094757D068A1FF4293","title":"鸡大牌 陕西南路店","lon":"121.457501","lat":"31.220225","category":"68","category_name":"快餐厅","address":"卢湾区陕西南路162号"},{"poiid":"B2094654DA6DAAFB4298","title":"云海大厦","lon":"121.456","lat":"31.2181","category":"46","category_name":"楼宇","address":"浦东新区金湘路225弄"},{"poiid":"B2094757D06FABF5419C","title":"韬奋西文书局","lon":"121.45547361","lat":"31.219961281","category":"125","category_name":"书店","address":"上海卢湾区长乐路325号(近陕西南路)"},{"poiid":"B2094757D068ABFC4192","title":"Wine &amp; Tapas","lon":"121.456431081","lat":"31.2197908079","category":"94","category_name":"西餐厅","address":"上海徐汇区长乐路333号(近陕西南路)"},{"poiid":"B2094654DA6DAAFA469A","title":"启华大厦","lon":"121.455","lat":"31.2171","category":"46","category_name":"楼宇","address":"闸北区江场西路38号(近共和新路)"},{"poiid":"B2094655D36CA3FA429D","title":"3.Top Restaurant & Bar","lon":"121.45618","lat":"31.2178","category":"260","category_name":"其他","address":"徐汇区新乐路47号(近襄阳路)"},{"poiid":"B2094757D16DA2F4469F","title":"莹七","lon":"121.454920738","lat":"31.2175930308","category":"247","category_name":"餐饮美食","address":"上海市静安区巨鹿路"},{"poiid":"B2094757D06FA4FD4599","title":"94路终点站","lon":"121.45541827","lat":"31.218314632","category":"38","category_name":"公交车站","address":"上海襄阳北路(近新乐路)"},{"poiid":"B2094757D16DA6FF4498","title":"ICC环茂广场","lon":"121.455246738","lat":"31.2172880243","category":"500","category_name":"未知分类","address":"上海淮海中路999号"},{"poiid":"B2094750D76EA1FA489A","title":"襄阳壹号","lon":"121.455","lat":"31.2207","category":"76","category_name":"上海菜","address":"静安区襄阳北路1号(近巨鹿路)"},{"poiid":"B2094757D069A4FC439C","title":"祖冲之路科苑路(张江高科地铁站)站","lon":"121.45736536","lat":"31.220134127","category":"36","category_name":"地铁站","address":"上海祖冲之路(161,188,609,636,778,桥六,桥五,东川,塘川,张江有轨,张江环,张南)"},{"poiid":"B2094757D068AAFB469B","title":"武当功夫牛肉面","lon":"121.45644273","lat":"31.218805056","category":"257","category_name":"中餐厅","address":"徐汇区襄阳北路100号(淮海路新乐路间)"},{"poiid":"B2094757D665A2F44198","title":"穗寿司","lon":"121.455256","lat":"31.219569","category":"95","category_name":"日本料理","address":"徐汇区长乐路427号(近襄阳北路)"},{"poiid":"B2094757D069A5F5459C","title":"艾维庭美容身心会馆(襄北店)","lon":"121.454983383","lat":"31.2194469938","category":"148","category_name":"美容美发店","address":"上海静安区襄阳北路55号1-4楼(近长乐路)"},{"poiid":"B2094757D164ABFE4998","title":"锦仓文华大酒店","lon":"121.454800238","lat":"31.2205295934","category":"500","category_name":"未知分类","address":"上海南京西路1225号"},{"poiid":"B2094757D06BA3FB499A","title":"康骏会馆(巨鹿路店)","lon":"121.45502471","lat":"31.218477249","category":"149","category_name":"洗浴推拿场所","address":"静安区巨鹿路768号巨富大厦2楼(近富民路)"},{"poiid":"B2094757D064A0FF4292","title":"Bar. Constellation NO.1","lon":"121.45455058","lat":"31.21742718","category":"172","category_name":"酒吧","address":"上海徐汇区新乐路86号"},{"poiid":"B2094751D46BA3FB429F","title":"质馆咖啡茂名路店","lon":"121.456627","lat":"31.219475","category":"247","category_name":"餐饮美食","address":"上海市茂名南路131弄1号乙"},{"poiid":"B2094757D66BA1F4409C","title":"好古 1931 Restaurant","lon":"121.46187173592","lat":"31.21589239643","category":"76","category_name":"上海菜","address":"卢湾区茂名南路112号(近南昌路)"},{"poiid":"B2094655D26EA5F9419D","title":"La perla冰淇淋(长乐路店)","lon":"121.45724","lat":"31.21984","category":"113","category_name":"冷饮店","address":"卢湾区长乐路325号外文书店内(近陕西南路)"},{"poiid":"B2094757D068AAF4439C","title":"承承","lon":"121.45421","lat":"31.21703","category":"68","category_name":"快餐厅","address":"徐汇区新乐路145号(东湖路新乐路)"},{"poiid":"B2094757D169A4FC449C","title":"Room","lon":"121.45444673","lat":"31.220689096","category":"500","category_name":"未知分类","address":"上海襄阳北路1号2楼"},{"poiid":"B2094654DB6BA6FC449E","title":"大大旺特色馄饨 长乐路","lon":"121.45457953245","lat":"31.218611440753","category":"68","category_name":"快餐厅","address":"卢湾区长乐路409号(近襄阳北路)"},{"poiid":"B2094654D564ABF5429B","title":"上海市第一妇婴保健院门诊部","lon":"121.45657","lat":"31.22004","category":"162","category_name":"医院","address":"上海徐汇区长乐路536号(近襄阳北路)"},{"poiid":"B2094655D26AABFF429D","title":"食道园","lon":"121.453704054","lat":"31.218146793","category":"95","category_name":"日本料理","address":"卢湾区长乐路433号(近襄阳北路)"},{"poiid":"B2094753DA6FA7FE4292","title":"赵小姐不等位","lon":"121.454994","lat":"31.219198","category":"500","category_name":"未知分类","address":"上海市 长乐路628号"},{"poiid":"B2094753D76FAAFA449C","title":"上海滩国泰旗舰店","lon":"121.466011","lat":"31.216125","category":"249","category_name":"购物服务","address":"淮海中路868号"},{"poiid":"B209475CD564A7F84292","title":"上海滩新天地店","lon":"121.47463","lat":"31.22164","category":"119","category_name":"商场","address":"\"太仓路181弄新天地北里15号\r\n\""},{"poiid":"B209475CD564A7F8439E","title":"上海滩中信泰富店","lon":"121.45602","lat":"31.22851","category":"119","category_name":"商场","address":"\"南京西路1168号中信泰富广场，店铺号221.\r\n\""},{"poiid":"B2094750D56EA5FF4299","title":"新斗记","lon":"121.454566","lat":"31.21754","category":"72","category_name":"广东菜","address":"徐汇区新乐路47号(近襄阳北路)"},{"poiid":"B2094655D26AA1F5419C","title":"首席公馆","lon":"121.45526","lat":"31.21793","category":"247","category_name":"餐饮美食","address":"徐汇区新乐路82号(近襄阳北路)"},{"poiid":"B2094757D06FA7FA4099","title":"藏乐坊(长乐路店)","lon":"121.45664","lat":"31.21979","category":"72","category_name":"广东菜","address":"徐汇区长乐路333号(近陕西南路或襄阳北路)"},{"poiid":"B2094757DB68A7FE489D","title":"上海市第一妇婴保健院","lon":"121.45662","lat":"31.22003","category":"68","category_name":"快餐厅","address":"徐汇区长乐路536号(近襄阳北路)"},{"poiid":"B2094757D06FAAF94298","title":"Le Saleya","lon":"121.4557","lat":"31.21946","category":"94","category_name":"西餐厅","address":"徐汇区长乐路570弄1号(近襄阳北路)"},{"poiid":"B2094750D66CABFE4592","title":"兰心大剧院","lon":"121.45774","lat":"31.219259","category":"248","category_name":"生活娱乐","address":"茂名南路57号"},{"poiid":"B2094752D06CA0FE4793","title":"海面馆","lon":"121.4565","lat":"31.219706","category":"247","category_name":"餐饮美食","address":"长乐路333号"},{"poiid":"B2094757D06FA1F44198","title":"博多新记(新乐路店)","lon":"121.45502","lat":"31.21728","category":"72","category_name":"广东菜","address":"徐汇区新乐路90号(近襄阳北路)"},{"poiid":"B2094654DA6EA2FB459A","title":"爱美高大厦","lon":"121.456","lat":"31.2186","category":"46","category_name":"楼宇","address":"越秀区广州沿江中路298号"},{"poiid":"B2094757D06EABF5449F","title":"FOSSETTE 酒窝","lon":"121.45537031","lat":"31.218434844","category":"94","category_name":"西餐厅","address":"徐汇区襄阳北路93号-3(近新乐路)"},{"poiid":"B2094757D068A2FD479B","title":"邮电医院","lon":"121.453616","lat":"31.218576733","category":"162","category_name":"医院","address":"上海徐汇区长乐路666号(近襄阳路)"},{"poiid":"B2094757D068A7FF459A","title":"J&amp;Eleven 型人坊","lon":"121.457576","lat":"31.217483403","category":"148","category_name":"美容美发店","address":"上海新乐路11号"},{"poiid":"B2094654D564ABF54893","title":"葡萄园(新乐路)","lon":"121.45533","lat":"31.21751","category":"76","category_name":"上海菜","address":"徐汇区新乐路55号(近襄阳北路)"},{"poiid":"B2094655D264A0F5439F","title":"上海市第一妇婴保健院贵宾门诊","lon":"121.45587","lat":"31.21997","category":"162","category_name":"医院","address":"长乐路560"},{"poiid":"B2094757D56CA4FA429E","title":"星巴克 东方巴黎店 Starbucks Cafe","lon":"121.46096356062","lat":"31.215774641273","category":"247","category_name":"餐饮美食","address":"南昌路559号"},{"poiid":"B2094655D26FABFF429A","title":"Garden Books","lon":"121.4574","lat":"31.21998","category":"65","category_name":"咖啡厅","address":"长乐路325"},{"poiid":"B2094757D16BA1FF4199","title":"绝口老弄堂爆鱼面馆","lon":"121.45657973","lat":"31.219079062","category":"68","category_name":"快餐厅","address":"卢湾区陕西南路63弄1号(近淮海路)"},{"poiid":"B2094655D36DA1F4479C","title":"襄阳北路长乐路","lon":"121.45542","lat":"31.21831","category":"38","category_name":"公交车站","address":""},{"poiid":"B2094757D568AAFF4199","title":"Southern Belle","lon":"121.454345","lat":"31.21859111","category":"260","category_name":"其他","address":"卢湾区长乐路433号(近襄阳北路)"},{"poiid":"B2094757D068A6FC4398","title":"永隆港式茶餐厅","lon":"121.45623","lat":"31.21676","category":"72","category_name":"广东菜","address":"徐汇区襄阳北路100号(近襄阳公园)"},{"poiid":"B2094757D069A6F8499A","title":"酒池星座(新乐路店)","lon":"121.45520224","lat":"31.217771601","category":"260","category_name":"其他","address":"徐汇区新乐路86号(近襄阳北路)"},{"poiid":"B2094757D068A1FF4293","title":"鸡大牌 陕西南路店","lon":"121.457501","lat":"31.220225","category":"68","category_name":"快餐厅","address":"卢湾区陕西南路162号"},{"poiid":"B2094654DA6DAAFB4298","title":"云海大厦","lon":"121.456","lat":"31.2181","category":"46","category_name":"楼宇","address":"浦东新区金湘路225弄"},{"poiid":"B2094757D06FABF5419C","title":"韬奋西文书局","lon":"121.45547361","lat":"31.219961281","category":"125","category_name":"书店","address":"上海卢湾区长乐路325号(近陕西南路)"},{"poiid":"B2094757D068ABFC4192","title":"Wine &amp; Tapas","lon":"121.456431081","lat":"31.2197908079","category":"94","category_name":"西餐厅","address":"上海徐汇区长乐路333号(近陕西南路)"},{"poiid":"B2094654DA6DAAFA469A","title":"启华大厦","lon":"121.455","lat":"31.2171","category":"46","category_name":"楼宇","address":"闸北区江场西路38号(近共和新路)"},{"poiid":"B2094655D36CA3FA429D","title":"3.Top Restaurant & Bar","lon":"121.45618","lat":"31.2178","category":"260","category_name":"其他","address":"徐汇区新乐路47号(近襄阳路)"},{"poiid":"B2094757D16DA2F4469F","title":"莹七","lon":"121.454920738","lat":"31.2175930308","category":"247","category_name":"餐饮美食","address":"上海市静安区巨鹿路"},{"poiid":"B2094757D06FA4FD4599","title":"94路终点站","lon":"121.45541827","lat":"31.218314632","category":"38","category_name":"公交车站","address":"上海襄阳北路(近新乐路)"},{"poiid":"B2094757D16DA6FF4498","title":"ICC环茂广场","lon":"121.455246738","lat":"31.2172880243","category":"500","category_name":"未知分类","address":"上海淮海中路999号"},{"poiid":"B2094750D76EA1FA489A","title":"襄阳壹号","lon":"121.455","lat":"31.2207","category":"76","category_name":"上海菜","address":"静安区襄阳北路1号(近巨鹿路)"},{"poiid":"B2094757D069A4FC439C","title":"祖冲之路科苑路(张江高科地铁站)站","lon":"121.45736536","lat":"31.220134127","category":"36","category_name":"地铁站","address":"上海祖冲之路(161,188,609,636,778,桥六,桥五,东川,塘川,张江有轨,张江环,张南)"},{"poiid":"B2094757D068AAFB469B","title":"武当功夫牛肉面","lon":"121.45644273","lat":"31.218805056","category":"257","category_name":"中餐厅","address":"徐汇区襄阳北路100号(淮海路新乐路间)"},{"poiid":"B2094757D665A2F44198","title":"穗寿司","lon":"121.455256","lat":"31.219569","category":"95","category_name":"日本料理","address":"徐汇区长乐路427号(近襄阳北路)"},{"poiid":"B2094757D069A5F5459C","title":"艾维庭美容身心会馆(襄北店)","lon":"121.454983383","lat":"31.2194469938","category":"148","category_name":"美容美发店","address":"上海静安区襄阳北路55号1-4楼(近长乐路)"},{"poiid":"B2094757D164ABFE4998","title":"锦仓文华大酒店","lon":"121.454800238","lat":"31.2205295934","category":"500","category_name":"未知分类","address":"上海南京西路1225号"},{"poiid":"B2094757D06BA3FB499A","title":"康骏会馆(巨鹿路店)","lon":"121.45502471","lat":"31.218477249","category":"149","category_name":"洗浴推拿场所","address":"静安区巨鹿路768号巨富大厦2楼(近富民路)"},{"poiid":"B2094757D064A0FF4292","title":"Bar. Constellation NO.1","lon":"121.45455058","lat":"31.21742718","category":"172","category_name":"酒吧","address":"上海徐汇区新乐路86号"},{"poiid":"B2094751D46BA3FB429F","title":"质馆咖啡茂名路店","lon":"121.456627","lat":"31.219475","category":"247","category_name":"餐饮美食","address":"上海市茂名南路131弄1号乙"},{"poiid":"B2094757D66BA1F4409C","title":"好古 1931 Restaurant","lon":"121.46187173592","lat":"31.21589239643","category":"76","category_name":"上海菜","address":"卢湾区茂名南路112号(近南昌路)"},{"poiid":"B2094655D26EA5F9419D","title":"La perla冰淇淋(长乐路店)","lon":"121.45724","lat":"31.21984","category":"113","category_name":"冷饮店","address":"卢湾区长乐路325号外文书店内(近陕西南路)"},{"poiid":"B2094757D068AAF4439C","title":"承承","lon":"121.45421","lat":"31.21703","category":"68","category_name":"快餐厅","address":"徐汇区新乐路145号(东湖路新乐路)"},{"poiid":"B2094757D169A4FC449C","title":"Room","lon":"121.45444673","lat":"31.220689096","category":"500","category_name":"未知分类","address":"上海襄阳北路1号2楼"},{"poiid":"B2094654DB6BA6FC449E","title":"大大旺特色馄饨 长乐路","lon":"121.45457953245","lat":"31.218611440753","category":"68","category_name":"快餐厅","address":"卢湾区长乐路409号(近襄阳北路)"},{"poiid":"B2094654D564ABF5429B","title":"上海市第一妇婴保健院门诊部","lon":"121.45657","lat":"31.22004","category":"162","category_name":"医院","address":"上海徐汇区长乐路536号(近襄阳北路)"},{"poiid":"B2094655D26AABFF429D","title":"食道园","lon":"121.453704054","lat":"31.218146793","category":"95","category_name":"日本料理","address":"卢湾区长乐路433号(近襄阳北路)"},{"poiid":"B2094753DA6FA7FE4292","title":"赵小姐不等位","lon":"121.454994","lat":"31.219198","category":"500","category_name":"未知分类","address":"上海市 长乐路628号"},{"poiid":"B2094753D76FAAFA449C","title":"上海滩国泰旗舰店","lon":"121.466011","lat":"31.216125","category":"249","category_name":"购物服务","address":"淮海中路868号"},{"poiid":"B209475CD564A7F84292","title":"上海滩新天地店","lon":"121.47463","lat":"31.22164","category":"119","category_name":"商场","address":"\"太仓路181弄新天地北里15号\r\n\""},{"poiid":"B209475CD564A7F8439E","title":"上海滩中信泰富店","lon":"121.45602","lat":"31.22851","category":"119","category_name":"商场","address":"\"南京西路1168号中信泰富广场，店铺号221.\r\n\""},{"poiid":"B2094750D56EA5FF4299","title":"新斗记","lon":"121.454566","lat":"31.21754","category":"72","category_name":"广东菜","address":"徐汇区新乐路47号(近襄阳北路)"},{"poiid":"B2094655D26AA1F5419C","title":"首席公馆","lon":"121.45526","lat":"31.21793","category":"247","category_name":"餐饮美食","address":"徐汇区新乐路82号(近襄阳北路)"},{"poiid":"B2094757D06FA7FA4099","title":"藏乐坊(长乐路店)","lon":"121.45664","lat":"31.21979","category":"72","category_name":"广东菜","address":"徐汇区长乐路333号(近陕西南路或襄阳北路)"},{"poiid":"B2094757DB68A7FE489D","title":"上海市第一妇婴保健院","lon":"121.45662","lat":"31.22003","category":"68","category_name":"快餐厅","address":"徐汇区长乐路536号(近襄阳北路)"},{"poiid":"B2094757D06FAAF94298","title":"Le Saleya","lon":"121.4557","lat":"31.21946","category":"94","category_name":"西餐厅","address":"徐汇区长乐路570弄1号(近襄阳北路)"},{"poiid":"B2094750D66CABFE4592","title":"兰心大剧院","lon":"121.45774","lat":"31.219259","category":"248","category_name":"生活娱乐","address":"茂名南路57号"},{"poiid":"B2094752D06CA0FE4793","title":"海面馆","lon":"121.4565","lat":"31.219706","category":"247","category_name":"餐饮美食","address":"长乐路333号"},{"poiid":"B2094757D06FA1F44198","title":"博多新记(新乐路店)","lon":"121.45502","lat":"31.21728","category":"72","category_name":"广东菜","address":"徐汇区新乐路90号(近襄阳北路)"},{"poiid":"B2094654DA6EA2FB459A","title":"爱美高大厦","lon":"121.456","lat":"31.2186","category":"46","category_name":"楼宇","address":"越秀区广州沿江中路298号"},{"poiid":"B2094757D06EABF5449F","title":"FOSSETTE 酒窝","lon":"121.45537031","lat":"31.218434844","category":"94","category_name":"西餐厅","address":"徐汇区襄阳北路93号-3(近新乐路)"},{"poiid":"B2094757D068A2FD479B","title":"邮电医院","lon":"121.453616","lat":"31.218576733","category":"162","category_name":"医院","address":"上海徐汇区长乐路666号(近襄阳路)"},{"poiid":"B2094757D068A7FF459A","title":"J&amp;Eleven 型人坊","lon":"121.457576","lat":"31.217483403","category":"148","category_name":"美容美发店","address":"上海新乐路11号"},{"poiid":"B2094654D564ABF54893","title":"葡萄园(新乐路)","lon":"121.45533","lat":"31.21751","category":"76","category_name":"上海菜","address":"徐汇区新乐路55号(近襄阳北路)"},{"poiid":"B2094655D264A0F5439F","title":"上海市第一妇婴保健院贵宾门诊","lon":"121.45587","lat":"31.21997","category":"162","category_name":"医院","address":"长乐路560"},{"poiid":"B2094757D56CA4FA429E","title":"星巴克 东方巴黎店 Starbucks Cafe","lon":"121.46096356062","lat":"31.215774641273","category":"247","category_name":"餐饮美食","address":"南昌路559号"},{"poiid":"B2094655D26FABFF429A","title":"Garden Books","lon":"121.4574","lat":"31.21998","category":"65","category_name":"咖啡厅","address":"长乐路325"},{"poiid":"B2094757D16BA1FF4199","title":"绝口老弄堂爆鱼面馆","lon":"121.45657973","lat":"31.219079062","category":"68","category_name":"快餐厅","address":"卢湾区陕西南路63弄1号(近淮海路)"},{"poiid":"B2094655D36DA1F4479C","title":"襄阳北路长乐路","lon":"121.45542","lat":"31.21831","category":"38","category_name":"公交车站","address":""},{"poiid":"B2094757D568AAFF4199","title":"Southern Belle","lon":"121.454345","lat":"31.21859111","category":"260","category_name":"其他","address":"卢湾区长乐路433号(近襄阳北路)"},{"poiid":"B2094757D068A6FC4398","title":"永隆港式茶餐厅","lon":"121.45623","lat":"31.21676","category":"72","category_name":"广东菜","address":"徐汇区襄阳北路100号(近襄阳公园)"},{"poiid":"B2094757D069A6F8499A","title":"酒池星座(新乐路店)","lon":"121.45520224","lat":"31.217771601","category":"260","category_name":"其他","address":"徐汇区新乐路86号(近襄阳北路)"},{"poiid":"B2094757D068A1FF4293","title":"鸡大牌 陕西南路店","lon":"121.457501","lat":"31.220225","category":"68","category_name":"快餐厅","address":"卢湾区陕西南路162号"},{"poiid":"B2094654DA6DAAFB4298","title":"云海大厦","lon":"121.456","lat":"31.2181","category":"46","category_name":"楼宇","address":"浦东新区金湘路225弄"},{"poiid":"B2094757D06FABF5419C","title":"韬奋西文书局","lon":"121.45547361","lat":"31.219961281","category":"125","category_name":"书店","address":"上海卢湾区长乐路325号(近陕西南路)"},{"poiid":"B2094757D068ABFC4192","title":"Wine &amp; Tapas","lon":"121.456431081","lat":"31.2197908079","category":"94","category_name":"西餐厅","address":"上海徐汇区长乐路333号(近陕西南路)"},{"poiid":"B2094654DA6DAAFA469A","title":"启华大厦","lon":"121.455","lat":"31.2171","category":"46","category_name":"楼宇","address":"闸北区江场西路38号(近共和新路)"},{"poiid":"B2094655D36CA3FA429D","title":"3.Top Restaurant & Bar","lon":"121.45618","lat":"31.2178","category":"260","category_name":"其他","address":"徐汇区新乐路47号(近襄阳路)"},{"poiid":"B2094757D16DA2F4469F","title":"莹七","lon":"121.454920738","lat":"31.2175930308","category":"247","category_name":"餐饮美食","address":"上海市静安区巨鹿路"},{"poiid":"B2094757D06FA4FD4599","title":"94路终点站","lon":"121.45541827","lat":"31.218314632","category":"38","category_name":"公交车站","address":"上海襄阳北路(近新乐路)"},{"poiid":"B2094757D16DA6FF4498","title":"ICC环茂广场","lon":"121.455246738","lat":"31.2172880243","category":"500","category_name":"未知分类","address":"上海淮海中路999号"},{"poiid":"B2094750D76EA1FA489A","title":"襄阳壹号","lon":"121.455","lat":"31.2207","category":"76","category_name":"上海菜","address":"静安区襄阳北路1号(近巨鹿路)"},{"poiid":"B2094757D069A4FC439C","title":"祖冲之路科苑路(张江高科地铁站)站","lon":"121.45736536","lat":"31.220134127","category":"36","category_name":"地铁站","address":"上海祖冲之路(161,188,609,636,778,桥六,桥五,东川,塘川,张江有轨,张江环,张南)"},{"poiid":"B2094757D068AAFB469B","title":"武当功夫牛肉面","lon":"121.45644273","lat":"31.218805056","category":"257","category_name":"中餐厅","address":"徐汇区襄阳北路100号(淮海路新乐路间)"},{"poiid":"B2094757D665A2F44198","title":"穗寿司","lon":"121.455256","lat":"31.219569","category":"95","category_name":"日本料理","address":"徐汇区长乐路427号(近襄阳北路)"},{"poiid":"B2094757D069A5F5459C","title":"艾维庭美容身心会馆(襄北店)","lon":"121.454983383","lat":"31.2194469938","category":"148","category_name":"美容美发店","address":"上海静安区襄阳北路55号1-4楼(近长乐路)"},{"poiid":"B2094757D164ABFE4998","title":"锦仓文华大酒店","lon":"121.454800238","lat":"31.2205295934","category":"500","category_name":"未知分类","address":"上海南京西路1225号"},{"poiid":"B2094757D06BA3FB499A","title":"康骏会馆(巨鹿路店)","lon":"121.45502471","lat":"31.218477249","category":"149","category_name":"洗浴推拿场所","address":"静安区巨鹿路768号巨富大厦2楼(近富民路)"},{"poiid":"B2094757D064A0FF4292","title":"Bar. Constellation NO.1","lon":"121.45455058","lat":"31.21742718","category":"172","category_name":"酒吧","address":"上海徐汇区新乐路86号"},{"poiid":"B2094751D46BA3FB429F","title":"质馆咖啡茂名路店","lon":"121.456627","lat":"31.219475","category":"247","category_name":"餐饮美食","address":"上海市茂名南路131弄1号乙"},{"poiid":"B2094757D66BA1F4409C","title":"好古 1931 Restaurant","lon":"121.46187173592","lat":"31.21589239643","category":"76","category_name":"上海菜","address":"卢湾区茂名南路112号(近南昌路)"},{"poiid":"B2094655D26EA5F9419D","title":"La perla冰淇淋(长乐路店)","lon":"121.45724","lat":"31.21984","category":"113","category_name":"冷饮店","address":"卢湾区长乐路325号外文书店内(近陕西南路)"},{"poiid":"B2094757D068AAF4439C","title":"承承","lon":"121.45421","lat":"31.21703","category":"68","category_name":"快餐厅","address":"徐汇区新乐路145号(东湖路新乐路)"},{"poiid":"B2094757D169A4FC449C","title":"Room","lon":"121.45444673","lat":"31.220689096","category":"500","category_name":"未知分类","address":"上海襄阳北路1号2楼"},{"poiid":"B2094654DB6BA6FC449E","title":"大大旺特色馄饨 长乐路","lon":"121.45457953245","lat":"31.218611440753","category":"68","category_name":"快餐厅","address":"卢湾区长乐路409号(近襄阳北路)"},{"poiid":"B2094654D564ABF5429B","title":"上海市第一妇婴保健院门诊部","lon":"121.45657","lat":"31.22004","category":"162","category_name":"医院","address":"上海徐汇区长乐路536号(近襄阳北路)"},{"poiid":"B2094655D26AABFF429D","title":"食道园","lon":"121.453704054","lat":"31.218146793","category":"95","category_name":"日本料理","address":"卢湾区长乐路433号(近襄阳北路)"},{"poiid":"B2094753DA6FA7FE4292","title":"赵小姐不等位","lon":"121.454994","lat":"31.219198","category":"500","category_name":"未知分类","address":"上海市 长乐路628号"},{"poiid":"B2094753D76FAAFA449C","title":"上海滩国泰旗舰店","lon":"121.466011","lat":"31.216125","category":"249","category_name":"购物服务","address":"淮海中路868号"},{"poiid":"B209475CD564A7F84292","title":"上海滩新天地店","lon":"121.47463","lat":"31.22164","category":"119","category_name":"商场","address":"\"太仓路181弄新天地北里15号\r\n\""},{"poiid":"B209475CD564A7F8439E","title":"上海滩中信泰富店","lon":"121.45602","lat":"31.22851","category":"119","category_name":"商场","address":"\"南京西路1168号中信泰富广场，店铺号221.\r\n\""},{"poiid":"B2094750D56EA5FF4299","title":"新斗记","lon":"121.454566","lat":"31.21754","category":"72","category_name":"广东菜","address":"徐汇区新乐路47号(近襄阳北路)"},{"poiid":"B2094655D26AA1F5419C","title":"首席公馆","lon":"121.45526","lat":"31.21793","category":"247","category_name":"餐饮美食","address":"徐汇区新乐路82号(近襄阳北路)"},{"poiid":"B2094757D06FA7FA4099","title":"藏乐坊(长乐路店)","lon":"121.45664","lat":"31.21979","category":"72","category_name":"广东菜","address":"徐汇区长乐路333号(近陕西南路或襄阳北路)"},{"poiid":"B2094757DB68A7FE489D","title":"上海市第一妇婴保健院","lon":"121.45662","lat":"31.22003","category":"68","category_name":"快餐厅","address":"徐汇区长乐路536号(近襄阳北路)"},{"poiid":"B2094757D06FAAF94298","title":"Le Saleya","lon":"121.4557","lat":"31.21946","category":"94","category_name":"西餐厅","address":"徐汇区长乐路570弄1号(近襄阳北路)"},{"poiid":"B2094750D66CABFE4592","title":"兰心大剧院","lon":"121.45774","lat":"31.219259","category":"248","category_name":"生活娱乐","address":"茂名南路57号"},{"poiid":"B2094752D06CA0FE4793","title":"海面馆","lon":"121.4565","lat":"31.219706","category":"247","category_name":"餐饮美食","address":"长乐路333号"},{"poiid":"B2094757D06FA1F44198","title":"博多新记(新乐路店)","lon":"121.45502","lat":"31.21728","category":"72","category_name":"广东菜","address":"徐汇区新乐路90号(近襄阳北路)"},{"poiid":"B2094654DA6EA2FB459A","title":"爱美高大厦","lon":"121.456","lat":"31.2186","category":"46","category_name":"楼宇","address":"越秀区广州沿江中路298号"},{"poiid":"B2094757D06EABF5449F","title":"FOSSETTE 酒窝","lon":"121.45537031","lat":"31.218434844","category":"94","category_name":"西餐厅","address":"徐汇区襄阳北路93号-3(近新乐路)"},{"poiid":"B2094757D068A2FD479B","title":"邮电医院","lon":"121.453616","lat":"31.218576733","category":"162","category_name":"医院","address":"上海徐汇区长乐路666号(近襄阳路)"},{"poiid":"B2094757D068A7FF459A","title":"J&amp;Eleven 型人坊","lon":"121.457576","lat":"31.217483403","category":"148","category_name":"美容美发店","address":"上海新乐路11号"},{"poiid":"B2094654D564ABF54893","title":"葡萄园(新乐路)","lon":"121.45533","lat":"31.21751","category":"76","category_name":"上海菜","address":"徐汇区新乐路55号(近襄阳北路)"},{"poiid":"B2094655D264A0F5439F","title":"上海市第一妇婴保健院贵宾门诊","lon":"121.45587","lat":"31.21997","category":"162","category_name":"医院","address":"长乐路560"},{"poiid":"B2094757D56CA4FA429E","title":"星巴克 东方巴黎店 Starbucks Cafe","lon":"121.46096356062","lat":"31.215774641273","category":"247","category_name":"餐饮美食","address":"南昌路559号"},{"poiid":"B2094655D26FABFF429A","title":"Garden Books","lon":"121.4574","lat":"31.21998","category":"65","category_name":"咖啡厅","address":"长乐路325"},{"poiid":"B2094757D16BA1FF4199","title":"绝口老弄堂爆鱼面馆","lon":"121.45657973","lat":"31.219079062","category":"68","category_name":"快餐厅","address":"卢湾区陕西南路63弄1号(近淮海路)"},{"poiid":"B2094655D36DA1F4479C","title":"襄阳北路长乐路","lon":"121.45542","lat":"31.21831","category":"38","category_name":"公交车站","address":""},{"poiid":"B2094757D568AAFF4199","title":"Southern Belle","lon":"121.454345","lat":"31.21859111","category":"260","category_name":"其他","address":"卢湾区长乐路433号(近襄阳北路)"},{"poiid":"B2094757D068A6FC4398","title":"永隆港式茶餐厅","lon":"121.45623","lat":"31.21676","category":"72","category_name":"广东菜","address":"徐汇区襄阳北路100号(近襄阳公园)"},{"poiid":"B2094757D069A6F8499A","title":"酒池星座(新乐路店)","lon":"121.45520224","lat":"31.217771601","category":"260","category_name":"其他","address":"徐汇区新乐路86号(近襄阳北路)"},{"poiid":"B2094757D068A1FF4293","title":"鸡大牌 陕西南路店","lon":"121.457501","lat":"31.220225","category":"68","category_name":"快餐厅","address":"卢湾区陕西南路162号"},{"poiid":"B2094654DA6DAAFB4298","title":"云海大厦","lon":"121.456","lat":"31.2181","category":"46","category_name":"楼宇","address":"浦东新区金湘路225弄"},{"poiid":"B2094757D06FABF5419C","title":"韬奋西文书局","lon":"121.45547361","lat":"31.219961281","category":"125","category_name":"书店","address":"上海卢湾区长乐路325号(近陕西南路)"},{"poiid":"B2094757D068ABFC4192","title":"Wine &amp; Tapas","lon":"121.456431081","lat":"31.2197908079","category":"94","category_name":"西餐厅","address":"上海徐汇区长乐路333号(近陕西南路)"},{"poiid":"B2094654DA6DAAFA469A","title":"启华大厦","lon":"121.455","lat":"31.2171","category":"46","category_name":"楼宇","address":"闸北区江场西路38号(近共和新路)"},{"poiid":"B2094655D36CA3FA429D","title":"3.Top Restaurant & Bar","lon":"121.45618","lat":"31.2178","category":"260","category_name":"其他","address":"徐汇区新乐路47号(近襄阳路)"},{"poiid":"B2094757D16DA2F4469F","title":"莹七","lon":"121.454920738","lat":"31.2175930308","category":"247","category_name":"餐饮美食","address":"上海市静安区巨鹿路"},{"poiid":"B2094757D06FA4FD4599","title":"94路终点站","lon":"121.45541827","lat":"31.218314632","category":"38","category_name":"公交车站","address":"上海襄阳北路(近新乐路)"},{"poiid":"B2094757D16DA6FF4498","title":"ICC环茂广场","lon":"121.455246738","lat":"31.2172880243","category":"500","category_name":"未知分类","address":"上海淮海中路999号"},{"poiid":"B2094750D76EA1FA489A","title":"襄阳壹号","lon":"121.455","lat":"31.2207","category":"76","category_name":"上海菜","address":"静安区襄阳北路1号(近巨鹿路)"},{"poiid":"B2094757D069A4FC439C","title":"祖冲之路科苑路(张江高科地铁站)站","lon":"121.45736536","lat":"31.220134127","category":"36","category_name":"地铁站","address":"上海祖冲之路(161,188,609,636,778,桥六,桥五,东川,塘川,张江有轨,张江环,张南)"},{"poiid":"B2094757D068AAFB469B","title":"武当功夫牛肉面","lon":"121.45644273","lat":"31.218805056","category":"257","category_name":"中餐厅","address":"徐汇区襄阳北路100号(淮海路新乐路间)"},{"poiid":"B2094757D665A2F44198","title":"穗寿司","lon":"121.455256","lat":"31.219569","category":"95","category_name":"日本料理","address":"徐汇区长乐路427号(近襄阳北路)"},{"poiid":"B2094757D069A5F5459C","title":"艾维庭美容身心会馆(襄北店)","lon":"121.454983383","lat":"31.2194469938","category":"148","category_name":"美容美发店","address":"上海静安区襄阳北路55号1-4楼(近长乐路)"},{"poiid":"B2094757D164ABFE4998","title":"锦仓文华大酒店","lon":"121.454800238","lat":"31.2205295934","category":"500","category_name":"未知分类","address":"上海南京西路1225号"},{"poiid":"B2094757D06BA3FB499A","title":"康骏会馆(巨鹿路店)","lon":"121.45502471","lat":"31.218477249","category":"149","category_name":"洗浴推拿场所","address":"静安区巨鹿路768号巨富大厦2楼(近富民路)"},{"poiid":"B2094757D064A0FF4292","title":"Bar. Constellation NO.1","lon":"121.45455058","lat":"31.21742718","category":"172","category_name":"酒吧","address":"上海徐汇区新乐路86号"},{"poiid":"B2094751D46BA3FB429F","title":"质馆咖啡茂名路店","lon":"121.456627","lat":"31.219475","category":"247","category_name":"餐饮美食","address":"上海市茂名南路131弄1号乙"},{"poiid":"B2094757D66BA1F4409C","title":"好古 1931 Restaurant","lon":"121.46187173592","lat":"31.21589239643","category":"76","category_name":"上海菜","address":"卢湾区茂名南路112号(近南昌路)"},{"poiid":"B2094655D26EA5F9419D","title":"La perla冰淇淋(长乐路店)","lon":"121.45724","lat":"31.21984","category":"113","category_name":"冷饮店","address":"卢湾区长乐路325号外文书店内(近陕西南路)"},{"poiid":"B2094757D068AAF4439C","title":"承承","lon":"121.45421","lat":"31.21703","category":"68","category_name":"快餐厅","address":"徐汇区新乐路145号(东湖路新乐路)"},{"poiid":"B2094757D169A4FC449C","title":"Room","lon":"121.45444673","lat":"31.220689096","category":"500","category_name":"未知分类","address":"上海襄阳北路1号2楼"},{"poiid":"B2094654DB6BA6FC449E","title":"大大旺特色馄饨 长乐路","lon":"121.45457953245","lat":"31.218611440753","category":"68","category_name":"快餐厅","address":"卢湾区长乐路409号(近襄阳北路)"}]