[{"poiid":"B2094753D36EA1FC409D","title":"啡你啡思,faneeface,coffee","lon":"121.466694","lat":"31.225741","category":"113","category_name":"冷饮店","address":"大沽路396号"},{"poiid":"B2094757D06FA0FD4999","title":"上海大剧院-大剧场(Shanghai Grand Theatre - Lyric Theatre)","lon":"121.46956921","lat":"31.225844356","category":"260","category_name":"其他","address":"黄浦区人民大道300号大剧院内(近黄陂南路)"},{"poiid":"B2094757D06FABFF459F","title":"Masala art香料艺术 印度餐厅","lon":"121.46685028","lat":"31.225439071","category":"260","category_name":"其他","address":"静安区大沽路401号(近成都北路)"},{"poiid":"B2094753D76FAAFA449C","title":"上海滩国泰旗舰店","lon":"121.466011","lat":"31.216125","category":"249","category_name":"购物服务","address":"淮海中路868号"},{"poiid":"B209475CD564A7F84292","title":"上海滩新天地店","lon":"121.47463","lat":"31.22164","category":"119","category_name":"商场","address":"\"太仓路181弄新天地北里15号\r\n\""},{"poiid":"B209475CD564A7F8439E","title":"上海滩中信泰富店","lon":"121.45602","lat":"31.22851","category":"119","category_name":"商场","address":"\"南京西路1168号中信泰富广场，店铺号221.\r\n\""},{"poiid":"B2094757D064A0F54893","title":"大沽路","lon":"121.467274","lat":"31.225619","category":"500","category_name":"未知分类","address":"上海静安区大沽路"},{"poiid":"B2094757D068A0FD4798","title":"威海路成都北路","lon":"121.467233","lat":"31.226509","category":"500","category_name":"未知分类","address":"上海威海路成都北路"},{"poiid":"B2094757D068A3FF429A","title":"中共二大会址纪念馆","lon":"121.4666786917877","lat":"31.224276565352096","category":"260","category_name":"其他","address":"上海静安区老成都北路7弄30号（近延安中路）"},{"poiid":"B2094654DB6BA4FD489F","title":"新华联大厦","lon":"121.471","lat":"31.2248","category":"46","category_name":"楼宇","address":"越秀区广州沿江中路298号"},{"poiid":"B2094757D56CA1FE429D","title":"星巴克 力宝广场店 Starbucks Cafe","lon":"121.47456367878","lat":"31.223538465013","category":"247","category_name":"餐饮美食","address":"淮海中路222号力宝广场1楼近嵩山路"},{"poiid":"B2094757D06FAAF5489B","title":"东泰祥生煎馒头馆 重庆北路店","lon":"121.47016","lat":"31.226474","category":"68","category_name":"快餐厅","address":"黄浦区重庆北路188号(近大沽路)"},{"poiid":"B2094655D268ABFF409F","title":"延安东路立交桥","lon":"121.469","lat":"31.22467","category":"250","category_name":"公园户外","address":""},{"poiid":"B2094757D06AA6FA469D","title":"爸爸马里奥比萨","lon":"121.46684","lat":"31.22544","category":"94","category_name":"西餐厅","address":"静安区大沽路370号-1(近成都北路)"},{"poiid":"B2094751DA6DA0FA479B","title":"猫屎咖啡(新天地店)","lon":"121.4691613","lat":"31.2232952","category":"247","category_name":"餐饮美食","address":"太仓路200号"},{"poiid":"B2094752D069A4FB489A","title":"鸿星荟","lon":"121.468619","lat":"31.225721","category":"247","category_name":"餐饮美食","address":"淮海中路300号K11购物艺术中心"},{"poiid":"B2094752D16CAAF94893","title":"ABC Cooking Studio（K11店）","lon":"121.469221","lat":"31.225111","category":"247","category_name":"餐饮美食","address":null},{"poiid":"B2094751D564ABF44592","title":"圣诞集市","lon":"121.470834","lat":"31.225767","category":"248","category_name":"生活娱乐","address":"卢湾区新天地太平湖广场"},{"poiid":"B2094757DB6FA4FA439A","title":"揽香","lon":"121.469027","lat":"31.224747","category":"247","category_name":"餐饮美食","address":"卢湾区中环广场"},{"poiid":"B2094750D664A3FA469C","title":"Twins日本料理","lon":"121.467","lat":"31.2255","category":"95","category_name":"日本料理","address":"大沽路393号近大沽路成都北路东北角"},{"poiid":"B209475CD76EA0F54692","title":"环贸iapm","lon":"121.469993","lat":"31.223688","category":"500","category_name":"未知分类","address":"上海市 卢湾区淮海中路999号"},{"poiid":"B2094757D069A5F4449F","title":"中凯城市之光","lon":"121.46649849","lat":"31.2264034314","category":"500","category_name":"未知分类","address":"大沽路368弄大沽路398弄威海路333弄"},{"poiid":"B2094752D06EA5F44092","title":"Pizza Marzano（披萨马上诺）","lon":"121.46927","lat":"31.225073","category":"247","category_name":"餐饮美食","address":null},{"poiid":"B2094757D064A1FD4193","title":"哈亚地中海餐厅(大沽路店)","lon":"121.46621","lat":"31.22525","category":"94","category_name":"西餐厅","address":"静安区大沽路415号(近成都北路)"},{"poiid":"B2094757D068A6F5479A","title":"Nolita","lon":"121.46507","lat":"31.22554","category":"94","category_name":"西餐厅","address":"静安区大沽路422号"},{"poiid":"B2094752D16DAAFE4898","title":"合点寿司","lon":"121.469321","lat":"31.225022","category":"247","category_name":"餐饮美食","address":"淮海中路300号K11购物艺术中心302号铺(近黄陂南路)"},{"poiid":"B2094757D064A5FD439A","title":"Little Huia","lon":"121.466433738","lat":"31.2255882012","category":"500","category_name":"未知分类","address":"上海市静安区大沽路403号"},{"poiid":"B2094654DB65A4FA409C","title":"延安中路大型公共绿地","lon":"121.46636","lat":"31.22469","category":"196","category_name":"公园","address":""},{"poiid":"B2094654DA68A2FC4792","title":"24K国际连锁酒店","lon":"121.46858","lat":"31.22738","category":"216","category_name":"经济型连锁酒店","address":"上海市威海路155弄20号（近成都北路口）"},{"poiid":"B2094752D06FA3FC4999","title":"淮海中路300号K11购物艺术中心301-307号铺(近黄陂南路地铁站)","lon":"121.470142","lat":"31.226922","category":"247","category_name":"餐饮美食","address":"淮海中路300号K11购物艺术中心301-307号铺(近黄陂南路地铁站)"},{"poiid":"B2094757D16EA7FB479D","title":"品味新西兰","lon":"121.46634073","lat":"31.225462998","category":"94","category_name":"西餐厅","address":"静安区大沽路403号(近成都北路)"},{"poiid":"B2094654DA68A2FC4898","title":"上海市储能中学(重庆北路)","lon":"121.46801","lat":"31.22679","category":"55","category_name":"中学","address":"成都北路200"},{"poiid":"B2094654DA6EA1FF419F","title":"永新大厦","lon":"121.468","lat":"31.2233","category":"46","category_name":"楼宇","address":"卢湾区淮海中路527号"},{"poiid":"B2094757D66AAAF9409A","title":"满腹满足","lon":"121.4672441875","lat":"31.225639359331","category":"95","category_name":"日本料理","address":"静安区大沽路395号(近成都北路)"},{"poiid":"B2094654DB65A1F54893","title":"金鹿大楼东楼(巨鹿路)","lon":"121.46926","lat":"31.2236","category":"46","category_name":"楼宇","address":"巨鹿路1号"},{"poiid":"B2094750D16BA4F84399","title":"米多寿司","lon":"121.470146","lat":"31.226119","category":"95","category_name":"日本料理","address":"黄浦区重庆北路151号(近大沽路)"},{"poiid":"B2094655D36DA0F8409D","title":"延安东路重庆北路","lon":"121.471","lat":"31.22491","category":"38","category_name":"公交车站","address":""},{"poiid":"B2094654DB6BABFE4699","title":"重庆鸡公煲 重庆北路","lon":"121.470468054","lat":"31.226113793","category":"247","category_name":"餐饮美食","address":"黄浦区重庆北路188号(近大沽路)"},{"poiid":"B2094750D76FA7F9429C","title":"望乡楼江浙精菜坊(大沽路店)","lon":"121.467","lat":"31.2256","category":"76","category_name":"上海菜","address":"静安区大沽路391号(近成都北路)"},{"poiid":"B2094757D16AA0F84092","title":"成都北路延安东路公交站","lon":"121.468385938","lat":"31.2245998801","category":"38","category_name":"公交车站","address":"上海成都北路延安东路"},{"poiid":"B2094757D168A4F9409D","title":"老成都北路大沽路","lon":"121.468626338","lat":"31.224545779","category":"500","category_name":"未知分类","address":"上海老成都北路大沽路"},{"poiid":"B2094757D568A5FF469F","title":"如家快捷酒店(上海人民广场店)","lon":"121.4699547","lat":"31.22698215","category":"216","category_name":"经济型连锁酒店","address":"上海市黄浦区重庆北路208号(近威海路)"},{"poiid":"B2094757D16DA5FD499F","title":"清真魏氏正宗牛肉拉面(成都北路店)","lon":"121.46756","lat":"31.22609","category":"68","category_name":"快餐厅","address":"静安区成都北路127号(近大沽路)"},{"poiid":"B2094752D16FAAFD479F","title":"来福士广场","lon":"121.467461","lat":"31.227334","category":"500","category_name":"未知分类","address":null},{"poiid":"B2094757D064ABFE419A","title":"卢湾区瑞金二路派出所","lon":"121.46855807","lat":"31.224189838","category":"609","category_name":"警察局","address":"上海卢湾区巨鹿路9号"},{"poiid":"B2094757D068A0F5459F","title":"南京西路社区卫生服务中心","lon":"121.467244738","lat":"31.2262312149","category":"162","category_name":"医院","address":"上海成都北路165号(近威海路)"},{"poiid":"B2094757D16EA6FA439A","title":"重庆北路公交站","lon":"121.469052","lat":"31.225943","category":"38","category_name":"公交车站","address":"上海延安中路重庆北路"},{"poiid":"B2094757D56CA1F5499C","title":"Shanghai Fans","lon":"121.46997614744","lat":"31.224526875897","category":"247","category_name":"餐饮美食","address":"马当路119号新天地1号楼04单元近太仓路"},{"poiid":"B2094752D76CA1F9499B","title":"极食","lon":"121.468313","lat":"31.227546","category":"247","category_name":"餐饮美食","address":"淮海中路300号k11购物艺术中心303号铺（近黄陂南路）"},{"poiid":"B2094654DA68A2FC459F","title":"上海人民广场都市工业楼宇","lon":"121.46858","lat":"31.22594","category":"46","category_name":"楼宇","address":"大沽路288"},{"poiid":"B2094753D36EA1FC409D","title":"啡你啡思,faneeface,coffee","lon":"121.466694","lat":"31.225741","category":"113","category_name":"冷饮店","address":"大沽路396号"},{"poiid":"B2094757D06FA0FD4999","title":"上海大剧院-大剧场(Shanghai Grand Theatre - Lyric Theatre)","lon":"121.46956921","lat":"31.225844356","category":"260","category_name":"其他","address":"黄浦区人民大道300号大剧院内(近黄陂南路)"},{"poiid":"B2094757D06FABFF459F","title":"Masala art香料艺术 印度餐厅","lon":"121.46685028","lat":"31.225439071","category":"260","category_name":"其他","address":"静安区大沽路401号(近成都北路)"},{"poiid":"B2094753D76FAAFA449C","title":"上海滩国泰旗舰店","lon":"121.466011","lat":"31.216125","category":"249","category_name":"购物服务","address":"淮海中路868号"},{"poiid":"B209475CD564A7F84292","title":"上海滩新天地店","lon":"121.47463","lat":"31.22164","category":"119","category_name":"商场","address":"\"太仓路181弄新天地北里15号\r\n\""},{"poiid":"B209475CD564A7F8439E","title":"上海滩中信泰富店","lon":"121.45602","lat":"31.22851","category":"119","category_name":"商场","address":"\"南京西路1168号中信泰富广场，店铺号221.\r\n\""},{"poiid":"B2094757D064A0F54893","title":"大沽路","lon":"121.467274","lat":"31.225619","category":"500","category_name":"未知分类","address":"上海静安区大沽路"},{"poiid":"B2094757D068A0FD4798","title":"威海路成都北路","lon":"121.467233","lat":"31.226509","category":"500","category_name":"未知分类","address":"上海威海路成都北路"},{"poiid":"B2094757D068A3FF429A","title":"中共二大会址纪念馆","lon":"121.4666786917877","lat":"31.224276565352096","category":"260","category_name":"其他","address":"上海静安区老成都北路7弄30号（近延安中路）"},{"poiid":"B2094654DB6BA4FD489F","title":"新华联大厦","lon":"121.471","lat":"31.2248","category":"46","category_name":"楼宇","address":"越秀区广州沿江中路298号"},{"poiid":"B2094757D56CA1FE429D","title":"星巴克 力宝广场店 Starbucks Cafe","lon":"121.47456367878","lat":"31.223538465013","category":"247","category_name":"餐饮美食","address":"淮海中路222号力宝广场1楼近嵩山路"},{"poiid":"B2094757D06FAAF5489B","title":"东泰祥生煎馒头馆 重庆北路店","lon":"121.47016","lat":"31.226474","category":"68","category_name":"快餐厅","address":"黄浦区重庆北路188号(近大沽路)"},{"poiid":"B2094655D268ABFF409F","title":"延安东路立交桥","lon":"121.469","lat":"31.22467","category":"250","category_name":"公园户外","address":""},{"poiid":"B2094757D06AA6FA469D","title":"爸爸马里奥比萨","lon":"121.46684","lat":"31.22544","category":"94","category_name":"西餐厅","address":"静安区大沽路370号-1(近成都北路)"},{"poiid":"B2094751DA6DA0FA479B","title":"猫屎咖啡(新天地店)","lon":"121.4691613","lat":"31.2232952","category":"247","category_name":"餐饮美食","address":"太仓路200号"},{"poiid":"B2094752D069A4FB489A","title":"鸿星荟","lon":"121.468619","lat":"31.225721","category":"247","category_name":"餐饮美食","address":"淮海中路300号K11购物艺术中心"},{"poiid":"B2094752D16CAAF94893","title":"ABC Cooking Studio（K11店）","lon":"121.469221","lat":"31.225111","category":"247","category_name":"餐饮美食","address":null},{"poiid":"B2094751D564ABF44592","title":"圣诞集市","lon":"121.470834","lat":"31.225767","category":"248","category_name":"生活娱乐","address":"卢湾区新天地太平湖广场"},{"poiid":"B2094757DB6FA4FA439A","title":"揽香","lon":"121.469027","lat":"31.224747","category":"247","category_name":"餐饮美食","address":"卢湾区中环广场"},{"poiid":"B2094750D664A3FA469C","title":"Twins日本料理","lon":"121.467","lat":"31.2255","category":"95","category_name":"日本料理","address":"大沽路393号近大沽路成都北路东北角"},{"poiid":"B209475CD76EA0F54692","title":"环贸iapm","lon":"121.469993","lat":"31.223688","category":"500","category_name":"未知分类","address":"上海市 卢湾区淮海中路999号"},{"poiid":"B2094757D069A5F4449F","title":"中凯城市之光","lon":"121.46649849","lat":"31.2264034314","category":"500","category_name":"未知分类","address":"大沽路368弄大沽路398弄威海路333弄"},{"poiid":"B2094752D06EA5F44092","title":"Pizza Marzano（披萨马上诺）","lon":"121.46927","lat":"31.225073","category":"247","category_name":"餐饮美食","address":null},{"poiid":"B2094757D064A1FD4193","title":"哈亚地中海餐厅(大沽路店)","lon":"121.46621","lat":"31.22525","category":"94","category_name":"西餐厅","address":"静安区大沽路415号(近成都北路)"},{"poiid":"B2094757D068A6F5479A","title":"Nolita","lon":"121.46507","lat":"31.22554","category":"94","category_name":"西餐厅","address":"静安区大沽路422号"},{"poiid":"B2094752D16DAAFE4898","title":"合点寿司","lon":"121.469321","lat":"31.225022","category":"247","category_name":"餐饮美食","address":"淮海中路300号K11购物艺术中心302号铺(近黄陂南路)"},{"poiid":"B2094757D064A5FD439A","title":"Little Huia","lon":"121.466433738","lat":"31.2255882012","category":"500","category_name":"未知分类","address":"上海市静安区大沽路403号"},{"poiid":"B2094654DB65A4FA409C","title":"延安中路大型公共绿地","lon":"121.46636","lat":"31.22469","category":"196","category_name":"公园","address":""},{"poiid":"B2094654DA68A2FC4792","title":"24K国际连锁酒店","lon":"121.46858","lat":"31.22738","category":"216","category_name":"经济型连锁酒店","address":"上海市威海路155弄20号（近成都北路口）"},{"poiid":"B2094752D06FA3FC4999","title":"淮海中路300号K11购物艺术中心301-307号铺(近黄陂南路地铁站)","lon":"121.470142","lat":"31.226922","category":"247","category_name":"餐饮美食","address":"淮海中路300号K11购物艺术中心301-307号铺(近黄陂南路地铁站)"},{"poiid":"B2094757D16EA7FB479D","title":"品味新西兰","lon":"121.46634073","lat":"31.225462998","category":"94","category_name":"西餐厅","address":"静安区大沽路403号(近成都北路)"},{"poiid":"B2094654DA68A2FC4898","title":"上海市储能中学(重庆北路)","lon":"121.46801","lat":"31.22679","category":"55","category_name":"中学","address":"成都北路200"},{"poiid":"B2094654DA6EA1FF419F","title":"永新大厦","lon":"121.468","lat":"31.2233","category":"46","category_name":"楼宇","address":"卢湾区淮海中路527号"},{"poiid":"B2094757D66AAAF9409A","title":"满腹满足","lon":"121.4672441875","lat":"31.225639359331","category":"95","category_name":"日本料理","address":"静安区大沽路395号(近成都北路)"},{"poiid":"B2094654DB65A1F54893","title":"金鹿大楼东楼(巨鹿路)","lon":"121.46926","lat":"31.2236","category":"46","category_name":"楼宇","address":"巨鹿路1号"},{"poiid":"B2094750D16BA4F84399","title":"米多寿司","lon":"121.470146","lat":"31.226119","category":"95","category_name":"日本料理","address":"黄浦区重庆北路151号(近大沽路)"},{"poiid":"B2094655D36DA0F8409D","title":"延安东路重庆北路","lon":"121.471","lat":"31.22491","category":"38","category_name":"公交车站","address":""},{"poiid":"B2094654DB6BABFE4699","title":"重庆鸡公煲 重庆北路","lon":"121.470468054","lat":"31.226113793","category":"247","category_name":"餐饮美食","address":"黄浦区重庆北路188号(近大沽路)"},{"poiid":"B2094750D76FA7F9429C","title":"望乡楼江浙精菜坊(大沽路店)","lon":"121.467","lat":"31.2256","category":"76","category_name":"上海菜","address":"静安区大沽路391号(近成都北路)"},{"poiid":"B2094757D16AA0F84092","title":"成都北路延安东路公交站","lon":"121.468385938","lat":"31.2245998801","category":"38","category_name":"公交车站","address":"上海成都北路延安东路"},{"poiid":"B2094757D168A4F9409D","title":"老成都北路大沽路","lon":"121.468626338","lat":"31.224545779","category":"500","category_name":"未知分类","address":"上海老成都北路大沽路"},{"poiid":"B2094757D568A5FF469F","title":"如家快捷酒店(上海人民广场店)","lon":"121.4699547","lat":"31.22698215","category":"216","category_name":"经济型连锁酒店","address":"上海市黄浦区重庆北路208号(近威海路)"},{"poiid":"B2094757D16DA5FD499F","title":"清真魏氏正宗牛肉拉面(成都北路店)","lon":"121.46756","lat":"31.22609","category":"68","category_name":"快餐厅","address":"静安区成都北路127号(近大沽路)"},{"poiid":"B2094752D16FAAFD479F","title":"来福士广场","lon":"121.467461","lat":"31.227334","category":"500","category_name":"未知分类","address":null},{"poiid":"B2094757D064ABFE419A","title":"卢湾区瑞金二路派出所","lon":"121.46855807","lat":"31.224189838","category":"609","category_name":"警察局","address":"上海卢湾区巨鹿路9号"},{"poiid":"B2094757D068A0F5459F","title":"南京西路社区卫生服务中心","lon":"121.467244738","lat":"31.2262312149","category":"162","category_name":"医院","address":"上海成都北路165号(近威海路)"},{"poiid":"B2094757D16EA6FA439A","title":"重庆北路公交站","lon":"121.469052","lat":"31.225943","category":"38","category_name":"公交车站","address":"上海延安中路重庆北路"},{"poiid":"B2094757D56CA1F5499C","title":"Shanghai Fans","lon":"121.46997614744","lat":"31.224526875897","category":"247","category_name":"餐饮美食","address":"马当路119号新天地1号楼04单元近太仓路"},{"poiid":"B2094752D76CA1F9499B","title":"极食","lon":"121.468313","lat":"31.227546","category":"247","category_name":"餐饮美食","address":"淮海中路300号k11购物艺术中心303号铺（近黄陂南路）"},{"poiid":"B2094654DA68A2FC459F","title":"上海人民广场都市工业楼宇","lon":"121.46858","lat":"31.22594","category":"46","category_name":"楼宇","address":"大沽路288"},{"poiid":"B2094753D36EA1FC409D","title":"啡你啡思,faneeface,coffee","lon":"121.466694","lat":"31.225741","category":"113","category_name":"冷饮店","address":"大沽路396号"},{"poiid":"B2094757D06FA0FD4999","title":"上海大剧院-大剧场(Shanghai Grand Theatre - Lyric Theatre)","lon":"121.46956921","lat":"31.225844356","category":"260","category_name":"其他","address":"黄浦区人民大道300号大剧院内(近黄陂南路)"},{"poiid":"B2094757D06FABFF459F","title":"Masala art香料艺术 印度餐厅","lon":"121.46685028","lat":"31.225439071","category":"260","category_name":"其他","address":"静安区大沽路401号(近成都北路)"},{"poiid":"B2094753D76FAAFA449C","title":"上海滩国泰旗舰店","lon":"121.466011","lat":"31.216125","category":"249","category_name":"购物服务","address":"淮海中路868号"},{"poiid":"B209475CD564A7F84292","title":"上海滩新天地店","lon":"121.47463","lat":"31.22164","category":"119","category_name":"商场","address":"\"太仓路181弄新天地北里15号\r\n\""},{"poiid":"B209475CD564A7F8439E","title":"上海滩中信泰富店","lon":"121.45602","lat":"31.22851","category":"119","category_name":"商场","address":"\"南京西路1168号中信泰富广场，店铺号221.\r\n\""},{"poiid":"B2094757D064A0F54893","title":"大沽路","lon":"121.467274","lat":"31.225619","category":"500","category_name":"未知分类","address":"上海静安区大沽路"},{"poiid":"B2094757D068A0FD4798","title":"威海路成都北路","lon":"121.467233","lat":"31.226509","category":"500","category_name":"未知分类","address":"上海威海路成都北路"},{"poiid":"B2094757D068A3FF429A","title":"中共二大会址纪念馆","lon":"121.4666786917877","lat":"31.224276565352096","category":"260","category_name":"其他","address":"上海静安区老成都北路7弄30号（近延安中路）"},{"poiid":"B2094654DB6BA4FD489F","title":"新华联大厦","lon":"121.471","lat":"31.2248","category":"46","category_name":"楼宇","address":"越秀区广州沿江中路298号"},{"poiid":"B2094757D56CA1FE429D","title":"星巴克 力宝广场店 Starbucks Cafe","lon":"121.47456367878","lat":"31.223538465013","category":"247","category_name":"餐饮美食","address":"淮海中路222号力宝广场1楼近嵩山路"},{"poiid":"B2094757D06FAAF5489B","title":"东泰祥生煎馒头馆 重庆北路店","lon":"121.47016","lat":"31.226474","category":"68","category_name":"快餐厅","address":"黄浦区重庆北路188号(近大沽路)"},{"poiid":"B2094655D268ABFF409F","title":"延安东路立交桥","lon":"121.469","lat":"31.22467","category":"250","category_name":"公园户外","address":""},{"poiid":"B2094757D06AA6FA469D","title":"爸爸马里奥比萨","lon":"121.46684","lat":"31.22544","category":"94","category_name":"西餐厅","address":"静安区大沽路370号-1(近成都北路)"},{"poiid":"B2094751DA6DA0FA479B","title":"猫屎咖啡(新天地店)","lon":"121.4691613","lat":"31.2232952","category":"247","category_name":"餐饮美食","address":"太仓路200号"},{"poiid":"B2094752D069A4FB489A","title":"鸿星荟","lon":"121.468619","lat":"31.225721","category":"247","category_name":"餐饮美食","address":"淮海中路300号K11购物艺术中心"},{"poiid":"B2094752D16CAAF94893","title":"ABC Cooking Studio（K11店）","lon":"121.469221","lat":"31.225111","category":"247","category_name":"餐饮美食","address":null},{"poiid":"B2094751D564ABF44592","title":"圣诞集市","lon":"121.470834","lat":"31.225767","category":"248","category_name":"生活娱乐","address":"卢湾区新天地太平湖广场"},{"poiid":"B2094757DB6FA4FA439A","title":"揽香","lon":"121.469027","lat":"31.224747","category":"247","category_name":"餐饮美食","address":"卢湾区中环广场"},{"poiid":"B2094750D664A3FA469C","title":"Twins日本料理","lon":"121.467","lat":"31.2255","category":"95","category_name":"日本料理","address":"大沽路393号近大沽路成都北路东北角"},{"poiid":"B209475CD76EA0F54692","title":"环贸iapm","lon":"121.469993","lat":"31.223688","category":"500","category_name":"未知分类","address":"上海市 卢湾区淮海中路999号"},{"poiid":"B2094757D069A5F4449F","title":"中凯城市之光","lon":"121.46649849","lat":"31.2264034314","category":"500","category_name":"未知分类","address":"大沽路368弄大沽路398弄威海路333弄"},{"poiid":"B2094752D06EA5F44092","title":"Pizza Marzano（披萨马上诺）","lon":"121.46927","lat":"31.225073","category":"247","category_name":"餐饮美食","address":null},{"poiid":"B2094757D064A1FD4193","title":"哈亚地中海餐厅(大沽路店)","lon":"121.46621","lat":"31.22525","category":"94","category_name":"西餐厅","address":"静安区大沽路415号(近成都北路)"},{"poiid":"B2094757D068A6F5479A","title":"Nolita","lon":"121.46507","lat":"31.22554","category":"94","category_name":"西餐厅","address":"静安区大沽路422号"},{"poiid":"B2094752D16DAAFE4898","title":"合点寿司","lon":"121.469321","lat":"31.225022","category":"247","category_name":"餐饮美食","address":"淮海中路300号K11购物艺术中心302号铺(近黄陂南路)"},{"poiid":"B2094757D064A5FD439A","title":"Little Huia","lon":"121.466433738","lat":"31.2255882012","category":"500","category_name":"未知分类","address":"上海市静安区大沽路403号"},{"poiid":"B2094654DB65A4FA409C","title":"延安中路大型公共绿地","lon":"121.46636","lat":"31.22469","category":"196","category_name":"公园","address":""},{"poiid":"B2094654DA68A2FC4792","title":"24K国际连锁酒店","lon":"121.46858","lat":"31.22738","category":"216","category_name":"经济型连锁酒店","address":"上海市威海路155弄20号（近成都北路口）"},{"poiid":"B2094752D06FA3FC4999","title":"淮海中路300号K11购物艺术中心301-307号铺(近黄陂南路地铁站)","lon":"121.470142","lat":"31.226922","category":"247","category_name":"餐饮美食","address":"淮海中路300号K11购物艺术中心301-307号铺(近黄陂南路地铁站)"},{"poiid":"B2094757D16EA7FB479D","title":"品味新西兰","lon":"121.46634073","lat":"31.225462998","category":"94","category_name":"西餐厅","address":"静安区大沽路403号(近成都北路)"},{"poiid":"B2094654DA68A2FC4898","title":"上海市储能中学(重庆北路)","lon":"121.46801","lat":"31.22679","category":"55","category_name":"中学","address":"成都北路200"},{"poiid":"B2094654DA6EA1FF419F","title":"永新大厦","lon":"121.468","lat":"31.2233","category":"46","category_name":"楼宇","address":"卢湾区淮海中路527号"},{"poiid":"B2094757D66AAAF9409A","title":"满腹满足","lon":"121.4672441875","lat":"31.225639359331","category":"95","category_name":"日本料理","address":"静安区大沽路395号(近成都北路)"},{"poiid":"B2094654DB65A1F54893","title":"金鹿大楼东楼(巨鹿路)","lon":"121.46926","lat":"31.2236","category":"46","category_name":"楼宇","address":"巨鹿路1号"},{"poiid":"B2094750D16BA4F84399","title":"米多寿司","lon":"121.470146","lat":"31.226119","category":"95","category_name":"日本料理","address":"黄浦区重庆北路151号(近大沽路)"},{"poiid":"B2094655D36DA0F8409D","title":"延安东路重庆北路","lon":"121.471","lat":"31.22491","category":"38","category_name":"公交车站","address":""},{"poiid":"B2094654DB6BABFE4699","title":"重庆鸡公煲 重庆北路","lon":"121.470468054","lat":"31.226113793","category":"247","category_name":"餐饮美食","address":"黄浦区重庆北路188号(近大沽路)"},{"poiid":"B2094750D76FA7F9429C","title":"望乡楼江浙精菜坊(大沽路店)","lon":"121.467","lat":"31.2256","category":"76","category_name":"上海菜","address":"静安区大沽路391号(近成都北路)"},{"poiid":"B2094757D16AA0F84092","title":"成都北路延安东路公交站","lon":"121.468385938","lat":"31.2245998801","category":"38","category_name":"公交车站","address":"上海成都北路延安东路"},{"poiid":"B2094757D168A4F9409D","title":"老成都北路大沽路","lon":"121.468626338","lat":"31.224545779","category":"500","category_name":"未知分类","address":"上海老成都北路大沽路"},{"poiid":"B2094757D568A5FF469F","title":"如家快捷酒店(上海人民广场店)","lon":"121.4699547","lat":"31.22698215","category":"216","category_name":"经济型连锁酒店","address":"上海市黄浦区重庆北路208号(近威海路)"},{"poiid":"B2094757D16DA5FD499F","title":"清真魏氏正宗牛肉拉面(成都北路店)","lon":"121.46756","lat":"31.22609","category":"68","category_name":"快餐厅","address":"静安区成都北路127号(近大沽路)"},{"poiid":"B2094752D16FAAFD479F","title":"来福士广场","lon":"121.467461","lat":"31.227334","category":"500","category_name":"未知分类","address":null},{"poiid":"B2094757D064ABFE419A","title":"卢湾区瑞金二路派出所","lon":"121.46855807","lat":"31.224189838","category":"609","category_name":"警察局","address":"上海卢湾区巨鹿路9号"},{"poiid":"B2094757D068A0F5459F","title":"南京西路社区卫生服务中心","lon":"121.467244738","lat":"31.2262312149","category":"162","category_name":"医院","address":"上海成都北路165号(近威海路)"},{"poiid":"B2094757D16EA6FA439A","title":"重庆北路公交站","lon":"121.469052","lat":"31.225943","category":"38","category_name":"公交车站","address":"上海延安中路重庆北路"},{"poiid":"B2094757D56CA1F5499C","title":"Shanghai Fans","lon":"121.46997614744","lat":"31.224526875897","category":"247","category_name":"餐饮美食","address":"马当路119号新天地1号楼04单元近太仓路"},{"poiid":"B2094752D76CA1F9499B","title":"极食","lon":"121.468313","lat":"31.227546","category":"247","category_name":"餐饮美食","address":"淮海中路300号k11购物艺术中心303号铺（近黄陂南路）"},{"poiid":"B2094654DA68A2FC459F","title":"上海人民广场都市工业楼宇","lon":"121.46858","lat":"31.22594","category":"46","category_name":"楼宇","address":"大沽路288"},{"poiid":"B2094753D36EA1FC409D","title":"啡你啡思,faneeface,coffee","lon":"121.466694","lat":"31.225741","category":"113","category_name":"冷饮店","address":"大沽路396号"},{"poiid":"B2094757D06FA0FD4999","title":"上海大剧院-大剧场(Shanghai Grand Theatre - Lyric Theatre)","lon":"121.46956921","lat":"31.225844356","category":"260","category_name":"其他","address":"黄浦区人民大道300号大剧院内(近黄陂南路)"},{"poiid":"B2094757D06FABFF459F","title":"Masala art香料艺术 印度餐厅","lon":"121.46685028","lat":"31.225439071","category":"260","category_name":"其他","address":"静安区大沽路401号(近成都北路)"},{"poiid":"B2094753D76FAAFA449C","title":"上海滩国泰旗舰店","lon":"121.466011","lat":"31.216125","category":"249","category_name":"购物服务","address":"淮海中路868号"},{"poiid":"B209475CD564A7F84292","title":"上海滩新天地店","lon":"121.47463","lat":"31.22164","category":"119","category_name":"商场","address":"\"太仓路181弄新天地北里15号\r\n\""},{"poiid":"B209475CD564A7F8439E","title":"上海滩中信泰富店","lon":"121.45602","lat":"31.22851","category":"119","category_name":"商场","address":"\"南京西路1168号中信泰富广场，店铺号221.\r\n\""},{"poiid":"B2094757D064A0F54893","title":"大沽路","lon":"121.467274","lat":"31.225619","category":"500","category_name":"未知分类","address":"上海静安区大沽路"},{"poiid":"B2094757D068A0FD4798","title":"威海路成都北路","lon":"121.467233","lat":"31.226509","category":"500","category_name":"未知分类","address":"上海威海路成都北路"},{"poiid":"B2094757D068A3FF429A","title":"中共二大会址纪念馆","lon":"121.4666786917877","lat":"31.224276565352096","category":"260","category_name":"其他","address":"上海静安区老成都北路7弄30号（近延安中路）"},{"poiid":"B2094654DB6BA4FD489F","title":"新华联大厦","lon":"121.471","lat":"31.2248","category":"46","category_name":"楼宇","address":"越秀区广州沿江中路298号"},{"poiid":"B2094757D56CA1FE429D","title":"星巴克 力宝广场店 Starbucks Cafe","lon":"121.47456367878","lat":"31.223538465013","category":"247","category_name":"餐饮美食","address":"淮海中路222号力宝广场1楼近嵩山路"},{"poiid":"B2094757D06FAAF5489B","title":"东泰祥生煎馒头馆 重庆北路店","lon":"121.47016","lat":"31.226474","category":"68","category_name":"快餐厅","address":"黄浦区重庆北路188号(近大沽路)"},{"poiid":"B2094655D268ABFF409F","title":"延安东路立交桥","lon":"121.469","lat":"31.22467","category":"250","category_name":"公园户外","address":""},{"poiid":"B2094757D06AA6FA469D","title":"爸爸马里奥比萨","lon":"121.46684","lat":"31.22544","category":"94","category_name":"西餐厅","address":"静安区大沽路370号-1(近成都北路)"},{"poiid":"B2094751DA6DA0FA479B","title":"猫屎咖啡(新天地店)","lon":"121.4691613","lat":"31.2232952","category":"247","category_name":"餐饮美食","address":"太仓路200号"},{"poiid":"B2094752D069A4FB489A","title":"鸿星荟","lon":"121.468619","lat":"31.225721","category":"247","category_name":"餐饮美食","address":"淮海中路300号K11购物艺术中心"},{"poiid":"B2094752D16CAAF94893","title":"ABC Cooking Studio（K11店）","lon":"121.469221","lat":"31.225111","category":"247","category_name":"餐饮美食","address":null},{"poiid":"B2094751D564ABF44592","title":"圣诞集市","lon":"121.470834","lat":"31.225767","category":"248","category_name":"生活娱乐","address":"卢湾区新天地太平湖广场"},{"poiid":"B2094757DB6FA4FA439A","title":"揽香","lon":"121.469027","lat":"31.224747","category":"247","category_name":"餐饮美食","address":"卢湾区中环广场"},{"poiid":"B2094750D664A3FA469C","title":"Twins日本料理","lon":"121.467","lat":"31.2255","category":"95","category_name":"日本料理","address":"大沽路393号近大沽路成都北路东北角"},{"poiid":"B209475CD76EA0F54692","title":"环贸iapm","lon":"121.469993","lat":"31.223688","category":"500","category_name":"未知分类","address":"上海市 卢湾区淮海中路999号"},{"poiid":"B2094757D069A5F4449F","title":"中凯城市之光","lon":"121.46649849","lat":"31.2264034314","category":"500","category_name":"未知分类","address":"大沽路368弄大沽路398弄威海路333弄"},{"poiid":"B2094752D06EA5F44092","title":"Pizza Marzano（披萨马上诺）","lon":"121.46927","lat":"31.225073","category":"247","category_name":"餐饮美食","address":null},{"poiid":"B2094757D064A1FD4193","title":"哈亚地中海餐厅(大沽路店)","lon":"121.46621","lat":"31.22525","category":"94","category_name":"西餐厅","address":"静安区大沽路415号(近成都北路)"},{"poiid":"B2094757D068A6F5479A","title":"Nolita","lon":"121.46507","lat":"31.22554","category":"94","category_name":"西餐厅","address":"静安区大沽路422号"},{"poiid":"B2094752D16DAAFE4898","title":"合点寿司","lon":"121.469321","lat":"31.225022","category":"247","category_name":"餐饮美食","address":"淮海中路300号K11购物艺术中心302号铺(近黄陂南路)"},{"poiid":"B2094757D064A5FD439A","title":"Little Huia","lon":"121.466433738","lat":"31.2255882012","category":"500","category_name":"未知分类","address":"上海市静安区大沽路403号"},{"poiid":"B2094654DB65A4FA409C","title":"延安中路大型公共绿地","lon":"121.46636","lat":"31.22469","category":"196","category_name":"公园","address":""},{"poiid":"B2094654DA68A2FC4792","title":"24K国际连锁酒店","lon":"121.46858","lat":"31.22738","category":"216","category_name":"经济型连锁酒店","address":"上海市威海路155弄20号（近成都北路口）"},{"poiid":"B2094752D06FA3FC4999","title":"淮海中路300号K11购物艺术中心301-307号铺(近黄陂南路地铁站)","lon":"121.470142","lat":"31.226922","category":"247","category_name":"餐饮美食","address":"淮海中路300号K11购物艺术中心301-307号铺(近黄陂南路地铁站)"},{"poiid":"B2094757D16EA7FB479D","title":"品味新西兰","lon":"121.46634073","lat":"31.225462998","category":"94","category_name":"西餐厅","address":"静安区大沽路403号(近成都北路)"},{"poiid":"B2094654DA68A2FC4898","title":"上海市储能中学(重庆北路)","lon":"121.46801","lat":"31.22679","category":"55","category_name":"中学","address":"成都北路200"},{"poiid":"B2094654DA6EA1FF419F","title":"永新大厦","lon":"121.468","lat":"31.2233","category":"46","category_name":"楼宇","address":"卢湾区淮海中路527号"},{"poiid":"B2094757D66AAAF9409A","title":"满腹满足","lon":"121.4672441875","lat":"31.225639359331","category":"95","category_name":"日本料理","address":"静安区大沽路395号(近成都北路)"},{"poiid":"B2094654DB65A1F54893","title":"金鹿大楼东楼(巨鹿路)","lon":"121.46926","lat":"31.2236","category":"46","category_name":"楼宇","address":"巨鹿路1号"},{"poiid":"B2094750D16BA4F84399","title":"米多寿司","lon":"121.470146","lat":"31.226119","category":"95","category_name":"日本料理","address":"黄浦区重庆北路151号(近大沽路)"},{"poiid":"B2094655D36DA0F8409D","title":"延安东路重庆北路","lon":"121.471","lat":"31.22491","category":"38","category_name":"公交车站","address":""},{"poiid":"B2094654DB6BABFE4699","title":"重庆鸡公煲 重庆北路","lon":"121.470468054","lat":"31.226113793","category":"247","category_name":"餐饮美食","address":"黄浦区重庆北路188号(近大沽路)"},{"poiid":"B2094750D76FA7F9429C","title":"望乡楼江浙精菜坊(大沽路店)","lon":"121.467","lat":"31.2256","category":"76","category_name":"上海菜","address":"静安区大沽路391号(近成都北路)"},{"poiid":"B2094757D16AA0F84092","title":"成都北路延安东路公交站","lon":"121.468385938","lat":"31.2245998801","category":"38","category_name":"公交车站","address":"上海成都北路延安东路"},{"poiid":"B2094757D168A4F9409D","title":"老成都北路大沽路","lon":"121.468626338","lat":"31.224545779","category":"500","category_name":"未知分类","address":"上海老成都北路大沽路"},{"poiid":"B2094757D568A5FF469F","title":"如家快捷酒店(上海人民广场店)","lon":"121.4699547","lat":"31.22698215","category":"216","category_name":"经济型连锁酒店","address":"上海市黄浦区重庆北路208号(近威海路)"},{"poiid":"B2094757D16DA5FD499F","title":"清真魏氏正宗牛肉拉面(成都北路店)","lon":"121.46756","lat":"31.22609","category":"68","category_name":"快餐厅","address":"静安区成都北路127号(近大沽路)"},{"poiid":"B2094752D16FAAFD479F","title":"来福士广场","lon":"121.467461","lat":"31.227334","category":"500","category_name":"未知分类","address":null},{"poiid":"B2094757D064ABFE419A","title":"卢湾区瑞金二路派出所","lon":"121.46855807","lat":"31.224189838","category":"609","category_name":"警察局","address":"上海卢湾区巨鹿路9号"},{"poiid":"B2094757D068A0F5459F","title":"南京西路社区卫生服务中心","lon":"121.467244738","lat":"31.2262312149","category":"162","category_name":"医院","address":"上海成都北路165号(近威海路)"},{"poiid":"B2094757D16EA6FA439A","title":"重庆北路公交站","lon":"121.469052","lat":"31.225943","category":"38","category_name":"公交车站","address":"上海延安中路重庆北路"},{"poiid":"B2094757D56CA1F5499C","title":"Shanghai Fans","lon":"121.46997614744","lat":"31.224526875897","category":"247","category_name":"餐饮美食","address":"马当路119号新天地1号楼04单元近太仓路"},{"poiid":"B2094752D76CA1F9499B","title":"极食","lon":"121.468313","lat":"31.227546","category":"247","category_name":"餐饮美食","address":"淮海中路300号k11购物艺术中心303号铺（近黄陂南路）"},{"poiid":"B2094654DA68A2FC459F","title":"上海人民广场都市工业楼宇","lon":"121.46858","lat":"31.22594","category":"46","category_name":"楼宇","address":"大沽路288"}]