[{"poiid":"B2094654DB64AAFC439E","title":"宝莱纳餐厅新天地餐厅","lon":"121.47386218823908","lat":"31.221275058883233","category":"257","category_name":"中餐厅","address":"卢湾区太仓路181弄新天地北里19-20号(近马当路)"},{"poiid":"B2094655D26AABFD499F","title":"好乐迪量贩式KTV（淮海中路店）","lon":"121.47092","lat":"31.22199","category":"170","category_name":"KTV","address":"卢湾区淮海中路438号4楼近重庆南路;;"},{"poiid":"B2094757D06FA6FC419C","title":"Wagas 中环广场店","lon":"121.47261473","lat":"31.22224613","category":"94","category_name":"西餐厅","address":"上海卢湾区淮海中路淡水路中环广场"},{"poiid":"B2094753D76FAAFA449C","title":"上海滩国泰旗舰店","lon":"121.466011","lat":"31.216125","category":"249","category_name":"购物服务","address":"淮海中路868号"},{"poiid":"B209475CD564A7F84292","title":"上海滩新天地店","lon":"121.47463","lat":"31.22164","category":"119","category_name":"商场","address":"\"太仓路181弄新天地北里15号\r\n\""},{"poiid":"B209475CD564A7F8439E","title":"上海滩中信泰富店","lon":"121.45602","lat":"31.22851","category":"119","category_name":"商场","address":"\"南京西路1168号中信泰富广场，店铺号221.\r\n\""},{"poiid":"B2094757D06FA3FC489D","title":"屋企汤馆 淮海店","lon":"121.4708246443","lat":"31.221864028321","category":"72","category_name":"广东菜","address":"卢湾区淮海中路438号2楼(近重庆南路)"},{"poiid":"B2094757D064A5FD489B","title":"典谟新知咖啡馆","lon":"121.470884738","lat":"31.2210811051","category":"260","category_name":"其他","address":"卢湾区兴安路139号(近淮海路雁荡路)"},{"poiid":"B2094655D26BA3FC469D","title":"揽香精萃时尚餐厅","lon":"121.47306","lat":"31.2221","category":"260","category_name":"其他","address":"卢湾区淮海中路381号中环广场2-3楼(近重庆南路)"},{"poiid":"B2094751D56FABFF499A","title":"Home Thai（上海K11店）","lon":"121.471195","lat":"31.220142","category":"247","category_name":"餐饮美食","address":"上海市 淮海中路300号上海K11购物艺术中心401"},{"poiid":"B2094753D76CA2F4449C","title":"查厘士","lon":"121.471084","lat":"31.221948","category":"247","category_name":"餐饮美食","address":"上海市 淮海路438号"},{"poiid":"B2094757D06FA2F8489C","title":"金牛苑(淮海中路店)","lon":"121.47315","lat":"31.22208","category":"47","category_name":"住宅区","address":"卢湾区淮海中路381号中环广场3楼(近马当路)"},{"poiid":"B2094750D56EA5F5419C","title":"say cheese 甜品.家","lon":"121.471335","lat":"31.220279","category":"247","category_name":"餐饮美食","address":"卢湾区重庆南路30弄1号(近淮海中路)"},{"poiid":"B2094757D06FA2FE4792","title":"鲜得来排骨年糕(雁荡店)","lon":"121.47033","lat":"31.22059","category":"68","category_name":"快餐厅","address":"卢湾区雁荡路9号(近兴安路)"},{"poiid":"B2094751D56FABFF4592","title":"Charme 港丽（上海K11店）","lon":"121.471367","lat":"31.219261","category":"247","category_name":"餐饮美食","address":"上海市 淮海中路300号上海K11购物艺术中心301/307"},{"poiid":"B2094751D56FABFF499C","title":"Element Fresh 新元素（上海K11店）","lon":"121.471024","lat":"31.219848","category":"247","category_name":"餐饮美食","address":"上海市 淮海中路300号上海K11购物艺术中心402"},{"poiid":"B2094751D56FABFF4698","title":"Gatten Sushi 合点寿司（上海K11店）","lon":"121.470852","lat":"31.220142","category":"247","category_name":"餐饮美食","address":"上海市 淮海中路300号上海K11购物艺术中心302"},{"poiid":"B2094757D16FA2FF499E","title":"颐东海港名厨","lon":"121.472683038","lat":"31.222152028","category":"72","category_name":"广东菜","address":"卢湾区淮海中路381号中环广场4楼(近淡水路)"},{"poiid":"B2094751D56FABFF469F","title":"g  极食（上海K11店）","lon":"121.471882","lat":"31.220876","category":"247","category_name":"餐饮美食","address":"上海市 淮海中路300号上海K11购物艺术中心303"},{"poiid":"B2094751D56FABF8419B","title":"Celeb de Tomato 铭品番茄（上海K11店）","lon":"121.470852","lat":"31.219114","category":"247","category_name":"餐饮美食","address":"上海市 淮海中路300号上海K11购物艺术中心406"},{"poiid":"B2094757D168A5FB469D","title":"Initial新天地","lon":"121.47131183","lat":"31.221172036","category":"500","category_name":"未知分类","address":"上海新天地UME 1楼"},{"poiid":"B2094654DB69A5FD409B","title":"好乐迪(淮海中路店)","lon":"121.47101","lat":"31.222","category":"170","category_name":"KTV","address":"卢湾区淮海中路438号4-5楼(近重庆南路)"},{"poiid":"B2094757D06FA2FC489D","title":"禾绿回转寿司(淮海店)","lon":"121.471866738","lat":"31.2220071249","category":"95","category_name":"日本料理","address":"卢湾区淮海中路352号(近马当路)"},{"poiid":"B2094757D068A2F5449F","title":"世纪巴士大厦","lon":"121.47163462","lat":"31.222440357","category":"46","category_name":"楼宇","address":"上海淮海中路398号"},{"poiid":"B2094751D56FABFA409C","title":"Baker&Spice 香溢培客（上海K11店）","lon":"121.470852","lat":"31.219701","category":"247","category_name":"餐饮美食","address":"上海市 淮海中路300号上海K11购物艺术中心B127-B129"},{"poiid":"B2094655D26AAAF54398","title":"东田造型淮海中路店","lon":"121.47306","lat":"31.2221","category":"148","category_name":"美容美发店","address":"卢湾区淮海中路381号中环广场2楼208室(近马当路)"},{"poiid":"B2094751D56FABFF4693","title":"Hanamaru Udon 花丸乌冬面（上海K11店）","lon":"121.471539","lat":"31.219555","category":"247","category_name":"餐饮美食","address":"上海市 淮海中路300号上海K11购物艺术中心304"},{"poiid":"B2094750D26DA7F84799","title":"清风人家","lon":"121.47091","lat":"31.22203","category":"260","category_name":"其他","address":"卢湾区淮海中路438号B1楼(近重庆南路)"},{"poiid":"B2094654DB6BA4FA419F","title":"伊藤家(中环店)","lon":"121.47282","lat":"31.22196","category":"95","category_name":"日本料理","address":"卢湾区淮海中路381号中环广场3楼(近马当路)"},{"poiid":"B2094757D66FA1F5449C","title":"好乐的(淮海店)","lon":"121.47069161","lat":"31.221906582","category":"249","category_name":"购物服务","address":"上海淮海中路1543号"},{"poiid":"B2094654DA6EA1F9499F","title":"民防大厦","lon":"121.471","lat":"31.2202","category":"46","category_name":"楼宇","address":"龙蟠南路33号(龙蟠南路与秦虹路交汇处,秦淮区政府对面)"},{"poiid":"B2094750DB6AA5F84798","title":"一町奶茶(淮海路店)","lon":"121.470686","lat":"31.221858","category":"113","category_name":"冷饮店","address":"卢湾区老重庆中路54号(近长乐路)"},{"poiid":"B2094757D069A4FF4699","title":"lv旗舰店","lon":"121.47127873","lat":"31.220801099","category":"500","category_name":"未知分类","address":"上海淮海路嵩山路"},{"poiid":"B2094757D068A3FD459F","title":"沧浪亭(重庆路店)","lon":"121.47132","lat":"31.2213","category":"87","category_name":"特色／地方风味餐厅","address":"卢湾区老重庆中路好乐迪对面(淮海中路口)"},{"poiid":"B2094757D464ABF4459A","title":"金城酒家","lon":"121.47037211893","lat":"31.220679186676","category":"76","category_name":"上海菜","address":"卢湾区兴安路149号(近雁荡路)"},{"poiid":"B2094751D56FABFB4093","title":"Tuttimelon（上海K11店）","lon":"121.47274","lat":"31.221169","category":"247","category_name":"餐饮美食","address":"上海市 淮海中路300号上海K11购物艺术中心B213/B246"},{"poiid":"B2094757D16CAAF94992","title":"南昌路","lon":"121.47206173","lat":"31.221032104","category":"500","category_name":"未知分类","address":"上海卢湾区南昌路"},{"poiid":"B2094654DA6DABFB479A","title":"兴安餐厅","lon":"121.470078054","lat":"31.220802793","category":"68","category_name":"快餐厅","address":"卢湾区兴安路145号(近雁荡路)"},{"poiid":"B2094757D065A4F5419D","title":"Wagas","lon":"121.473691738","lat":"31.2212781093","category":"500","category_name":"未知分类","address":"上海ShanghaiLuwanJulu Rd"},{"poiid":"B2094751D56FABF4409C","title":"Costa 咖世家（上海K11店）","lon":"121.471367","lat":"31.219701","category":"247","category_name":"餐饮美食","address":"淮海中路300号上海K11购物艺术中心B223/B225"},{"poiid":"B2094757D06FA7F54399","title":"香黛广场","lon":"121.47153","lat":"31.2218","category":"249","category_name":"购物服务","address":"卢湾区淮海中路417号(近重庆南路)"},{"poiid":"B2094757D06EAAFE479E","title":"刘娟美甲(淮海中路一店)","lon":"121.47222","lat":"31.22163","category":"122","category_name":"个人用品/化妆品店","address":"卢湾区淮海中路417号香黛广场73号(近重庆南路)"},{"poiid":"B209475CD26BA5F5499D","title":"查理士","lon":"121.471008","lat":"31.221706","category":"247","category_name":"餐饮美食","address":"上海市 淮海中路447号"},{"poiid":"B2094757D16CABFA4098","title":"上海医药大厦","lon":"121.47355428","lat":"31.221216408","category":"46","category_name":"楼宇","address":"上海市静安区南京西路555号"},{"poiid":"B2094757D06FA6FF409F","title":"铂金大厦(原凯德·新茂大厦)","lon":"121.47360297","lat":"31.220712468","category":"46","category_name":"楼宇","address":"上海卢湾区太仓路233号(近马当路)"},{"poiid":"B2094757D06AAAFE4499","title":"佳鸣海鲜火锅楼","lon":"121.470263","lat":"31.220876","category":"86","category_name":"火锅店","address":"卢湾区兴安路167号(近雁荡路)"},{"poiid":"B2094757D068A0FA419F","title":"招商银行(淮中支行)","lon":"121.47235","lat":"31.2223","category":"46","category_name":"楼宇","address":"卢湾区淮海中路398号(淡水路淮海中路)"},{"poiid":"B2094751D56FABF44792","title":"Blink（上海K11店）","lon":"121.472225","lat":"31.219995","category":"247","category_name":"餐饮美食","address":"上海市 淮海中路300号上海K11购物艺术中心B234"},{"poiid":"B2094751D56FABF84092","title":"Azul Urban（上海K11店）","lon":"121.470509","lat":"31.220142","category":"247","category_name":"餐饮美食","address":"上海市 淮海中路300号上海K11购物艺术中心404"},{"poiid":"B2094757D068A5FB419B","title":"Kevin造型(重庆南路店)","lon":"121.47165","lat":"31.21987","category":"148","category_name":"美容美发店","address":"卢湾区重庆南路22号(近淮海中路)"},{"poiid":"B2094654DB64AAFC439E","title":"宝莱纳餐厅新天地餐厅","lon":"121.47386218823908","lat":"31.221275058883233","category":"257","category_name":"中餐厅","address":"卢湾区太仓路181弄新天地北里19-20号(近马当路)"},{"poiid":"B2094655D26AABFD499F","title":"好乐迪量贩式KTV（淮海中路店）","lon":"121.47092","lat":"31.22199","category":"170","category_name":"KTV","address":"卢湾区淮海中路438号4楼近重庆南路;;"},{"poiid":"B2094757D06FA6FC419C","title":"Wagas 中环广场店","lon":"121.47261473","lat":"31.22224613","category":"94","category_name":"西餐厅","address":"上海卢湾区淮海中路淡水路中环广场"},{"poiid":"B2094753D76FAAFA449C","title":"上海滩国泰旗舰店","lon":"121.466011","lat":"31.216125","category":"249","category_name":"购物服务","address":"淮海中路868号"},{"poiid":"B209475CD564A7F84292","title":"上海滩新天地店","lon":"121.47463","lat":"31.22164","category":"119","category_name":"商场","address":"\"太仓路181弄新天地北里15号\r\n\""},{"poiid":"B209475CD564A7F8439E","title":"上海滩中信泰富店","lon":"121.45602","lat":"31.22851","category":"119","category_name":"商场","address":"\"南京西路1168号中信泰富广场，店铺号221.\r\n\""},{"poiid":"B2094757D06FA3FC489D","title":"屋企汤馆 淮海店","lon":"121.4708246443","lat":"31.221864028321","category":"72","category_name":"广东菜","address":"卢湾区淮海中路438号2楼(近重庆南路)"},{"poiid":"B2094757D064A5FD489B","title":"典谟新知咖啡馆","lon":"121.470884738","lat":"31.2210811051","category":"260","category_name":"其他","address":"卢湾区兴安路139号(近淮海路雁荡路)"},{"poiid":"B2094655D26BA3FC469D","title":"揽香精萃时尚餐厅","lon":"121.47306","lat":"31.2221","category":"260","category_name":"其他","address":"卢湾区淮海中路381号中环广场2-3楼(近重庆南路)"},{"poiid":"B2094751D56FABFF499A","title":"Home Thai（上海K11店）","lon":"121.471195","lat":"31.220142","category":"247","category_name":"餐饮美食","address":"上海市 淮海中路300号上海K11购物艺术中心401"},{"poiid":"B2094753D76CA2F4449C","title":"查厘士","lon":"121.471084","lat":"31.221948","category":"247","category_name":"餐饮美食","address":"上海市 淮海路438号"},{"poiid":"B2094757D06FA2F8489C","title":"金牛苑(淮海中路店)","lon":"121.47315","lat":"31.22208","category":"47","category_name":"住宅区","address":"卢湾区淮海中路381号中环广场3楼(近马当路)"},{"poiid":"B2094750D56EA5F5419C","title":"say cheese 甜品.家","lon":"121.471335","lat":"31.220279","category":"247","category_name":"餐饮美食","address":"卢湾区重庆南路30弄1号(近淮海中路)"},{"poiid":"B2094757D06FA2FE4792","title":"鲜得来排骨年糕(雁荡店)","lon":"121.47033","lat":"31.22059","category":"68","category_name":"快餐厅","address":"卢湾区雁荡路9号(近兴安路)"},{"poiid":"B2094751D56FABFF4592","title":"Charme 港丽（上海K11店）","lon":"121.471367","lat":"31.219261","category":"247","category_name":"餐饮美食","address":"上海市 淮海中路300号上海K11购物艺术中心301/307"},{"poiid":"B2094751D56FABFF499C","title":"Element Fresh 新元素（上海K11店）","lon":"121.471024","lat":"31.219848","category":"247","category_name":"餐饮美食","address":"上海市 淮海中路300号上海K11购物艺术中心402"},{"poiid":"B2094751D56FABFF4698","title":"Gatten Sushi 合点寿司（上海K11店）","lon":"121.470852","lat":"31.220142","category":"247","category_name":"餐饮美食","address":"上海市 淮海中路300号上海K11购物艺术中心302"},{"poiid":"B2094757D16FA2FF499E","title":"颐东海港名厨","lon":"121.472683038","lat":"31.222152028","category":"72","category_name":"广东菜","address":"卢湾区淮海中路381号中环广场4楼(近淡水路)"},{"poiid":"B2094751D56FABFF469F","title":"g  极食（上海K11店）","lon":"121.471882","lat":"31.220876","category":"247","category_name":"餐饮美食","address":"上海市 淮海中路300号上海K11购物艺术中心303"},{"poiid":"B2094751D56FABF8419B","title":"Celeb de Tomato 铭品番茄（上海K11店）","lon":"121.470852","lat":"31.219114","category":"247","category_name":"餐饮美食","address":"上海市 淮海中路300号上海K11购物艺术中心406"},{"poiid":"B2094757D168A5FB469D","title":"Initial新天地","lon":"121.47131183","lat":"31.221172036","category":"500","category_name":"未知分类","address":"上海新天地UME 1楼"},{"poiid":"B2094654DB69A5FD409B","title":"好乐迪(淮海中路店)","lon":"121.47101","lat":"31.222","category":"170","category_name":"KTV","address":"卢湾区淮海中路438号4-5楼(近重庆南路)"},{"poiid":"B2094757D06FA2FC489D","title":"禾绿回转寿司(淮海店)","lon":"121.471866738","lat":"31.2220071249","category":"95","category_name":"日本料理","address":"卢湾区淮海中路352号(近马当路)"},{"poiid":"B2094757D068A2F5449F","title":"世纪巴士大厦","lon":"121.47163462","lat":"31.222440357","category":"46","category_name":"楼宇","address":"上海淮海中路398号"},{"poiid":"B2094751D56FABFA409C","title":"Baker&Spice 香溢培客（上海K11店）","lon":"121.470852","lat":"31.219701","category":"247","category_name":"餐饮美食","address":"上海市 淮海中路300号上海K11购物艺术中心B127-B129"},{"poiid":"B2094655D26AAAF54398","title":"东田造型淮海中路店","lon":"121.47306","lat":"31.2221","category":"148","category_name":"美容美发店","address":"卢湾区淮海中路381号中环广场2楼208室(近马当路)"},{"poiid":"B2094751D56FABFF4693","title":"Hanamaru Udon 花丸乌冬面（上海K11店）","lon":"121.471539","lat":"31.219555","category":"247","category_name":"餐饮美食","address":"上海市 淮海中路300号上海K11购物艺术中心304"},{"poiid":"B2094750D26DA7F84799","title":"清风人家","lon":"121.47091","lat":"31.22203","category":"260","category_name":"其他","address":"卢湾区淮海中路438号B1楼(近重庆南路)"},{"poiid":"B2094654DB6BA4FA419F","title":"伊藤家(中环店)","lon":"121.47282","lat":"31.22196","category":"95","category_name":"日本料理","address":"卢湾区淮海中路381号中环广场3楼(近马当路)"},{"poiid":"B2094757D66FA1F5449C","title":"好乐的(淮海店)","lon":"121.47069161","lat":"31.221906582","category":"249","category_name":"购物服务","address":"上海淮海中路1543号"},{"poiid":"B2094654DA6EA1F9499F","title":"民防大厦","lon":"121.471","lat":"31.2202","category":"46","category_name":"楼宇","address":"龙蟠南路33号(龙蟠南路与秦虹路交汇处,秦淮区政府对面)"},{"poiid":"B2094750DB6AA5F84798","title":"一町奶茶(淮海路店)","lon":"121.470686","lat":"31.221858","category":"113","category_name":"冷饮店","address":"卢湾区老重庆中路54号(近长乐路)"},{"poiid":"B2094757D069A4FF4699","title":"lv旗舰店","lon":"121.47127873","lat":"31.220801099","category":"500","category_name":"未知分类","address":"上海淮海路嵩山路"},{"poiid":"B2094757D068A3FD459F","title":"沧浪亭(重庆路店)","lon":"121.47132","lat":"31.2213","category":"87","category_name":"特色／地方风味餐厅","address":"卢湾区老重庆中路好乐迪对面(淮海中路口)"},{"poiid":"B2094757D464ABF4459A","title":"金城酒家","lon":"121.47037211893","lat":"31.220679186676","category":"76","category_name":"上海菜","address":"卢湾区兴安路149号(近雁荡路)"},{"poiid":"B2094751D56FABFB4093","title":"Tuttimelon（上海K11店）","lon":"121.47274","lat":"31.221169","category":"247","category_name":"餐饮美食","address":"上海市 淮海中路300号上海K11购物艺术中心B213/B246"},{"poiid":"B2094757D16CAAF94992","title":"南昌路","lon":"121.47206173","lat":"31.221032104","category":"500","category_name":"未知分类","address":"上海卢湾区南昌路"},{"poiid":"B2094654DA6DABFB479A","title":"兴安餐厅","lon":"121.470078054","lat":"31.220802793","category":"68","category_name":"快餐厅","address":"卢湾区兴安路145号(近雁荡路)"},{"poiid":"B2094757D065A4F5419D","title":"Wagas","lon":"121.473691738","lat":"31.2212781093","category":"500","category_name":"未知分类","address":"上海ShanghaiLuwanJulu Rd"},{"poiid":"B2094751D56FABF4409C","title":"Costa 咖世家（上海K11店）","lon":"121.471367","lat":"31.219701","category":"247","category_name":"餐饮美食","address":"淮海中路300号上海K11购物艺术中心B223/B225"},{"poiid":"B2094757D06FA7F54399","title":"香黛广场","lon":"121.47153","lat":"31.2218","category":"249","category_name":"购物服务","address":"卢湾区淮海中路417号(近重庆南路)"},{"poiid":"B2094757D06EAAFE479E","title":"刘娟美甲(淮海中路一店)","lon":"121.47222","lat":"31.22163","category":"122","category_name":"个人用品/化妆品店","address":"卢湾区淮海中路417号香黛广场73号(近重庆南路)"},{"poiid":"B209475CD26BA5F5499D","title":"查理士","lon":"121.471008","lat":"31.221706","category":"247","category_name":"餐饮美食","address":"上海市 淮海中路447号"},{"poiid":"B2094757D16CABFA4098","title":"上海医药大厦","lon":"121.47355428","lat":"31.221216408","category":"46","category_name":"楼宇","address":"上海市静安区南京西路555号"},{"poiid":"B2094757D06FA6FF409F","title":"铂金大厦(原凯德·新茂大厦)","lon":"121.47360297","lat":"31.220712468","category":"46","category_name":"楼宇","address":"上海卢湾区太仓路233号(近马当路)"},{"poiid":"B2094757D06AAAFE4499","title":"佳鸣海鲜火锅楼","lon":"121.470263","lat":"31.220876","category":"86","category_name":"火锅店","address":"卢湾区兴安路167号(近雁荡路)"},{"poiid":"B2094757D068A0FA419F","title":"招商银行(淮中支行)","lon":"121.47235","lat":"31.2223","category":"46","category_name":"楼宇","address":"卢湾区淮海中路398号(淡水路淮海中路)"},{"poiid":"B2094751D56FABF44792","title":"Blink（上海K11店）","lon":"121.472225","lat":"31.219995","category":"247","category_name":"餐饮美食","address":"上海市 淮海中路300号上海K11购物艺术中心B234"},{"poiid":"B2094751D56FABF84092","title":"Azul Urban（上海K11店）","lon":"121.470509","lat":"31.220142","category":"247","category_name":"餐饮美食","address":"上海市 淮海中路300号上海K11购物艺术中心404"},{"poiid":"B2094757D068A5FB419B","title":"Kevin造型(重庆南路店)","lon":"121.47165","lat":"31.21987","category":"148","category_name":"美容美发店","address":"卢湾区重庆南路22号(近淮海中路)"},{"poiid":"B2094654DB64AAFC439E","title":"宝莱纳餐厅新天地餐厅","lon":"121.47386218823908","lat":"31.221275058883233","category":"257","category_name":"中餐厅","address":"卢湾区太仓路181弄新天地北里19-20号(近马当路)"},{"poiid":"B2094655D26AABFD499F","title":"好乐迪量贩式KTV（淮海中路店）","lon":"121.47092","lat":"31.22199","category":"170","category_name":"KTV","address":"卢湾区淮海中路438号4楼近重庆南路;;"},{"poiid":"B2094757D06FA6FC419C","title":"Wagas 中环广场店","lon":"121.47261473","lat":"31.22224613","category":"94","category_name":"西餐厅","address":"上海卢湾区淮海中路淡水路中环广场"},{"poiid":"B2094753D76FAAFA449C","title":"上海滩国泰旗舰店","lon":"121.466011","lat":"31.216125","category":"249","category_name":"购物服务","address":"淮海中路868号"},{"poiid":"B209475CD564A7F84292","title":"上海滩新天地店","lon":"121.47463","lat":"31.22164","category":"119","category_name":"商场","address":"\"太仓路181弄新天地北里15号\r\n\""},{"poiid":"B209475CD564A7F8439E","title":"上海滩中信泰富店","lon":"121.45602","lat":"31.22851","category":"119","category_name":"商场","address":"\"南京西路1168号中信泰富广场，店铺号221.\r\n\""},{"poiid":"B2094757D06FA3FC489D","title":"屋企汤馆 淮海店","lon":"121.4708246443","lat":"31.221864028321","category":"72","category_name":"广东菜","address":"卢湾区淮海中路438号2楼(近重庆南路)"},{"poiid":"B2094757D064A5FD489B","title":"典谟新知咖啡馆","lon":"121.470884738","lat":"31.2210811051","category":"260","category_name":"其他","address":"卢湾区兴安路139号(近淮海路雁荡路)"},{"poiid":"B2094655D26BA3FC469D","title":"揽香精萃时尚餐厅","lon":"121.47306","lat":"31.2221","category":"260","category_name":"其他","address":"卢湾区淮海中路381号中环广场2-3楼(近重庆南路)"},{"poiid":"B2094751D56FABFF499A","title":"Home Thai（上海K11店）","lon":"121.471195","lat":"31.220142","category":"247","category_name":"餐饮美食","address":"上海市 淮海中路300号上海K11购物艺术中心401"},{"poiid":"B2094753D76CA2F4449C","title":"查厘士","lon":"121.471084","lat":"31.221948","category":"247","category_name":"餐饮美食","address":"上海市 淮海路438号"},{"poiid":"B2094757D06FA2F8489C","title":"金牛苑(淮海中路店)","lon":"121.47315","lat":"31.22208","category":"47","category_name":"住宅区","address":"卢湾区淮海中路381号中环广场3楼(近马当路)"},{"poiid":"B2094750D56EA5F5419C","title":"say cheese 甜品.家","lon":"121.471335","lat":"31.220279","category":"247","category_name":"餐饮美食","address":"卢湾区重庆南路30弄1号(近淮海中路)"},{"poiid":"B2094757D06FA2FE4792","title":"鲜得来排骨年糕(雁荡店)","lon":"121.47033","lat":"31.22059","category":"68","category_name":"快餐厅","address":"卢湾区雁荡路9号(近兴安路)"},{"poiid":"B2094751D56FABFF4592","title":"Charme 港丽（上海K11店）","lon":"121.471367","lat":"31.219261","category":"247","category_name":"餐饮美食","address":"上海市 淮海中路300号上海K11购物艺术中心301/307"},{"poiid":"B2094751D56FABFF499C","title":"Element Fresh 新元素（上海K11店）","lon":"121.471024","lat":"31.219848","category":"247","category_name":"餐饮美食","address":"上海市 淮海中路300号上海K11购物艺术中心402"},{"poiid":"B2094751D56FABFF4698","title":"Gatten Sushi 合点寿司（上海K11店）","lon":"121.470852","lat":"31.220142","category":"247","category_name":"餐饮美食","address":"上海市 淮海中路300号上海K11购物艺术中心302"},{"poiid":"B2094757D16FA2FF499E","title":"颐东海港名厨","lon":"121.472683038","lat":"31.222152028","category":"72","category_name":"广东菜","address":"卢湾区淮海中路381号中环广场4楼(近淡水路)"},{"poiid":"B2094751D56FABFF469F","title":"g  极食（上海K11店）","lon":"121.471882","lat":"31.220876","category":"247","category_name":"餐饮美食","address":"上海市 淮海中路300号上海K11购物艺术中心303"},{"poiid":"B2094751D56FABF8419B","title":"Celeb de Tomato 铭品番茄（上海K11店）","lon":"121.470852","lat":"31.219114","category":"247","category_name":"餐饮美食","address":"上海市 淮海中路300号上海K11购物艺术中心406"},{"poiid":"B2094757D168A5FB469D","title":"Initial新天地","lon":"121.47131183","lat":"31.221172036","category":"500","category_name":"未知分类","address":"上海新天地UME 1楼"},{"poiid":"B2094654DB69A5FD409B","title":"好乐迪(淮海中路店)","lon":"121.47101","lat":"31.222","category":"170","category_name":"KTV","address":"卢湾区淮海中路438号4-5楼(近重庆南路)"},{"poiid":"B2094757D06FA2FC489D","title":"禾绿回转寿司(淮海店)","lon":"121.471866738","lat":"31.2220071249","category":"95","category_name":"日本料理","address":"卢湾区淮海中路352号(近马当路)"},{"poiid":"B2094757D068A2F5449F","title":"世纪巴士大厦","lon":"121.47163462","lat":"31.222440357","category":"46","category_name":"楼宇","address":"上海淮海中路398号"},{"poiid":"B2094751D56FABFA409C","title":"Baker&Spice 香溢培客（上海K11店）","lon":"121.470852","lat":"31.219701","category":"247","category_name":"餐饮美食","address":"上海市 淮海中路300号上海K11购物艺术中心B127-B129"},{"poiid":"B2094655D26AAAF54398","title":"东田造型淮海中路店","lon":"121.47306","lat":"31.2221","category":"148","category_name":"美容美发店","address":"卢湾区淮海中路381号中环广场2楼208室(近马当路)"},{"poiid":"B2094751D56FABFF4693","title":"Hanamaru Udon 花丸乌冬面（上海K11店）","lon":"121.471539","lat":"31.219555","category":"247","category_name":"餐饮美食","address":"上海市 淮海中路300号上海K11购物艺术中心304"},{"poiid":"B2094750D26DA7F84799","title":"清风人家","lon":"121.47091","lat":"31.22203","category":"260","category_name":"其他","address":"卢湾区淮海中路438号B1楼(近重庆南路)"},{"poiid":"B2094654DB6BA4FA419F","title":"伊藤家(中环店)","lon":"121.47282","lat":"31.22196","category":"95","category_name":"日本料理","address":"卢湾区淮海中路381号中环广场3楼(近马当路)"},{"poiid":"B2094757D66FA1F5449C","title":"好乐的(淮海店)","lon":"121.47069161","lat":"31.221906582","category":"249","category_name":"购物服务","address":"上海淮海中路1543号"},{"poiid":"B2094654DA6EA1F9499F","title":"民防大厦","lon":"121.471","lat":"31.2202","category":"46","category_name":"楼宇","address":"龙蟠南路33号(龙蟠南路与秦虹路交汇处,秦淮区政府对面)"},{"poiid":"B2094750DB6AA5F84798","title":"一町奶茶(淮海路店)","lon":"121.470686","lat":"31.221858","category":"113","category_name":"冷饮店","address":"卢湾区老重庆中路54号(近长乐路)"},{"poiid":"B2094757D069A4FF4699","title":"lv旗舰店","lon":"121.47127873","lat":"31.220801099","category":"500","category_name":"未知分类","address":"上海淮海路嵩山路"},{"poiid":"B2094757D068A3FD459F","title":"沧浪亭(重庆路店)","lon":"121.47132","lat":"31.2213","category":"87","category_name":"特色／地方风味餐厅","address":"卢湾区老重庆中路好乐迪对面(淮海中路口)"},{"poiid":"B2094757D464ABF4459A","title":"金城酒家","lon":"121.47037211893","lat":"31.220679186676","category":"76","category_name":"上海菜","address":"卢湾区兴安路149号(近雁荡路)"},{"poiid":"B2094751D56FABFB4093","title":"Tuttimelon（上海K11店）","lon":"121.47274","lat":"31.221169","category":"247","category_name":"餐饮美食","address":"上海市 淮海中路300号上海K11购物艺术中心B213/B246"},{"poiid":"B2094757D16CAAF94992","title":"南昌路","lon":"121.47206173","lat":"31.221032104","category":"500","category_name":"未知分类","address":"上海卢湾区南昌路"},{"poiid":"B2094654DA6DABFB479A","title":"兴安餐厅","lon":"121.470078054","lat":"31.220802793","category":"68","category_name":"快餐厅","address":"卢湾区兴安路145号(近雁荡路)"},{"poiid":"B2094757D065A4F5419D","title":"Wagas","lon":"121.473691738","lat":"31.2212781093","category":"500","category_name":"未知分类","address":"上海ShanghaiLuwanJulu Rd"},{"poiid":"B2094751D56FABF4409C","title":"Costa 咖世家（上海K11店）","lon":"121.471367","lat":"31.219701","category":"247","category_name":"餐饮美食","address":"淮海中路300号上海K11购物艺术中心B223/B225"},{"poiid":"B2094757D06FA7F54399","title":"香黛广场","lon":"121.47153","lat":"31.2218","category":"249","category_name":"购物服务","address":"卢湾区淮海中路417号(近重庆南路)"},{"poiid":"B2094757D06EAAFE479E","title":"刘娟美甲(淮海中路一店)","lon":"121.47222","lat":"31.22163","category":"122","category_name":"个人用品/化妆品店","address":"卢湾区淮海中路417号香黛广场73号(近重庆南路)"},{"poiid":"B209475CD26BA5F5499D","title":"查理士","lon":"121.471008","lat":"31.221706","category":"247","category_name":"餐饮美食","address":"上海市 淮海中路447号"},{"poiid":"B2094757D16CABFA4098","title":"上海医药大厦","lon":"121.47355428","lat":"31.221216408","category":"46","category_name":"楼宇","address":"上海市静安区南京西路555号"},{"poiid":"B2094757D06FA6FF409F","title":"铂金大厦(原凯德·新茂大厦)","lon":"121.47360297","lat":"31.220712468","category":"46","category_name":"楼宇","address":"上海卢湾区太仓路233号(近马当路)"},{"poiid":"B2094757D06AAAFE4499","title":"佳鸣海鲜火锅楼","lon":"121.470263","lat":"31.220876","category":"86","category_name":"火锅店","address":"卢湾区兴安路167号(近雁荡路)"},{"poiid":"B2094757D068A0FA419F","title":"招商银行(淮中支行)","lon":"121.47235","lat":"31.2223","category":"46","category_name":"楼宇","address":"卢湾区淮海中路398号(淡水路淮海中路)"},{"poiid":"B2094751D56FABF44792","title":"Blink（上海K11店）","lon":"121.472225","lat":"31.219995","category":"247","category_name":"餐饮美食","address":"上海市 淮海中路300号上海K11购物艺术中心B234"},{"poiid":"B2094751D56FABF84092","title":"Azul Urban（上海K11店）","lon":"121.470509","lat":"31.220142","category":"247","category_name":"餐饮美食","address":"上海市 淮海中路300号上海K11购物艺术中心404"},{"poiid":"B2094757D068A5FB419B","title":"Kevin造型(重庆南路店)","lon":"121.47165","lat":"31.21987","category":"148","category_name":"美容美发店","address":"卢湾区重庆南路22号(近淮海中路)"},{"poiid":"B2094654DB64AAFC439E","title":"宝莱纳餐厅新天地餐厅","lon":"121.47386218823908","lat":"31.221275058883233","category":"257","category_name":"中餐厅","address":"卢湾区太仓路181弄新天地北里19-20号(近马当路)"},{"poiid":"B2094655D26AABFD499F","title":"好乐迪量贩式KTV（淮海中路店）","lon":"121.47092","lat":"31.22199","category":"170","category_name":"KTV","address":"卢湾区淮海中路438号4楼近重庆南路;;"},{"poiid":"B2094757D06FA6FC419C","title":"Wagas 中环广场店","lon":"121.47261473","lat":"31.22224613","category":"94","category_name":"西餐厅","address":"上海卢湾区淮海中路淡水路中环广场"},{"poiid":"B2094753D76FAAFA449C","title":"上海滩国泰旗舰店","lon":"121.466011","lat":"31.216125","category":"249","category_name":"购物服务","address":"淮海中路868号"},{"poiid":"B209475CD564A7F84292","title":"上海滩新天地店","lon":"121.47463","lat":"31.22164","category":"119","category_name":"商场","address":"\"太仓路181弄新天地北里15号\r\n\""},{"poiid":"B209475CD564A7F8439E","title":"上海滩中信泰富店","lon":"121.45602","lat":"31.22851","category":"119","category_name":"商场","address":"\"南京西路1168号中信泰富广场，店铺号221.\r\n\""},{"poiid":"B2094757D06FA3FC489D","title":"屋企汤馆 淮海店","lon":"121.4708246443","lat":"31.221864028321","category":"72","category_name":"广东菜","address":"卢湾区淮海中路438号2楼(近重庆南路)"},{"poiid":"B2094757D064A5FD489B","title":"典谟新知咖啡馆","lon":"121.470884738","lat":"31.2210811051","category":"260","category_name":"其他","address":"卢湾区兴安路139号(近淮海路雁荡路)"},{"poiid":"B2094655D26BA3FC469D","title":"揽香精萃时尚餐厅","lon":"121.47306","lat":"31.2221","category":"260","category_name":"其他","address":"卢湾区淮海中路381号中环广场2-3楼(近重庆南路)"},{"poiid":"B2094751D56FABFF499A","title":"Home Thai（上海K11店）","lon":"121.471195","lat":"31.220142","category":"247","category_name":"餐饮美食","address":"上海市 淮海中路300号上海K11购物艺术中心401"},{"poiid":"B2094753D76CA2F4449C","title":"查厘士","lon":"121.471084","lat":"31.221948","category":"247","category_name":"餐饮美食","address":"上海市 淮海路438号"},{"poiid":"B2094757D06FA2F8489C","title":"金牛苑(淮海中路店)","lon":"121.47315","lat":"31.22208","category":"47","category_name":"住宅区","address":"卢湾区淮海中路381号中环广场3楼(近马当路)"},{"poiid":"B2094750D56EA5F5419C","title":"say cheese 甜品.家","lon":"121.471335","lat":"31.220279","category":"247","category_name":"餐饮美食","address":"卢湾区重庆南路30弄1号(近淮海中路)"},{"poiid":"B2094757D06FA2FE4792","title":"鲜得来排骨年糕(雁荡店)","lon":"121.47033","lat":"31.22059","category":"68","category_name":"快餐厅","address":"卢湾区雁荡路9号(近兴安路)"},{"poiid":"B2094751D56FABFF4592","title":"Charme 港丽（上海K11店）","lon":"121.471367","lat":"31.219261","category":"247","category_name":"餐饮美食","address":"上海市 淮海中路300号上海K11购物艺术中心301/307"},{"poiid":"B2094751D56FABFF499C","title":"Element Fresh 新元素（上海K11店）","lon":"121.471024","lat":"31.219848","category":"247","category_name":"餐饮美食","address":"上海市 淮海中路300号上海K11购物艺术中心402"},{"poiid":"B2094751D56FABFF4698","title":"Gatten Sushi 合点寿司（上海K11店）","lon":"121.470852","lat":"31.220142","category":"247","category_name":"餐饮美食","address":"上海市 淮海中路300号上海K11购物艺术中心302"},{"poiid":"B2094757D16FA2FF499E","title":"颐东海港名厨","lon":"121.472683038","lat":"31.222152028","category":"72","category_name":"广东菜","address":"卢湾区淮海中路381号中环广场4楼(近淡水路)"},{"poiid":"B2094751D56FABFF469F","title":"g  极食（上海K11店）","lon":"121.471882","lat":"31.220876","category":"247","category_name":"餐饮美食","address":"上海市 淮海中路300号上海K11购物艺术中心303"},{"poiid":"B2094751D56FABF8419B","title":"Celeb de Tomato 铭品番茄（上海K11店）","lon":"121.470852","lat":"31.219114","category":"247","category_name":"餐饮美食","address":"上海市 淮海中路300号上海K11购物艺术中心406"},{"poiid":"B2094757D168A5FB469D","title":"Initial新天地","lon":"121.47131183","lat":"31.221172036","category":"500","category_name":"未知分类","address":"上海新天地UME 1楼"},{"poiid":"B2094654DB69A5FD409B","title":"好乐迪(淮海中路店)","lon":"121.47101","lat":"31.222","category":"170","category_name":"KTV","address":"卢湾区淮海中路438号4-5楼(近重庆南路)"},{"poiid":"B2094757D06FA2FC489D","title":"禾绿回转寿司(淮海店)","lon":"121.471866738","lat":"31.2220071249","category":"95","category_name":"日本料理","address":"卢湾区淮海中路352号(近马当路)"},{"poiid":"B2094757D068A2F5449F","title":"世纪巴士大厦","lon":"121.47163462","lat":"31.222440357","category":"46","category_name":"楼宇","address":"上海淮海中路398号"},{"poiid":"B2094751D56FABFA409C","title":"Baker&Spice 香溢培客（上海K11店）","lon":"121.470852","lat":"31.219701","category":"247","category_name":"餐饮美食","address":"上海市 淮海中路300号上海K11购物艺术中心B127-B129"},{"poiid":"B2094655D26AAAF54398","title":"东田造型淮海中路店","lon":"121.47306","lat":"31.2221","category":"148","category_name":"美容美发店","address":"卢湾区淮海中路381号中环广场2楼208室(近马当路)"},{"poiid":"B2094751D56FABFF4693","title":"Hanamaru Udon 花丸乌冬面（上海K11店）","lon":"121.471539","lat":"31.219555","category":"247","category_name":"餐饮美食","address":"上海市 淮海中路300号上海K11购物艺术中心304"},{"poiid":"B2094750D26DA7F84799","title":"清风人家","lon":"121.47091","lat":"31.22203","category":"260","category_name":"其他","address":"卢湾区淮海中路438号B1楼(近重庆南路)"},{"poiid":"B2094654DB6BA4FA419F","title":"伊藤家(中环店)","lon":"121.47282","lat":"31.22196","category":"95","category_name":"日本料理","address":"卢湾区淮海中路381号中环广场3楼(近马当路)"},{"poiid":"B2094757D66FA1F5449C","title":"好乐的(淮海店)","lon":"121.47069161","lat":"31.221906582","category":"249","category_name":"购物服务","address":"上海淮海中路1543号"},{"poiid":"B2094654DA6EA1F9499F","title":"民防大厦","lon":"121.471","lat":"31.2202","category":"46","category_name":"楼宇","address":"龙蟠南路33号(龙蟠南路与秦虹路交汇处,秦淮区政府对面)"},{"poiid":"B2094750DB6AA5F84798","title":"一町奶茶(淮海路店)","lon":"121.470686","lat":"31.221858","category":"113","category_name":"冷饮店","address":"卢湾区老重庆中路54号(近长乐路)"},{"poiid":"B2094757D069A4FF4699","title":"lv旗舰店","lon":"121.47127873","lat":"31.220801099","category":"500","category_name":"未知分类","address":"上海淮海路嵩山路"},{"poiid":"B2094757D068A3FD459F","title":"沧浪亭(重庆路店)","lon":"121.47132","lat":"31.2213","category":"87","category_name":"特色／地方风味餐厅","address":"卢湾区老重庆中路好乐迪对面(淮海中路口)"},{"poiid":"B2094757D464ABF4459A","title":"金城酒家","lon":"121.47037211893","lat":"31.220679186676","category":"76","category_name":"上海菜","address":"卢湾区兴安路149号(近雁荡路)"},{"poiid":"B2094751D56FABFB4093","title":"Tuttimelon（上海K11店）","lon":"121.47274","lat":"31.221169","category":"247","category_name":"餐饮美食","address":"上海市 淮海中路300号上海K11购物艺术中心B213/B246"},{"poiid":"B2094757D16CAAF94992","title":"南昌路","lon":"121.47206173","lat":"31.221032104","category":"500","category_name":"未知分类","address":"上海卢湾区南昌路"},{"poiid":"B2094654DA6DABFB479A","title":"兴安餐厅","lon":"121.470078054","lat":"31.220802793","category":"68","category_name":"快餐厅","address":"卢湾区兴安路145号(近雁荡路)"},{"poiid":"B2094757D065A4F5419D","title":"Wagas","lon":"121.473691738","lat":"31.2212781093","category":"500","category_name":"未知分类","address":"上海ShanghaiLuwanJulu Rd"},{"poiid":"B2094751D56FABF4409C","title":"Costa 咖世家（上海K11店）","lon":"121.471367","lat":"31.219701","category":"247","category_name":"餐饮美食","address":"淮海中路300号上海K11购物艺术中心B223/B225"},{"poiid":"B2094757D06FA7F54399","title":"香黛广场","lon":"121.47153","lat":"31.2218","category":"249","category_name":"购物服务","address":"卢湾区淮海中路417号(近重庆南路)"},{"poiid":"B2094757D06EAAFE479E","title":"刘娟美甲(淮海中路一店)","lon":"121.47222","lat":"31.22163","category":"122","category_name":"个人用品/化妆品店","address":"卢湾区淮海中路417号香黛广场73号(近重庆南路)"},{"poiid":"B209475CD26BA5F5499D","title":"查理士","lon":"121.471008","lat":"31.221706","category":"247","category_name":"餐饮美食","address":"上海市 淮海中路447号"},{"poiid":"B2094757D16CABFA4098","title":"上海医药大厦","lon":"121.47355428","lat":"31.221216408","category":"46","category_name":"楼宇","address":"上海市静安区南京西路555号"},{"poiid":"B2094757D06FA6FF409F","title":"铂金大厦(原凯德·新茂大厦)","lon":"121.47360297","lat":"31.220712468","category":"46","category_name":"楼宇","address":"上海卢湾区太仓路233号(近马当路)"},{"poiid":"B2094757D06AAAFE4499","title":"佳鸣海鲜火锅楼","lon":"121.470263","lat":"31.220876","category":"86","category_name":"火锅店","address":"卢湾区兴安路167号(近雁荡路)"},{"poiid":"B2094757D068A0FA419F","title":"招商银行(淮中支行)","lon":"121.47235","lat":"31.2223","category":"46","category_name":"楼宇","address":"卢湾区淮海中路398号(淡水路淮海中路)"},{"poiid":"B2094751D56FABF44792","title":"Blink（上海K11店）","lon":"121.472225","lat":"31.219995","category":"247","category_name":"餐饮美食","address":"上海市 淮海中路300号上海K11购物艺术中心B234"},{"poiid":"B2094751D56FABF84092","title":"Azul Urban（上海K11店）","lon":"121.470509","lat":"31.220142","category":"247","category_name":"餐饮美食","address":"上海市 淮海中路300号上海K11购物艺术中心404"},{"poiid":"B2094757D068A5FB419B","title":"Kevin造型(重庆南路店)","lon":"121.47165","lat":"31.21987","category":"148","category_name":"美容美发店","address":"卢湾区重庆南路22号(近淮海中路)"},{"poiid":"B2094654DB64AAFC439E","title":"宝莱纳餐厅新天地餐厅","lon":"121.47386218823908","lat":"31.221275058883233","category":"257","category_name":"中餐厅","address":"卢湾区太仓路181弄新天地北里19-20号(近马当路)"},{"poiid":"B2094655D26AABFD499F","title":"好乐迪量贩式KTV（淮海中路店）","lon":"121.47092","lat":"31.22199","category":"170","category_name":"KTV","address":"卢湾区淮海中路438号4楼近重庆南路;;"},{"poiid":"B2094757D06FA6FC419C","title":"Wagas 中环广场店","lon":"121.47261473","lat":"31.22224613","category":"94","category_name":"西餐厅","address":"上海卢湾区淮海中路淡水路中环广场"},{"poiid":"B2094753D76FAAFA449C","title":"上海滩国泰旗舰店","lon":"121.466011","lat":"31.216125","category":"249","category_name":"购物服务","address":"淮海中路868号"},{"poiid":"B209475CD564A7F84292","title":"上海滩新天地店","lon":"121.47463","lat":"31.22164","category":"119","category_name":"商场","address":"\"太仓路181弄新天地北里15号\r\n\""},{"poiid":"B209475CD564A7F8439E","title":"上海滩中信泰富店","lon":"121.45602","lat":"31.22851","category":"119","category_name":"商场","address":"\"南京西路1168号中信泰富广场，店铺号221.\r\n\""},{"poiid":"B2094757D06FA3FC489D","title":"屋企汤馆 淮海店","lon":"121.4708246443","lat":"31.221864028321","category":"72","category_name":"广东菜","address":"卢湾区淮海中路438号2楼(近重庆南路)"},{"poiid":"B2094757D064A5FD489B","title":"典谟新知咖啡馆","lon":"121.470884738","lat":"31.2210811051","category":"260","category_name":"其他","address":"卢湾区兴安路139号(近淮海路雁荡路)"},{"poiid":"B2094655D26BA3FC469D","title":"揽香精萃时尚餐厅","lon":"121.47306","lat":"31.2221","category":"260","category_name":"其他","address":"卢湾区淮海中路381号中环广场2-3楼(近重庆南路)"},{"poiid":"B2094751D56FABFF499A","title":"Home Thai（上海K11店）","lon":"121.471195","lat":"31.220142","category":"247","category_name":"餐饮美食","address":"上海市 淮海中路300号上海K11购物艺术中心401"},{"poiid":"B2094753D76CA2F4449C","title":"查厘士","lon":"121.471084","lat":"31.221948","category":"247","category_name":"餐饮美食","address":"上海市 淮海路438号"},{"poiid":"B2094757D06FA2F8489C","title":"金牛苑(淮海中路店)","lon":"121.47315","lat":"31.22208","category":"47","category_name":"住宅区","address":"卢湾区淮海中路381号中环广场3楼(近马当路)"},{"poiid":"B2094750D56EA5F5419C","title":"say cheese 甜品.家","lon":"121.471335","lat":"31.220279","category":"247","category_name":"餐饮美食","address":"卢湾区重庆南路30弄1号(近淮海中路)"},{"poiid":"B2094757D06FA2FE4792","title":"鲜得来排骨年糕(雁荡店)","lon":"121.47033","lat":"31.22059","category":"68","category_name":"快餐厅","address":"卢湾区雁荡路9号(近兴安路)"},{"poiid":"B2094751D56FABFF4592","title":"Charme 港丽（上海K11店）","lon":"121.471367","lat":"31.219261","category":"247","category_name":"餐饮美食","address":"上海市 淮海中路300号上海K11购物艺术中心301/307"},{"poiid":"B2094751D56FABFF499C","title":"Element Fresh 新元素（上海K11店）","lon":"121.471024","lat":"31.219848","category":"247","category_name":"餐饮美食","address":"上海市 淮海中路300号上海K11购物艺术中心402"},{"poiid":"B2094751D56FABFF4698","title":"Gatten Sushi 合点寿司（上海K11店）","lon":"121.470852","lat":"31.220142","category":"247","category_name":"餐饮美食","address":"上海市 淮海中路300号上海K11购物艺术中心302"},{"poiid":"B2094757D16FA2FF499E","title":"颐东海港名厨","lon":"121.472683038","lat":"31.222152028","category":"72","category_name":"广东菜","address":"卢湾区淮海中路381号中环广场4楼(近淡水路)"},{"poiid":"B2094751D56FABFF469F","title":"g  极食（上海K11店）","lon":"121.471882","lat":"31.220876","category":"247","category_name":"餐饮美食","address":"上海市 淮海中路300号上海K11购物艺术中心303"},{"poiid":"B2094751D56FABF8419B","title":"Celeb de Tomato 铭品番茄（上海K11店）","lon":"121.470852","lat":"31.219114","category":"247","category_name":"餐饮美食","address":"上海市 淮海中路300号上海K11购物艺术中心406"},{"poiid":"B2094757D168A5FB469D","title":"Initial新天地","lon":"121.47131183","lat":"31.221172036","category":"500","category_name":"未知分类","address":"上海新天地UME 1楼"},{"poiid":"B2094654DB69A5FD409B","title":"好乐迪(淮海中路店)","lon":"121.47101","lat":"31.222","category":"170","category_name":"KTV","address":"卢湾区淮海中路438号4-5楼(近重庆南路)"},{"poiid":"B2094757D06FA2FC489D","title":"禾绿回转寿司(淮海店)","lon":"121.471866738","lat":"31.2220071249","category":"95","category_name":"日本料理","address":"卢湾区淮海中路352号(近马当路)"},{"poiid":"B2094757D068A2F5449F","title":"世纪巴士大厦","lon":"121.47163462","lat":"31.222440357","category":"46","category_name":"楼宇","address":"上海淮海中路398号"},{"poiid":"B2094751D56FABFA409C","title":"Baker&Spice 香溢培客（上海K11店）","lon":"121.470852","lat":"31.219701","category":"247","category_name":"餐饮美食","address":"上海市 淮海中路300号上海K11购物艺术中心B127-B129"},{"poiid":"B2094655D26AAAF54398","title":"东田造型淮海中路店","lon":"121.47306","lat":"31.2221","category":"148","category_name":"美容美发店","address":"卢湾区淮海中路381号中环广场2楼208室(近马当路)"},{"poiid":"B2094751D56FABFF4693","title":"Hanamaru Udon 花丸乌冬面（上海K11店）","lon":"121.471539","lat":"31.219555","category":"247","category_name":"餐饮美食","address":"上海市 淮海中路300号上海K11购物艺术中心304"},{"poiid":"B2094750D26DA7F84799","title":"清风人家","lon":"121.47091","lat":"31.22203","category":"260","category_name":"其他","address":"卢湾区淮海中路438号B1楼(近重庆南路)"},{"poiid":"B2094654DB6BA4FA419F","title":"伊藤家(中环店)","lon":"121.47282","lat":"31.22196","category":"95","category_name":"日本料理","address":"卢湾区淮海中路381号中环广场3楼(近马当路)"},{"poiid":"B2094757D66FA1F5449C","title":"好乐的(淮海店)","lon":"121.47069161","lat":"31.221906582","category":"249","category_name":"购物服务","address":"上海淮海中路1543号"},{"poiid":"B2094654DA6EA1F9499F","title":"民防大厦","lon":"121.471","lat":"31.2202","category":"46","category_name":"楼宇","address":"龙蟠南路33号(龙蟠南路与秦虹路交汇处,秦淮区政府对面)"},{"poiid":"B2094750DB6AA5F84798","title":"一町奶茶(淮海路店)","lon":"121.470686","lat":"31.221858","category":"113","category_name":"冷饮店","address":"卢湾区老重庆中路54号(近长乐路)"},{"poiid":"B2094757D069A4FF4699","title":"lv旗舰店","lon":"121.47127873","lat":"31.220801099","category":"500","category_name":"未知分类","address":"上海淮海路嵩山路"},{"poiid":"B2094757D068A3FD459F","title":"沧浪亭(重庆路店)","lon":"121.47132","lat":"31.2213","category":"87","category_name":"特色／地方风味餐厅","address":"卢湾区老重庆中路好乐迪对面(淮海中路口)"},{"poiid":"B2094757D464ABF4459A","title":"金城酒家","lon":"121.47037211893","lat":"31.220679186676","category":"76","category_name":"上海菜","address":"卢湾区兴安路149号(近雁荡路)"},{"poiid":"B2094751D56FABFB4093","title":"Tuttimelon（上海K11店）","lon":"121.47274","lat":"31.221169","category":"247","category_name":"餐饮美食","address":"上海市 淮海中路300号上海K11购物艺术中心B213/B246"},{"poiid":"B2094757D16CAAF94992","title":"南昌路","lon":"121.47206173","lat":"31.221032104","category":"500","category_name":"未知分类","address":"上海卢湾区南昌路"},{"poiid":"B2094654DA6DABFB479A","title":"兴安餐厅","lon":"121.470078054","lat":"31.220802793","category":"68","category_name":"快餐厅","address":"卢湾区兴安路145号(近雁荡路)"},{"poiid":"B2094757D065A4F5419D","title":"Wagas","lon":"121.473691738","lat":"31.2212781093","category":"500","category_name":"未知分类","address":"上海ShanghaiLuwanJulu Rd"},{"poiid":"B2094751D56FABF4409C","title":"Costa 咖世家（上海K11店）","lon":"121.471367","lat":"31.219701","category":"247","category_name":"餐饮美食","address":"淮海中路300号上海K11购物艺术中心B223/B225"},{"poiid":"B2094757D06FA7F54399","title":"香黛广场","lon":"121.47153","lat":"31.2218","category":"249","category_name":"购物服务","address":"卢湾区淮海中路417号(近重庆南路)"},{"poiid":"B2094757D06EAAFE479E","title":"刘娟美甲(淮海中路一店)","lon":"121.47222","lat":"31.22163","category":"122","category_name":"个人用品/化妆品店","address":"卢湾区淮海中路417号香黛广场73号(近重庆南路)"},{"poiid":"B209475CD26BA5F5499D","title":"查理士","lon":"121.471008","lat":"31.221706","category":"247","category_name":"餐饮美食","address":"上海市 淮海中路447号"},{"poiid":"B2094757D16CABFA4098","title":"上海医药大厦","lon":"121.47355428","lat":"31.221216408","category":"46","category_name":"楼宇","address":"上海市静安区南京西路555号"},{"poiid":"B2094757D06FA6FF409F","title":"铂金大厦(原凯德·新茂大厦)","lon":"121.47360297","lat":"31.220712468","category":"46","category_name":"楼宇","address":"上海卢湾区太仓路233号(近马当路)"},{"poiid":"B2094757D06AAAFE4499","title":"佳鸣海鲜火锅楼","lon":"121.470263","lat":"31.220876","category":"86","category_name":"火锅店","address":"卢湾区兴安路167号(近雁荡路)"},{"poiid":"B2094757D068A0FA419F","title":"招商银行(淮中支行)","lon":"121.47235","lat":"31.2223","category":"46","category_name":"楼宇","address":"卢湾区淮海中路398号(淡水路淮海中路)"},{"poiid":"B2094751D56FABF44792","title":"Blink（上海K11店）","lon":"121.472225","lat":"31.219995","category":"247","category_name":"餐饮美食","address":"上海市 淮海中路300号上海K11购物艺术中心B234"},{"poiid":"B2094751D56FABF84092","title":"Azul Urban（上海K11店）","lon":"121.470509","lat":"31.220142","category":"247","category_name":"餐饮美食","address":"上海市 淮海中路300号上海K11购物艺术中心404"},{"poiid":"B2094757D068A5FB419B","title":"Kevin造型(重庆南路店)","lon":"121.47165","lat":"31.21987","category":"148","category_name":"美容美发店","address":"卢湾区重庆南路22号(近淮海中路)"}]