[{"poiid":"B2094654DB65A1FE489B","title":"徐家汇公园","lon":"121.44232","lat":"31.19693","category":"196","category_name":"公园","address":"上海市肇嘉浜路"},{"poiid":"B2094757D06FA3FF429A","title":"金钱豹(汇金店)","lon":"121.44293337","lat":"31.195333578","category":"268","category_name":"自助","address":"徐汇区肇嘉浜路1000号汇金百货8楼(近天平路)"},{"poiid":"B2094654DB69ABF9469A","title":"三人行骨头王火锅(徐汇总店)","lon":"121.44548","lat":"31.19707","category":"86","category_name":"火锅店","address":"徐汇区肇嘉浜路879号(近宛平南路)"},{"poiid":"B2094757D06FA2FB469A","title":"恒悦轩(徐汇店)","lon":"121.44404","lat":"31.19737","category":"72","category_name":"广东菜","address":"徐汇区宛平路290号徐家汇公园内(近肇嘉浜路)"},{"poiid":"B2094757D06FA3F84199","title":"三顾牛蛙馆(肇嘉浜路店)","lon":"121.44556","lat":"31.1966","category":"71","category_name":"四川菜","address":"徐汇区肇嘉浜路883号(宛平路口)"},{"poiid":"B2094757D06BA1FE499A","title":"大蔬WJ","lon":"121.44187058","lat":"31.19594176","category":"89","category_name":"中式素餐馆","address":"上海市徐汇区天平路392号"},{"poiid":"B2094751DA6CA6F84298","title":"initial Restaurant & Wine","lon":"121.441311","lat":"31.197225","category":"247","category_name":"餐饮美食","address":"上海市徐汇区衡山路838-2号1-2层(衡山电影院旁)"},{"poiid":"B2094654DB6BA5FE4393","title":"圣爱大厦","lon":"121.444","lat":"31.1979","category":"46","category_name":"楼宇","address":"上海漕溪北路88号"},{"poiid":"B2094654DA6DA6FC469A","title":"宛平宾馆","lon":"121.44502","lat":"31.19814","category":"214","category_name":"四星级宾馆","address":"徐汇区宛平路315号(近肇嘉浜路)"},{"poiid":"B2094757D068A2FD469D","title":"小紅樓 La Villa Rouge","lon":"121.44154357","lat":"31.198003768","category":"247","category_name":"餐饮美食","address":"中国上海市徐匯區衡山路811号"},{"poiid":"B2094757D068A0F4489B","title":"The Park Tavern","lon":"121.4408","lat":"31.1965","category":"500","category_name":"未知分类","address":"徐汇区衡山路840号(近天平路)"},{"poiid":"B2094757D06FABFA4593","title":"汇智大厦","lon":"121.443","lat":"31.1938","category":"46","category_name":"楼宇","address":"上海市,漕溪北路398号汇智大厦202室"},{"poiid":"B2094757D06FA6FD489D","title":"亚都商务楼","lon":"121.444836","lat":"31.195017","category":"46","category_name":"楼宇","address":"上海南丹东路300弄9号"},{"poiid":"B2094757D068A3FA4598","title":"小白桦酒家","lon":"121.44454","lat":"31.19819","category":"76","category_name":"上海菜","address":"徐汇区宛平路297弄3号(近肇嘉浜路)"},{"poiid":"B2094757D06FABF5459E","title":"徐家汇公园篮球场","lon":"121.44290315","lat":"31.196756486","category":"220","category_name":"运动场所","address":"徐汇区肇嘉浜路889号(天平路宛平路间)"},{"poiid":"B2094655D268A6FB439C","title":"徐家汇公园运动场","lon":"121.44355","lat":"31.1984","category":"220","category_name":"运动场所","address":""},{"poiid":"B2094655D26FA3FD4598","title":"苏宁电器肇嘉滨路店","lon":"121.44357","lat":"31.19593","category":"138","category_name":"家电电子卖场","address":"肇嘉浜路929号"},{"poiid":"B2094757D068A7F4409D","title":"皇城根老北京涮羊肉(宛平路店)","lon":"121.44464","lat":"31.19842","category":"86","category_name":"火锅店","address":"徐汇区宛平路297弄1号后门(近肇嘉浜路)"},{"poiid":"B2094757D06FA2FD4093","title":"道顿堀酷酷璐章鱼丸子(肇嘉浜路店)","lon":"121.441845586","lat":"31.1949486747","category":"95","category_name":"日本料理","address":"徐汇区肇嘉浜路1033号徐家汇国际大厦1楼(近百思买)"},{"poiid":"B2094751DA6BABFE489F","title":"金钱豹国际美食百汇","lon":"121.440776","lat":"31.195204","category":"247","category_name":"餐饮美食","address":"上海市肇嘉浜路1000号汇金百货8楼"},{"poiid":"B2094654DA6DA0FC499C","title":"中国移动肇嘉浜路营业厅","lon":"121.44302","lat":"31.1956","category":"151","category_name":"电讯营业厅","address":"上海徐汇区肇嘉浜路969号"},{"poiid":"B2094655D26BA2F84893","title":"天平路","lon":"121.4429","lat":"31.19623","category":"38","category_name":"公交车站","address":""},{"poiid":"B209475DDA6FA3F94793","title":"Pizza Express","lon":"121.443565","lat":"31.196567","category":"247","category_name":"餐饮美食","address":"上海市 徐汇区虹桥路1号港汇恒隆广场5楼507B"},{"poiid":"B2094654DB6BA5F8499C","title":"苏宁电器(肇家浜路店)","lon":"121.44357","lat":"31.19593","category":"138","category_name":"家电电子卖场","address":"肇嘉浜路919、929、939号"},{"poiid":"B2094757D569A1F8409E","title":"圣爱广场","lon":"121.444","lat":"31.1984","category":"46","category_name":"楼宇","address":"上海市徐汇区漕溪北路88号"},{"poiid":"B2094757D06FA7F54298","title":"徐家匯花園","lon":"121.44533538","lat":"31.196586608","category":"252","category_name":"楼宇机构","address":"上海宛平南路255弄"},{"poiid":"B2094757D164A0F94893","title":"文思创新","lon":"121.442847936","lat":"31.1958365085","category":"46","category_name":"楼宇","address":"上海龙漕路299号天华信息科技园4号楼"},{"poiid":"B2094757D06AA6FB429F","title":"福荣祥茶餐厅","lon":"121.44480258","lat":"31.19646877","category":"72","category_name":"广东菜","address":"徐汇区宛平南路3号"},{"poiid":"B2094654DB6BA5F8489E","title":"上海帝景苑酒店公寓","lon":"121.44243","lat":"31.19513","category":"214","category_name":"四星级宾馆","address":"徐汇区肇嘉浜路999弄88号(近天平路)"},{"poiid":"B2094757D068A3F54993","title":"国美电器(徐汇店)","lon":"121.442501","lat":"31.195345","category":"138","category_name":"家电电子卖场","address":"徐汇区肇嘉浜路989号(近中国民生银行)"},{"poiid":"B2094757D16AA6F44093","title":"特色桂林米粉","lon":"121.443061829","lat":"31.1967544556","category":"247","category_name":"餐饮美食","address":"上海广元路天平路口"},{"poiid":"B2094655D36CA3FB469A","title":"多普达苏宁徐汇店","lon":"121.44328","lat":"31.19581","category":"138","category_name":"家电电子卖场","address":"肇嘉浜路955号"},{"poiid":"B2094752D164A5F4499C","title":"新衡山电影院","lon":"121.444099","lat":"31.196966","category":"178","category_name":"电影院","address":null},{"poiid":"B2094655D264A4FA4498","title":"飞利浦苏宁上海肇嘉浜路店","lon":"121.44356","lat":"31.19594","category":"138","category_name":"家电电子卖场","address":"肇嘉浜路929号"},{"poiid":"B2094750D26AABFB4798","title":"星牌桌球","lon":"121.443237","lat":"31.194593","category":"248","category_name":"生活娱乐","address":"辛耕路"},{"poiid":"B2094750DA6BABFB489C","title":"汇金商场八楼金钱豹","lon":"121.44271","lat":"31.195001","category":"247","category_name":"餐饮美食","address":"徐家汇肇家浜路1000号"},{"poiid":"B2094655D268A7FB4598","title":"平安银行上海徐家汇支行","lon":"121.44309","lat":"31.19567","category":"150","category_name":"银行","address":"肇嘉浜路959"},{"poiid":"B2094654DB69A6FD489A","title":"宝良商务楼","lon":"121.44477","lat":"31.19672","category":"46","category_name":"楼宇","address":"浦东区崂山东路410号"},{"poiid":"B2094654DB6BA5F8499D","title":"花旗银行(中国)上海徐家汇支行","lon":"121.4434","lat":"31.19584","category":"150","category_name":"银行","address":"肇嘉浜路955-5号"},{"poiid":"B2094654DA6DA0FC499E","title":"兴业银行上海华山支行","lon":"121.44384","lat":"31.19614","category":"150","category_name":"银行","address":"徐汇区肇嘉浜路909号(宛平南路肇嘉浜路)"},{"poiid":"B2094655D36DA7FE439E","title":"肇嘉浜路天平路徐家汇","lon":"121.44177","lat":"31.1956","category":"38","category_name":"公交车站","address":""},{"poiid":"B2094757D66FA6FE4393","title":"htc","lon":"121.44354158","lat":"31.19642677","category":"249","category_name":"购物服务","address":"上海市徐汇区华山路"},{"poiid":"B2094654DB6AA3FF449B","title":"帝景苑","lon":"121.44332","lat":"31.19513","category":"47","category_name":"住宅区","address":"肇嘉浜路889"},{"poiid":"B2094757D16DA0F44792","title":"宛平宾馆宴会厅","lon":"121.44423","lat":"31.19776","category":"217","category_name":"旅馆招待所","address":"徐汇区宛平路315号宛平宾馆内(近衡山路)查看地图"},{"poiid":"B209475CD26FA3FA429F","title":"浮生若茶","lon":"121.442726","lat":"31.196931","category":"500","category_name":"未知分类","address":"上海市 天平路238号"},{"poiid":"B2094757D064ABFA459B","title":"汉庭全季酒店","lon":"121.44144732","lat":"31.195004083","category":"217","category_name":"旅馆招待所","address":"徐汇区肇嘉浜路1065号(天钥桥路口)"},{"poiid":"B2094655D264A0F84798","title":"如家快捷酒店(上海徐家汇宛平南路店)","lon":"121.4455","lat":"31.19594","category":"216","category_name":"经济型连锁酒店","address":"上海市徐汇区宛平南路65号(近肇家浜路)"},{"poiid":"B2094757D165A3FA449A","title":"酷酷璐章鱼小丸子","lon":"121.44160558","lat":"31.196159764","category":"247","category_name":"餐饮美食","address":"上海市徐汇区华山路"},{"poiid":"B2094757D065ABF4409A","title":"宏图三胞(帝景苑店)","lon":"121.442796","lat":"31.19549","category":"138","category_name":"家电电子卖场","address":"徐汇区肇嘉浜路979号帝景苑(汇金百货对面)"},{"poiid":"B209475CD16CAAFF4393","title":"马丁餐厅 (原小红楼) Restaurant Martin","lon":"121.441286054","lat":"31.196526793","category":"94","category_name":"西餐厅","address":"衡山路811号徐家汇公园内近余庆路"},{"poiid":"B2094654DB65A1FE489B","title":"徐家汇公园","lon":"121.44232","lat":"31.19693","category":"196","category_name":"公园","address":"上海市肇嘉浜路"},{"poiid":"B2094757D06FA3FF429A","title":"金钱豹(汇金店)","lon":"121.44293337","lat":"31.195333578","category":"268","category_name":"自助","address":"徐汇区肇嘉浜路1000号汇金百货8楼(近天平路)"},{"poiid":"B2094654DB69ABF9469A","title":"三人行骨头王火锅(徐汇总店)","lon":"121.44548","lat":"31.19707","category":"86","category_name":"火锅店","address":"徐汇区肇嘉浜路879号(近宛平南路)"},{"poiid":"B2094757D06FA2FB469A","title":"恒悦轩(徐汇店)","lon":"121.44404","lat":"31.19737","category":"72","category_name":"广东菜","address":"徐汇区宛平路290号徐家汇公园内(近肇嘉浜路)"},{"poiid":"B2094757D06FA3F84199","title":"三顾牛蛙馆(肇嘉浜路店)","lon":"121.44556","lat":"31.1966","category":"71","category_name":"四川菜","address":"徐汇区肇嘉浜路883号(宛平路口)"},{"poiid":"B2094757D06BA1FE499A","title":"大蔬WJ","lon":"121.44187058","lat":"31.19594176","category":"89","category_name":"中式素餐馆","address":"上海市徐汇区天平路392号"},{"poiid":"B2094751DA6CA6F84298","title":"initial Restaurant & Wine","lon":"121.441311","lat":"31.197225","category":"247","category_name":"餐饮美食","address":"上海市徐汇区衡山路838-2号1-2层(衡山电影院旁)"},{"poiid":"B2094654DB6BA5FE4393","title":"圣爱大厦","lon":"121.444","lat":"31.1979","category":"46","category_name":"楼宇","address":"上海漕溪北路88号"},{"poiid":"B2094654DA6DA6FC469A","title":"宛平宾馆","lon":"121.44502","lat":"31.19814","category":"214","category_name":"四星级宾馆","address":"徐汇区宛平路315号(近肇嘉浜路)"},{"poiid":"B2094757D068A2FD469D","title":"小紅樓 La Villa Rouge","lon":"121.44154357","lat":"31.198003768","category":"247","category_name":"餐饮美食","address":"中国上海市徐匯區衡山路811号"},{"poiid":"B2094757D068A0F4489B","title":"The Park Tavern","lon":"121.4408","lat":"31.1965","category":"500","category_name":"未知分类","address":"徐汇区衡山路840号(近天平路)"},{"poiid":"B2094757D06FABFA4593","title":"汇智大厦","lon":"121.443","lat":"31.1938","category":"46","category_name":"楼宇","address":"上海市,漕溪北路398号汇智大厦202室"},{"poiid":"B2094757D06FA6FD489D","title":"亚都商务楼","lon":"121.444836","lat":"31.195017","category":"46","category_name":"楼宇","address":"上海南丹东路300弄9号"},{"poiid":"B2094757D068A3FA4598","title":"小白桦酒家","lon":"121.44454","lat":"31.19819","category":"76","category_name":"上海菜","address":"徐汇区宛平路297弄3号(近肇嘉浜路)"},{"poiid":"B2094757D06FABF5459E","title":"徐家汇公园篮球场","lon":"121.44290315","lat":"31.196756486","category":"220","category_name":"运动场所","address":"徐汇区肇嘉浜路889号(天平路宛平路间)"},{"poiid":"B2094655D268A6FB439C","title":"徐家汇公园运动场","lon":"121.44355","lat":"31.1984","category":"220","category_name":"运动场所","address":""},{"poiid":"B2094655D26FA3FD4598","title":"苏宁电器肇嘉滨路店","lon":"121.44357","lat":"31.19593","category":"138","category_name":"家电电子卖场","address":"肇嘉浜路929号"},{"poiid":"B2094757D068A7F4409D","title":"皇城根老北京涮羊肉(宛平路店)","lon":"121.44464","lat":"31.19842","category":"86","category_name":"火锅店","address":"徐汇区宛平路297弄1号后门(近肇嘉浜路)"},{"poiid":"B2094757D06FA2FD4093","title":"道顿堀酷酷璐章鱼丸子(肇嘉浜路店)","lon":"121.441845586","lat":"31.1949486747","category":"95","category_name":"日本料理","address":"徐汇区肇嘉浜路1033号徐家汇国际大厦1楼(近百思买)"},{"poiid":"B2094751DA6BABFE489F","title":"金钱豹国际美食百汇","lon":"121.440776","lat":"31.195204","category":"247","category_name":"餐饮美食","address":"上海市肇嘉浜路1000号汇金百货8楼"},{"poiid":"B2094654DA6DA0FC499C","title":"中国移动肇嘉浜路营业厅","lon":"121.44302","lat":"31.1956","category":"151","category_name":"电讯营业厅","address":"上海徐汇区肇嘉浜路969号"},{"poiid":"B2094655D26BA2F84893","title":"天平路","lon":"121.4429","lat":"31.19623","category":"38","category_name":"公交车站","address":""},{"poiid":"B209475DDA6FA3F94793","title":"Pizza Express","lon":"121.443565","lat":"31.196567","category":"247","category_name":"餐饮美食","address":"上海市 徐汇区虹桥路1号港汇恒隆广场5楼507B"},{"poiid":"B2094654DB6BA5F8499C","title":"苏宁电器(肇家浜路店)","lon":"121.44357","lat":"31.19593","category":"138","category_name":"家电电子卖场","address":"肇嘉浜路919、929、939号"},{"poiid":"B2094757D569A1F8409E","title":"圣爱广场","lon":"121.444","lat":"31.1984","category":"46","category_name":"楼宇","address":"上海市徐汇区漕溪北路88号"},{"poiid":"B2094757D06FA7F54298","title":"徐家匯花園","lon":"121.44533538","lat":"31.196586608","category":"252","category_name":"楼宇机构","address":"上海宛平南路255弄"},{"poiid":"B2094757D164A0F94893","title":"文思创新","lon":"121.442847936","lat":"31.1958365085","category":"46","category_name":"楼宇","address":"上海龙漕路299号天华信息科技园4号楼"},{"poiid":"B2094757D06AA6FB429F","title":"福荣祥茶餐厅","lon":"121.44480258","lat":"31.19646877","category":"72","category_name":"广东菜","address":"徐汇区宛平南路3号"},{"poiid":"B2094654DB6BA5F8489E","title":"上海帝景苑酒店公寓","lon":"121.44243","lat":"31.19513","category":"214","category_name":"四星级宾馆","address":"徐汇区肇嘉浜路999弄88号(近天平路)"},{"poiid":"B2094757D068A3F54993","title":"国美电器(徐汇店)","lon":"121.442501","lat":"31.195345","category":"138","category_name":"家电电子卖场","address":"徐汇区肇嘉浜路989号(近中国民生银行)"},{"poiid":"B2094757D16AA6F44093","title":"特色桂林米粉","lon":"121.443061829","lat":"31.1967544556","category":"247","category_name":"餐饮美食","address":"上海广元路天平路口"},{"poiid":"B2094655D36CA3FB469A","title":"多普达苏宁徐汇店","lon":"121.44328","lat":"31.19581","category":"138","category_name":"家电电子卖场","address":"肇嘉浜路955号"},{"poiid":"B2094752D164A5F4499C","title":"新衡山电影院","lon":"121.444099","lat":"31.196966","category":"178","category_name":"电影院","address":null},{"poiid":"B2094655D264A4FA4498","title":"飞利浦苏宁上海肇嘉浜路店","lon":"121.44356","lat":"31.19594","category":"138","category_name":"家电电子卖场","address":"肇嘉浜路929号"},{"poiid":"B2094750D26AABFB4798","title":"星牌桌球","lon":"121.443237","lat":"31.194593","category":"248","category_name":"生活娱乐","address":"辛耕路"},{"poiid":"B2094750DA6BABFB489C","title":"汇金商场八楼金钱豹","lon":"121.44271","lat":"31.195001","category":"247","category_name":"餐饮美食","address":"徐家汇肇家浜路1000号"},{"poiid":"B2094655D268A7FB4598","title":"平安银行上海徐家汇支行","lon":"121.44309","lat":"31.19567","category":"150","category_name":"银行","address":"肇嘉浜路959"},{"poiid":"B2094654DB69A6FD489A","title":"宝良商务楼","lon":"121.44477","lat":"31.19672","category":"46","category_name":"楼宇","address":"浦东区崂山东路410号"},{"poiid":"B2094654DB6BA5F8499D","title":"花旗银行(中国)上海徐家汇支行","lon":"121.4434","lat":"31.19584","category":"150","category_name":"银行","address":"肇嘉浜路955-5号"},{"poiid":"B2094654DA6DA0FC499E","title":"兴业银行上海华山支行","lon":"121.44384","lat":"31.19614","category":"150","category_name":"银行","address":"徐汇区肇嘉浜路909号(宛平南路肇嘉浜路)"},{"poiid":"B2094655D36DA7FE439E","title":"肇嘉浜路天平路徐家汇","lon":"121.44177","lat":"31.1956","category":"38","category_name":"公交车站","address":""},{"poiid":"B2094757D66FA6FE4393","title":"htc","lon":"121.44354158","lat":"31.19642677","category":"249","category_name":"购物服务","address":"上海市徐汇区华山路"},{"poiid":"B2094654DB6AA3FF449B","title":"帝景苑","lon":"121.44332","lat":"31.19513","category":"47","category_name":"住宅区","address":"肇嘉浜路889"},{"poiid":"B2094757D16DA0F44792","title":"宛平宾馆宴会厅","lon":"121.44423","lat":"31.19776","category":"217","category_name":"旅馆招待所","address":"徐汇区宛平路315号宛平宾馆内(近衡山路)查看地图"},{"poiid":"B209475CD26FA3FA429F","title":"浮生若茶","lon":"121.442726","lat":"31.196931","category":"500","category_name":"未知分类","address":"上海市 天平路238号"},{"poiid":"B2094757D064ABFA459B","title":"汉庭全季酒店","lon":"121.44144732","lat":"31.195004083","category":"217","category_name":"旅馆招待所","address":"徐汇区肇嘉浜路1065号(天钥桥路口)"},{"poiid":"B2094655D264A0F84798","title":"如家快捷酒店(上海徐家汇宛平南路店)","lon":"121.4455","lat":"31.19594","category":"216","category_name":"经济型连锁酒店","address":"上海市徐汇区宛平南路65号(近肇家浜路)"},{"poiid":"B2094757D165A3FA449A","title":"酷酷璐章鱼小丸子","lon":"121.44160558","lat":"31.196159764","category":"247","category_name":"餐饮美食","address":"上海市徐汇区华山路"},{"poiid":"B2094757D065ABF4409A","title":"宏图三胞(帝景苑店)","lon":"121.442796","lat":"31.19549","category":"138","category_name":"家电电子卖场","address":"徐汇区肇嘉浜路979号帝景苑(汇金百货对面)"},{"poiid":"B209475CD16CAAFF4393","title":"马丁餐厅 (原小红楼) Restaurant Martin","lon":"121.441286054","lat":"31.196526793","category":"94","category_name":"西餐厅","address":"衡山路811号徐家汇公园内近余庆路"},{"poiid":"B2094654DB65A1FE489B","title":"徐家汇公园","lon":"121.44232","lat":"31.19693","category":"196","category_name":"公园","address":"上海市肇嘉浜路"},{"poiid":"B2094757D06FA3FF429A","title":"金钱豹(汇金店)","lon":"121.44293337","lat":"31.195333578","category":"268","category_name":"自助","address":"徐汇区肇嘉浜路1000号汇金百货8楼(近天平路)"},{"poiid":"B2094654DB69ABF9469A","title":"三人行骨头王火锅(徐汇总店)","lon":"121.44548","lat":"31.19707","category":"86","category_name":"火锅店","address":"徐汇区肇嘉浜路879号(近宛平南路)"},{"poiid":"B2094757D06FA2FB469A","title":"恒悦轩(徐汇店)","lon":"121.44404","lat":"31.19737","category":"72","category_name":"广东菜","address":"徐汇区宛平路290号徐家汇公园内(近肇嘉浜路)"},{"poiid":"B2094757D06FA3F84199","title":"三顾牛蛙馆(肇嘉浜路店)","lon":"121.44556","lat":"31.1966","category":"71","category_name":"四川菜","address":"徐汇区肇嘉浜路883号(宛平路口)"},{"poiid":"B2094757D06BA1FE499A","title":"大蔬WJ","lon":"121.44187058","lat":"31.19594176","category":"89","category_name":"中式素餐馆","address":"上海市徐汇区天平路392号"},{"poiid":"B2094751DA6CA6F84298","title":"initial Restaurant & Wine","lon":"121.441311","lat":"31.197225","category":"247","category_name":"餐饮美食","address":"上海市徐汇区衡山路838-2号1-2层(衡山电影院旁)"},{"poiid":"B2094654DB6BA5FE4393","title":"圣爱大厦","lon":"121.444","lat":"31.1979","category":"46","category_name":"楼宇","address":"上海漕溪北路88号"},{"poiid":"B2094654DA6DA6FC469A","title":"宛平宾馆","lon":"121.44502","lat":"31.19814","category":"214","category_name":"四星级宾馆","address":"徐汇区宛平路315号(近肇嘉浜路)"},{"poiid":"B2094757D068A2FD469D","title":"小紅樓 La Villa Rouge","lon":"121.44154357","lat":"31.198003768","category":"247","category_name":"餐饮美食","address":"中国上海市徐匯區衡山路811号"},{"poiid":"B2094757D068A0F4489B","title":"The Park Tavern","lon":"121.4408","lat":"31.1965","category":"500","category_name":"未知分类","address":"徐汇区衡山路840号(近天平路)"},{"poiid":"B2094757D06FABFA4593","title":"汇智大厦","lon":"121.443","lat":"31.1938","category":"46","category_name":"楼宇","address":"上海市,漕溪北路398号汇智大厦202室"},{"poiid":"B2094757D06FA6FD489D","title":"亚都商务楼","lon":"121.444836","lat":"31.195017","category":"46","category_name":"楼宇","address":"上海南丹东路300弄9号"},{"poiid":"B2094757D068A3FA4598","title":"小白桦酒家","lon":"121.44454","lat":"31.19819","category":"76","category_name":"上海菜","address":"徐汇区宛平路297弄3号(近肇嘉浜路)"},{"poiid":"B2094757D06FABF5459E","title":"徐家汇公园篮球场","lon":"121.44290315","lat":"31.196756486","category":"220","category_name":"运动场所","address":"徐汇区肇嘉浜路889号(天平路宛平路间)"},{"poiid":"B2094655D268A6FB439C","title":"徐家汇公园运动场","lon":"121.44355","lat":"31.1984","category":"220","category_name":"运动场所","address":""},{"poiid":"B2094655D26FA3FD4598","title":"苏宁电器肇嘉滨路店","lon":"121.44357","lat":"31.19593","category":"138","category_name":"家电电子卖场","address":"肇嘉浜路929号"},{"poiid":"B2094757D068A7F4409D","title":"皇城根老北京涮羊肉(宛平路店)","lon":"121.44464","lat":"31.19842","category":"86","category_name":"火锅店","address":"徐汇区宛平路297弄1号后门(近肇嘉浜路)"},{"poiid":"B2094757D06FA2FD4093","title":"道顿堀酷酷璐章鱼丸子(肇嘉浜路店)","lon":"121.441845586","lat":"31.1949486747","category":"95","category_name":"日本料理","address":"徐汇区肇嘉浜路1033号徐家汇国际大厦1楼(近百思买)"},{"poiid":"B2094751DA6BABFE489F","title":"金钱豹国际美食百汇","lon":"121.440776","lat":"31.195204","category":"247","category_name":"餐饮美食","address":"上海市肇嘉浜路1000号汇金百货8楼"},{"poiid":"B2094654DA6DA0FC499C","title":"中国移动肇嘉浜路营业厅","lon":"121.44302","lat":"31.1956","category":"151","category_name":"电讯营业厅","address":"上海徐汇区肇嘉浜路969号"},{"poiid":"B2094655D26BA2F84893","title":"天平路","lon":"121.4429","lat":"31.19623","category":"38","category_name":"公交车站","address":""},{"poiid":"B209475DDA6FA3F94793","title":"Pizza Express","lon":"121.443565","lat":"31.196567","category":"247","category_name":"餐饮美食","address":"上海市 徐汇区虹桥路1号港汇恒隆广场5楼507B"},{"poiid":"B2094654DB6BA5F8499C","title":"苏宁电器(肇家浜路店)","lon":"121.44357","lat":"31.19593","category":"138","category_name":"家电电子卖场","address":"肇嘉浜路919、929、939号"},{"poiid":"B2094757D569A1F8409E","title":"圣爱广场","lon":"121.444","lat":"31.1984","category":"46","category_name":"楼宇","address":"上海市徐汇区漕溪北路88号"},{"poiid":"B2094757D06FA7F54298","title":"徐家匯花園","lon":"121.44533538","lat":"31.196586608","category":"252","category_name":"楼宇机构","address":"上海宛平南路255弄"},{"poiid":"B2094757D164A0F94893","title":"文思创新","lon":"121.442847936","lat":"31.1958365085","category":"46","category_name":"楼宇","address":"上海龙漕路299号天华信息科技园4号楼"},{"poiid":"B2094757D06AA6FB429F","title":"福荣祥茶餐厅","lon":"121.44480258","lat":"31.19646877","category":"72","category_name":"广东菜","address":"徐汇区宛平南路3号"},{"poiid":"B2094654DB6BA5F8489E","title":"上海帝景苑酒店公寓","lon":"121.44243","lat":"31.19513","category":"214","category_name":"四星级宾馆","address":"徐汇区肇嘉浜路999弄88号(近天平路)"},{"poiid":"B2094757D068A3F54993","title":"国美电器(徐汇店)","lon":"121.442501","lat":"31.195345","category":"138","category_name":"家电电子卖场","address":"徐汇区肇嘉浜路989号(近中国民生银行)"},{"poiid":"B2094757D16AA6F44093","title":"特色桂林米粉","lon":"121.443061829","lat":"31.1967544556","category":"247","category_name":"餐饮美食","address":"上海广元路天平路口"},{"poiid":"B2094655D36CA3FB469A","title":"多普达苏宁徐汇店","lon":"121.44328","lat":"31.19581","category":"138","category_name":"家电电子卖场","address":"肇嘉浜路955号"},{"poiid":"B2094752D164A5F4499C","title":"新衡山电影院","lon":"121.444099","lat":"31.196966","category":"178","category_name":"电影院","address":null},{"poiid":"B2094655D264A4FA4498","title":"飞利浦苏宁上海肇嘉浜路店","lon":"121.44356","lat":"31.19594","category":"138","category_name":"家电电子卖场","address":"肇嘉浜路929号"},{"poiid":"B2094750D26AABFB4798","title":"星牌桌球","lon":"121.443237","lat":"31.194593","category":"248","category_name":"生活娱乐","address":"辛耕路"},{"poiid":"B2094750DA6BABFB489C","title":"汇金商场八楼金钱豹","lon":"121.44271","lat":"31.195001","category":"247","category_name":"餐饮美食","address":"徐家汇肇家浜路1000号"},{"poiid":"B2094655D268A7FB4598","title":"平安银行上海徐家汇支行","lon":"121.44309","lat":"31.19567","category":"150","category_name":"银行","address":"肇嘉浜路959"},{"poiid":"B2094654DB69A6FD489A","title":"宝良商务楼","lon":"121.44477","lat":"31.19672","category":"46","category_name":"楼宇","address":"浦东区崂山东路410号"},{"poiid":"B2094654DB6BA5F8499D","title":"花旗银行(中国)上海徐家汇支行","lon":"121.4434","lat":"31.19584","category":"150","category_name":"银行","address":"肇嘉浜路955-5号"},{"poiid":"B2094654DA6DA0FC499E","title":"兴业银行上海华山支行","lon":"121.44384","lat":"31.19614","category":"150","category_name":"银行","address":"徐汇区肇嘉浜路909号(宛平南路肇嘉浜路)"},{"poiid":"B2094655D36DA7FE439E","title":"肇嘉浜路天平路徐家汇","lon":"121.44177","lat":"31.1956","category":"38","category_name":"公交车站","address":""},{"poiid":"B2094757D66FA6FE4393","title":"htc","lon":"121.44354158","lat":"31.19642677","category":"249","category_name":"购物服务","address":"上海市徐汇区华山路"},{"poiid":"B2094654DB6AA3FF449B","title":"帝景苑","lon":"121.44332","lat":"31.19513","category":"47","category_name":"住宅区","address":"肇嘉浜路889"},{"poiid":"B2094757D16DA0F44792","title":"宛平宾馆宴会厅","lon":"121.44423","lat":"31.19776","category":"217","category_name":"旅馆招待所","address":"徐汇区宛平路315号宛平宾馆内(近衡山路)查看地图"},{"poiid":"B209475CD26FA3FA429F","title":"浮生若茶","lon":"121.442726","lat":"31.196931","category":"500","category_name":"未知分类","address":"上海市 天平路238号"},{"poiid":"B2094757D064ABFA459B","title":"汉庭全季酒店","lon":"121.44144732","lat":"31.195004083","category":"217","category_name":"旅馆招待所","address":"徐汇区肇嘉浜路1065号(天钥桥路口)"},{"poiid":"B2094655D264A0F84798","title":"如家快捷酒店(上海徐家汇宛平南路店)","lon":"121.4455","lat":"31.19594","category":"216","category_name":"经济型连锁酒店","address":"上海市徐汇区宛平南路65号(近肇家浜路)"},{"poiid":"B2094757D165A3FA449A","title":"酷酷璐章鱼小丸子","lon":"121.44160558","lat":"31.196159764","category":"247","category_name":"餐饮美食","address":"上海市徐汇区华山路"},{"poiid":"B2094757D065ABF4409A","title":"宏图三胞(帝景苑店)","lon":"121.442796","lat":"31.19549","category":"138","category_name":"家电电子卖场","address":"徐汇区肇嘉浜路979号帝景苑(汇金百货对面)"},{"poiid":"B209475CD16CAAFF4393","title":"马丁餐厅 (原小红楼) Restaurant Martin","lon":"121.441286054","lat":"31.196526793","category":"94","category_name":"西餐厅","address":"衡山路811号徐家汇公园内近余庆路"}]