[{"poiid":"B2094757D06FA0F8419E","title":"宏泉丽笙酒店","lon":"121.39765003","lat":"31.260702703","category":"213","category_name":"五星级宾馆","address":"上海普陀区桃浦路210号(近大渡河路)"},{"poiid":"B2094757D06FA2FC4793","title":"家乐福(真北店)","lon":"121.39413","lat":"31.25947","category":"118","category_name":"超级市场","address":"普陀区桃浦路328号(近大渡河路)"},{"poiid":"B2094757D06FA4F54193","title":"桃浦路真北路","lon":"121.39279721","lat":"31.261585202","category":"500","category_name":"未知分类","address":"上海桃浦路真北路"},{"poiid":"B2094757D06FA2FB409F","title":"中鼎豪园","lon":"121.38978","lat":"31.263821","category":"47","category_name":"住宅区","address":"上海市普陀区清涧路68弄"},{"poiid":"B2094757D468A4FB4298","title":"春季海鲜港","lon":"121.3946693","lat":"31.2598593","category":"76","category_name":"上海菜","address":"桃浦路318号近真北路"},{"poiid":"B2094655D26EA2F5409B","title":"上海宏泉丽笙酒店(南门)","lon":"121.39762","lat":"31.26059","category":"656","category_name":"大门","address":"上海市桃浦路210号（近大渡河路）"},{"poiid":"B2094655D264A6F54498","title":"肯德基KFC(真北家乐福店)","lon":"121.39488","lat":"31.2599","category":"68","category_name":"快餐厅","address":"普陀区桃浦路328号家乐福(近大渡河路)"},{"poiid":"B2094757D06FAAF8429F","title":"宏泉丽笙酒店西餐厅","lon":"121.39795","lat":"31.26042","category":"94","category_name":"西餐厅","address":"普陀区桃浦路210号上海宏泉丽笙酒店1楼(近上海西站)"},{"poiid":"B2094655D26DA5F44592","title":"星河世纪城星月蓝湾西区","lon":"121.39389","lat":"31.26205","category":"47","category_name":"住宅区","address":"桃浦路300弄单号"},{"poiid":"B2094654D464AAF94098","title":"星河世纪城樱树芳庭","lon":"121.39402","lat":"31.25939","category":"47","category_name":"住宅区","address":"上海市普陀区桃浦路321弄"},{"poiid":"B2094654D465A3FA4293","title":"明丰世纪苑(南门)","lon":"121.39123","lat":"31.2601","category":"656","category_name":"大门","address":"子洲路680弄"},{"poiid":"B2094757D168A6FF4299","title":"澳门豆捞","lon":"121.39399","lat":"31.2597","category":"86","category_name":"火锅店","address":"普陀区桃浦路328号家乐福旁(近真北路)"},{"poiid":"B2094757D069A1FF499B","title":"萨莉亚(桃浦路店)","lon":"121.39411","lat":"31.25966","category":"94","category_name":"西餐厅","address":"普陀区桃浦路328号家乐福内118A室(近大渡河路)"},{"poiid":"B2094757D068A3F9429A","title":"上海家园","lon":"121.39114","lat":"31.258083","category":"47","category_name":"住宅区","address":"上海市普陀区桃浦路742弄"},{"poiid":"B2094654DB6AABF94092","title":"清涧小区清竹坊","lon":"121.38932","lat":"31.26117","category":"47","category_name":"住宅区","address":"清涧路39弄1-105号"},{"poiid":"B2094654D464AAFE4798","title":"星河世纪城星月蓝湾","lon":"121.39632","lat":"31.26153","category":"47","category_name":"住宅区","address":"上海市普陀区桃浦路368号"},{"poiid":"B2094655D26BA5FE4599","title":"MINI公馆","lon":"121.39038","lat":"31.26126","category":"47","category_name":"住宅区","address":"松江区松汇中路518号"},{"poiid":"B2094750DA68AAFA4893","title":"春季海港城","lon":"121.3974","lat":"31.26045","category":"72","category_name":"广东菜","address":"普陀区桃浦路266号(近家乐福真北店)"},{"poiid":"B2094757D068A3FD4498","title":"明丰世纪苑","lon":"121.39108","lat":"31.261827","category":"47","category_name":"住宅区","address":"上海市普陀区桃浦路650号"},{"poiid":"B2094655D26EA2FE4999","title":"杨家桥小区(南门)","lon":"121.39433","lat":"31.26526","category":"47","category_name":"住宅区","address":"交通路4352号"},{"poiid":"B2094654D464AAF84198","title":"上海第四十四机动车安全检测站","lon":"121.39799","lat":"31.26289","category":"250","category_name":"公园户外","address":"普陀区兰溪路1888号(近桃浦路)"},{"poiid":"B2094757D16BAAF8469C","title":"永琪桃浦旗舰店","lon":"121.39390795","lat":"31.2599083672","category":"148","category_name":"美容美发店","address":"上海桃浦路真北芝路路口"},{"poiid":"B2094757D065ABF8489F","title":"桃浦路真光路路口","lon":"121.38832995","lat":"31.2600848706","category":"500","category_name":"未知分类","address":"上海市普陀区清涧路"},{"poiid":"B2094757D16DA1F54192","title":"光彩市场","lon":"121.39274095","lat":"31.263839942","category":"249","category_name":"购物服务","address":"上海市普陀区"},{"poiid":"B2094752D46AA1FC429C","title":"真光加油站(普陀第一加油站)","lon":"121.392347","lat":"31.259917","category":"153","category_name":"加油站","address":"上海市普陀区真光路1877号(近铜川路)"},{"poiid":"B2094757D16BA7FC449D","title":"味之都(真北店)","lon":"121.39360695","lat":"31.2600648702","category":"68","category_name":"快餐厅","address":"普陀区桃浦路300号家乐福1楼(近真北路)"},{"poiid":"B2094757D06AABFE449F","title":"大食代(真北家乐福店)","lon":"121.39605","lat":"31.25973","category":"68","category_name":"快餐厅","address":"普陀区桃浦路368号家乐福购物中心1楼(近真北路)"},{"poiid":"B2094757D06FAAF4449C","title":"清涧六街坊","lon":"121.389451","lat":"31.266068","category":"252","category_name":"楼宇机构","address":"上海市普陀区桃浦路1023弄"},{"poiid":"B2094757D064A7F9409E","title":"李园大酒店","lon":"121.3919392","lat":"31.2689156","category":"76","category_name":"上海菜","address":"普陀区真南路451号(同济大学沪西校区对面)"},{"poiid":"B2094757D06FA7F44292","title":"真光七街坊","lon":"121.392926","lat":"31.257911","category":"252","category_name":"楼宇机构","address":"铜川路1781弄"},{"poiid":"B2094757D568A0FC439D","title":"上海利美文具","lon":"121.39239312","lat":"31.26246663","category":"139","category_name":"文化用品店","address":"真北路2653号新光彩商品建材批发市场10区1-2号"},{"poiid":"B2094757D56CAAFB489F","title":"争鲜回转寿司 真北店","lon":"121.396146054","lat":"31.260250793","category":"247","category_name":"餐饮美食","address":"桃浦路328号家乐福3楼近大渡河路"},{"poiid":"B2094757D568A6F84898","title":"金月亮幼儿园分园","lon":"121.39500814","lat":"31.26116943","category":"57","category_name":"幼儿园","address":"普陀区桃浦路300弄21号(近真北支路)"},{"poiid":"B2094655D26AA6F84399","title":"上岛咖啡真如店","lon":"121.39712","lat":"31.26064","category":"260","category_name":"其他","address":"普陀区桃浦路226号总部大厦2楼(近大渡河路)"},{"poiid":"B2094757DB6DA5F84393","title":"上海薇爱酒店（桃浦店）","lon":"121.394779086","lat":"31.260338603","category":"215","category_name":"三星级宾馆","address":"普陀区桃浦路306号4楼(近中环百联)"},{"poiid":"B2094654D464AAF84392","title":"真北二街坊","lon":"121.39614","lat":"31.258846","category":"47","category_name":"住宅区","address":"大渡河路2030弄"},{"poiid":"B2094757D66CA5FF4299","title":"芝川菜场","lon":"121.39350897","lat":"31.263205146","category":"500","category_name":"未知分类","address":"上海芝川路真北支路"},{"poiid":"B2094654D464AAFD499E","title":"玉华中学","lon":"121.39561","lat":"31.26514","category":"55","category_name":"中学","address":"普陀区交通路4276号(近同济大学)"},{"poiid":"B209475CD76FA7FB4498","title":"徐家汇","lon":"121.394607","lat":"31.26127","category":"500","category_name":"未知分类","address":"上海市 徐家汇"},{"poiid":"B2094655D264A4FB459C","title":"万宁超市真北家乐福店","lon":"121.39488","lat":"31.2599","category":"118","category_name":"超级市场","address":"桃浦路328号真北家乐福"},{"poiid":"B2094654D465A3FA419D","title":"快客No.6947","lon":"121.39196","lat":"31.26021","category":"117","category_name":"便民商店/便利店","address":"桃浦路592"},{"poiid":"B2094655D26FA0FE4992","title":"上海新光彩商品建材批发市场","lon":"121.39214","lat":"31.26371","category":"123","category_name":"家具建材市场","address":"真北路2653号"},{"poiid":"B2094757D06AAAFA479B","title":"霹雳星球","lon":"121.39447695","lat":"31.2636789392","category":"500","category_name":"未知分类","address":"上海外太空"},{"poiid":"B2094654D465A3FA489A","title":"光明乳业铜川配送站","lon":"121.38998","lat":"31.26204","category":"117","category_name":"便民商店/便利店","address":"子洲路"},{"poiid":"B2094654D465A3FA4292","title":"光明便利No.278","lon":"121.39147","lat":"31.26012","category":"117","category_name":"便民商店/便利店","address":"桃浦路604"},{"poiid":"B2094753DB6CABFF499E","title":"稻香海鲜火锅","lon":"121.394012","lat":"31.25971","category":"247","category_name":"餐饮美食","address":"上海市 淮海中路999号环贸IAPM内 3楼"},{"poiid":"B2094655D264A2FA459B","title":"明英","lon":"121.39459","lat":"31.25948","category":"148","category_name":"美容美发店","address":"桃浦路287"},{"poiid":"B2094757D568A7F4419A","title":"普陀民营科技企业总部大厦","lon":"121.39653781","lat":"31.26041694","category":"46","category_name":"楼宇","address":"桃浦路226号"},{"poiid":"B2094757D464A0F5499C","title":"映像戴斯大酒店餐厅","lon":"121.39235","lat":"31.25751","category":"76","category_name":"上海菜","address":"普陀区真北路2022号(铜川路口)"},{"poiid":"B2094655D26CA7FF4892","title":"上海宏泉丽笙酒店(东门)","lon":"121.3982","lat":"31.26152","category":"656","category_name":"大门","address":"上海市桃浦路210号（近大渡河路）"},{"poiid":"B2094757D06FA0F8419E","title":"宏泉丽笙酒店","lon":"121.39765003","lat":"31.260702703","category":"213","category_name":"五星级宾馆","address":"上海普陀区桃浦路210号(近大渡河路)"},{"poiid":"B2094757D06FA2FC4793","title":"家乐福(真北店)","lon":"121.39413","lat":"31.25947","category":"118","category_name":"超级市场","address":"普陀区桃浦路328号(近大渡河路)"},{"poiid":"B2094757D06FA4F54193","title":"桃浦路真北路","lon":"121.39279721","lat":"31.261585202","category":"500","category_name":"未知分类","address":"上海桃浦路真北路"},{"poiid":"B2094757D06FA2FB409F","title":"中鼎豪园","lon":"121.38978","lat":"31.263821","category":"47","category_name":"住宅区","address":"上海市普陀区清涧路68弄"},{"poiid":"B2094757D468A4FB4298","title":"春季海鲜港","lon":"121.3946693","lat":"31.2598593","category":"76","category_name":"上海菜","address":"桃浦路318号近真北路"},{"poiid":"B2094655D26EA2F5409B","title":"上海宏泉丽笙酒店(南门)","lon":"121.39762","lat":"31.26059","category":"656","category_name":"大门","address":"上海市桃浦路210号（近大渡河路）"},{"poiid":"B2094655D264A6F54498","title":"肯德基KFC(真北家乐福店)","lon":"121.39488","lat":"31.2599","category":"68","category_name":"快餐厅","address":"普陀区桃浦路328号家乐福(近大渡河路)"},{"poiid":"B2094757D06FAAF8429F","title":"宏泉丽笙酒店西餐厅","lon":"121.39795","lat":"31.26042","category":"94","category_name":"西餐厅","address":"普陀区桃浦路210号上海宏泉丽笙酒店1楼(近上海西站)"},{"poiid":"B2094655D26DA5F44592","title":"星河世纪城星月蓝湾西区","lon":"121.39389","lat":"31.26205","category":"47","category_name":"住宅区","address":"桃浦路300弄单号"},{"poiid":"B2094654D464AAF94098","title":"星河世纪城樱树芳庭","lon":"121.39402","lat":"31.25939","category":"47","category_name":"住宅区","address":"上海市普陀区桃浦路321弄"},{"poiid":"B2094654D465A3FA4293","title":"明丰世纪苑(南门)","lon":"121.39123","lat":"31.2601","category":"656","category_name":"大门","address":"子洲路680弄"},{"poiid":"B2094757D168A6FF4299","title":"澳门豆捞","lon":"121.39399","lat":"31.2597","category":"86","category_name":"火锅店","address":"普陀区桃浦路328号家乐福旁(近真北路)"},{"poiid":"B2094757D069A1FF499B","title":"萨莉亚(桃浦路店)","lon":"121.39411","lat":"31.25966","category":"94","category_name":"西餐厅","address":"普陀区桃浦路328号家乐福内118A室(近大渡河路)"},{"poiid":"B2094757D068A3F9429A","title":"上海家园","lon":"121.39114","lat":"31.258083","category":"47","category_name":"住宅区","address":"上海市普陀区桃浦路742弄"},{"poiid":"B2094654DB6AABF94092","title":"清涧小区清竹坊","lon":"121.38932","lat":"31.26117","category":"47","category_name":"住宅区","address":"清涧路39弄1-105号"},{"poiid":"B2094654D464AAFE4798","title":"星河世纪城星月蓝湾","lon":"121.39632","lat":"31.26153","category":"47","category_name":"住宅区","address":"上海市普陀区桃浦路368号"},{"poiid":"B2094655D26BA5FE4599","title":"MINI公馆","lon":"121.39038","lat":"31.26126","category":"47","category_name":"住宅区","address":"松江区松汇中路518号"},{"poiid":"B2094750DA68AAFA4893","title":"春季海港城","lon":"121.3974","lat":"31.26045","category":"72","category_name":"广东菜","address":"普陀区桃浦路266号(近家乐福真北店)"},{"poiid":"B2094757D068A3FD4498","title":"明丰世纪苑","lon":"121.39108","lat":"31.261827","category":"47","category_name":"住宅区","address":"上海市普陀区桃浦路650号"},{"poiid":"B2094655D26EA2FE4999","title":"杨家桥小区(南门)","lon":"121.39433","lat":"31.26526","category":"47","category_name":"住宅区","address":"交通路4352号"},{"poiid":"B2094654D464AAF84198","title":"上海第四十四机动车安全检测站","lon":"121.39799","lat":"31.26289","category":"250","category_name":"公园户外","address":"普陀区兰溪路1888号(近桃浦路)"},{"poiid":"B2094757D16BAAF8469C","title":"永琪桃浦旗舰店","lon":"121.39390795","lat":"31.2599083672","category":"148","category_name":"美容美发店","address":"上海桃浦路真北芝路路口"},{"poiid":"B2094757D065ABF8489F","title":"桃浦路真光路路口","lon":"121.38832995","lat":"31.2600848706","category":"500","category_name":"未知分类","address":"上海市普陀区清涧路"},{"poiid":"B2094757D16DA1F54192","title":"光彩市场","lon":"121.39274095","lat":"31.263839942","category":"249","category_name":"购物服务","address":"上海市普陀区"},{"poiid":"B2094752D46AA1FC429C","title":"真光加油站(普陀第一加油站)","lon":"121.392347","lat":"31.259917","category":"153","category_name":"加油站","address":"上海市普陀区真光路1877号(近铜川路)"},{"poiid":"B2094757D16BA7FC449D","title":"味之都(真北店)","lon":"121.39360695","lat":"31.2600648702","category":"68","category_name":"快餐厅","address":"普陀区桃浦路300号家乐福1楼(近真北路)"},{"poiid":"B2094757D06AABFE449F","title":"大食代(真北家乐福店)","lon":"121.39605","lat":"31.25973","category":"68","category_name":"快餐厅","address":"普陀区桃浦路368号家乐福购物中心1楼(近真北路)"},{"poiid":"B2094757D06FAAF4449C","title":"清涧六街坊","lon":"121.389451","lat":"31.266068","category":"252","category_name":"楼宇机构","address":"上海市普陀区桃浦路1023弄"},{"poiid":"B2094757D064A7F9409E","title":"李园大酒店","lon":"121.3919392","lat":"31.2689156","category":"76","category_name":"上海菜","address":"普陀区真南路451号(同济大学沪西校区对面)"},{"poiid":"B2094757D06FA7F44292","title":"真光七街坊","lon":"121.392926","lat":"31.257911","category":"252","category_name":"楼宇机构","address":"铜川路1781弄"},{"poiid":"B2094757D568A0FC439D","title":"上海利美文具","lon":"121.39239312","lat":"31.26246663","category":"139","category_name":"文化用品店","address":"真北路2653号新光彩商品建材批发市场10区1-2号"},{"poiid":"B2094757D56CAAFB489F","title":"争鲜回转寿司 真北店","lon":"121.396146054","lat":"31.260250793","category":"247","category_name":"餐饮美食","address":"桃浦路328号家乐福3楼近大渡河路"},{"poiid":"B2094757D568A6F84898","title":"金月亮幼儿园分园","lon":"121.39500814","lat":"31.26116943","category":"57","category_name":"幼儿园","address":"普陀区桃浦路300弄21号(近真北支路)"},{"poiid":"B2094655D26AA6F84399","title":"上岛咖啡真如店","lon":"121.39712","lat":"31.26064","category":"260","category_name":"其他","address":"普陀区桃浦路226号总部大厦2楼(近大渡河路)"},{"poiid":"B2094757DB6DA5F84393","title":"上海薇爱酒店（桃浦店）","lon":"121.394779086","lat":"31.260338603","category":"215","category_name":"三星级宾馆","address":"普陀区桃浦路306号4楼(近中环百联)"},{"poiid":"B2094654D464AAF84392","title":"真北二街坊","lon":"121.39614","lat":"31.258846","category":"47","category_name":"住宅区","address":"大渡河路2030弄"},{"poiid":"B2094757D66CA5FF4299","title":"芝川菜场","lon":"121.39350897","lat":"31.263205146","category":"500","category_name":"未知分类","address":"上海芝川路真北支路"},{"poiid":"B2094654D464AAFD499E","title":"玉华中学","lon":"121.39561","lat":"31.26514","category":"55","category_name":"中学","address":"普陀区交通路4276号(近同济大学)"},{"poiid":"B209475CD76FA7FB4498","title":"徐家汇","lon":"121.394607","lat":"31.26127","category":"500","category_name":"未知分类","address":"上海市 徐家汇"},{"poiid":"B2094655D264A4FB459C","title":"万宁超市真北家乐福店","lon":"121.39488","lat":"31.2599","category":"118","category_name":"超级市场","address":"桃浦路328号真北家乐福"},{"poiid":"B2094654D465A3FA419D","title":"快客No.6947","lon":"121.39196","lat":"31.26021","category":"117","category_name":"便民商店/便利店","address":"桃浦路592"},{"poiid":"B2094655D26FA0FE4992","title":"上海新光彩商品建材批发市场","lon":"121.39214","lat":"31.26371","category":"123","category_name":"家具建材市场","address":"真北路2653号"},{"poiid":"B2094757D06AAAFA479B","title":"霹雳星球","lon":"121.39447695","lat":"31.2636789392","category":"500","category_name":"未知分类","address":"上海外太空"},{"poiid":"B2094654D465A3FA489A","title":"光明乳业铜川配送站","lon":"121.38998","lat":"31.26204","category":"117","category_name":"便民商店/便利店","address":"子洲路"},{"poiid":"B2094654D465A3FA4292","title":"光明便利No.278","lon":"121.39147","lat":"31.26012","category":"117","category_name":"便民商店/便利店","address":"桃浦路604"},{"poiid":"B2094753DB6CABFF499E","title":"稻香海鲜火锅","lon":"121.394012","lat":"31.25971","category":"247","category_name":"餐饮美食","address":"上海市 淮海中路999号环贸IAPM内 3楼"},{"poiid":"B2094655D264A2FA459B","title":"明英","lon":"121.39459","lat":"31.25948","category":"148","category_name":"美容美发店","address":"桃浦路287"},{"poiid":"B2094757D568A7F4419A","title":"普陀民营科技企业总部大厦","lon":"121.39653781","lat":"31.26041694","category":"46","category_name":"楼宇","address":"桃浦路226号"},{"poiid":"B2094757D464A0F5499C","title":"映像戴斯大酒店餐厅","lon":"121.39235","lat":"31.25751","category":"76","category_name":"上海菜","address":"普陀区真北路2022号(铜川路口)"},{"poiid":"B2094655D26CA7FF4892","title":"上海宏泉丽笙酒店(东门)","lon":"121.3982","lat":"31.26152","category":"656","category_name":"大门","address":"上海市桃浦路210号（近大渡河路）"},{"poiid":"B2094757D06FA0F8419E","title":"宏泉丽笙酒店","lon":"121.39765003","lat":"31.260702703","category":"213","category_name":"五星级宾馆","address":"上海普陀区桃浦路210号(近大渡河路)"},{"poiid":"B2094757D06FA2FC4793","title":"家乐福(真北店)","lon":"121.39413","lat":"31.25947","category":"118","category_name":"超级市场","address":"普陀区桃浦路328号(近大渡河路)"},{"poiid":"B2094757D06FA4F54193","title":"桃浦路真北路","lon":"121.39279721","lat":"31.261585202","category":"500","category_name":"未知分类","address":"上海桃浦路真北路"},{"poiid":"B2094757D06FA2FB409F","title":"中鼎豪园","lon":"121.38978","lat":"31.263821","category":"47","category_name":"住宅区","address":"上海市普陀区清涧路68弄"},{"poiid":"B2094757D468A4FB4298","title":"春季海鲜港","lon":"121.3946693","lat":"31.2598593","category":"76","category_name":"上海菜","address":"桃浦路318号近真北路"},{"poiid":"B2094655D26EA2F5409B","title":"上海宏泉丽笙酒店(南门)","lon":"121.39762","lat":"31.26059","category":"656","category_name":"大门","address":"上海市桃浦路210号（近大渡河路）"},{"poiid":"B2094655D264A6F54498","title":"肯德基KFC(真北家乐福店)","lon":"121.39488","lat":"31.2599","category":"68","category_name":"快餐厅","address":"普陀区桃浦路328号家乐福(近大渡河路)"},{"poiid":"B2094757D06FAAF8429F","title":"宏泉丽笙酒店西餐厅","lon":"121.39795","lat":"31.26042","category":"94","category_name":"西餐厅","address":"普陀区桃浦路210号上海宏泉丽笙酒店1楼(近上海西站)"},{"poiid":"B2094655D26DA5F44592","title":"星河世纪城星月蓝湾西区","lon":"121.39389","lat":"31.26205","category":"47","category_name":"住宅区","address":"桃浦路300弄单号"},{"poiid":"B2094654D464AAF94098","title":"星河世纪城樱树芳庭","lon":"121.39402","lat":"31.25939","category":"47","category_name":"住宅区","address":"上海市普陀区桃浦路321弄"},{"poiid":"B2094654D465A3FA4293","title":"明丰世纪苑(南门)","lon":"121.39123","lat":"31.2601","category":"656","category_name":"大门","address":"子洲路680弄"},{"poiid":"B2094757D168A6FF4299","title":"澳门豆捞","lon":"121.39399","lat":"31.2597","category":"86","category_name":"火锅店","address":"普陀区桃浦路328号家乐福旁(近真北路)"},{"poiid":"B2094757D069A1FF499B","title":"萨莉亚(桃浦路店)","lon":"121.39411","lat":"31.25966","category":"94","category_name":"西餐厅","address":"普陀区桃浦路328号家乐福内118A室(近大渡河路)"},{"poiid":"B2094757D068A3F9429A","title":"上海家园","lon":"121.39114","lat":"31.258083","category":"47","category_name":"住宅区","address":"上海市普陀区桃浦路742弄"},{"poiid":"B2094654DB6AABF94092","title":"清涧小区清竹坊","lon":"121.38932","lat":"31.26117","category":"47","category_name":"住宅区","address":"清涧路39弄1-105号"},{"poiid":"B2094654D464AAFE4798","title":"星河世纪城星月蓝湾","lon":"121.39632","lat":"31.26153","category":"47","category_name":"住宅区","address":"上海市普陀区桃浦路368号"},{"poiid":"B2094655D26BA5FE4599","title":"MINI公馆","lon":"121.39038","lat":"31.26126","category":"47","category_name":"住宅区","address":"松江区松汇中路518号"},{"poiid":"B2094750DA68AAFA4893","title":"春季海港城","lon":"121.3974","lat":"31.26045","category":"72","category_name":"广东菜","address":"普陀区桃浦路266号(近家乐福真北店)"},{"poiid":"B2094757D068A3FD4498","title":"明丰世纪苑","lon":"121.39108","lat":"31.261827","category":"47","category_name":"住宅区","address":"上海市普陀区桃浦路650号"},{"poiid":"B2094655D26EA2FE4999","title":"杨家桥小区(南门)","lon":"121.39433","lat":"31.26526","category":"47","category_name":"住宅区","address":"交通路4352号"},{"poiid":"B2094654D464AAF84198","title":"上海第四十四机动车安全检测站","lon":"121.39799","lat":"31.26289","category":"250","category_name":"公园户外","address":"普陀区兰溪路1888号(近桃浦路)"},{"poiid":"B2094757D16BAAF8469C","title":"永琪桃浦旗舰店","lon":"121.39390795","lat":"31.2599083672","category":"148","category_name":"美容美发店","address":"上海桃浦路真北芝路路口"},{"poiid":"B2094757D065ABF8489F","title":"桃浦路真光路路口","lon":"121.38832995","lat":"31.2600848706","category":"500","category_name":"未知分类","address":"上海市普陀区清涧路"},{"poiid":"B2094757D16DA1F54192","title":"光彩市场","lon":"121.39274095","lat":"31.263839942","category":"249","category_name":"购物服务","address":"上海市普陀区"},{"poiid":"B2094752D46AA1FC429C","title":"真光加油站(普陀第一加油站)","lon":"121.392347","lat":"31.259917","category":"153","category_name":"加油站","address":"上海市普陀区真光路1877号(近铜川路)"},{"poiid":"B2094757D16BA7FC449D","title":"味之都(真北店)","lon":"121.39360695","lat":"31.2600648702","category":"68","category_name":"快餐厅","address":"普陀区桃浦路300号家乐福1楼(近真北路)"},{"poiid":"B2094757D06AABFE449F","title":"大食代(真北家乐福店)","lon":"121.39605","lat":"31.25973","category":"68","category_name":"快餐厅","address":"普陀区桃浦路368号家乐福购物中心1楼(近真北路)"},{"poiid":"B2094757D06FAAF4449C","title":"清涧六街坊","lon":"121.389451","lat":"31.266068","category":"252","category_name":"楼宇机构","address":"上海市普陀区桃浦路1023弄"},{"poiid":"B2094757D064A7F9409E","title":"李园大酒店","lon":"121.3919392","lat":"31.2689156","category":"76","category_name":"上海菜","address":"普陀区真南路451号(同济大学沪西校区对面)"},{"poiid":"B2094757D06FA7F44292","title":"真光七街坊","lon":"121.392926","lat":"31.257911","category":"252","category_name":"楼宇机构","address":"铜川路1781弄"},{"poiid":"B2094757D568A0FC439D","title":"上海利美文具","lon":"121.39239312","lat":"31.26246663","category":"139","category_name":"文化用品店","address":"真北路2653号新光彩商品建材批发市场10区1-2号"},{"poiid":"B2094757D56CAAFB489F","title":"争鲜回转寿司 真北店","lon":"121.396146054","lat":"31.260250793","category":"247","category_name":"餐饮美食","address":"桃浦路328号家乐福3楼近大渡河路"},{"poiid":"B2094757D568A6F84898","title":"金月亮幼儿园分园","lon":"121.39500814","lat":"31.26116943","category":"57","category_name":"幼儿园","address":"普陀区桃浦路300弄21号(近真北支路)"},{"poiid":"B2094655D26AA6F84399","title":"上岛咖啡真如店","lon":"121.39712","lat":"31.26064","category":"260","category_name":"其他","address":"普陀区桃浦路226号总部大厦2楼(近大渡河路)"},{"poiid":"B2094757DB6DA5F84393","title":"上海薇爱酒店（桃浦店）","lon":"121.394779086","lat":"31.260338603","category":"215","category_name":"三星级宾馆","address":"普陀区桃浦路306号4楼(近中环百联)"},{"poiid":"B2094654D464AAF84392","title":"真北二街坊","lon":"121.39614","lat":"31.258846","category":"47","category_name":"住宅区","address":"大渡河路2030弄"},{"poiid":"B2094757D66CA5FF4299","title":"芝川菜场","lon":"121.39350897","lat":"31.263205146","category":"500","category_name":"未知分类","address":"上海芝川路真北支路"},{"poiid":"B2094654D464AAFD499E","title":"玉华中学","lon":"121.39561","lat":"31.26514","category":"55","category_name":"中学","address":"普陀区交通路4276号(近同济大学)"},{"poiid":"B209475CD76FA7FB4498","title":"徐家汇","lon":"121.394607","lat":"31.26127","category":"500","category_name":"未知分类","address":"上海市 徐家汇"},{"poiid":"B2094655D264A4FB459C","title":"万宁超市真北家乐福店","lon":"121.39488","lat":"31.2599","category":"118","category_name":"超级市场","address":"桃浦路328号真北家乐福"},{"poiid":"B2094654D465A3FA419D","title":"快客No.6947","lon":"121.39196","lat":"31.26021","category":"117","category_name":"便民商店/便利店","address":"桃浦路592"},{"poiid":"B2094655D26FA0FE4992","title":"上海新光彩商品建材批发市场","lon":"121.39214","lat":"31.26371","category":"123","category_name":"家具建材市场","address":"真北路2653号"},{"poiid":"B2094757D06AAAFA479B","title":"霹雳星球","lon":"121.39447695","lat":"31.2636789392","category":"500","category_name":"未知分类","address":"上海外太空"},{"poiid":"B2094654D465A3FA489A","title":"光明乳业铜川配送站","lon":"121.38998","lat":"31.26204","category":"117","category_name":"便民商店/便利店","address":"子洲路"},{"poiid":"B2094654D465A3FA4292","title":"光明便利No.278","lon":"121.39147","lat":"31.26012","category":"117","category_name":"便民商店/便利店","address":"桃浦路604"},{"poiid":"B2094753DB6CABFF499E","title":"稻香海鲜火锅","lon":"121.394012","lat":"31.25971","category":"247","category_name":"餐饮美食","address":"上海市 淮海中路999号环贸IAPM内 3楼"},{"poiid":"B2094655D264A2FA459B","title":"明英","lon":"121.39459","lat":"31.25948","category":"148","category_name":"美容美发店","address":"桃浦路287"},{"poiid":"B2094757D568A7F4419A","title":"普陀民营科技企业总部大厦","lon":"121.39653781","lat":"31.26041694","category":"46","category_name":"楼宇","address":"桃浦路226号"},{"poiid":"B2094757D464A0F5499C","title":"映像戴斯大酒店餐厅","lon":"121.39235","lat":"31.25751","category":"76","category_name":"上海菜","address":"普陀区真北路2022号(铜川路口)"},{"poiid":"B2094655D26CA7FF4892","title":"上海宏泉丽笙酒店(东门)","lon":"121.3982","lat":"31.26152","category":"656","category_name":"大门","address":"上海市桃浦路210号（近大渡河路）"},{"poiid":"B2094757D06FA0F8419E","title":"宏泉丽笙酒店","lon":"121.39765003","lat":"31.260702703","category":"213","category_name":"五星级宾馆","address":"上海普陀区桃浦路210号(近大渡河路)"},{"poiid":"B2094757D06FA2FC4793","title":"家乐福(真北店)","lon":"121.39413","lat":"31.25947","category":"118","category_name":"超级市场","address":"普陀区桃浦路328号(近大渡河路)"},{"poiid":"B2094757D06FA4F54193","title":"桃浦路真北路","lon":"121.39279721","lat":"31.261585202","category":"500","category_name":"未知分类","address":"上海桃浦路真北路"},{"poiid":"B2094757D06FA2FB409F","title":"中鼎豪园","lon":"121.38978","lat":"31.263821","category":"47","category_name":"住宅区","address":"上海市普陀区清涧路68弄"},{"poiid":"B2094757D468A4FB4298","title":"春季海鲜港","lon":"121.3946693","lat":"31.2598593","category":"76","category_name":"上海菜","address":"桃浦路318号近真北路"},{"poiid":"B2094655D26EA2F5409B","title":"上海宏泉丽笙酒店(南门)","lon":"121.39762","lat":"31.26059","category":"656","category_name":"大门","address":"上海市桃浦路210号（近大渡河路）"},{"poiid":"B2094655D264A6F54498","title":"肯德基KFC(真北家乐福店)","lon":"121.39488","lat":"31.2599","category":"68","category_name":"快餐厅","address":"普陀区桃浦路328号家乐福(近大渡河路)"},{"poiid":"B2094757D06FAAF8429F","title":"宏泉丽笙酒店西餐厅","lon":"121.39795","lat":"31.26042","category":"94","category_name":"西餐厅","address":"普陀区桃浦路210号上海宏泉丽笙酒店1楼(近上海西站)"},{"poiid":"B2094655D26DA5F44592","title":"星河世纪城星月蓝湾西区","lon":"121.39389","lat":"31.26205","category":"47","category_name":"住宅区","address":"桃浦路300弄单号"},{"poiid":"B2094654D464AAF94098","title":"星河世纪城樱树芳庭","lon":"121.39402","lat":"31.25939","category":"47","category_name":"住宅区","address":"上海市普陀区桃浦路321弄"},{"poiid":"B2094654D465A3FA4293","title":"明丰世纪苑(南门)","lon":"121.39123","lat":"31.2601","category":"656","category_name":"大门","address":"子洲路680弄"},{"poiid":"B2094757D168A6FF4299","title":"澳门豆捞","lon":"121.39399","lat":"31.2597","category":"86","category_name":"火锅店","address":"普陀区桃浦路328号家乐福旁(近真北路)"},{"poiid":"B2094757D069A1FF499B","title":"萨莉亚(桃浦路店)","lon":"121.39411","lat":"31.25966","category":"94","category_name":"西餐厅","address":"普陀区桃浦路328号家乐福内118A室(近大渡河路)"},{"poiid":"B2094757D068A3F9429A","title":"上海家园","lon":"121.39114","lat":"31.258083","category":"47","category_name":"住宅区","address":"上海市普陀区桃浦路742弄"},{"poiid":"B2094654DB6AABF94092","title":"清涧小区清竹坊","lon":"121.38932","lat":"31.26117","category":"47","category_name":"住宅区","address":"清涧路39弄1-105号"},{"poiid":"B2094654D464AAFE4798","title":"星河世纪城星月蓝湾","lon":"121.39632","lat":"31.26153","category":"47","category_name":"住宅区","address":"上海市普陀区桃浦路368号"},{"poiid":"B2094655D26BA5FE4599","title":"MINI公馆","lon":"121.39038","lat":"31.26126","category":"47","category_name":"住宅区","address":"松江区松汇中路518号"},{"poiid":"B2094750DA68AAFA4893","title":"春季海港城","lon":"121.3974","lat":"31.26045","category":"72","category_name":"广东菜","address":"普陀区桃浦路266号(近家乐福真北店)"},{"poiid":"B2094757D068A3FD4498","title":"明丰世纪苑","lon":"121.39108","lat":"31.261827","category":"47","category_name":"住宅区","address":"上海市普陀区桃浦路650号"},{"poiid":"B2094655D26EA2FE4999","title":"杨家桥小区(南门)","lon":"121.39433","lat":"31.26526","category":"47","category_name":"住宅区","address":"交通路4352号"},{"poiid":"B2094654D464AAF84198","title":"上海第四十四机动车安全检测站","lon":"121.39799","lat":"31.26289","category":"250","category_name":"公园户外","address":"普陀区兰溪路1888号(近桃浦路)"},{"poiid":"B2094757D16BAAF8469C","title":"永琪桃浦旗舰店","lon":"121.39390795","lat":"31.2599083672","category":"148","category_name":"美容美发店","address":"上海桃浦路真北芝路路口"},{"poiid":"B2094757D065ABF8489F","title":"桃浦路真光路路口","lon":"121.38832995","lat":"31.2600848706","category":"500","category_name":"未知分类","address":"上海市普陀区清涧路"},{"poiid":"B2094757D16DA1F54192","title":"光彩市场","lon":"121.39274095","lat":"31.263839942","category":"249","category_name":"购物服务","address":"上海市普陀区"},{"poiid":"B2094752D46AA1FC429C","title":"真光加油站(普陀第一加油站)","lon":"121.392347","lat":"31.259917","category":"153","category_name":"加油站","address":"上海市普陀区真光路1877号(近铜川路)"},{"poiid":"B2094757D16BA7FC449D","title":"味之都(真北店)","lon":"121.39360695","lat":"31.2600648702","category":"68","category_name":"快餐厅","address":"普陀区桃浦路300号家乐福1楼(近真北路)"},{"poiid":"B2094757D06AABFE449F","title":"大食代(真北家乐福店)","lon":"121.39605","lat":"31.25973","category":"68","category_name":"快餐厅","address":"普陀区桃浦路368号家乐福购物中心1楼(近真北路)"},{"poiid":"B2094757D06FAAF4449C","title":"清涧六街坊","lon":"121.389451","lat":"31.266068","category":"252","category_name":"楼宇机构","address":"上海市普陀区桃浦路1023弄"},{"poiid":"B2094757D064A7F9409E","title":"李园大酒店","lon":"121.3919392","lat":"31.2689156","category":"76","category_name":"上海菜","address":"普陀区真南路451号(同济大学沪西校区对面)"},{"poiid":"B2094757D06FA7F44292","title":"真光七街坊","lon":"121.392926","lat":"31.257911","category":"252","category_name":"楼宇机构","address":"铜川路1781弄"},{"poiid":"B2094757D568A0FC439D","title":"上海利美文具","lon":"121.39239312","lat":"31.26246663","category":"139","category_name":"文化用品店","address":"真北路2653号新光彩商品建材批发市场10区1-2号"},{"poiid":"B2094757D56CAAFB489F","title":"争鲜回转寿司 真北店","lon":"121.396146054","lat":"31.260250793","category":"247","category_name":"餐饮美食","address":"桃浦路328号家乐福3楼近大渡河路"},{"poiid":"B2094757D568A6F84898","title":"金月亮幼儿园分园","lon":"121.39500814","lat":"31.26116943","category":"57","category_name":"幼儿园","address":"普陀区桃浦路300弄21号(近真北支路)"},{"poiid":"B2094655D26AA6F84399","title":"上岛咖啡真如店","lon":"121.39712","lat":"31.26064","category":"260","category_name":"其他","address":"普陀区桃浦路226号总部大厦2楼(近大渡河路)"},{"poiid":"B2094757DB6DA5F84393","title":"上海薇爱酒店（桃浦店）","lon":"121.394779086","lat":"31.260338603","category":"215","category_name":"三星级宾馆","address":"普陀区桃浦路306号4楼(近中环百联)"},{"poiid":"B2094654D464AAF84392","title":"真北二街坊","lon":"121.39614","lat":"31.258846","category":"47","category_name":"住宅区","address":"大渡河路2030弄"},{"poiid":"B2094757D66CA5FF4299","title":"芝川菜场","lon":"121.39350897","lat":"31.263205146","category":"500","category_name":"未知分类","address":"上海芝川路真北支路"},{"poiid":"B2094654D464AAFD499E","title":"玉华中学","lon":"121.39561","lat":"31.26514","category":"55","category_name":"中学","address":"普陀区交通路4276号(近同济大学)"},{"poiid":"B209475CD76FA7FB4498","title":"徐家汇","lon":"121.394607","lat":"31.26127","category":"500","category_name":"未知分类","address":"上海市 徐家汇"},{"poiid":"B2094655D264A4FB459C","title":"万宁超市真北家乐福店","lon":"121.39488","lat":"31.2599","category":"118","category_name":"超级市场","address":"桃浦路328号真北家乐福"},{"poiid":"B2094654D465A3FA419D","title":"快客No.6947","lon":"121.39196","lat":"31.26021","category":"117","category_name":"便民商店/便利店","address":"桃浦路592"},{"poiid":"B2094655D26FA0FE4992","title":"上海新光彩商品建材批发市场","lon":"121.39214","lat":"31.26371","category":"123","category_name":"家具建材市场","address":"真北路2653号"},{"poiid":"B2094757D06AAAFA479B","title":"霹雳星球","lon":"121.39447695","lat":"31.2636789392","category":"500","category_name":"未知分类","address":"上海外太空"},{"poiid":"B2094654D465A3FA489A","title":"光明乳业铜川配送站","lon":"121.38998","lat":"31.26204","category":"117","category_name":"便民商店/便利店","address":"子洲路"},{"poiid":"B2094654D465A3FA4292","title":"光明便利No.278","lon":"121.39147","lat":"31.26012","category":"117","category_name":"便民商店/便利店","address":"桃浦路604"},{"poiid":"B2094753DB6CABFF499E","title":"稻香海鲜火锅","lon":"121.394012","lat":"31.25971","category":"247","category_name":"餐饮美食","address":"上海市 淮海中路999号环贸IAPM内 3楼"},{"poiid":"B2094655D264A2FA459B","title":"明英","lon":"121.39459","lat":"31.25948","category":"148","category_name":"美容美发店","address":"桃浦路287"},{"poiid":"B2094757D568A7F4419A","title":"普陀民营科技企业总部大厦","lon":"121.39653781","lat":"31.26041694","category":"46","category_name":"楼宇","address":"桃浦路226号"},{"poiid":"B2094757D464A0F5499C","title":"映像戴斯大酒店餐厅","lon":"121.39235","lat":"31.25751","category":"76","category_name":"上海菜","address":"普陀区真北路2022号(铜川路口)"},{"poiid":"B2094655D26CA7FF4892","title":"上海宏泉丽笙酒店(东门)","lon":"121.3982","lat":"31.26152","category":"656","category_name":"大门","address":"上海市桃浦路210号（近大渡河路）"}]