[{"poiid":"B2094655D268A6FF469C","title":"Pier 39","lon":"121.45905","lat":"31.22151","category":"94","category_name":"西餐厅","address":"卢湾区进贤路172号(近陕西南路)"},{"poiid":"B2094757D06FA2FE4698","title":"黑方日本料理","lon":"121.46039473","lat":"31.224688182","category":"95","category_name":"日本料理","address":"茂名北路65号2号楼112-113室近威海路"},{"poiid":"B2094757D06EAAFA459D","title":"NAPOLEON  CHOCOLATE  BAR","lon":"121.4623558","lat":"31.222834","category":"67","category_name":"甜品店","address":"卢湾区巨鹿路242-2号(近瑞金一路)"},{"poiid":"B2094753D76FAAFA449C","title":"上海滩国泰旗舰店","lon":"121.466011","lat":"31.216125","category":"249","category_name":"购物服务","address":"淮海中路868号"},{"poiid":"B209475CD564A7F84292","title":"上海滩新天地店","lon":"121.47463","lat":"31.22164","category":"119","category_name":"商场","address":"\"太仓路181弄新天地北里15号\r\n\""},{"poiid":"B209475CD564A7F8439E","title":"上海滩中信泰富店","lon":"121.45602","lat":"31.22851","category":"119","category_name":"商场","address":"\"南京西路1168号中信泰富广场，店铺号221.\r\n\""},{"poiid":"B2094757D06FA2F9469A","title":"兰心餐厅","lon":"121.45978","lat":"31.22135","category":"76","category_name":"上海菜","address":"卢湾区进贤路130号(近茂名南路)"},{"poiid":"B2094757DB68AAFF4792","title":"丽江驿 MONSOON","lon":"121.460094","lat":"31.221228","category":"99","category_name":"泰国／越南菜品餐厅","address":"卢湾区茂名南路56号56食尚谷内(近长乐路)"},{"poiid":"B2094757D064A5F94493","title":"岩日本料理","lon":"121.459654038","lat":"31.2223299317","category":"95","category_name":"日本料理","address":"卢湾区巨鹿路294号(近茂名南路)"},{"poiid":"B2094655D26AABFB439F","title":"天鹅申阁西菜社","lon":"121.45926","lat":"31.22131","category":"247","category_name":"餐饮美食","address":"进贤路169号"},{"poiid":"B2094757D064AAFF4898","title":"韩国艺匠婚纱摄影","lon":"121.460858238","lat":"31.2248422003","category":"611","category_name":"照相馆","address":"长宁区江苏路40号（近长宁路）"},{"poiid":"B2094757D06FA0F9419F","title":"清迈天堂","lon":"121.46022","lat":"31.2212","category":"99","category_name":"泰国／越南菜品餐厅","address":"卢湾区进贤路145号(近茂名南路)"},{"poiid":"B2094750D068A2FA449C","title":"Tikka","lon":"121.46011","lat":"31.22115","category":"102","category_name":"印度风味","address":"卢湾区茂名南路56号(近长乐路)"},{"poiid":"B2094757D068A0F9439B","title":"茂名南路","lon":"121.46024322","lat":"31.22309494","category":"260","category_name":"其他","address":"上海静安区茂名南路"},{"poiid":"B2094757D068A7F8459F","title":"净心轩","lon":"121.46047","lat":"31.22114","category":"89","category_name":"中式素餐馆","address":"卢湾区茂名南路56号56食尚谷D区1号(近长乐路)"},{"poiid":"B2094654DB6BA6FC499A","title":"天手古舞 巨鹿路店 tentekomai","lon":"121.46271864293","lat":"31.222867030754","category":"95","category_name":"日本料理","address":"卢湾区巨鹿路242号(近瑞金一路)"},{"poiid":"B2094757D46CA7FB4799","title":"茂隆餐厅","lon":"121.45990991619","lat":"31.221918570819","category":"76","category_name":"上海菜","address":"卢湾区进贤路134号(近茂名南路)"},{"poiid":"B2094757D168AAF5499F","title":"伊秀寿司","lon":"121.45819373","lat":"31.224303173","category":"247","category_name":"餐饮美食","address":"上海市静安区南京西路"},{"poiid":"B2094757DA69A3F4419B","title":"福得德","lon":"121.46017423652","lat":"31.221155993403","category":"76","category_name":"上海菜","address":"卢湾区茂名南路56号B区1楼(近进贤路)"},{"poiid":"B2094750D26AA6FC429F","title":"恒隆","lon":"121.458969","lat":"31.223642","category":"500","category_name":"未知分类","address":"南京西路"},{"poiid":"B2094757D06EAAF44893","title":"DIY  SWEET","lon":"121.460994","lat":"31.225128","category":"67","category_name":"甜品店","address":"升平街15号近茂名北路"},{"poiid":"B2094654D564AAFF459C","title":"春餐厅","lon":"121.46014540629","lat":"31.22205986488","category":"76","category_name":"上海菜","address":"卢湾区进贤路124号(茂名南路口)"},{"poiid":"B2094757D069ABFC479C","title":"进贤路","lon":"121.459985","lat":"31.221497","category":"500","category_name":"未知分类","address":"上海市静安区延安中路"},{"poiid":"B2094757D169A7F8429C","title":"双叶居热气羊肉","lon":"121.46038873","lat":"31.223887164","category":"86","category_name":"火锅店","address":"静安区延安中路724号(近茂名北路)"},{"poiid":"B2094654D564ABF4449C","title":"襄阳大楼","lon":"121.462","lat":"31.2247","category":"46","category_name":"楼宇","address":"昌平区回龙观镇国际信息产业基地高新二街"},{"poiid":"B2094654DA6CA1F5419B","title":"香港名城火锅","lon":"121.45931","lat":"31.2243","category":"86","category_name":"火锅店","address":"静安区延安中路802号(近茂名北路)"},{"poiid":"B2094757D164A6F4439A","title":"巨鹿路","lon":"121.459033","lat":"31.222743","category":"500","category_name":"未知分类","address":"上海巨鹿路318号"},{"poiid":"B2094757D66FA7FF469A","title":"陕西大厦商务酒店","lon":"121.462763238","lat":"31.2241532706","category":"500","category_name":"未知分类","address":"静安区延安中路658号(近陕西北路)"},{"poiid":"B2094655D26BA0FA4192","title":"LOMOGRAPHY","lon":"121.46004","lat":"31.22172","category":"255","category_name":"专卖店","address":"卢湾区进贤路126号(近茂名南路)"},{"poiid":"B2094753DB68A4FE449E","title":"七克拉素食咖啡","lon":"121.462837","lat":"31.22306","category":"500","category_name":"未知分类","address":"上海市 巨鹿路242号"},{"poiid":"B2094757D06BA0FE499E","title":"一家人餐厅","lon":"121.459923","lat":"31.221674","category":"76","category_name":"上海菜","address":"卢湾区进贤路128号(近茂名南路)"},{"poiid":"B2094757DB6CABF5469D","title":"1号线徐家汇站","lon":"121.462175","lat":"31.224322","category":"627","category_name":"一般地点标志","address":"徐家汇"},{"poiid":"B2094757D66CA2F9499B","title":"龙之介炉端烧","lon":"121.46268673","lat":"31.222569136","category":"247","category_name":"餐饮美食","address":"上海市静安区巨鹿路"},{"poiid":"B2094654D564ABFE469F","title":"悟锦世纪大楼","lon":"121.459","lat":"31.2237","category":"46","category_name":"楼宇","address":"富民路291号"},{"poiid":"B2094757D06FA5FB4892","title":"Chill Lounge","lon":"121.459104395","lat":"31.2228115434","category":"260","category_name":"其他","address":"卢湾区巨鹿路318-2号(近茂名南路)"},{"poiid":"B2094757D06BABFB4692","title":"延安路高架","lon":"121.45920679","lat":"31.223764255","category":"500","category_name":"未知分类","address":"上海延安路"},{"poiid":"B2094757D069A3F5459E","title":"进贤阁","lon":"121.46044","lat":"31.22152","category":"76","category_name":"上海菜","address":"上海卢湾区进贤路120号(近茂名路)  "},{"poiid":"B2094757D064ABFF4092","title":"秦粤轩","lon":"121.46102","lat":"31.22384","category":"84","category_name":"西北菜","address":"静安区延安中路658号陕西大厦商务酒店4楼(近茂名北路)"},{"poiid":"B2094751D36AA6F54898","title":"The Grumpy Pig","lon":"121.46061","lat":"31.22496","category":"94","category_name":"西餐厅","address":"静安区茂名北路65号(近延安路)"},{"poiid":"B2094655D268A6FF469F","title":"南蛮子","lon":"121.45924","lat":"31.22137","category":"83","category_name":"云贵菜","address":"卢湾区进贤路169号56食尚谷E区2楼(近茂名南路)"},{"poiid":"B209475DD668A5FD499E","title":"名城煲王","lon":"121.459434","lat":"31.224061","category":"247","category_name":"餐饮美食","address":"上海市 上海延安中路802号"},{"poiid":"B2094753D164A7F4409F","title":"阿吾羅日料•铁板烧","lon":"121.460084","lat":"31.223214","category":"247","category_name":"餐饮美食","address":"上海市 淮海中路300号K11艺术购物中心407单元"},{"poiid":"B2094751D26BA4FD4699","title":"蜀公馆","lon":"121.4591684","lat":"31.2252296","category":"247","category_name":"餐饮美食","address":"淮海中路776号"},{"poiid":"B209475CD565A4F54793","title":"HARU KITCHEN","lon":"121.461441","lat":"31.223556","category":"500","category_name":"未知分类","address":"上海市 陝西北路66號"},{"poiid":"B2094757D064AAFD489C","title":"五季坊保健会所","lon":"121.462259","lat":"31.223408","category":"149","category_name":"洗浴推拿场所","address":"徐汇区襄阳北路100号2楼(近淮海中路)"},{"poiid":"B2094757D464A5F9469A","title":"Life's home Coffee","lon":"121.458244054","lat":"31.222249793","category":"65","category_name":"咖啡厅","address":"卢湾区巨鹿路427号-1院内2楼东南(近陕西南路)"},{"poiid":"B2094757D16CA1F4499C","title":"凯德·茂名公馆(The Paragon)","lon":"121.460807667","lat":"31.2220236179","category":"47","category_name":"住宅区","address":"上海卢湾区茂名南路9弄(近巨鹿路)"},{"poiid":"B2094654D564ABFD4192","title":"大班商务中心","lon":"121.461","lat":"31.2224","category":"46","category_name":"楼宇","address":"浦东区崂山东路410号"},{"poiid":"B2094654DA6CA1F94999","title":"上尊国际商务中心","lon":"121.46261","lat":"31.22426","category":"46","category_name":"楼宇","address":"上海市虹口区四川北路1318号"},{"poiid":"B2094757DA69A1F44692","title":"Lomography上海店","lon":"121.45992485809","lat":"31.221755879302","category":"119","category_name":"商场","address":"进贤路126号"},{"poiid":"B2094655D268A6FF469C","title":"Pier 39","lon":"121.45905","lat":"31.22151","category":"94","category_name":"西餐厅","address":"卢湾区进贤路172号(近陕西南路)"},{"poiid":"B2094757D06FA2FE4698","title":"黑方日本料理","lon":"121.46039473","lat":"31.224688182","category":"95","category_name":"日本料理","address":"茂名北路65号2号楼112-113室近威海路"},{"poiid":"B2094757D06EAAFA459D","title":"NAPOLEON  CHOCOLATE  BAR","lon":"121.4623558","lat":"31.222834","category":"67","category_name":"甜品店","address":"卢湾区巨鹿路242-2号(近瑞金一路)"},{"poiid":"B2094753D76FAAFA449C","title":"上海滩国泰旗舰店","lon":"121.466011","lat":"31.216125","category":"249","category_name":"购物服务","address":"淮海中路868号"},{"poiid":"B209475CD564A7F84292","title":"上海滩新天地店","lon":"121.47463","lat":"31.22164","category":"119","category_name":"商场","address":"\"太仓路181弄新天地北里15号\r\n\""},{"poiid":"B209475CD564A7F8439E","title":"上海滩中信泰富店","lon":"121.45602","lat":"31.22851","category":"119","category_name":"商场","address":"\"南京西路1168号中信泰富广场，店铺号221.\r\n\""},{"poiid":"B2094757D06FA2F9469A","title":"兰心餐厅","lon":"121.45978","lat":"31.22135","category":"76","category_name":"上海菜","address":"卢湾区进贤路130号(近茂名南路)"},{"poiid":"B2094757DB68AAFF4792","title":"丽江驿 MONSOON","lon":"121.460094","lat":"31.221228","category":"99","category_name":"泰国／越南菜品餐厅","address":"卢湾区茂名南路56号56食尚谷内(近长乐路)"},{"poiid":"B2094757D064A5F94493","title":"岩日本料理","lon":"121.459654038","lat":"31.2223299317","category":"95","category_name":"日本料理","address":"卢湾区巨鹿路294号(近茂名南路)"},{"poiid":"B2094655D26AABFB439F","title":"天鹅申阁西菜社","lon":"121.45926","lat":"31.22131","category":"247","category_name":"餐饮美食","address":"进贤路169号"},{"poiid":"B2094757D064AAFF4898","title":"韩国艺匠婚纱摄影","lon":"121.460858238","lat":"31.2248422003","category":"611","category_name":"照相馆","address":"长宁区江苏路40号（近长宁路）"},{"poiid":"B2094757D06FA0F9419F","title":"清迈天堂","lon":"121.46022","lat":"31.2212","category":"99","category_name":"泰国／越南菜品餐厅","address":"卢湾区进贤路145号(近茂名南路)"},{"poiid":"B2094750D068A2FA449C","title":"Tikka","lon":"121.46011","lat":"31.22115","category":"102","category_name":"印度风味","address":"卢湾区茂名南路56号(近长乐路)"},{"poiid":"B2094757D068A0F9439B","title":"茂名南路","lon":"121.46024322","lat":"31.22309494","category":"260","category_name":"其他","address":"上海静安区茂名南路"},{"poiid":"B2094757D068A7F8459F","title":"净心轩","lon":"121.46047","lat":"31.22114","category":"89","category_name":"中式素餐馆","address":"卢湾区茂名南路56号56食尚谷D区1号(近长乐路)"},{"poiid":"B2094654DB6BA6FC499A","title":"天手古舞 巨鹿路店 tentekomai","lon":"121.46271864293","lat":"31.222867030754","category":"95","category_name":"日本料理","address":"卢湾区巨鹿路242号(近瑞金一路)"},{"poiid":"B2094757D46CA7FB4799","title":"茂隆餐厅","lon":"121.45990991619","lat":"31.221918570819","category":"76","category_name":"上海菜","address":"卢湾区进贤路134号(近茂名南路)"},{"poiid":"B2094757D168AAF5499F","title":"伊秀寿司","lon":"121.45819373","lat":"31.224303173","category":"247","category_name":"餐饮美食","address":"上海市静安区南京西路"},{"poiid":"B2094757DA69A3F4419B","title":"福得德","lon":"121.46017423652","lat":"31.221155993403","category":"76","category_name":"上海菜","address":"卢湾区茂名南路56号B区1楼(近进贤路)"},{"poiid":"B2094750D26AA6FC429F","title":"恒隆","lon":"121.458969","lat":"31.223642","category":"500","category_name":"未知分类","address":"南京西路"},{"poiid":"B2094757D06EAAF44893","title":"DIY  SWEET","lon":"121.460994","lat":"31.225128","category":"67","category_name":"甜品店","address":"升平街15号近茂名北路"},{"poiid":"B2094654D564AAFF459C","title":"春餐厅","lon":"121.46014540629","lat":"31.22205986488","category":"76","category_name":"上海菜","address":"卢湾区进贤路124号(茂名南路口)"},{"poiid":"B2094757D069ABFC479C","title":"进贤路","lon":"121.459985","lat":"31.221497","category":"500","category_name":"未知分类","address":"上海市静安区延安中路"},{"poiid":"B2094757D169A7F8429C","title":"双叶居热气羊肉","lon":"121.46038873","lat":"31.223887164","category":"86","category_name":"火锅店","address":"静安区延安中路724号(近茂名北路)"},{"poiid":"B2094654D564ABF4449C","title":"襄阳大楼","lon":"121.462","lat":"31.2247","category":"46","category_name":"楼宇","address":"昌平区回龙观镇国际信息产业基地高新二街"},{"poiid":"B2094654DA6CA1F5419B","title":"香港名城火锅","lon":"121.45931","lat":"31.2243","category":"86","category_name":"火锅店","address":"静安区延安中路802号(近茂名北路)"},{"poiid":"B2094757D164A6F4439A","title":"巨鹿路","lon":"121.459033","lat":"31.222743","category":"500","category_name":"未知分类","address":"上海巨鹿路318号"},{"poiid":"B2094757D66FA7FF469A","title":"陕西大厦商务酒店","lon":"121.462763238","lat":"31.2241532706","category":"500","category_name":"未知分类","address":"静安区延安中路658号(近陕西北路)"},{"poiid":"B2094655D26BA0FA4192","title":"LOMOGRAPHY","lon":"121.46004","lat":"31.22172","category":"255","category_name":"专卖店","address":"卢湾区进贤路126号(近茂名南路)"},{"poiid":"B2094753DB68A4FE449E","title":"七克拉素食咖啡","lon":"121.462837","lat":"31.22306","category":"500","category_name":"未知分类","address":"上海市 巨鹿路242号"},{"poiid":"B2094757D06BA0FE499E","title":"一家人餐厅","lon":"121.459923","lat":"31.221674","category":"76","category_name":"上海菜","address":"卢湾区进贤路128号(近茂名南路)"},{"poiid":"B2094757DB6CABF5469D","title":"1号线徐家汇站","lon":"121.462175","lat":"31.224322","category":"627","category_name":"一般地点标志","address":"徐家汇"},{"poiid":"B2094757D66CA2F9499B","title":"龙之介炉端烧","lon":"121.46268673","lat":"31.222569136","category":"247","category_name":"餐饮美食","address":"上海市静安区巨鹿路"},{"poiid":"B2094654D564ABFE469F","title":"悟锦世纪大楼","lon":"121.459","lat":"31.2237","category":"46","category_name":"楼宇","address":"富民路291号"},{"poiid":"B2094757D06FA5FB4892","title":"Chill Lounge","lon":"121.459104395","lat":"31.2228115434","category":"260","category_name":"其他","address":"卢湾区巨鹿路318-2号(近茂名南路)"},{"poiid":"B2094757D06BABFB4692","title":"延安路高架","lon":"121.45920679","lat":"31.223764255","category":"500","category_name":"未知分类","address":"上海延安路"},{"poiid":"B2094757D069A3F5459E","title":"进贤阁","lon":"121.46044","lat":"31.22152","category":"76","category_name":"上海菜","address":"上海卢湾区进贤路120号(近茂名路)  "},{"poiid":"B2094757D064ABFF4092","title":"秦粤轩","lon":"121.46102","lat":"31.22384","category":"84","category_name":"西北菜","address":"静安区延安中路658号陕西大厦商务酒店4楼(近茂名北路)"},{"poiid":"B2094751D36AA6F54898","title":"The Grumpy Pig","lon":"121.46061","lat":"31.22496","category":"94","category_name":"西餐厅","address":"静安区茂名北路65号(近延安路)"},{"poiid":"B2094655D268A6FF469F","title":"南蛮子","lon":"121.45924","lat":"31.22137","category":"83","category_name":"云贵菜","address":"卢湾区进贤路169号56食尚谷E区2楼(近茂名南路)"},{"poiid":"B209475DD668A5FD499E","title":"名城煲王","lon":"121.459434","lat":"31.224061","category":"247","category_name":"餐饮美食","address":"上海市 上海延安中路802号"},{"poiid":"B2094753D164A7F4409F","title":"阿吾羅日料•铁板烧","lon":"121.460084","lat":"31.223214","category":"247","category_name":"餐饮美食","address":"上海市 淮海中路300号K11艺术购物中心407单元"},{"poiid":"B2094751D26BA4FD4699","title":"蜀公馆","lon":"121.4591684","lat":"31.2252296","category":"247","category_name":"餐饮美食","address":"淮海中路776号"},{"poiid":"B209475CD565A4F54793","title":"HARU KITCHEN","lon":"121.461441","lat":"31.223556","category":"500","category_name":"未知分类","address":"上海市 陝西北路66號"},{"poiid":"B2094757D064AAFD489C","title":"五季坊保健会所","lon":"121.462259","lat":"31.223408","category":"149","category_name":"洗浴推拿场所","address":"徐汇区襄阳北路100号2楼(近淮海中路)"},{"poiid":"B2094757D464A5F9469A","title":"Life's home Coffee","lon":"121.458244054","lat":"31.222249793","category":"65","category_name":"咖啡厅","address":"卢湾区巨鹿路427号-1院内2楼东南(近陕西南路)"},{"poiid":"B2094757D16CA1F4499C","title":"凯德·茂名公馆(The Paragon)","lon":"121.460807667","lat":"31.2220236179","category":"47","category_name":"住宅区","address":"上海卢湾区茂名南路9弄(近巨鹿路)"},{"poiid":"B2094654D564ABFD4192","title":"大班商务中心","lon":"121.461","lat":"31.2224","category":"46","category_name":"楼宇","address":"浦东区崂山东路410号"},{"poiid":"B2094654DA6CA1F94999","title":"上尊国际商务中心","lon":"121.46261","lat":"31.22426","category":"46","category_name":"楼宇","address":"上海市虹口区四川北路1318号"},{"poiid":"B2094757DA69A1F44692","title":"Lomography上海店","lon":"121.45992485809","lat":"31.221755879302","category":"119","category_name":"商场","address":"进贤路126号"},{"poiid":"B2094655D268A6FF469C","title":"Pier 39","lon":"121.45905","lat":"31.22151","category":"94","category_name":"西餐厅","address":"卢湾区进贤路172号(近陕西南路)"},{"poiid":"B2094757D06FA2FE4698","title":"黑方日本料理","lon":"121.46039473","lat":"31.224688182","category":"95","category_name":"日本料理","address":"茂名北路65号2号楼112-113室近威海路"},{"poiid":"B2094757D06EAAFA459D","title":"NAPOLEON  CHOCOLATE  BAR","lon":"121.4623558","lat":"31.222834","category":"67","category_name":"甜品店","address":"卢湾区巨鹿路242-2号(近瑞金一路)"},{"poiid":"B2094753D76FAAFA449C","title":"上海滩国泰旗舰店","lon":"121.466011","lat":"31.216125","category":"249","category_name":"购物服务","address":"淮海中路868号"},{"poiid":"B209475CD564A7F84292","title":"上海滩新天地店","lon":"121.47463","lat":"31.22164","category":"119","category_name":"商场","address":"\"太仓路181弄新天地北里15号\r\n\""},{"poiid":"B209475CD564A7F8439E","title":"上海滩中信泰富店","lon":"121.45602","lat":"31.22851","category":"119","category_name":"商场","address":"\"南京西路1168号中信泰富广场，店铺号221.\r\n\""},{"poiid":"B2094757D06FA2F9469A","title":"兰心餐厅","lon":"121.45978","lat":"31.22135","category":"76","category_name":"上海菜","address":"卢湾区进贤路130号(近茂名南路)"},{"poiid":"B2094757DB68AAFF4792","title":"丽江驿 MONSOON","lon":"121.460094","lat":"31.221228","category":"99","category_name":"泰国／越南菜品餐厅","address":"卢湾区茂名南路56号56食尚谷内(近长乐路)"},{"poiid":"B2094757D064A5F94493","title":"岩日本料理","lon":"121.459654038","lat":"31.2223299317","category":"95","category_name":"日本料理","address":"卢湾区巨鹿路294号(近茂名南路)"},{"poiid":"B2094655D26AABFB439F","title":"天鹅申阁西菜社","lon":"121.45926","lat":"31.22131","category":"247","category_name":"餐饮美食","address":"进贤路169号"},{"poiid":"B2094757D064AAFF4898","title":"韩国艺匠婚纱摄影","lon":"121.460858238","lat":"31.2248422003","category":"611","category_name":"照相馆","address":"长宁区江苏路40号（近长宁路）"},{"poiid":"B2094757D06FA0F9419F","title":"清迈天堂","lon":"121.46022","lat":"31.2212","category":"99","category_name":"泰国／越南菜品餐厅","address":"卢湾区进贤路145号(近茂名南路)"},{"poiid":"B2094750D068A2FA449C","title":"Tikka","lon":"121.46011","lat":"31.22115","category":"102","category_name":"印度风味","address":"卢湾区茂名南路56号(近长乐路)"},{"poiid":"B2094757D068A0F9439B","title":"茂名南路","lon":"121.46024322","lat":"31.22309494","category":"260","category_name":"其他","address":"上海静安区茂名南路"},{"poiid":"B2094757D068A7F8459F","title":"净心轩","lon":"121.46047","lat":"31.22114","category":"89","category_name":"中式素餐馆","address":"卢湾区茂名南路56号56食尚谷D区1号(近长乐路)"},{"poiid":"B2094654DB6BA6FC499A","title":"天手古舞 巨鹿路店 tentekomai","lon":"121.46271864293","lat":"31.222867030754","category":"95","category_name":"日本料理","address":"卢湾区巨鹿路242号(近瑞金一路)"},{"poiid":"B2094757D46CA7FB4799","title":"茂隆餐厅","lon":"121.45990991619","lat":"31.221918570819","category":"76","category_name":"上海菜","address":"卢湾区进贤路134号(近茂名南路)"},{"poiid":"B2094757D168AAF5499F","title":"伊秀寿司","lon":"121.45819373","lat":"31.224303173","category":"247","category_name":"餐饮美食","address":"上海市静安区南京西路"},{"poiid":"B2094757DA69A3F4419B","title":"福得德","lon":"121.46017423652","lat":"31.221155993403","category":"76","category_name":"上海菜","address":"卢湾区茂名南路56号B区1楼(近进贤路)"},{"poiid":"B2094750D26AA6FC429F","title":"恒隆","lon":"121.458969","lat":"31.223642","category":"500","category_name":"未知分类","address":"南京西路"},{"poiid":"B2094757D06EAAF44893","title":"DIY  SWEET","lon":"121.460994","lat":"31.225128","category":"67","category_name":"甜品店","address":"升平街15号近茂名北路"},{"poiid":"B2094654D564AAFF459C","title":"春餐厅","lon":"121.46014540629","lat":"31.22205986488","category":"76","category_name":"上海菜","address":"卢湾区进贤路124号(茂名南路口)"},{"poiid":"B2094757D069ABFC479C","title":"进贤路","lon":"121.459985","lat":"31.221497","category":"500","category_name":"未知分类","address":"上海市静安区延安中路"},{"poiid":"B2094757D169A7F8429C","title":"双叶居热气羊肉","lon":"121.46038873","lat":"31.223887164","category":"86","category_name":"火锅店","address":"静安区延安中路724号(近茂名北路)"},{"poiid":"B2094654D564ABF4449C","title":"襄阳大楼","lon":"121.462","lat":"31.2247","category":"46","category_name":"楼宇","address":"昌平区回龙观镇国际信息产业基地高新二街"},{"poiid":"B2094654DA6CA1F5419B","title":"香港名城火锅","lon":"121.45931","lat":"31.2243","category":"86","category_name":"火锅店","address":"静安区延安中路802号(近茂名北路)"},{"poiid":"B2094757D164A6F4439A","title":"巨鹿路","lon":"121.459033","lat":"31.222743","category":"500","category_name":"未知分类","address":"上海巨鹿路318号"},{"poiid":"B2094757D66FA7FF469A","title":"陕西大厦商务酒店","lon":"121.462763238","lat":"31.2241532706","category":"500","category_name":"未知分类","address":"静安区延安中路658号(近陕西北路)"},{"poiid":"B2094655D26BA0FA4192","title":"LOMOGRAPHY","lon":"121.46004","lat":"31.22172","category":"255","category_name":"专卖店","address":"卢湾区进贤路126号(近茂名南路)"},{"poiid":"B2094753DB68A4FE449E","title":"七克拉素食咖啡","lon":"121.462837","lat":"31.22306","category":"500","category_name":"未知分类","address":"上海市 巨鹿路242号"},{"poiid":"B2094757D06BA0FE499E","title":"一家人餐厅","lon":"121.459923","lat":"31.221674","category":"76","category_name":"上海菜","address":"卢湾区进贤路128号(近茂名南路)"},{"poiid":"B2094757DB6CABF5469D","title":"1号线徐家汇站","lon":"121.462175","lat":"31.224322","category":"627","category_name":"一般地点标志","address":"徐家汇"},{"poiid":"B2094757D66CA2F9499B","title":"龙之介炉端烧","lon":"121.46268673","lat":"31.222569136","category":"247","category_name":"餐饮美食","address":"上海市静安区巨鹿路"},{"poiid":"B2094654D564ABFE469F","title":"悟锦世纪大楼","lon":"121.459","lat":"31.2237","category":"46","category_name":"楼宇","address":"富民路291号"},{"poiid":"B2094757D06FA5FB4892","title":"Chill Lounge","lon":"121.459104395","lat":"31.2228115434","category":"260","category_name":"其他","address":"卢湾区巨鹿路318-2号(近茂名南路)"},{"poiid":"B2094757D06BABFB4692","title":"延安路高架","lon":"121.45920679","lat":"31.223764255","category":"500","category_name":"未知分类","address":"上海延安路"},{"poiid":"B2094757D069A3F5459E","title":"进贤阁","lon":"121.46044","lat":"31.22152","category":"76","category_name":"上海菜","address":"上海卢湾区进贤路120号(近茂名路)  "},{"poiid":"B2094757D064ABFF4092","title":"秦粤轩","lon":"121.46102","lat":"31.22384","category":"84","category_name":"西北菜","address":"静安区延安中路658号陕西大厦商务酒店4楼(近茂名北路)"},{"poiid":"B2094751D36AA6F54898","title":"The Grumpy Pig","lon":"121.46061","lat":"31.22496","category":"94","category_name":"西餐厅","address":"静安区茂名北路65号(近延安路)"},{"poiid":"B2094655D268A6FF469F","title":"南蛮子","lon":"121.45924","lat":"31.22137","category":"83","category_name":"云贵菜","address":"卢湾区进贤路169号56食尚谷E区2楼(近茂名南路)"},{"poiid":"B209475DD668A5FD499E","title":"名城煲王","lon":"121.459434","lat":"31.224061","category":"247","category_name":"餐饮美食","address":"上海市 上海延安中路802号"},{"poiid":"B2094753D164A7F4409F","title":"阿吾羅日料•铁板烧","lon":"121.460084","lat":"31.223214","category":"247","category_name":"餐饮美食","address":"上海市 淮海中路300号K11艺术购物中心407单元"},{"poiid":"B2094751D26BA4FD4699","title":"蜀公馆","lon":"121.4591684","lat":"31.2252296","category":"247","category_name":"餐饮美食","address":"淮海中路776号"},{"poiid":"B209475CD565A4F54793","title":"HARU KITCHEN","lon":"121.461441","lat":"31.223556","category":"500","category_name":"未知分类","address":"上海市 陝西北路66號"},{"poiid":"B2094757D064AAFD489C","title":"五季坊保健会所","lon":"121.462259","lat":"31.223408","category":"149","category_name":"洗浴推拿场所","address":"徐汇区襄阳北路100号2楼(近淮海中路)"},{"poiid":"B2094757D464A5F9469A","title":"Life's home Coffee","lon":"121.458244054","lat":"31.222249793","category":"65","category_name":"咖啡厅","address":"卢湾区巨鹿路427号-1院内2楼东南(近陕西南路)"},{"poiid":"B2094757D16CA1F4499C","title":"凯德·茂名公馆(The Paragon)","lon":"121.460807667","lat":"31.2220236179","category":"47","category_name":"住宅区","address":"上海卢湾区茂名南路9弄(近巨鹿路)"},{"poiid":"B2094654D564ABFD4192","title":"大班商务中心","lon":"121.461","lat":"31.2224","category":"46","category_name":"楼宇","address":"浦东区崂山东路410号"},{"poiid":"B2094654DA6CA1F94999","title":"上尊国际商务中心","lon":"121.46261","lat":"31.22426","category":"46","category_name":"楼宇","address":"上海市虹口区四川北路1318号"},{"poiid":"B2094757DA69A1F44692","title":"Lomography上海店","lon":"121.45992485809","lat":"31.221755879302","category":"119","category_name":"商场","address":"进贤路126号"},{"poiid":"B2094655D268A6FF469C","title":"Pier 39","lon":"121.45905","lat":"31.22151","category":"94","category_name":"西餐厅","address":"卢湾区进贤路172号(近陕西南路)"},{"poiid":"B2094757D06FA2FE4698","title":"黑方日本料理","lon":"121.46039473","lat":"31.224688182","category":"95","category_name":"日本料理","address":"茂名北路65号2号楼112-113室近威海路"},{"poiid":"B2094757D06EAAFA459D","title":"NAPOLEON  CHOCOLATE  BAR","lon":"121.4623558","lat":"31.222834","category":"67","category_name":"甜品店","address":"卢湾区巨鹿路242-2号(近瑞金一路)"},{"poiid":"B2094753D76FAAFA449C","title":"上海滩国泰旗舰店","lon":"121.466011","lat":"31.216125","category":"249","category_name":"购物服务","address":"淮海中路868号"},{"poiid":"B209475CD564A7F84292","title":"上海滩新天地店","lon":"121.47463","lat":"31.22164","category":"119","category_name":"商场","address":"\"太仓路181弄新天地北里15号\r\n\""},{"poiid":"B209475CD564A7F8439E","title":"上海滩中信泰富店","lon":"121.45602","lat":"31.22851","category":"119","category_name":"商场","address":"\"南京西路1168号中信泰富广场，店铺号221.\r\n\""},{"poiid":"B2094757D06FA2F9469A","title":"兰心餐厅","lon":"121.45978","lat":"31.22135","category":"76","category_name":"上海菜","address":"卢湾区进贤路130号(近茂名南路)"},{"poiid":"B2094757DB68AAFF4792","title":"丽江驿 MONSOON","lon":"121.460094","lat":"31.221228","category":"99","category_name":"泰国／越南菜品餐厅","address":"卢湾区茂名南路56号56食尚谷内(近长乐路)"},{"poiid":"B2094757D064A5F94493","title":"岩日本料理","lon":"121.459654038","lat":"31.2223299317","category":"95","category_name":"日本料理","address":"卢湾区巨鹿路294号(近茂名南路)"},{"poiid":"B2094655D26AABFB439F","title":"天鹅申阁西菜社","lon":"121.45926","lat":"31.22131","category":"247","category_name":"餐饮美食","address":"进贤路169号"},{"poiid":"B2094757D064AAFF4898","title":"韩国艺匠婚纱摄影","lon":"121.460858238","lat":"31.2248422003","category":"611","category_name":"照相馆","address":"长宁区江苏路40号（近长宁路）"},{"poiid":"B2094757D06FA0F9419F","title":"清迈天堂","lon":"121.46022","lat":"31.2212","category":"99","category_name":"泰国／越南菜品餐厅","address":"卢湾区进贤路145号(近茂名南路)"},{"poiid":"B2094750D068A2FA449C","title":"Tikka","lon":"121.46011","lat":"31.22115","category":"102","category_name":"印度风味","address":"卢湾区茂名南路56号(近长乐路)"},{"poiid":"B2094757D068A0F9439B","title":"茂名南路","lon":"121.46024322","lat":"31.22309494","category":"260","category_name":"其他","address":"上海静安区茂名南路"},{"poiid":"B2094757D068A7F8459F","title":"净心轩","lon":"121.46047","lat":"31.22114","category":"89","category_name":"中式素餐馆","address":"卢湾区茂名南路56号56食尚谷D区1号(近长乐路)"},{"poiid":"B2094654DB6BA6FC499A","title":"天手古舞 巨鹿路店 tentekomai","lon":"121.46271864293","lat":"31.222867030754","category":"95","category_name":"日本料理","address":"卢湾区巨鹿路242号(近瑞金一路)"},{"poiid":"B2094757D46CA7FB4799","title":"茂隆餐厅","lon":"121.45990991619","lat":"31.221918570819","category":"76","category_name":"上海菜","address":"卢湾区进贤路134号(近茂名南路)"},{"poiid":"B2094757D168AAF5499F","title":"伊秀寿司","lon":"121.45819373","lat":"31.224303173","category":"247","category_name":"餐饮美食","address":"上海市静安区南京西路"},{"poiid":"B2094757DA69A3F4419B","title":"福得德","lon":"121.46017423652","lat":"31.221155993403","category":"76","category_name":"上海菜","address":"卢湾区茂名南路56号B区1楼(近进贤路)"},{"poiid":"B2094750D26AA6FC429F","title":"恒隆","lon":"121.458969","lat":"31.223642","category":"500","category_name":"未知分类","address":"南京西路"},{"poiid":"B2094757D06EAAF44893","title":"DIY  SWEET","lon":"121.460994","lat":"31.225128","category":"67","category_name":"甜品店","address":"升平街15号近茂名北路"},{"poiid":"B2094654D564AAFF459C","title":"春餐厅","lon":"121.46014540629","lat":"31.22205986488","category":"76","category_name":"上海菜","address":"卢湾区进贤路124号(茂名南路口)"},{"poiid":"B2094757D069ABFC479C","title":"进贤路","lon":"121.459985","lat":"31.221497","category":"500","category_name":"未知分类","address":"上海市静安区延安中路"},{"poiid":"B2094757D169A7F8429C","title":"双叶居热气羊肉","lon":"121.46038873","lat":"31.223887164","category":"86","category_name":"火锅店","address":"静安区延安中路724号(近茂名北路)"},{"poiid":"B2094654D564ABF4449C","title":"襄阳大楼","lon":"121.462","lat":"31.2247","category":"46","category_name":"楼宇","address":"昌平区回龙观镇国际信息产业基地高新二街"},{"poiid":"B2094654DA6CA1F5419B","title":"香港名城火锅","lon":"121.45931","lat":"31.2243","category":"86","category_name":"火锅店","address":"静安区延安中路802号(近茂名北路)"},{"poiid":"B2094757D164A6F4439A","title":"巨鹿路","lon":"121.459033","lat":"31.222743","category":"500","category_name":"未知分类","address":"上海巨鹿路318号"},{"poiid":"B2094757D66FA7FF469A","title":"陕西大厦商务酒店","lon":"121.462763238","lat":"31.2241532706","category":"500","category_name":"未知分类","address":"静安区延安中路658号(近陕西北路)"},{"poiid":"B2094655D26BA0FA4192","title":"LOMOGRAPHY","lon":"121.46004","lat":"31.22172","category":"255","category_name":"专卖店","address":"卢湾区进贤路126号(近茂名南路)"},{"poiid":"B2094753DB68A4FE449E","title":"七克拉素食咖啡","lon":"121.462837","lat":"31.22306","category":"500","category_name":"未知分类","address":"上海市 巨鹿路242号"},{"poiid":"B2094757D06BA0FE499E","title":"一家人餐厅","lon":"121.459923","lat":"31.221674","category":"76","category_name":"上海菜","address":"卢湾区进贤路128号(近茂名南路)"},{"poiid":"B2094757DB6CABF5469D","title":"1号线徐家汇站","lon":"121.462175","lat":"31.224322","category":"627","category_name":"一般地点标志","address":"徐家汇"},{"poiid":"B2094757D66CA2F9499B","title":"龙之介炉端烧","lon":"121.46268673","lat":"31.222569136","category":"247","category_name":"餐饮美食","address":"上海市静安区巨鹿路"},{"poiid":"B2094654D564ABFE469F","title":"悟锦世纪大楼","lon":"121.459","lat":"31.2237","category":"46","category_name":"楼宇","address":"富民路291号"},{"poiid":"B2094757D06FA5FB4892","title":"Chill Lounge","lon":"121.459104395","lat":"31.2228115434","category":"260","category_name":"其他","address":"卢湾区巨鹿路318-2号(近茂名南路)"},{"poiid":"B2094757D06BABFB4692","title":"延安路高架","lon":"121.45920679","lat":"31.223764255","category":"500","category_name":"未知分类","address":"上海延安路"},{"poiid":"B2094757D069A3F5459E","title":"进贤阁","lon":"121.46044","lat":"31.22152","category":"76","category_name":"上海菜","address":"上海卢湾区进贤路120号(近茂名路)  "},{"poiid":"B2094757D064ABFF4092","title":"秦粤轩","lon":"121.46102","lat":"31.22384","category":"84","category_name":"西北菜","address":"静安区延安中路658号陕西大厦商务酒店4楼(近茂名北路)"},{"poiid":"B2094751D36AA6F54898","title":"The Grumpy Pig","lon":"121.46061","lat":"31.22496","category":"94","category_name":"西餐厅","address":"静安区茂名北路65号(近延安路)"},{"poiid":"B2094655D268A6FF469F","title":"南蛮子","lon":"121.45924","lat":"31.22137","category":"83","category_name":"云贵菜","address":"卢湾区进贤路169号56食尚谷E区2楼(近茂名南路)"},{"poiid":"B209475DD668A5FD499E","title":"名城煲王","lon":"121.459434","lat":"31.224061","category":"247","category_name":"餐饮美食","address":"上海市 上海延安中路802号"},{"poiid":"B2094753D164A7F4409F","title":"阿吾羅日料•铁板烧","lon":"121.460084","lat":"31.223214","category":"247","category_name":"餐饮美食","address":"上海市 淮海中路300号K11艺术购物中心407单元"},{"poiid":"B2094751D26BA4FD4699","title":"蜀公馆","lon":"121.4591684","lat":"31.2252296","category":"247","category_name":"餐饮美食","address":"淮海中路776号"},{"poiid":"B209475CD565A4F54793","title":"HARU KITCHEN","lon":"121.461441","lat":"31.223556","category":"500","category_name":"未知分类","address":"上海市 陝西北路66號"},{"poiid":"B2094757D064AAFD489C","title":"五季坊保健会所","lon":"121.462259","lat":"31.223408","category":"149","category_name":"洗浴推拿场所","address":"徐汇区襄阳北路100号2楼(近淮海中路)"},{"poiid":"B2094757D464A5F9469A","title":"Life's home Coffee","lon":"121.458244054","lat":"31.222249793","category":"65","category_name":"咖啡厅","address":"卢湾区巨鹿路427号-1院内2楼东南(近陕西南路)"},{"poiid":"B2094757D16CA1F4499C","title":"凯德·茂名公馆(The Paragon)","lon":"121.460807667","lat":"31.2220236179","category":"47","category_name":"住宅区","address":"上海卢湾区茂名南路9弄(近巨鹿路)"},{"poiid":"B2094654D564ABFD4192","title":"大班商务中心","lon":"121.461","lat":"31.2224","category":"46","category_name":"楼宇","address":"浦东区崂山东路410号"},{"poiid":"B2094654DA6CA1F94999","title":"上尊国际商务中心","lon":"121.46261","lat":"31.22426","category":"46","category_name":"楼宇","address":"上海市虹口区四川北路1318号"},{"poiid":"B2094757DA69A1F44692","title":"Lomography上海店","lon":"121.45992485809","lat":"31.221755879302","category":"119","category_name":"商场","address":"进贤路126号"}]