[{"poiid":"B2094757D168A7FF4192","title":"青浦党校","lon":"121.12828703","lat":"31.156762895","category":"253","category_name":"校园生活","address":"上海华科路"},{"poiid":"B2094757D06AA1F5419F","title":"榕港海鲜大酒楼(青浦店)","lon":"121.12135","lat":"31.15832","category":"88","category_name":"海鲜酒楼","address":"青浦区浦仓路888号(近盈港路)"},{"poiid":"B2094757D06AABF44393","title":"新青浦佳园","lon":"121.135","lat":"31.1647","category":"500","category_name":"未知分类","address":"上海市青浦区华科路155弄"},{"poiid":"B2094757D069A5F5449C","title":"龙岛大酒店","lon":"121.1226","lat":"31.16987","category":"76","category_name":"上海菜","address":"青浦区工业园区外青松公路5633号(外青松公路新业路)"},{"poiid":"B2094751D465A2FE479D","title":"末可甜品小屋","lon":"121.131406","lat":"31.156118","category":"247","category_name":"餐饮美食","address":"青浦区公园东路1688弄23号(近中山医院)"},{"poiid":"B2094654DA6BA7FD429A","title":"港隆广场","lon":"121.11506","lat":"31.15938","category":"119","category_name":"商场","address":"青浦镇盈港路499弄"},{"poiid":"B2094757D06AA6FD489E","title":"新青浦花苑","lon":"121.13","lat":"31.1618","category":"500","category_name":"未知分类","address":"上海外青松公路6048弄"},{"poiid":"B2094757D664A3F54799","title":"七欣天迷宗蟹 青浦店","lon":"121.119998","lat":"31.153206","category":"86","category_name":"火锅店","address":"青浦区沙埭浜路35-39号(近体育场路)"},{"poiid":"B2094654DA6BA4FB449E","title":"公园大观吉富绅花园","lon":"121.13375","lat":"31.15561","category":"47","category_name":"住宅区","address":"上海市青浦区公园东路1688号"},{"poiid":"B2094654DA6BA7F4439C","title":"界泾港新村","lon":"121.128","lat":"31.1629","category":"47","category_name":"住宅区","address":"浦仓路648弄"},{"poiid":"B2094654DA6BA6FF429E","title":"嘉憬河畔公寓","lon":"121.125773","lat":"31.161","category":"47","category_name":"住宅区","address":"青安路408弄1-26号"},{"poiid":"B2094654D569A1FF4093","title":"上海东华海天青浦基地","lon":"121.12596","lat":"31.16483","category":"45","category_name":"产业园区","address":""},{"poiid":"B2094654DA6BA4FF4993","title":"上海工商信息学校","lon":"121.13098","lat":"31.15174","category":"55","category_name":"中学","address":"青浦区公园东路2025号(近青浦区电视台)"},{"poiid":"B2094757D06BA4FA499D","title":"青浦区行政服务中心","lon":"121.12342184","lat":"31.152591323","category":"500","category_name":"未知分类","address":"上海近郊青浦区外青松公路6189号"},{"poiid":"B2094757D06BA7FA419A","title":"雪岳山韩国烧烤(青浦店)","lon":"121.11878","lat":"31.15339","category":"96","category_name":"韩国料理","address":"青浦区沙埭浜路124号(近青安路)"},{"poiid":"B2094655D268A3FC4492","title":"港隆国际大厦","lon":"121.11621","lat":"31.15921","category":"46","category_name":"楼宇","address":"盈港路453"},{"poiid":"B2094654DA6BA1F4469C","title":"盈港苑","lon":"121.12334","lat":"31.159443","category":"47","category_name":"住宅区","address":"盈港路112弄"},{"poiid":"B2094757D16CA0FC479C","title":"龙满楼","lon":"121.125225","lat":"31.1558858","category":"76","category_name":"上海菜","address":"青浦区外青松公路6048弄16号(近界泾港路)"},{"poiid":"B2094655D36CA2FF499A","title":"青安路","lon":"121.11962","lat":"31.1591","category":"38","category_name":"公交车站","address":"上海青安路"},{"poiid":"B2094654DA6BA0F9429B","title":"快客NO.6881","lon":"121.12319","lat":"31.15902","category":"117","category_name":"便民商店/便利店","address":"盈港路50号"},{"poiid":"B2094654DA6BA4FB449D","title":"英威达纤维(上海)有限公司","lon":"121.1299","lat":"31.16429","category":"263","category_name":"公司","address":"华青路603"},{"poiid":"B2094655D36CA7FC449E","title":"华青路新达路","lon":"121.13009","lat":"31.16823","category":"38","category_name":"公交车站","address":""},{"poiid":"B2094757D66AA0F54999","title":"小阁楼 青安路店","lon":"121.120917054","lat":"31.167089793","category":"76","category_name":"上海菜","address":"青安路352号近外青松公路"},{"poiid":"B2094654DA6BABFB409A","title":"新城逸境园","lon":"121.13385","lat":"31.157528","category":"47","category_name":"住宅区","address":"上海市青浦区华科路路255弄"},{"poiid":"B2094654DA6BA6FF4899","title":"上海市青浦佳禾小学","lon":"121.1223","lat":"31.15797","category":"56","category_name":"小学","address":""},{"poiid":"B2094654DA6BA6FF449F","title":"怡田小区","lon":"121.1198","lat":"31.157751","category":"47","category_name":"住宅区","address":"青浦区界泾港新村37-70号楼"},{"poiid":"B2094757D164A3F4489D","title":"青浦区人才交流中心","lon":"121.130759055","lat":"31.1611806415","category":"500","category_name":"未知分类","address":"青浦区青舟路220号"},{"poiid":"B2094757D064A4F9439F","title":"诺可健身中心","lon":"121.11928799","lat":"31.161305076","category":"500","category_name":"未知分类","address":"上海青浦体育场路"},{"poiid":"B2094654DA6BA0F84698","title":"佳佳宾馆","lon":"121.12803","lat":"31.15657","category":"250","category_name":"公园户外","address":"上海市青浦区华科路109号"},{"poiid":"B2094654DA6BA0F9439F","title":"舒之园娱乐厅","lon":"121.12058","lat":"31.16344","category":"248","category_name":"生活娱乐","address":""},{"poiid":"B2094654DA6BA1F4499A","title":"新焦点青浦店","lon":"121.12384","lat":"31.15897","category":"159","category_name":"汽车维修","address":"盈港路12-14号"},{"poiid":"B2094654DA6BA0F9449A","title":"青浦区盈浦青安学校","lon":"121.11859","lat":"31.16414","category":"55","category_name":"中学","address":""},{"poiid":"B2094654DA6BA0F9439D","title":"青浦钓鱼娱乐中心","lon":"121.12096","lat":"31.16462","category":"248","category_name":"生活娱乐","address":"青安路922号"},{"poiid":"B2094654DA6BA7FC469C","title":"新锦港花园","lon":"121.11772","lat":"31.157602","category":"47","category_name":"住宅区","address":"新锦港花园位于青浦青安路,盈港路交界处"},{"poiid":"B2094654DA6BA0F94693","title":"白马江韩式烧烤","lon":"121.11464","lat":"31.15999","category":"87","category_name":"特色／地方风味餐厅","address":"青浦镇"},{"poiid":"B2094757D16FABFF4299","title":"青盈苑小区","lon":"121.119147","lat":"31.160223","category":"47","category_name":"住宅区","address":"上海青浦区盈港路278弄[盈港路青安路交界]"},{"poiid":"B2094655D36CA7FC499A","title":"华科路华青路","lon":"121.13188","lat":"31.15698","category":"38","category_name":"公交车站","address":""},{"poiid":"B2094654D569A1FF419B","title":"上海大宫新材料有限公司","lon":"121.12754","lat":"31.16817","category":"263","category_name":"公司","address":"新达路836"},{"poiid":"B2094654DA6BA6F84592","title":"新青浦花苑华源别墅","lon":"121.131","lat":"31.1584","category":"47","category_name":"住宅区","address":"体育场路68弄"},{"poiid":"B2094655D268A4FC479E","title":"界泾港三区(西一号门)","lon":"121.12149","lat":"31.15819","category":"47","category_name":"住宅区","address":""},{"poiid":"B2094757D169A3FB4693","title":"宋记香辣蟹 浦仓路店","lon":"121.12133","lat":"31.1518","category":"71","category_name":"四川菜","address":"青浦区浦仓路528号(近青浦体育场)"},{"poiid":"B2094654DA6BA1F4459B","title":"上海市青浦区行政学院(华科路)","lon":"121.12869","lat":"31.1562","category":"52","category_name":"高等院校","address":"青浦区华科路158号"},{"poiid":"B2094654DA6BABFB4092","title":"汉森工业城","lon":"121.13404","lat":"31.16251","category":"45","category_name":"产业园区","address":"华浦路555"},{"poiid":"B2094654D569A1FD479C","title":"上海英备精密模具有限公司","lon":"121.12335","lat":"31.16822","category":"263","category_name":"公司","address":""},{"poiid":"B2094654DA6BA6F8419C","title":"瀑云沐浴休闲中心","lon":"121.12493","lat":"31.15625","category":"149","category_name":"洗浴推拿场所","address":"外青松公路6048弄19号"},{"poiid":"B2094654DA6BA0F84593","title":"克丽缇娜专业美容护肤中心华科店","lon":"121.12908","lat":"31.1567","category":"148","category_name":"美容美发店","address":""},{"poiid":"B2094654DA6BA7F54492","title":"春汝拉面店","lon":"121.121","lat":"31.15591","category":"257","category_name":"中餐厅","address":"青浦区浦仓路777号"},{"poiid":"B2094654DA6BA0F84699","title":"联华(华科路)","lon":"121.12834","lat":"31.15662","category":"118","category_name":"超级市场","address":"华科路129"},{"poiid":"B2094654DA6BABFB409D","title":"中纺科技创业园","lon":"121.13439","lat":"31.16283","category":"45","category_name":"产业园区","address":""},{"poiid":"B2094654DA6BABFB409C","title":"青浦工业园区固体废物处理站","lon":"121.13454","lat":"31.16228","category":"45","category_name":"产业园区","address":"华浦路480"},{"poiid":"B2094757D168A7FF4192","title":"青浦党校","lon":"121.12828703","lat":"31.156762895","category":"253","category_name":"校园生活","address":"上海华科路"},{"poiid":"B2094757D06AA1F5419F","title":"榕港海鲜大酒楼(青浦店)","lon":"121.12135","lat":"31.15832","category":"88","category_name":"海鲜酒楼","address":"青浦区浦仓路888号(近盈港路)"},{"poiid":"B2094757D06AABF44393","title":"新青浦佳园","lon":"121.135","lat":"31.1647","category":"500","category_name":"未知分类","address":"上海市青浦区华科路155弄"},{"poiid":"B2094757D069A5F5449C","title":"龙岛大酒店","lon":"121.1226","lat":"31.16987","category":"76","category_name":"上海菜","address":"青浦区工业园区外青松公路5633号(外青松公路新业路)"},{"poiid":"B2094751D465A2FE479D","title":"末可甜品小屋","lon":"121.131406","lat":"31.156118","category":"247","category_name":"餐饮美食","address":"青浦区公园东路1688弄23号(近中山医院)"},{"poiid":"B2094654DA6BA7FD429A","title":"港隆广场","lon":"121.11506","lat":"31.15938","category":"119","category_name":"商场","address":"青浦镇盈港路499弄"},{"poiid":"B2094757D06AA6FD489E","title":"新青浦花苑","lon":"121.13","lat":"31.1618","category":"500","category_name":"未知分类","address":"上海外青松公路6048弄"},{"poiid":"B2094757D664A3F54799","title":"七欣天迷宗蟹 青浦店","lon":"121.119998","lat":"31.153206","category":"86","category_name":"火锅店","address":"青浦区沙埭浜路35-39号(近体育场路)"},{"poiid":"B2094654DA6BA4FB449E","title":"公园大观吉富绅花园","lon":"121.13375","lat":"31.15561","category":"47","category_name":"住宅区","address":"上海市青浦区公园东路1688号"},{"poiid":"B2094654DA6BA7F4439C","title":"界泾港新村","lon":"121.128","lat":"31.1629","category":"47","category_name":"住宅区","address":"浦仓路648弄"},{"poiid":"B2094654DA6BA6FF429E","title":"嘉憬河畔公寓","lon":"121.125773","lat":"31.161","category":"47","category_name":"住宅区","address":"青安路408弄1-26号"},{"poiid":"B2094654D569A1FF4093","title":"上海东华海天青浦基地","lon":"121.12596","lat":"31.16483","category":"45","category_name":"产业园区","address":""},{"poiid":"B2094654DA6BA4FF4993","title":"上海工商信息学校","lon":"121.13098","lat":"31.15174","category":"55","category_name":"中学","address":"青浦区公园东路2025号(近青浦区电视台)"},{"poiid":"B2094757D06BA4FA499D","title":"青浦区行政服务中心","lon":"121.12342184","lat":"31.152591323","category":"500","category_name":"未知分类","address":"上海近郊青浦区外青松公路6189号"},{"poiid":"B2094757D06BA7FA419A","title":"雪岳山韩国烧烤(青浦店)","lon":"121.11878","lat":"31.15339","category":"96","category_name":"韩国料理","address":"青浦区沙埭浜路124号(近青安路)"},{"poiid":"B2094655D268A3FC4492","title":"港隆国际大厦","lon":"121.11621","lat":"31.15921","category":"46","category_name":"楼宇","address":"盈港路453"},{"poiid":"B2094654DA6BA1F4469C","title":"盈港苑","lon":"121.12334","lat":"31.159443","category":"47","category_name":"住宅区","address":"盈港路112弄"},{"poiid":"B2094757D16CA0FC479C","title":"龙满楼","lon":"121.125225","lat":"31.1558858","category":"76","category_name":"上海菜","address":"青浦区外青松公路6048弄16号(近界泾港路)"},{"poiid":"B2094655D36CA2FF499A","title":"青安路","lon":"121.11962","lat":"31.1591","category":"38","category_name":"公交车站","address":"上海青安路"},{"poiid":"B2094654DA6BA0F9429B","title":"快客NO.6881","lon":"121.12319","lat":"31.15902","category":"117","category_name":"便民商店/便利店","address":"盈港路50号"},{"poiid":"B2094654DA6BA4FB449D","title":"英威达纤维(上海)有限公司","lon":"121.1299","lat":"31.16429","category":"263","category_name":"公司","address":"华青路603"},{"poiid":"B2094655D36CA7FC449E","title":"华青路新达路","lon":"121.13009","lat":"31.16823","category":"38","category_name":"公交车站","address":""},{"poiid":"B2094757D66AA0F54999","title":"小阁楼 青安路店","lon":"121.120917054","lat":"31.167089793","category":"76","category_name":"上海菜","address":"青安路352号近外青松公路"},{"poiid":"B2094654DA6BABFB409A","title":"新城逸境园","lon":"121.13385","lat":"31.157528","category":"47","category_name":"住宅区","address":"上海市青浦区华科路路255弄"},{"poiid":"B2094654DA6BA6FF4899","title":"上海市青浦佳禾小学","lon":"121.1223","lat":"31.15797","category":"56","category_name":"小学","address":""},{"poiid":"B2094654DA6BA6FF449F","title":"怡田小区","lon":"121.1198","lat":"31.157751","category":"47","category_name":"住宅区","address":"青浦区界泾港新村37-70号楼"},{"poiid":"B2094757D164A3F4489D","title":"青浦区人才交流中心","lon":"121.130759055","lat":"31.1611806415","category":"500","category_name":"未知分类","address":"青浦区青舟路220号"},{"poiid":"B2094757D064A4F9439F","title":"诺可健身中心","lon":"121.11928799","lat":"31.161305076","category":"500","category_name":"未知分类","address":"上海青浦体育场路"},{"poiid":"B2094654DA6BA0F84698","title":"佳佳宾馆","lon":"121.12803","lat":"31.15657","category":"250","category_name":"公园户外","address":"上海市青浦区华科路109号"},{"poiid":"B2094654DA6BA0F9439F","title":"舒之园娱乐厅","lon":"121.12058","lat":"31.16344","category":"248","category_name":"生活娱乐","address":""},{"poiid":"B2094654DA6BA1F4499A","title":"新焦点青浦店","lon":"121.12384","lat":"31.15897","category":"159","category_name":"汽车维修","address":"盈港路12-14号"},{"poiid":"B2094654DA6BA0F9449A","title":"青浦区盈浦青安学校","lon":"121.11859","lat":"31.16414","category":"55","category_name":"中学","address":""},{"poiid":"B2094654DA6BA0F9439D","title":"青浦钓鱼娱乐中心","lon":"121.12096","lat":"31.16462","category":"248","category_name":"生活娱乐","address":"青安路922号"},{"poiid":"B2094654DA6BA7FC469C","title":"新锦港花园","lon":"121.11772","lat":"31.157602","category":"47","category_name":"住宅区","address":"新锦港花园位于青浦青安路,盈港路交界处"},{"poiid":"B2094654DA6BA0F94693","title":"白马江韩式烧烤","lon":"121.11464","lat":"31.15999","category":"87","category_name":"特色／地方风味餐厅","address":"青浦镇"},{"poiid":"B2094757D16FABFF4299","title":"青盈苑小区","lon":"121.119147","lat":"31.160223","category":"47","category_name":"住宅区","address":"上海青浦区盈港路278弄[盈港路青安路交界]"},{"poiid":"B2094655D36CA7FC499A","title":"华科路华青路","lon":"121.13188","lat":"31.15698","category":"38","category_name":"公交车站","address":""},{"poiid":"B2094654D569A1FF419B","title":"上海大宫新材料有限公司","lon":"121.12754","lat":"31.16817","category":"263","category_name":"公司","address":"新达路836"},{"poiid":"B2094654DA6BA6F84592","title":"新青浦花苑华源别墅","lon":"121.131","lat":"31.1584","category":"47","category_name":"住宅区","address":"体育场路68弄"},{"poiid":"B2094655D268A4FC479E","title":"界泾港三区(西一号门)","lon":"121.12149","lat":"31.15819","category":"47","category_name":"住宅区","address":""},{"poiid":"B2094757D169A3FB4693","title":"宋记香辣蟹 浦仓路店","lon":"121.12133","lat":"31.1518","category":"71","category_name":"四川菜","address":"青浦区浦仓路528号(近青浦体育场)"},{"poiid":"B2094654DA6BA1F4459B","title":"上海市青浦区行政学院(华科路)","lon":"121.12869","lat":"31.1562","category":"52","category_name":"高等院校","address":"青浦区华科路158号"},{"poiid":"B2094654DA6BABFB4092","title":"汉森工业城","lon":"121.13404","lat":"31.16251","category":"45","category_name":"产业园区","address":"华浦路555"},{"poiid":"B2094654D569A1FD479C","title":"上海英备精密模具有限公司","lon":"121.12335","lat":"31.16822","category":"263","category_name":"公司","address":""},{"poiid":"B2094654DA6BA6F8419C","title":"瀑云沐浴休闲中心","lon":"121.12493","lat":"31.15625","category":"149","category_name":"洗浴推拿场所","address":"外青松公路6048弄19号"},{"poiid":"B2094654DA6BA0F84593","title":"克丽缇娜专业美容护肤中心华科店","lon":"121.12908","lat":"31.1567","category":"148","category_name":"美容美发店","address":""},{"poiid":"B2094654DA6BA7F54492","title":"春汝拉面店","lon":"121.121","lat":"31.15591","category":"257","category_name":"中餐厅","address":"青浦区浦仓路777号"},{"poiid":"B2094654DA6BA0F84699","title":"联华(华科路)","lon":"121.12834","lat":"31.15662","category":"118","category_name":"超级市场","address":"华科路129"},{"poiid":"B2094654DA6BABFB409D","title":"中纺科技创业园","lon":"121.13439","lat":"31.16283","category":"45","category_name":"产业园区","address":""},{"poiid":"B2094654DA6BABFB409C","title":"青浦工业园区固体废物处理站","lon":"121.13454","lat":"31.16228","category":"45","category_name":"产业园区","address":"华浦路480"},{"poiid":"B2094757D168A7FF4192","title":"青浦党校","lon":"121.12828703","lat":"31.156762895","category":"253","category_name":"校园生活","address":"上海华科路"},{"poiid":"B2094757D06AA1F5419F","title":"榕港海鲜大酒楼(青浦店)","lon":"121.12135","lat":"31.15832","category":"88","category_name":"海鲜酒楼","address":"青浦区浦仓路888号(近盈港路)"},{"poiid":"B2094757D06AABF44393","title":"新青浦佳园","lon":"121.135","lat":"31.1647","category":"500","category_name":"未知分类","address":"上海市青浦区华科路155弄"},{"poiid":"B2094757D069A5F5449C","title":"龙岛大酒店","lon":"121.1226","lat":"31.16987","category":"76","category_name":"上海菜","address":"青浦区工业园区外青松公路5633号(外青松公路新业路)"},{"poiid":"B2094751D465A2FE479D","title":"末可甜品小屋","lon":"121.131406","lat":"31.156118","category":"247","category_name":"餐饮美食","address":"青浦区公园东路1688弄23号(近中山医院)"},{"poiid":"B2094654DA6BA7FD429A","title":"港隆广场","lon":"121.11506","lat":"31.15938","category":"119","category_name":"商场","address":"青浦镇盈港路499弄"},{"poiid":"B2094757D06AA6FD489E","title":"新青浦花苑","lon":"121.13","lat":"31.1618","category":"500","category_name":"未知分类","address":"上海外青松公路6048弄"},{"poiid":"B2094757D664A3F54799","title":"七欣天迷宗蟹 青浦店","lon":"121.119998","lat":"31.153206","category":"86","category_name":"火锅店","address":"青浦区沙埭浜路35-39号(近体育场路)"},{"poiid":"B2094654DA6BA4FB449E","title":"公园大观吉富绅花园","lon":"121.13375","lat":"31.15561","category":"47","category_name":"住宅区","address":"上海市青浦区公园东路1688号"},{"poiid":"B2094654DA6BA7F4439C","title":"界泾港新村","lon":"121.128","lat":"31.1629","category":"47","category_name":"住宅区","address":"浦仓路648弄"},{"poiid":"B2094654DA6BA6FF429E","title":"嘉憬河畔公寓","lon":"121.125773","lat":"31.161","category":"47","category_name":"住宅区","address":"青安路408弄1-26号"},{"poiid":"B2094654D569A1FF4093","title":"上海东华海天青浦基地","lon":"121.12596","lat":"31.16483","category":"45","category_name":"产业园区","address":""},{"poiid":"B2094654DA6BA4FF4993","title":"上海工商信息学校","lon":"121.13098","lat":"31.15174","category":"55","category_name":"中学","address":"青浦区公园东路2025号(近青浦区电视台)"},{"poiid":"B2094757D06BA4FA499D","title":"青浦区行政服务中心","lon":"121.12342184","lat":"31.152591323","category":"500","category_name":"未知分类","address":"上海近郊青浦区外青松公路6189号"},{"poiid":"B2094757D06BA7FA419A","title":"雪岳山韩国烧烤(青浦店)","lon":"121.11878","lat":"31.15339","category":"96","category_name":"韩国料理","address":"青浦区沙埭浜路124号(近青安路)"},{"poiid":"B2094655D268A3FC4492","title":"港隆国际大厦","lon":"121.11621","lat":"31.15921","category":"46","category_name":"楼宇","address":"盈港路453"},{"poiid":"B2094654DA6BA1F4469C","title":"盈港苑","lon":"121.12334","lat":"31.159443","category":"47","category_name":"住宅区","address":"盈港路112弄"},{"poiid":"B2094757D16CA0FC479C","title":"龙满楼","lon":"121.125225","lat":"31.1558858","category":"76","category_name":"上海菜","address":"青浦区外青松公路6048弄16号(近界泾港路)"},{"poiid":"B2094655D36CA2FF499A","title":"青安路","lon":"121.11962","lat":"31.1591","category":"38","category_name":"公交车站","address":"上海青安路"},{"poiid":"B2094654DA6BA0F9429B","title":"快客NO.6881","lon":"121.12319","lat":"31.15902","category":"117","category_name":"便民商店/便利店","address":"盈港路50号"},{"poiid":"B2094654DA6BA4FB449D","title":"英威达纤维(上海)有限公司","lon":"121.1299","lat":"31.16429","category":"263","category_name":"公司","address":"华青路603"},{"poiid":"B2094655D36CA7FC449E","title":"华青路新达路","lon":"121.13009","lat":"31.16823","category":"38","category_name":"公交车站","address":""},{"poiid":"B2094757D66AA0F54999","title":"小阁楼 青安路店","lon":"121.120917054","lat":"31.167089793","category":"76","category_name":"上海菜","address":"青安路352号近外青松公路"},{"poiid":"B2094654DA6BABFB409A","title":"新城逸境园","lon":"121.13385","lat":"31.157528","category":"47","category_name":"住宅区","address":"上海市青浦区华科路路255弄"},{"poiid":"B2094654DA6BA6FF4899","title":"上海市青浦佳禾小学","lon":"121.1223","lat":"31.15797","category":"56","category_name":"小学","address":""},{"poiid":"B2094654DA6BA6FF449F","title":"怡田小区","lon":"121.1198","lat":"31.157751","category":"47","category_name":"住宅区","address":"青浦区界泾港新村37-70号楼"},{"poiid":"B2094757D164A3F4489D","title":"青浦区人才交流中心","lon":"121.130759055","lat":"31.1611806415","category":"500","category_name":"未知分类","address":"青浦区青舟路220号"},{"poiid":"B2094757D064A4F9439F","title":"诺可健身中心","lon":"121.11928799","lat":"31.161305076","category":"500","category_name":"未知分类","address":"上海青浦体育场路"},{"poiid":"B2094654DA6BA0F84698","title":"佳佳宾馆","lon":"121.12803","lat":"31.15657","category":"250","category_name":"公园户外","address":"上海市青浦区华科路109号"},{"poiid":"B2094654DA6BA0F9439F","title":"舒之园娱乐厅","lon":"121.12058","lat":"31.16344","category":"248","category_name":"生活娱乐","address":""},{"poiid":"B2094654DA6BA1F4499A","title":"新焦点青浦店","lon":"121.12384","lat":"31.15897","category":"159","category_name":"汽车维修","address":"盈港路12-14号"},{"poiid":"B2094654DA6BA0F9449A","title":"青浦区盈浦青安学校","lon":"121.11859","lat":"31.16414","category":"55","category_name":"中学","address":""},{"poiid":"B2094654DA6BA0F9439D","title":"青浦钓鱼娱乐中心","lon":"121.12096","lat":"31.16462","category":"248","category_name":"生活娱乐","address":"青安路922号"},{"poiid":"B2094654DA6BA7FC469C","title":"新锦港花园","lon":"121.11772","lat":"31.157602","category":"47","category_name":"住宅区","address":"新锦港花园位于青浦青安路,盈港路交界处"},{"poiid":"B2094654DA6BA0F94693","title":"白马江韩式烧烤","lon":"121.11464","lat":"31.15999","category":"87","category_name":"特色／地方风味餐厅","address":"青浦镇"},{"poiid":"B2094757D16FABFF4299","title":"青盈苑小区","lon":"121.119147","lat":"31.160223","category":"47","category_name":"住宅区","address":"上海青浦区盈港路278弄[盈港路青安路交界]"},{"poiid":"B2094655D36CA7FC499A","title":"华科路华青路","lon":"121.13188","lat":"31.15698","category":"38","category_name":"公交车站","address":""},{"poiid":"B2094654D569A1FF419B","title":"上海大宫新材料有限公司","lon":"121.12754","lat":"31.16817","category":"263","category_name":"公司","address":"新达路836"},{"poiid":"B2094654DA6BA6F84592","title":"新青浦花苑华源别墅","lon":"121.131","lat":"31.1584","category":"47","category_name":"住宅区","address":"体育场路68弄"},{"poiid":"B2094655D268A4FC479E","title":"界泾港三区(西一号门)","lon":"121.12149","lat":"31.15819","category":"47","category_name":"住宅区","address":""},{"poiid":"B2094757D169A3FB4693","title":"宋记香辣蟹 浦仓路店","lon":"121.12133","lat":"31.1518","category":"71","category_name":"四川菜","address":"青浦区浦仓路528号(近青浦体育场)"},{"poiid":"B2094654DA6BA1F4459B","title":"上海市青浦区行政学院(华科路)","lon":"121.12869","lat":"31.1562","category":"52","category_name":"高等院校","address":"青浦区华科路158号"},{"poiid":"B2094654DA6BABFB4092","title":"汉森工业城","lon":"121.13404","lat":"31.16251","category":"45","category_name":"产业园区","address":"华浦路555"},{"poiid":"B2094654D569A1FD479C","title":"上海英备精密模具有限公司","lon":"121.12335","lat":"31.16822","category":"263","category_name":"公司","address":""},{"poiid":"B2094654DA6BA6F8419C","title":"瀑云沐浴休闲中心","lon":"121.12493","lat":"31.15625","category":"149","category_name":"洗浴推拿场所","address":"外青松公路6048弄19号"},{"poiid":"B2094654DA6BA0F84593","title":"克丽缇娜专业美容护肤中心华科店","lon":"121.12908","lat":"31.1567","category":"148","category_name":"美容美发店","address":""},{"poiid":"B2094654DA6BA7F54492","title":"春汝拉面店","lon":"121.121","lat":"31.15591","category":"257","category_name":"中餐厅","address":"青浦区浦仓路777号"},{"poiid":"B2094654DA6BA0F84699","title":"联华(华科路)","lon":"121.12834","lat":"31.15662","category":"118","category_name":"超级市场","address":"华科路129"},{"poiid":"B2094654DA6BABFB409D","title":"中纺科技创业园","lon":"121.13439","lat":"31.16283","category":"45","category_name":"产业园区","address":""},{"poiid":"B2094654DA6BABFB409C","title":"青浦工业园区固体废物处理站","lon":"121.13454","lat":"31.16228","category":"45","category_name":"产业园区","address":"华浦路480"},{"poiid":"B2094757D168A7FF4192","title":"青浦党校","lon":"121.12828703","lat":"31.156762895","category":"253","category_name":"校园生活","address":"上海华科路"},{"poiid":"B2094757D06AA1F5419F","title":"榕港海鲜大酒楼(青浦店)","lon":"121.12135","lat":"31.15832","category":"88","category_name":"海鲜酒楼","address":"青浦区浦仓路888号(近盈港路)"},{"poiid":"B2094757D06AABF44393","title":"新青浦佳园","lon":"121.135","lat":"31.1647","category":"500","category_name":"未知分类","address":"上海市青浦区华科路155弄"},{"poiid":"B2094757D069A5F5449C","title":"龙岛大酒店","lon":"121.1226","lat":"31.16987","category":"76","category_name":"上海菜","address":"青浦区工业园区外青松公路5633号(外青松公路新业路)"},{"poiid":"B2094751D465A2FE479D","title":"末可甜品小屋","lon":"121.131406","lat":"31.156118","category":"247","category_name":"餐饮美食","address":"青浦区公园东路1688弄23号(近中山医院)"},{"poiid":"B2094654DA6BA7FD429A","title":"港隆广场","lon":"121.11506","lat":"31.15938","category":"119","category_name":"商场","address":"青浦镇盈港路499弄"},{"poiid":"B2094757D06AA6FD489E","title":"新青浦花苑","lon":"121.13","lat":"31.1618","category":"500","category_name":"未知分类","address":"上海外青松公路6048弄"},{"poiid":"B2094757D664A3F54799","title":"七欣天迷宗蟹 青浦店","lon":"121.119998","lat":"31.153206","category":"86","category_name":"火锅店","address":"青浦区沙埭浜路35-39号(近体育场路)"},{"poiid":"B2094654DA6BA4FB449E","title":"公园大观吉富绅花园","lon":"121.13375","lat":"31.15561","category":"47","category_name":"住宅区","address":"上海市青浦区公园东路1688号"},{"poiid":"B2094654DA6BA7F4439C","title":"界泾港新村","lon":"121.128","lat":"31.1629","category":"47","category_name":"住宅区","address":"浦仓路648弄"},{"poiid":"B2094654DA6BA6FF429E","title":"嘉憬河畔公寓","lon":"121.125773","lat":"31.161","category":"47","category_name":"住宅区","address":"青安路408弄1-26号"},{"poiid":"B2094654D569A1FF4093","title":"上海东华海天青浦基地","lon":"121.12596","lat":"31.16483","category":"45","category_name":"产业园区","address":""},{"poiid":"B2094654DA6BA4FF4993","title":"上海工商信息学校","lon":"121.13098","lat":"31.15174","category":"55","category_name":"中学","address":"青浦区公园东路2025号(近青浦区电视台)"},{"poiid":"B2094757D06BA4FA499D","title":"青浦区行政服务中心","lon":"121.12342184","lat":"31.152591323","category":"500","category_name":"未知分类","address":"上海近郊青浦区外青松公路6189号"},{"poiid":"B2094757D06BA7FA419A","title":"雪岳山韩国烧烤(青浦店)","lon":"121.11878","lat":"31.15339","category":"96","category_name":"韩国料理","address":"青浦区沙埭浜路124号(近青安路)"},{"poiid":"B2094655D268A3FC4492","title":"港隆国际大厦","lon":"121.11621","lat":"31.15921","category":"46","category_name":"楼宇","address":"盈港路453"},{"poiid":"B2094654DA6BA1F4469C","title":"盈港苑","lon":"121.12334","lat":"31.159443","category":"47","category_name":"住宅区","address":"盈港路112弄"},{"poiid":"B2094757D16CA0FC479C","title":"龙满楼","lon":"121.125225","lat":"31.1558858","category":"76","category_name":"上海菜","address":"青浦区外青松公路6048弄16号(近界泾港路)"},{"poiid":"B2094655D36CA2FF499A","title":"青安路","lon":"121.11962","lat":"31.1591","category":"38","category_name":"公交车站","address":"上海青安路"},{"poiid":"B2094654DA6BA0F9429B","title":"快客NO.6881","lon":"121.12319","lat":"31.15902","category":"117","category_name":"便民商店/便利店","address":"盈港路50号"},{"poiid":"B2094654DA6BA4FB449D","title":"英威达纤维(上海)有限公司","lon":"121.1299","lat":"31.16429","category":"263","category_name":"公司","address":"华青路603"},{"poiid":"B2094655D36CA7FC449E","title":"华青路新达路","lon":"121.13009","lat":"31.16823","category":"38","category_name":"公交车站","address":""},{"poiid":"B2094757D66AA0F54999","title":"小阁楼 青安路店","lon":"121.120917054","lat":"31.167089793","category":"76","category_name":"上海菜","address":"青安路352号近外青松公路"},{"poiid":"B2094654DA6BABFB409A","title":"新城逸境园","lon":"121.13385","lat":"31.157528","category":"47","category_name":"住宅区","address":"上海市青浦区华科路路255弄"},{"poiid":"B2094654DA6BA6FF4899","title":"上海市青浦佳禾小学","lon":"121.1223","lat":"31.15797","category":"56","category_name":"小学","address":""},{"poiid":"B2094654DA6BA6FF449F","title":"怡田小区","lon":"121.1198","lat":"31.157751","category":"47","category_name":"住宅区","address":"青浦区界泾港新村37-70号楼"},{"poiid":"B2094757D164A3F4489D","title":"青浦区人才交流中心","lon":"121.130759055","lat":"31.1611806415","category":"500","category_name":"未知分类","address":"青浦区青舟路220号"},{"poiid":"B2094757D064A4F9439F","title":"诺可健身中心","lon":"121.11928799","lat":"31.161305076","category":"500","category_name":"未知分类","address":"上海青浦体育场路"},{"poiid":"B2094654DA6BA0F84698","title":"佳佳宾馆","lon":"121.12803","lat":"31.15657","category":"250","category_name":"公园户外","address":"上海市青浦区华科路109号"},{"poiid":"B2094654DA6BA0F9439F","title":"舒之园娱乐厅","lon":"121.12058","lat":"31.16344","category":"248","category_name":"生活娱乐","address":""},{"poiid":"B2094654DA6BA1F4499A","title":"新焦点青浦店","lon":"121.12384","lat":"31.15897","category":"159","category_name":"汽车维修","address":"盈港路12-14号"},{"poiid":"B2094654DA6BA0F9449A","title":"青浦区盈浦青安学校","lon":"121.11859","lat":"31.16414","category":"55","category_name":"中学","address":""},{"poiid":"B2094654DA6BA0F9439D","title":"青浦钓鱼娱乐中心","lon":"121.12096","lat":"31.16462","category":"248","category_name":"生活娱乐","address":"青安路922号"},{"poiid":"B2094654DA6BA7FC469C","title":"新锦港花园","lon":"121.11772","lat":"31.157602","category":"47","category_name":"住宅区","address":"新锦港花园位于青浦青安路,盈港路交界处"},{"poiid":"B2094654DA6BA0F94693","title":"白马江韩式烧烤","lon":"121.11464","lat":"31.15999","category":"87","category_name":"特色／地方风味餐厅","address":"青浦镇"},{"poiid":"B2094757D16FABFF4299","title":"青盈苑小区","lon":"121.119147","lat":"31.160223","category":"47","category_name":"住宅区","address":"上海青浦区盈港路278弄[盈港路青安路交界]"},{"poiid":"B2094655D36CA7FC499A","title":"华科路华青路","lon":"121.13188","lat":"31.15698","category":"38","category_name":"公交车站","address":""},{"poiid":"B2094654D569A1FF419B","title":"上海大宫新材料有限公司","lon":"121.12754","lat":"31.16817","category":"263","category_name":"公司","address":"新达路836"},{"poiid":"B2094654DA6BA6F84592","title":"新青浦花苑华源别墅","lon":"121.131","lat":"31.1584","category":"47","category_name":"住宅区","address":"体育场路68弄"},{"poiid":"B2094655D268A4FC479E","title":"界泾港三区(西一号门)","lon":"121.12149","lat":"31.15819","category":"47","category_name":"住宅区","address":""},{"poiid":"B2094757D169A3FB4693","title":"宋记香辣蟹 浦仓路店","lon":"121.12133","lat":"31.1518","category":"71","category_name":"四川菜","address":"青浦区浦仓路528号(近青浦体育场)"},{"poiid":"B2094654DA6BA1F4459B","title":"上海市青浦区行政学院(华科路)","lon":"121.12869","lat":"31.1562","category":"52","category_name":"高等院校","address":"青浦区华科路158号"},{"poiid":"B2094654DA6BABFB4092","title":"汉森工业城","lon":"121.13404","lat":"31.16251","category":"45","category_name":"产业园区","address":"华浦路555"},{"poiid":"B2094654D569A1FD479C","title":"上海英备精密模具有限公司","lon":"121.12335","lat":"31.16822","category":"263","category_name":"公司","address":""},{"poiid":"B2094654DA6BA6F8419C","title":"瀑云沐浴休闲中心","lon":"121.12493","lat":"31.15625","category":"149","category_name":"洗浴推拿场所","address":"外青松公路6048弄19号"},{"poiid":"B2094654DA6BA0F84593","title":"克丽缇娜专业美容护肤中心华科店","lon":"121.12908","lat":"31.1567","category":"148","category_name":"美容美发店","address":""},{"poiid":"B2094654DA6BA7F54492","title":"春汝拉面店","lon":"121.121","lat":"31.15591","category":"257","category_name":"中餐厅","address":"青浦区浦仓路777号"},{"poiid":"B2094654DA6BA0F84699","title":"联华(华科路)","lon":"121.12834","lat":"31.15662","category":"118","category_name":"超级市场","address":"华科路129"},{"poiid":"B2094654DA6BABFB409D","title":"中纺科技创业园","lon":"121.13439","lat":"31.16283","category":"45","category_name":"产业园区","address":""},{"poiid":"B2094654DA6BABFB409C","title":"青浦工业园区固体废物处理站","lon":"121.13454","lat":"31.16228","category":"45","category_name":"产业园区","address":"华浦路480"}]