[{"poiid":"B2094654DB6BA3FA439D","title":"钱柜(四川北路)","lon":"121.48276","lat":"31.25685","category":"170","category_name":"KTV","address":"四川北路1661"},{"poiid":"B2094757D06EAAFB419C","title":"嘉杰国际商业广场","lon":"121.48264294","lat":"31.25808513","category":"119","category_name":"商场","address":"虹口区四川北路1727弄(近东宝兴路)"},{"poiid":"B2094655D269ABFB429C","title":"巴黎春天虹口店","lon":"121.48331","lat":"31.25792","category":"247","category_name":"餐饮美食","address":"虹口区四川北路1688号巴黎春天内(近东宝兴路)"},{"poiid":"B2094655D265A3FB409A","title":"厚味香辣馆","lon":"121.48255","lat":"31.25828","category":"71","category_name":"四川菜","address":"虹口区四川北路1689号嘉杰国际广场4楼(近东宝兴路)"},{"poiid":"B2094757D06EAAF84493","title":"烧肉达人(嘉杰广场店)","lon":"121.48183","lat":"31.25884","category":"269","category_name":"烧烤","address":"虹口区四川北路1689号嘉杰国际广场4楼(近东宝兴路)"},{"poiid":"B2094655D26AA2F84798","title":"星巴克(四川北路店)","lon":"121.482426","lat":"31.257921","category":"260","category_name":"其他","address":"虹口区四川北路1661号凯鸿商场1楼(近东宝兴路)"},{"poiid":"B2094757D06FA3FE4992","title":"烹大师火锅(四川北路店)","lon":"121.482667578","lat":"31.2580404318","category":"86","category_name":"火锅店","address":"虹口区四川北路1689号嘉杰国际广场4楼(近东宝兴路)"},{"poiid":"B2094751DA6BA7FD4499","title":"鼎辣","lon":"121.482697","lat":"31.258362","category":"247","category_name":"餐饮美食","address":"虹口区四川北路1689号嘉杰国际广场5楼(近东宝兴路)"},{"poiid":"B2094751D46BA6F9449F","title":"首尔焖鲜汇(四川北路店）","lon":"121.482651","lat":"31.258957","category":"247","category_name":"餐饮美食","address":"虹口区四川北路1689号嘉杰国际广场4楼(近东宝兴路)"},{"poiid":"B2094757D06FA3FF459B","title":"釜山料理 四川北路店 Pankoo","lon":"121.482561054","lat":"31.258004693","category":"96","category_name":"韩国料理","address":"虹口区四川北路1689号嘉杰国际4楼(近东宝兴路)"},{"poiid":"B2094757D069A1F5409C","title":"商汤天下火锅","lon":"121.481799103","lat":"31.2582171672","category":"86","category_name":"火锅店","address":"虹口区四川北路1661号凯鸿商场301室"},{"poiid":"B2094757D069A4FA4198","title":"钱柜四川北路店","lon":"121.482500203","lat":"31.2582308675","category":"500","category_name":"未知分类","address":"上海四川北路"},{"poiid":"B2094757D06FA1FF469F","title":"东宝百货","lon":"121.48341","lat":"31.2572","category":"119","category_name":"商场","address":"虹口区四川北路1666号(近东宝兴路)"},{"poiid":"B2094757D06FA2F9419D","title":"老妈米线(嘉杰广场店)","lon":"121.4827211","lat":"31.258000162","category":"86","category_name":"火锅店","address":"虹口区四川北路1689号嘉杰国际广场B1楼(近东宝兴路)"},{"poiid":"B2094757D06FA7FB419F","title":"味千拉面(嘉杰国际店)","lon":"121.4824507","lat":"31.257228346","category":"95","category_name":"日本料理","address":"虹口区四川北路1689号嘉杰国际B1楼03室(近东宝兴路)"},{"poiid":"B2094757DA6EA5FC4793","title":"泰泰米","lon":"121.482793092726","lat":"31.2583851169603","category":"99","category_name":"泰国／越南菜品餐厅","address":"虹口区四川北路1727弄嘉杰国际广场4楼(近东宝兴路)"},{"poiid":"B2094655D265A3FA4993","title":"烹大师烧肉达人","lon":"121.48254","lat":"31.25828","category":"87","category_name":"特色／地方风味餐厅","address":"嘉杰国家广场4层"},{"poiid":"B2094757D16FA7FA499A","title":"一线烫捞","lon":"121.48199379","lat":"31.257488601","category":"68","category_name":"快餐厅","address":"虹口区四川北路1727弄嘉杰国际广场B1楼(近东宝兴路)"},{"poiid":"B2094654DB6BA3FA4699","title":"凯旋宫酒楼","lon":"121.48326","lat":"31.25798","category":"76","category_name":"上海菜","address":"虹口区四川北路1688号福德商务广场南楼6楼(近东宝兴路)"},{"poiid":"B2094757D06FA0FB4092","title":"禾绿寿司(嘉杰国际)","lon":"121.482230172","lat":"31.2583229202","category":"95","category_name":"日本料理","address":"虹口区四川北路1727弄嘉杰国际广场4楼(近东宝兴路)"},{"poiid":"B2094757D06FA2F4439A","title":"一兆韦德(凯鸿广场店)","lon":"121.482426","lat":"31.257921","category":"221","category_name":"健身中心","address":"虹口区四川北路1661号凯鸿商场4楼(近东宝兴路)"},{"poiid":"B2094655D26FA0F4479B","title":"嘉杰国际广场(西门)","lon":"121.48072","lat":"31.25928","category":"48","category_name":"楼宇大门","address":"四川北路1727弄1-10号"},{"poiid":"B2094757DB6AAAFE4393","title":"翰林轩（嘉杰国际商业广场店）","lon":"121.483","lat":"31.2583","category":"257","category_name":"中餐厅","address":"虹口区四川北路1727弄嘉杰国际5楼(近东宝兴路)"},{"poiid":"B2094757D16DA2FF4398","title":"釜山料理","lon":"121.4824609","lat":"31.257921261","category":"247","category_name":"餐饮美食","address":"上海嘉杰广场"},{"poiid":"B2094757D06FABF4429A","title":"觅香港式小厨","lon":"121.48283","lat":"31.25779","category":"72","category_name":"广东菜","address":"虹口区四川北路1661号凯鸿广场3栋103-03号(近凯鸿商场)"},{"poiid":"B2094757D66DA7FC409F","title":"宝大祥","lon":"121.482928103","lat":"31.2577161568","category":"500","category_name":"未知分类","address":"上海四川北路1661号凯鸿商场1-3楼(近东宝兴路)"},{"poiid":"B2094757D06FA3FF4292","title":"网鱼网咖(宝兴店)","lon":"121.481514","lat":"31.257693","category":"173","category_name":"游戏厅","address":"虹口区四川北路1661号凯鸿商场B1楼01-A室(近东宝兴路)"},{"poiid":"B2094757D06BA6FB409A","title":"轨道交通三号线东宝兴路站","lon":"121.481584103","lat":"31.2574371509","category":"500","category_name":"未知分类","address":"上海东宝兴路"},{"poiid":"B2094757D06FA7FD409F","title":"蛙蛙跳干锅主题餐厅(嘉杰广场店)","lon":"121.482548533","lat":"31.2583184894","category":"500","category_name":"未知分类","address":"虹口区四川北路1689号嘉杰国际广场4楼(近东宝兴路)"},{"poiid":"B2094757DB6FAAFF419B","title":"世纪大道地铁站","lon":"121.480201155577","lat":"31.25980006696586","category":"36","category_name":"地铁站","address":"世纪大道"},{"poiid":"B2094757D06FAAFF4598","title":"宝寿司(虹口店)","lon":"121.482418103","lat":"31.258683177","category":"95","category_name":"日本料理","address":"虹口区昆山路128号(近乍浦路)"},{"poiid":"B2094654DB69A4FD4999","title":"锦江之星(四川北路店)","lon":"121.47928","lat":"31.25902","category":"216","category_name":"经济型连锁酒店","address":"上海市虹口区东宝兴路440号(近四川北路)"},{"poiid":"B2094757D069A2FE499F","title":"虹口区业余大学","lon":"121.479806","lat":"31.258855","category":"52","category_name":"高等院校","address":"上海东宝兴路440号"},{"poiid":"B2094757D468A4FB4498","title":"爱茜茜里 嘉杰国际店 ICEASON","lon":"121.482732054","lat":"31.258775793","category":"67","category_name":"甜品店","address":"虹口区四川北路1689号嘉杰国际广场(宝源路东宝兴路)"},{"poiid":"B2094757D46EABF9469D","title":"赛百味 嘉杰广场店 SUBWAY","lon":"121.482601","lat":"31.258277","category":"94","category_name":"西餐厅","address":"虹口区四川北路1689号嘉杰国际广场B1楼(近东宝兴路)"},{"poiid":"B2094750DA69A3FA419C","title":"鮮芋仙","lon":"121.482955","lat":"31.258655","category":"252","category_name":"楼宇机构","address":"嘉杰廣場店"},{"poiid":"B2094757D16DA3FF459E","title":"小诸烧烤","lon":"121.4803221","lat":"31.258461172","category":"247","category_name":"餐饮美食","address":"上海东宝兴路轻轨下面"},{"poiid":"B2094655D36CA1FF4399","title":"四川北路东宝兴路","lon":"121.48312","lat":"31.25687","category":"38","category_name":"公交车站","address":"上海四川北路东宝兴路"},{"poiid":"B2094655D36CA3F54698","title":"福德商务中心北楼","lon":"121.48334","lat":"31.25839","category":"46","category_name":"楼宇","address":"四川北路1688"},{"poiid":"B209475CD665A1FB439D","title":"三宝粥铺","lon":"121.483245","lat":"31.258289","category":"247","category_name":"餐饮美食","address":"上海市 四川北路嘉杰广场"},{"poiid":"B2094750DB6DA7FF4999","title":"钱柜","lon":"121.482345","lat":"31.257751","category":"248","category_name":"生活娱乐","address":"四川北路1661号"},{"poiid":"B2094757D06FA1F84693","title":"ZARA(四川北路店)","lon":"121.48302","lat":"31.25773","category":"141","category_name":"服装鞋帽皮具店","address":"虹口区四川北路1727弄嘉杰国际1-2楼(近东宝兴路)"},{"poiid":"B2094655D26BAAFC479F","title":"快乐柠檬 嘉杰国际店 Happy Lemon","lon":"121.482748054","lat":"31.258804793","category":"113","category_name":"冷饮店","address":"虹口区四川北路1363号壹丰广场B2楼-C14铺(近武进路)"},{"poiid":"B2094757D068AAF8479D","title":"上海地铁第三运营有限公司","lon":"121.48033613","lat":"31.259738199","category":"46","category_name":"楼宇","address":"上海虹口区东宝兴路369号(地铁三号线东宝兴路站)"},{"poiid":"B2094654D56EA3F54892","title":"华尔街英语上海虹口中心","lon":"121.48265","lat":"31.25764","category":"190","category_name":"培训机构","address":"虹口区四川北路1661号凯鸿商场2区4楼(近东宝兴路)"},{"poiid":"B2094757D168A5F44798","title":"世纪烧烤","lon":"121.48002","lat":"31.258313","category":"68","category_name":"快餐厅","address":"虹口区东宝兴路(近轻轨三号线东宝兴路站)"},{"poiid":"B2094753D76AA7FC499F","title":"食之秘(嘉杰广场店)","lon":"121.482649","lat":"31.258202","category":"67","category_name":"甜品店","address":"上海市虹口区四川北路1689号嘉杰国际广场1楼(近东宝兴路)"},{"poiid":"B2094751D365A6FD419D","title":"中共四大会址纪念馆","lon":"121.4804768","lat":"31.255421","category":"607","category_name":"一般景点","address":null},{"poiid":"B209475DD16EA2F9409F","title":"年代秀飯堂","lon":"121.482711","lat":"31.258716","category":"247","category_name":"餐饮美食","address":"上海市 虹口區四川北路1689號"},{"poiid":"B2094753D76CA1FF4493","title":"696LIVE","lon":"121.483016","lat":"31.258111","category":"500","category_name":"未知分类","address":"上海市 四川北路1727弄"},{"poiid":"B2094654DB6BA3FA439D","title":"钱柜(四川北路)","lon":"121.48276","lat":"31.25685","category":"170","category_name":"KTV","address":"四川北路1661"},{"poiid":"B2094757D06EAAFB419C","title":"嘉杰国际商业广场","lon":"121.48264294","lat":"31.25808513","category":"119","category_name":"商场","address":"虹口区四川北路1727弄(近东宝兴路)"},{"poiid":"B2094655D269ABFB429C","title":"巴黎春天虹口店","lon":"121.48331","lat":"31.25792","category":"247","category_name":"餐饮美食","address":"虹口区四川北路1688号巴黎春天内(近东宝兴路)"},{"poiid":"B2094655D265A3FB409A","title":"厚味香辣馆","lon":"121.48255","lat":"31.25828","category":"71","category_name":"四川菜","address":"虹口区四川北路1689号嘉杰国际广场4楼(近东宝兴路)"},{"poiid":"B2094757D06EAAF84493","title":"烧肉达人(嘉杰广场店)","lon":"121.48183","lat":"31.25884","category":"269","category_name":"烧烤","address":"虹口区四川北路1689号嘉杰国际广场4楼(近东宝兴路)"},{"poiid":"B2094655D26AA2F84798","title":"星巴克(四川北路店)","lon":"121.482426","lat":"31.257921","category":"260","category_name":"其他","address":"虹口区四川北路1661号凯鸿商场1楼(近东宝兴路)"},{"poiid":"B2094757D06FA3FE4992","title":"烹大师火锅(四川北路店)","lon":"121.482667578","lat":"31.2580404318","category":"86","category_name":"火锅店","address":"虹口区四川北路1689号嘉杰国际广场4楼(近东宝兴路)"},{"poiid":"B2094751DA6BA7FD4499","title":"鼎辣","lon":"121.482697","lat":"31.258362","category":"247","category_name":"餐饮美食","address":"虹口区四川北路1689号嘉杰国际广场5楼(近东宝兴路)"},{"poiid":"B2094751D46BA6F9449F","title":"首尔焖鲜汇(四川北路店）","lon":"121.482651","lat":"31.258957","category":"247","category_name":"餐饮美食","address":"虹口区四川北路1689号嘉杰国际广场4楼(近东宝兴路)"},{"poiid":"B2094757D06FA3FF459B","title":"釜山料理 四川北路店 Pankoo","lon":"121.482561054","lat":"31.258004693","category":"96","category_name":"韩国料理","address":"虹口区四川北路1689号嘉杰国际4楼(近东宝兴路)"},{"poiid":"B2094757D069A1F5409C","title":"商汤天下火锅","lon":"121.481799103","lat":"31.2582171672","category":"86","category_name":"火锅店","address":"虹口区四川北路1661号凯鸿商场301室"},{"poiid":"B2094757D069A4FA4198","title":"钱柜四川北路店","lon":"121.482500203","lat":"31.2582308675","category":"500","category_name":"未知分类","address":"上海四川北路"},{"poiid":"B2094757D06FA1FF469F","title":"东宝百货","lon":"121.48341","lat":"31.2572","category":"119","category_name":"商场","address":"虹口区四川北路1666号(近东宝兴路)"},{"poiid":"B2094757D06FA2F9419D","title":"老妈米线(嘉杰广场店)","lon":"121.4827211","lat":"31.258000162","category":"86","category_name":"火锅店","address":"虹口区四川北路1689号嘉杰国际广场B1楼(近东宝兴路)"},{"poiid":"B2094757D06FA7FB419F","title":"味千拉面(嘉杰国际店)","lon":"121.4824507","lat":"31.257228346","category":"95","category_name":"日本料理","address":"虹口区四川北路1689号嘉杰国际B1楼03室(近东宝兴路)"},{"poiid":"B2094757DA6EA5FC4793","title":"泰泰米","lon":"121.482793092726","lat":"31.2583851169603","category":"99","category_name":"泰国／越南菜品餐厅","address":"虹口区四川北路1727弄嘉杰国际广场4楼(近东宝兴路)"},{"poiid":"B2094655D265A3FA4993","title":"烹大师烧肉达人","lon":"121.48254","lat":"31.25828","category":"87","category_name":"特色／地方风味餐厅","address":"嘉杰国家广场4层"},{"poiid":"B2094757D16FA7FA499A","title":"一线烫捞","lon":"121.48199379","lat":"31.257488601","category":"68","category_name":"快餐厅","address":"虹口区四川北路1727弄嘉杰国际广场B1楼(近东宝兴路)"},{"poiid":"B2094654DB6BA3FA4699","title":"凯旋宫酒楼","lon":"121.48326","lat":"31.25798","category":"76","category_name":"上海菜","address":"虹口区四川北路1688号福德商务广场南楼6楼(近东宝兴路)"},{"poiid":"B2094757D06FA0FB4092","title":"禾绿寿司(嘉杰国际)","lon":"121.482230172","lat":"31.2583229202","category":"95","category_name":"日本料理","address":"虹口区四川北路1727弄嘉杰国际广场4楼(近东宝兴路)"},{"poiid":"B2094757D06FA2F4439A","title":"一兆韦德(凯鸿广场店)","lon":"121.482426","lat":"31.257921","category":"221","category_name":"健身中心","address":"虹口区四川北路1661号凯鸿商场4楼(近东宝兴路)"},{"poiid":"B2094655D26FA0F4479B","title":"嘉杰国际广场(西门)","lon":"121.48072","lat":"31.25928","category":"48","category_name":"楼宇大门","address":"四川北路1727弄1-10号"},{"poiid":"B2094757DB6AAAFE4393","title":"翰林轩（嘉杰国际商业广场店）","lon":"121.483","lat":"31.2583","category":"257","category_name":"中餐厅","address":"虹口区四川北路1727弄嘉杰国际5楼(近东宝兴路)"},{"poiid":"B2094757D16DA2FF4398","title":"釜山料理","lon":"121.4824609","lat":"31.257921261","category":"247","category_name":"餐饮美食","address":"上海嘉杰广场"},{"poiid":"B2094757D06FABF4429A","title":"觅香港式小厨","lon":"121.48283","lat":"31.25779","category":"72","category_name":"广东菜","address":"虹口区四川北路1661号凯鸿广场3栋103-03号(近凯鸿商场)"},{"poiid":"B2094757D66DA7FC409F","title":"宝大祥","lon":"121.482928103","lat":"31.2577161568","category":"500","category_name":"未知分类","address":"上海四川北路1661号凯鸿商场1-3楼(近东宝兴路)"},{"poiid":"B2094757D06FA3FF4292","title":"网鱼网咖(宝兴店)","lon":"121.481514","lat":"31.257693","category":"173","category_name":"游戏厅","address":"虹口区四川北路1661号凯鸿商场B1楼01-A室(近东宝兴路)"},{"poiid":"B2094757D06BA6FB409A","title":"轨道交通三号线东宝兴路站","lon":"121.481584103","lat":"31.2574371509","category":"500","category_name":"未知分类","address":"上海东宝兴路"},{"poiid":"B2094757D06FA7FD409F","title":"蛙蛙跳干锅主题餐厅(嘉杰广场店)","lon":"121.482548533","lat":"31.2583184894","category":"500","category_name":"未知分类","address":"虹口区四川北路1689号嘉杰国际广场4楼(近东宝兴路)"},{"poiid":"B2094757DB6FAAFF419B","title":"世纪大道地铁站","lon":"121.480201155577","lat":"31.25980006696586","category":"36","category_name":"地铁站","address":"世纪大道"},{"poiid":"B2094757D06FAAFF4598","title":"宝寿司(虹口店)","lon":"121.482418103","lat":"31.258683177","category":"95","category_name":"日本料理","address":"虹口区昆山路128号(近乍浦路)"},{"poiid":"B2094654DB69A4FD4999","title":"锦江之星(四川北路店)","lon":"121.47928","lat":"31.25902","category":"216","category_name":"经济型连锁酒店","address":"上海市虹口区东宝兴路440号(近四川北路)"},{"poiid":"B2094757D069A2FE499F","title":"虹口区业余大学","lon":"121.479806","lat":"31.258855","category":"52","category_name":"高等院校","address":"上海东宝兴路440号"},{"poiid":"B2094757D468A4FB4498","title":"爱茜茜里 嘉杰国际店 ICEASON","lon":"121.482732054","lat":"31.258775793","category":"67","category_name":"甜品店","address":"虹口区四川北路1689号嘉杰国际广场(宝源路东宝兴路)"},{"poiid":"B2094757D46EABF9469D","title":"赛百味 嘉杰广场店 SUBWAY","lon":"121.482601","lat":"31.258277","category":"94","category_name":"西餐厅","address":"虹口区四川北路1689号嘉杰国际广场B1楼(近东宝兴路)"},{"poiid":"B2094750DA69A3FA419C","title":"鮮芋仙","lon":"121.482955","lat":"31.258655","category":"252","category_name":"楼宇机构","address":"嘉杰廣場店"},{"poiid":"B2094757D16DA3FF459E","title":"小诸烧烤","lon":"121.4803221","lat":"31.258461172","category":"247","category_name":"餐饮美食","address":"上海东宝兴路轻轨下面"},{"poiid":"B2094655D36CA1FF4399","title":"四川北路东宝兴路","lon":"121.48312","lat":"31.25687","category":"38","category_name":"公交车站","address":"上海四川北路东宝兴路"},{"poiid":"B2094655D36CA3F54698","title":"福德商务中心北楼","lon":"121.48334","lat":"31.25839","category":"46","category_name":"楼宇","address":"四川北路1688"},{"poiid":"B209475CD665A1FB439D","title":"三宝粥铺","lon":"121.483245","lat":"31.258289","category":"247","category_name":"餐饮美食","address":"上海市 四川北路嘉杰广场"},{"poiid":"B2094750DB6DA7FF4999","title":"钱柜","lon":"121.482345","lat":"31.257751","category":"248","category_name":"生活娱乐","address":"四川北路1661号"},{"poiid":"B2094757D06FA1F84693","title":"ZARA(四川北路店)","lon":"121.48302","lat":"31.25773","category":"141","category_name":"服装鞋帽皮具店","address":"虹口区四川北路1727弄嘉杰国际1-2楼(近东宝兴路)"},{"poiid":"B2094655D26BAAFC479F","title":"快乐柠檬 嘉杰国际店 Happy Lemon","lon":"121.482748054","lat":"31.258804793","category":"113","category_name":"冷饮店","address":"虹口区四川北路1363号壹丰广场B2楼-C14铺(近武进路)"},{"poiid":"B2094757D068AAF8479D","title":"上海地铁第三运营有限公司","lon":"121.48033613","lat":"31.259738199","category":"46","category_name":"楼宇","address":"上海虹口区东宝兴路369号(地铁三号线东宝兴路站)"},{"poiid":"B2094654D56EA3F54892","title":"华尔街英语上海虹口中心","lon":"121.48265","lat":"31.25764","category":"190","category_name":"培训机构","address":"虹口区四川北路1661号凯鸿商场2区4楼(近东宝兴路)"},{"poiid":"B2094757D168A5F44798","title":"世纪烧烤","lon":"121.48002","lat":"31.258313","category":"68","category_name":"快餐厅","address":"虹口区东宝兴路(近轻轨三号线东宝兴路站)"},{"poiid":"B2094753D76AA7FC499F","title":"食之秘(嘉杰广场店)","lon":"121.482649","lat":"31.258202","category":"67","category_name":"甜品店","address":"上海市虹口区四川北路1689号嘉杰国际广场1楼(近东宝兴路)"},{"poiid":"B2094751D365A6FD419D","title":"中共四大会址纪念馆","lon":"121.4804768","lat":"31.255421","category":"607","category_name":"一般景点","address":null},{"poiid":"B209475DD16EA2F9409F","title":"年代秀飯堂","lon":"121.482711","lat":"31.258716","category":"247","category_name":"餐饮美食","address":"上海市 虹口區四川北路1689號"},{"poiid":"B2094753D76CA1FF4493","title":"696LIVE","lon":"121.483016","lat":"31.258111","category":"500","category_name":"未知分类","address":"上海市 四川北路1727弄"},{"poiid":"B2094654DB6BA3FA439D","title":"钱柜(四川北路)","lon":"121.48276","lat":"31.25685","category":"170","category_name":"KTV","address":"四川北路1661"},{"poiid":"B2094757D06EAAFB419C","title":"嘉杰国际商业广场","lon":"121.48264294","lat":"31.25808513","category":"119","category_name":"商场","address":"虹口区四川北路1727弄(近东宝兴路)"},{"poiid":"B2094655D269ABFB429C","title":"巴黎春天虹口店","lon":"121.48331","lat":"31.25792","category":"247","category_name":"餐饮美食","address":"虹口区四川北路1688号巴黎春天内(近东宝兴路)"},{"poiid":"B2094655D265A3FB409A","title":"厚味香辣馆","lon":"121.48255","lat":"31.25828","category":"71","category_name":"四川菜","address":"虹口区四川北路1689号嘉杰国际广场4楼(近东宝兴路)"},{"poiid":"B2094757D06EAAF84493","title":"烧肉达人(嘉杰广场店)","lon":"121.48183","lat":"31.25884","category":"269","category_name":"烧烤","address":"虹口区四川北路1689号嘉杰国际广场4楼(近东宝兴路)"},{"poiid":"B2094655D26AA2F84798","title":"星巴克(四川北路店)","lon":"121.482426","lat":"31.257921","category":"260","category_name":"其他","address":"虹口区四川北路1661号凯鸿商场1楼(近东宝兴路)"},{"poiid":"B2094757D06FA3FE4992","title":"烹大师火锅(四川北路店)","lon":"121.482667578","lat":"31.2580404318","category":"86","category_name":"火锅店","address":"虹口区四川北路1689号嘉杰国际广场4楼(近东宝兴路)"},{"poiid":"B2094751DA6BA7FD4499","title":"鼎辣","lon":"121.482697","lat":"31.258362","category":"247","category_name":"餐饮美食","address":"虹口区四川北路1689号嘉杰国际广场5楼(近东宝兴路)"},{"poiid":"B2094751D46BA6F9449F","title":"首尔焖鲜汇(四川北路店）","lon":"121.482651","lat":"31.258957","category":"247","category_name":"餐饮美食","address":"虹口区四川北路1689号嘉杰国际广场4楼(近东宝兴路)"},{"poiid":"B2094757D06FA3FF459B","title":"釜山料理 四川北路店 Pankoo","lon":"121.482561054","lat":"31.258004693","category":"96","category_name":"韩国料理","address":"虹口区四川北路1689号嘉杰国际4楼(近东宝兴路)"},{"poiid":"B2094757D069A1F5409C","title":"商汤天下火锅","lon":"121.481799103","lat":"31.2582171672","category":"86","category_name":"火锅店","address":"虹口区四川北路1661号凯鸿商场301室"},{"poiid":"B2094757D069A4FA4198","title":"钱柜四川北路店","lon":"121.482500203","lat":"31.2582308675","category":"500","category_name":"未知分类","address":"上海四川北路"},{"poiid":"B2094757D06FA1FF469F","title":"东宝百货","lon":"121.48341","lat":"31.2572","category":"119","category_name":"商场","address":"虹口区四川北路1666号(近东宝兴路)"},{"poiid":"B2094757D06FA2F9419D","title":"老妈米线(嘉杰广场店)","lon":"121.4827211","lat":"31.258000162","category":"86","category_name":"火锅店","address":"虹口区四川北路1689号嘉杰国际广场B1楼(近东宝兴路)"},{"poiid":"B2094757D06FA7FB419F","title":"味千拉面(嘉杰国际店)","lon":"121.4824507","lat":"31.257228346","category":"95","category_name":"日本料理","address":"虹口区四川北路1689号嘉杰国际B1楼03室(近东宝兴路)"},{"poiid":"B2094757DA6EA5FC4793","title":"泰泰米","lon":"121.482793092726","lat":"31.2583851169603","category":"99","category_name":"泰国／越南菜品餐厅","address":"虹口区四川北路1727弄嘉杰国际广场4楼(近东宝兴路)"},{"poiid":"B2094655D265A3FA4993","title":"烹大师烧肉达人","lon":"121.48254","lat":"31.25828","category":"87","category_name":"特色／地方风味餐厅","address":"嘉杰国家广场4层"},{"poiid":"B2094757D16FA7FA499A","title":"一线烫捞","lon":"121.48199379","lat":"31.257488601","category":"68","category_name":"快餐厅","address":"虹口区四川北路1727弄嘉杰国际广场B1楼(近东宝兴路)"},{"poiid":"B2094654DB6BA3FA4699","title":"凯旋宫酒楼","lon":"121.48326","lat":"31.25798","category":"76","category_name":"上海菜","address":"虹口区四川北路1688号福德商务广场南楼6楼(近东宝兴路)"},{"poiid":"B2094757D06FA0FB4092","title":"禾绿寿司(嘉杰国际)","lon":"121.482230172","lat":"31.2583229202","category":"95","category_name":"日本料理","address":"虹口区四川北路1727弄嘉杰国际广场4楼(近东宝兴路)"},{"poiid":"B2094757D06FA2F4439A","title":"一兆韦德(凯鸿广场店)","lon":"121.482426","lat":"31.257921","category":"221","category_name":"健身中心","address":"虹口区四川北路1661号凯鸿商场4楼(近东宝兴路)"},{"poiid":"B2094655D26FA0F4479B","title":"嘉杰国际广场(西门)","lon":"121.48072","lat":"31.25928","category":"48","category_name":"楼宇大门","address":"四川北路1727弄1-10号"},{"poiid":"B2094757DB6AAAFE4393","title":"翰林轩（嘉杰国际商业广场店）","lon":"121.483","lat":"31.2583","category":"257","category_name":"中餐厅","address":"虹口区四川北路1727弄嘉杰国际5楼(近东宝兴路)"},{"poiid":"B2094757D16DA2FF4398","title":"釜山料理","lon":"121.4824609","lat":"31.257921261","category":"247","category_name":"餐饮美食","address":"上海嘉杰广场"},{"poiid":"B2094757D06FABF4429A","title":"觅香港式小厨","lon":"121.48283","lat":"31.25779","category":"72","category_name":"广东菜","address":"虹口区四川北路1661号凯鸿广场3栋103-03号(近凯鸿商场)"},{"poiid":"B2094757D66DA7FC409F","title":"宝大祥","lon":"121.482928103","lat":"31.2577161568","category":"500","category_name":"未知分类","address":"上海四川北路1661号凯鸿商场1-3楼(近东宝兴路)"},{"poiid":"B2094757D06FA3FF4292","title":"网鱼网咖(宝兴店)","lon":"121.481514","lat":"31.257693","category":"173","category_name":"游戏厅","address":"虹口区四川北路1661号凯鸿商场B1楼01-A室(近东宝兴路)"},{"poiid":"B2094757D06BA6FB409A","title":"轨道交通三号线东宝兴路站","lon":"121.481584103","lat":"31.2574371509","category":"500","category_name":"未知分类","address":"上海东宝兴路"},{"poiid":"B2094757D06FA7FD409F","title":"蛙蛙跳干锅主题餐厅(嘉杰广场店)","lon":"121.482548533","lat":"31.2583184894","category":"500","category_name":"未知分类","address":"虹口区四川北路1689号嘉杰国际广场4楼(近东宝兴路)"},{"poiid":"B2094757DB6FAAFF419B","title":"世纪大道地铁站","lon":"121.480201155577","lat":"31.25980006696586","category":"36","category_name":"地铁站","address":"世纪大道"},{"poiid":"B2094757D06FAAFF4598","title":"宝寿司(虹口店)","lon":"121.482418103","lat":"31.258683177","category":"95","category_name":"日本料理","address":"虹口区昆山路128号(近乍浦路)"},{"poiid":"B2094654DB69A4FD4999","title":"锦江之星(四川北路店)","lon":"121.47928","lat":"31.25902","category":"216","category_name":"经济型连锁酒店","address":"上海市虹口区东宝兴路440号(近四川北路)"},{"poiid":"B2094757D069A2FE499F","title":"虹口区业余大学","lon":"121.479806","lat":"31.258855","category":"52","category_name":"高等院校","address":"上海东宝兴路440号"},{"poiid":"B2094757D468A4FB4498","title":"爱茜茜里 嘉杰国际店 ICEASON","lon":"121.482732054","lat":"31.258775793","category":"67","category_name":"甜品店","address":"虹口区四川北路1689号嘉杰国际广场(宝源路东宝兴路)"},{"poiid":"B2094757D46EABF9469D","title":"赛百味 嘉杰广场店 SUBWAY","lon":"121.482601","lat":"31.258277","category":"94","category_name":"西餐厅","address":"虹口区四川北路1689号嘉杰国际广场B1楼(近东宝兴路)"},{"poiid":"B2094750DA69A3FA419C","title":"鮮芋仙","lon":"121.482955","lat":"31.258655","category":"252","category_name":"楼宇机构","address":"嘉杰廣場店"},{"poiid":"B2094757D16DA3FF459E","title":"小诸烧烤","lon":"121.4803221","lat":"31.258461172","category":"247","category_name":"餐饮美食","address":"上海东宝兴路轻轨下面"},{"poiid":"B2094655D36CA1FF4399","title":"四川北路东宝兴路","lon":"121.48312","lat":"31.25687","category":"38","category_name":"公交车站","address":"上海四川北路东宝兴路"},{"poiid":"B2094655D36CA3F54698","title":"福德商务中心北楼","lon":"121.48334","lat":"31.25839","category":"46","category_name":"楼宇","address":"四川北路1688"},{"poiid":"B209475CD665A1FB439D","title":"三宝粥铺","lon":"121.483245","lat":"31.258289","category":"247","category_name":"餐饮美食","address":"上海市 四川北路嘉杰广场"},{"poiid":"B2094750DB6DA7FF4999","title":"钱柜","lon":"121.482345","lat":"31.257751","category":"248","category_name":"生活娱乐","address":"四川北路1661号"},{"poiid":"B2094757D06FA1F84693","title":"ZARA(四川北路店)","lon":"121.48302","lat":"31.25773","category":"141","category_name":"服装鞋帽皮具店","address":"虹口区四川北路1727弄嘉杰国际1-2楼(近东宝兴路)"},{"poiid":"B2094655D26BAAFC479F","title":"快乐柠檬 嘉杰国际店 Happy Lemon","lon":"121.482748054","lat":"31.258804793","category":"113","category_name":"冷饮店","address":"虹口区四川北路1363号壹丰广场B2楼-C14铺(近武进路)"},{"poiid":"B2094757D068AAF8479D","title":"上海地铁第三运营有限公司","lon":"121.48033613","lat":"31.259738199","category":"46","category_name":"楼宇","address":"上海虹口区东宝兴路369号(地铁三号线东宝兴路站)"},{"poiid":"B2094654D56EA3F54892","title":"华尔街英语上海虹口中心","lon":"121.48265","lat":"31.25764","category":"190","category_name":"培训机构","address":"虹口区四川北路1661号凯鸿商场2区4楼(近东宝兴路)"},{"poiid":"B2094757D168A5F44798","title":"世纪烧烤","lon":"121.48002","lat":"31.258313","category":"68","category_name":"快餐厅","address":"虹口区东宝兴路(近轻轨三号线东宝兴路站)"},{"poiid":"B2094753D76AA7FC499F","title":"食之秘(嘉杰广场店)","lon":"121.482649","lat":"31.258202","category":"67","category_name":"甜品店","address":"上海市虹口区四川北路1689号嘉杰国际广场1楼(近东宝兴路)"},{"poiid":"B2094751D365A6FD419D","title":"中共四大会址纪念馆","lon":"121.4804768","lat":"31.255421","category":"607","category_name":"一般景点","address":null},{"poiid":"B209475DD16EA2F9409F","title":"年代秀飯堂","lon":"121.482711","lat":"31.258716","category":"247","category_name":"餐饮美食","address":"上海市 虹口區四川北路1689號"},{"poiid":"B2094753D76CA1FF4493","title":"696LIVE","lon":"121.483016","lat":"31.258111","category":"500","category_name":"未知分类","address":"上海市 四川北路1727弄"},{"poiid":"B2094654DB6BA3FA439D","title":"钱柜(四川北路)","lon":"121.48276","lat":"31.25685","category":"170","category_name":"KTV","address":"四川北路1661"},{"poiid":"B2094757D06EAAFB419C","title":"嘉杰国际商业广场","lon":"121.48264294","lat":"31.25808513","category":"119","category_name":"商场","address":"虹口区四川北路1727弄(近东宝兴路)"},{"poiid":"B2094655D269ABFB429C","title":"巴黎春天虹口店","lon":"121.48331","lat":"31.25792","category":"247","category_name":"餐饮美食","address":"虹口区四川北路1688号巴黎春天内(近东宝兴路)"},{"poiid":"B2094655D265A3FB409A","title":"厚味香辣馆","lon":"121.48255","lat":"31.25828","category":"71","category_name":"四川菜","address":"虹口区四川北路1689号嘉杰国际广场4楼(近东宝兴路)"},{"poiid":"B2094757D06EAAF84493","title":"烧肉达人(嘉杰广场店)","lon":"121.48183","lat":"31.25884","category":"269","category_name":"烧烤","address":"虹口区四川北路1689号嘉杰国际广场4楼(近东宝兴路)"},{"poiid":"B2094655D26AA2F84798","title":"星巴克(四川北路店)","lon":"121.482426","lat":"31.257921","category":"260","category_name":"其他","address":"虹口区四川北路1661号凯鸿商场1楼(近东宝兴路)"},{"poiid":"B2094757D06FA3FE4992","title":"烹大师火锅(四川北路店)","lon":"121.482667578","lat":"31.2580404318","category":"86","category_name":"火锅店","address":"虹口区四川北路1689号嘉杰国际广场4楼(近东宝兴路)"},{"poiid":"B2094751DA6BA7FD4499","title":"鼎辣","lon":"121.482697","lat":"31.258362","category":"247","category_name":"餐饮美食","address":"虹口区四川北路1689号嘉杰国际广场5楼(近东宝兴路)"},{"poiid":"B2094751D46BA6F9449F","title":"首尔焖鲜汇(四川北路店）","lon":"121.482651","lat":"31.258957","category":"247","category_name":"餐饮美食","address":"虹口区四川北路1689号嘉杰国际广场4楼(近东宝兴路)"},{"poiid":"B2094757D06FA3FF459B","title":"釜山料理 四川北路店 Pankoo","lon":"121.482561054","lat":"31.258004693","category":"96","category_name":"韩国料理","address":"虹口区四川北路1689号嘉杰国际4楼(近东宝兴路)"},{"poiid":"B2094757D069A1F5409C","title":"商汤天下火锅","lon":"121.481799103","lat":"31.2582171672","category":"86","category_name":"火锅店","address":"虹口区四川北路1661号凯鸿商场301室"},{"poiid":"B2094757D069A4FA4198","title":"钱柜四川北路店","lon":"121.482500203","lat":"31.2582308675","category":"500","category_name":"未知分类","address":"上海四川北路"},{"poiid":"B2094757D06FA1FF469F","title":"东宝百货","lon":"121.48341","lat":"31.2572","category":"119","category_name":"商场","address":"虹口区四川北路1666号(近东宝兴路)"},{"poiid":"B2094757D06FA2F9419D","title":"老妈米线(嘉杰广场店)","lon":"121.4827211","lat":"31.258000162","category":"86","category_name":"火锅店","address":"虹口区四川北路1689号嘉杰国际广场B1楼(近东宝兴路)"},{"poiid":"B2094757D06FA7FB419F","title":"味千拉面(嘉杰国际店)","lon":"121.4824507","lat":"31.257228346","category":"95","category_name":"日本料理","address":"虹口区四川北路1689号嘉杰国际B1楼03室(近东宝兴路)"},{"poiid":"B2094757DA6EA5FC4793","title":"泰泰米","lon":"121.482793092726","lat":"31.2583851169603","category":"99","category_name":"泰国／越南菜品餐厅","address":"虹口区四川北路1727弄嘉杰国际广场4楼(近东宝兴路)"},{"poiid":"B2094655D265A3FA4993","title":"烹大师烧肉达人","lon":"121.48254","lat":"31.25828","category":"87","category_name":"特色／地方风味餐厅","address":"嘉杰国家广场4层"},{"poiid":"B2094757D16FA7FA499A","title":"一线烫捞","lon":"121.48199379","lat":"31.257488601","category":"68","category_name":"快餐厅","address":"虹口区四川北路1727弄嘉杰国际广场B1楼(近东宝兴路)"},{"poiid":"B2094654DB6BA3FA4699","title":"凯旋宫酒楼","lon":"121.48326","lat":"31.25798","category":"76","category_name":"上海菜","address":"虹口区四川北路1688号福德商务广场南楼6楼(近东宝兴路)"},{"poiid":"B2094757D06FA0FB4092","title":"禾绿寿司(嘉杰国际)","lon":"121.482230172","lat":"31.2583229202","category":"95","category_name":"日本料理","address":"虹口区四川北路1727弄嘉杰国际广场4楼(近东宝兴路)"},{"poiid":"B2094757D06FA2F4439A","title":"一兆韦德(凯鸿广场店)","lon":"121.482426","lat":"31.257921","category":"221","category_name":"健身中心","address":"虹口区四川北路1661号凯鸿商场4楼(近东宝兴路)"},{"poiid":"B2094655D26FA0F4479B","title":"嘉杰国际广场(西门)","lon":"121.48072","lat":"31.25928","category":"48","category_name":"楼宇大门","address":"四川北路1727弄1-10号"},{"poiid":"B2094757DB6AAAFE4393","title":"翰林轩（嘉杰国际商业广场店）","lon":"121.483","lat":"31.2583","category":"257","category_name":"中餐厅","address":"虹口区四川北路1727弄嘉杰国际5楼(近东宝兴路)"},{"poiid":"B2094757D16DA2FF4398","title":"釜山料理","lon":"121.4824609","lat":"31.257921261","category":"247","category_name":"餐饮美食","address":"上海嘉杰广场"},{"poiid":"B2094757D06FABF4429A","title":"觅香港式小厨","lon":"121.48283","lat":"31.25779","category":"72","category_name":"广东菜","address":"虹口区四川北路1661号凯鸿广场3栋103-03号(近凯鸿商场)"},{"poiid":"B2094757D66DA7FC409F","title":"宝大祥","lon":"121.482928103","lat":"31.2577161568","category":"500","category_name":"未知分类","address":"上海四川北路1661号凯鸿商场1-3楼(近东宝兴路)"},{"poiid":"B2094757D06FA3FF4292","title":"网鱼网咖(宝兴店)","lon":"121.481514","lat":"31.257693","category":"173","category_name":"游戏厅","address":"虹口区四川北路1661号凯鸿商场B1楼01-A室(近东宝兴路)"},{"poiid":"B2094757D06BA6FB409A","title":"轨道交通三号线东宝兴路站","lon":"121.481584103","lat":"31.2574371509","category":"500","category_name":"未知分类","address":"上海东宝兴路"},{"poiid":"B2094757D06FA7FD409F","title":"蛙蛙跳干锅主题餐厅(嘉杰广场店)","lon":"121.482548533","lat":"31.2583184894","category":"500","category_name":"未知分类","address":"虹口区四川北路1689号嘉杰国际广场4楼(近东宝兴路)"},{"poiid":"B2094757DB6FAAFF419B","title":"世纪大道地铁站","lon":"121.480201155577","lat":"31.25980006696586","category":"36","category_name":"地铁站","address":"世纪大道"},{"poiid":"B2094757D06FAAFF4598","title":"宝寿司(虹口店)","lon":"121.482418103","lat":"31.258683177","category":"95","category_name":"日本料理","address":"虹口区昆山路128号(近乍浦路)"},{"poiid":"B2094654DB69A4FD4999","title":"锦江之星(四川北路店)","lon":"121.47928","lat":"31.25902","category":"216","category_name":"经济型连锁酒店","address":"上海市虹口区东宝兴路440号(近四川北路)"},{"poiid":"B2094757D069A2FE499F","title":"虹口区业余大学","lon":"121.479806","lat":"31.258855","category":"52","category_name":"高等院校","address":"上海东宝兴路440号"},{"poiid":"B2094757D468A4FB4498","title":"爱茜茜里 嘉杰国际店 ICEASON","lon":"121.482732054","lat":"31.258775793","category":"67","category_name":"甜品店","address":"虹口区四川北路1689号嘉杰国际广场(宝源路东宝兴路)"},{"poiid":"B2094757D46EABF9469D","title":"赛百味 嘉杰广场店 SUBWAY","lon":"121.482601","lat":"31.258277","category":"94","category_name":"西餐厅","address":"虹口区四川北路1689号嘉杰国际广场B1楼(近东宝兴路)"},{"poiid":"B2094750DA69A3FA419C","title":"鮮芋仙","lon":"121.482955","lat":"31.258655","category":"252","category_name":"楼宇机构","address":"嘉杰廣場店"},{"poiid":"B2094757D16DA3FF459E","title":"小诸烧烤","lon":"121.4803221","lat":"31.258461172","category":"247","category_name":"餐饮美食","address":"上海东宝兴路轻轨下面"},{"poiid":"B2094655D36CA1FF4399","title":"四川北路东宝兴路","lon":"121.48312","lat":"31.25687","category":"38","category_name":"公交车站","address":"上海四川北路东宝兴路"},{"poiid":"B2094655D36CA3F54698","title":"福德商务中心北楼","lon":"121.48334","lat":"31.25839","category":"46","category_name":"楼宇","address":"四川北路1688"},{"poiid":"B209475CD665A1FB439D","title":"三宝粥铺","lon":"121.483245","lat":"31.258289","category":"247","category_name":"餐饮美食","address":"上海市 四川北路嘉杰广场"},{"poiid":"B2094750DB6DA7FF4999","title":"钱柜","lon":"121.482345","lat":"31.257751","category":"248","category_name":"生活娱乐","address":"四川北路1661号"},{"poiid":"B2094757D06FA1F84693","title":"ZARA(四川北路店)","lon":"121.48302","lat":"31.25773","category":"141","category_name":"服装鞋帽皮具店","address":"虹口区四川北路1727弄嘉杰国际1-2楼(近东宝兴路)"},{"poiid":"B2094655D26BAAFC479F","title":"快乐柠檬 嘉杰国际店 Happy Lemon","lon":"121.482748054","lat":"31.258804793","category":"113","category_name":"冷饮店","address":"虹口区四川北路1363号壹丰广场B2楼-C14铺(近武进路)"},{"poiid":"B2094757D068AAF8479D","title":"上海地铁第三运营有限公司","lon":"121.48033613","lat":"31.259738199","category":"46","category_name":"楼宇","address":"上海虹口区东宝兴路369号(地铁三号线东宝兴路站)"},{"poiid":"B2094654D56EA3F54892","title":"华尔街英语上海虹口中心","lon":"121.48265","lat":"31.25764","category":"190","category_name":"培训机构","address":"虹口区四川北路1661号凯鸿商场2区4楼(近东宝兴路)"},{"poiid":"B2094757D168A5F44798","title":"世纪烧烤","lon":"121.48002","lat":"31.258313","category":"68","category_name":"快餐厅","address":"虹口区东宝兴路(近轻轨三号线东宝兴路站)"},{"poiid":"B2094753D76AA7FC499F","title":"食之秘(嘉杰广场店)","lon":"121.482649","lat":"31.258202","category":"67","category_name":"甜品店","address":"上海市虹口区四川北路1689号嘉杰国际广场1楼(近东宝兴路)"},{"poiid":"B2094751D365A6FD419D","title":"中共四大会址纪念馆","lon":"121.4804768","lat":"31.255421","category":"607","category_name":"一般景点","address":null},{"poiid":"B209475DD16EA2F9409F","title":"年代秀飯堂","lon":"121.482711","lat":"31.258716","category":"247","category_name":"餐饮美食","address":"上海市 虹口區四川北路1689號"},{"poiid":"B2094753D76CA1FF4493","title":"696LIVE","lon":"121.483016","lat":"31.258111","category":"500","category_name":"未知分类","address":"上海市 四川北路1727弄"}]