[{"poiid":"B2094654DA69A3FE4792","title":"上海东方艺术中心(Shanghai Oriental Art Center)","lon":"121.54141","lat":"31.22273","category":"180","category_name":"剧场","address":"上海浦东新区丁香路425号(近世纪大道)"},{"poiid":"B2094757D06FA2FA429A","title":"上海东方艺术中心Shanghai Oriental Art Center","lon":"121.54141842189642","lat":"31.22291030374493","category":"179","category_name":"音乐厅","address":"上海浦东新区丁香路425号"},{"poiid":"B2094757D06FA3FB429D","title":"浦东游泳馆(源深馆)","lon":"121.53847","lat":"31.23198","category":"231","category_name":"游泳馆","address":"浦东新区张杨路1458号源深体育中心内(近源深路)"},{"poiid":"B2094757D06FA4FF479C","title":"进才中学","lon":"121.54602813","lat":"31.22998619","category":"55","category_name":"中学","address":"浦东新区杨高中路2788号(近成山路)"},{"poiid":"B2094757D06FABF44193","title":"长泰国际金融大厦","lon":"121.542","lat":"31.231","category":"46","category_name":"楼宇","address":"上海市浦东新区世纪大道1589号"},{"poiid":"B2094757D06FA1F5459F","title":"中建大厦","lon":"121.54","lat":"31.2295","category":"46","category_name":"楼宇","address":"上海市浦东新区世纪大道1568号"},{"poiid":"B2094757D06FA6F54999","title":"东怡大酒店","lon":"121.54299542","lat":"31.22411864","category":"217","category_name":"旅馆招待所","address":"浦东新区丁香路555号(东方艺术中心旁)"},{"poiid":"B2094757D06FA6FA469D","title":"重庆老火锅","lon":"121.54202","lat":"31.23087","category":"86","category_name":"火锅店","address":"浦东新区羽山路288号(近桃林路)"},{"poiid":"B2094757D068A4F9469E","title":"汉唐酒店","lon":"121.539241","lat":"31.23287","category":"72","category_name":"广东菜","address":"浦东新区桃林路777号(近张杨路)"},{"poiid":"B2094654DA69A3FE489F","title":"浦东新区人民法院","lon":"121.54447","lat":"31.22483","category":"608","category_name":"法院","address":"上海市浦东新区丁香路611号"},{"poiid":"B2094757D06FA5F8489D","title":"源深篮球公园","lon":"121.536632157","lat":"31.2295100303","category":"220","category_name":"运动场所","address":"浦东新区羽山路9号浦东源深体育中心6号门(潍坊路羽山路)"},{"poiid":"B2094757D068A0F44198","title":"上海东方艺术中心-演奏厅(Shanghai Oriental Art Center - Performance Hall)","lon":"121.541374736","lat":"31.2227814309","category":"260","category_name":"其他","address":"上海浦东新区丁香路425号"},{"poiid":"B2094757D068A5F8469D","title":"大马可意大利餐厅(羽山店)","lon":"121.54301","lat":"31.23189","category":"94","category_name":"西餐厅","address":"浦东新区羽山路350号(近桃林路)"},{"poiid":"B2094757D06FA0FB439F","title":"宝钢大厦","lon":"121.538","lat":"31.2278","category":"46","category_name":"楼宇","address":"朝阳区北三环东路与京顺路交接处路口北侧"},{"poiid":"B2094654DA69ABF5489A","title":"陆家嘴钻石大厦","lon":"121.543","lat":"31.2305","category":"46","category_name":"楼宇","address":"中央商务区CBD22号"},{"poiid":"B2094757D06FABFE439A","title":"宏嘉大厦","lon":"121.537","lat":"31.2307","category":"46","category_name":"楼宇","address":"上海浦东新区福山路388号"},{"poiid":"B2094757D068A1FB479A","title":"陆家嘴花园","lon":"121.540586699","lat":"31.2326953785","category":"47","category_name":"住宅区","address":"上海浦东新区桃林路815弄"},{"poiid":"B2094757D165AAF54892","title":"陆家嘴基金大厦","lon":"121.539","lat":"31.2302","category":"46","category_name":"楼宇","address":"上海竹林路101號"},{"poiid":"B2094757D06FABFF4799","title":"老碗 源深店","lon":"121.537022054","lat":"31.229380793","category":"84","category_name":"西北菜","address":"浦东新区羽山路68号(近源深路)"},{"poiid":"B2094654DA6AA2FD4292","title":"东方国际科技大厦","lon":"121.537","lat":"31.2299","category":"46","category_name":"楼宇","address":"浦东新区向城路58号"},{"poiid":"B2094757D06FA6FD449B","title":"盛世年华花园","lon":"121.5390333","lat":"31.229134892","category":"47","category_name":"住宅区","address":"上海市浦东新区羽山路100弄"},{"poiid":"B2094757D06AA3FF4998","title":"东方希望大厦","lon":"121.54448413658","lat":"31.229635061024","category":"46","category_name":"楼宇","address":"世纪大道1777号"},{"poiid":"B2094757D06FA2F9499F","title":"源深体育中心羽毛球场","lon":"121.538296989","lat":"31.2324749785","category":"220","category_name":"运动场所","address":"浦东新区张杨路1458号源深体育中心内(近源深路)"},{"poiid":"B2094757D06FAAF94899","title":"同盛大厦","lon":"121.538","lat":"31.2292","category":"46","category_name":"楼宇","address":"黄浦区南京东路311号"},{"poiid":"B2094757D06FA0FC4893","title":"上海市电力公司","lon":"121.53781276","lat":"31.224534954","category":"46","category_name":"楼宇","address":"上海源深路1122号"},{"poiid":"B2094757D06FABFF429A","title":"山水国际(陆家嘴美丽苑)","lon":"121.542354","lat":"31.233936","category":"500","category_name":"未知分类","address":"上海羽山路383弄"},{"poiid":"B2094654DA6AA3F5479A","title":"钱江大厦","lon":"121.537","lat":"31.2286","category":"46","category_name":"楼宇","address":"浦东新区东方路971号"},{"poiid":"B2094757D069A1F84599","title":"全华信息大厦","lon":"121.538","lat":"31.2304","category":"46","category_name":"楼宇","address":"黄陂区楚天大道与盘龙三路交汇处"},{"poiid":"B2094757D064AAFE4599","title":"易公馆","lon":"121.536671","lat":"31.228654","category":"72","category_name":"广东菜","address":"浦东新区源深路789号2楼(近羽山路)"},{"poiid":"B2094654DB64A6FB449B","title":"莫泰268(上海羽山路店)","lon":"121.53953","lat":"31.23068","category":"250","category_name":"公园户外","address":"上海市浦东新区羽山路166号(近桃林路)"},{"poiid":"B2094751D465A3F4489B","title":"镰仓pasta","lon":"121.538772","lat":"31.229763","category":"247","category_name":"餐饮美食","address":"浦东新区东方路796号96广场9号门2楼212单元(近世纪大道)"},{"poiid":"B2094757D069A0FB4392","title":"民生路杨高中路","lon":"121.54730074","lat":"31.227248106","category":"500","category_name":"未知分类","address":"上海民生路杨高中路"},{"poiid":"B2094757D069A5FC439C","title":"陆家嘴花园二期(峰会)","lon":"121.54248869","lat":"31.230623372","category":"47","category_name":"住宅区","address":"陆家嘴花园二期(峰会)位于浦东桃林路815弄"},{"poiid":"B2094757D069A2FF419B","title":"上海市工商行政管理局浦东新区分局","lon":"121.544212738","lat":"31.2269792308","category":"250","category_name":"公园户外","address":"上海浦东新区杨高中路2900号(近桃林路)"},{"poiid":"B2094757D06FABF5459A","title":"新天国际大厦","lon":"121.538","lat":"31.2301","category":"46","category_name":"楼宇","address":"上海市长宁区遵义南路88号"},{"poiid":"B2094757D06FA5FB4192","title":"感智盲人保健会所(源深路店)","lon":"121.53671","lat":"31.22726","category":"149","category_name":"洗浴推拿场所","address":"浦东新区源深路836弄香榭丽舍花园18号中心会所楼底(近松林路)"},{"poiid":"B2094757D068A1F44199","title":"阿英煲(灵山路店)","lon":"121.53893","lat":"31.22548","category":"260","category_name":"其他","address":"上海浦东新区灵山路28号(近桃林路)  "},{"poiid":"B2094655D26EA2FF4192","title":"法国餐馆巴黎上海","lon":"121.54141","lat":"31.22273","category":"97","category_name":"法式菜品餐厅","address":"浦东新区丁香路425号上海东方艺术中心B1楼(近世纪大道)"},{"poiid":"B2094654DA69A1FB469F","title":"由由燕乔大厦","lon":"121.541","lat":"31.2287","category":"46","category_name":"楼宇","address":"静安区长寿路(万航渡路口)"},{"poiid":"B2094655D26BAAFD4493","title":"阿英煲","lon":"121.54076","lat":"31.22727","category":"257","category_name":"中餐厅","address":""},{"poiid":"B2094757D06BA6FC429B","title":"佳思多食品料理店(羽山路店)","lon":"121.53914","lat":"31.22978","category":"91","category_name":"台湾菜","address":"浦东新区羽山路146号(近源深路)"},{"poiid":"B2094757D16CA5FF489F","title":"豆香园","lon":"121.540669682","lat":"31.2269513783","category":"196","category_name":"公园","address":"浦东新区灵山路412号(桃林路口)"},{"poiid":"B2094654DB64A4FA469D","title":"馨月汇","lon":"121.54143","lat":"31.2271","category":"47","category_name":"住宅区","address":"上海桃林路1160号"},{"poiid":"B2094654DB6BABF5469E","title":"桃林一小区","lon":"121.54308","lat":"31.228199","category":"47","category_name":"住宅区","address":"灵山路600弄1-44号"},{"poiid":"B2094654DA69A3F8449B","title":"快客联华便利No.006423","lon":"121.54213","lat":"31.22802","category":"117","category_name":"便民商店/便利店","address":"灵山路576"},{"poiid":"B2094757D168A4FE489F","title":"福山羽毛球馆","lon":"121.54214","lat":"31.22844","category":"220","category_name":"运动场所","address":"上海浦东新区桃林路1055号福山外国语小学内(近灵山路)  "},{"poiid":"B2094654DB65A0FC4893","title":"光明便利店","lon":"121.54271","lat":"31.2284","category":"117","category_name":"便民商店/便利店","address":"浦东新区峨山路191-193号(近东方路)"},{"poiid":"B2094757D165A7FF4193","title":"品盛养生","lon":"121.541132238","lat":"31.2273275382","category":"148","category_name":"美容美发店","address":"浦东新区灵山路420号(近桃林路)"},{"poiid":"B2094655D264ABFE429A","title":"CareBay","lon":"121.54189","lat":"31.22711","category":"257","category_name":"中餐厅","address":"桃林路1160"},{"poiid":"B2094655D265A4FB4299","title":"远东国际大厦","lon":"121.539","lat":"31.2297","category":"46","category_name":"楼宇","address":"丰台学城海鹰路1号,3号"},{"poiid":"B2094654DA69A3FE4792","title":"上海东方艺术中心(Shanghai Oriental Art Center)","lon":"121.54141","lat":"31.22273","category":"180","category_name":"剧场","address":"上海浦东新区丁香路425号(近世纪大道)"},{"poiid":"B2094757D06FA2FA429A","title":"上海东方艺术中心Shanghai Oriental Art Center","lon":"121.54141842189642","lat":"31.22291030374493","category":"179","category_name":"音乐厅","address":"上海浦东新区丁香路425号"},{"poiid":"B2094757D06FA3FB429D","title":"浦东游泳馆(源深馆)","lon":"121.53847","lat":"31.23198","category":"231","category_name":"游泳馆","address":"浦东新区张杨路1458号源深体育中心内(近源深路)"},{"poiid":"B2094757D06FA4FF479C","title":"进才中学","lon":"121.54602813","lat":"31.22998619","category":"55","category_name":"中学","address":"浦东新区杨高中路2788号(近成山路)"},{"poiid":"B2094757D06FABF44193","title":"长泰国际金融大厦","lon":"121.542","lat":"31.231","category":"46","category_name":"楼宇","address":"上海市浦东新区世纪大道1589号"},{"poiid":"B2094757D06FA1F5459F","title":"中建大厦","lon":"121.54","lat":"31.2295","category":"46","category_name":"楼宇","address":"上海市浦东新区世纪大道1568号"},{"poiid":"B2094757D06FA6F54999","title":"东怡大酒店","lon":"121.54299542","lat":"31.22411864","category":"217","category_name":"旅馆招待所","address":"浦东新区丁香路555号(东方艺术中心旁)"},{"poiid":"B2094757D06FA6FA469D","title":"重庆老火锅","lon":"121.54202","lat":"31.23087","category":"86","category_name":"火锅店","address":"浦东新区羽山路288号(近桃林路)"},{"poiid":"B2094757D068A4F9469E","title":"汉唐酒店","lon":"121.539241","lat":"31.23287","category":"72","category_name":"广东菜","address":"浦东新区桃林路777号(近张杨路)"},{"poiid":"B2094654DA69A3FE489F","title":"浦东新区人民法院","lon":"121.54447","lat":"31.22483","category":"608","category_name":"法院","address":"上海市浦东新区丁香路611号"},{"poiid":"B2094757D06FA5F8489D","title":"源深篮球公园","lon":"121.536632157","lat":"31.2295100303","category":"220","category_name":"运动场所","address":"浦东新区羽山路9号浦东源深体育中心6号门(潍坊路羽山路)"},{"poiid":"B2094757D068A0F44198","title":"上海东方艺术中心-演奏厅(Shanghai Oriental Art Center - Performance Hall)","lon":"121.541374736","lat":"31.2227814309","category":"260","category_name":"其他","address":"上海浦东新区丁香路425号"},{"poiid":"B2094757D068A5F8469D","title":"大马可意大利餐厅(羽山店)","lon":"121.54301","lat":"31.23189","category":"94","category_name":"西餐厅","address":"浦东新区羽山路350号(近桃林路)"},{"poiid":"B2094757D06FA0FB439F","title":"宝钢大厦","lon":"121.538","lat":"31.2278","category":"46","category_name":"楼宇","address":"朝阳区北三环东路与京顺路交接处路口北侧"},{"poiid":"B2094654DA69ABF5489A","title":"陆家嘴钻石大厦","lon":"121.543","lat":"31.2305","category":"46","category_name":"楼宇","address":"中央商务区CBD22号"},{"poiid":"B2094757D06FABFE439A","title":"宏嘉大厦","lon":"121.537","lat":"31.2307","category":"46","category_name":"楼宇","address":"上海浦东新区福山路388号"},{"poiid":"B2094757D068A1FB479A","title":"陆家嘴花园","lon":"121.540586699","lat":"31.2326953785","category":"47","category_name":"住宅区","address":"上海浦东新区桃林路815弄"},{"poiid":"B2094757D165AAF54892","title":"陆家嘴基金大厦","lon":"121.539","lat":"31.2302","category":"46","category_name":"楼宇","address":"上海竹林路101號"},{"poiid":"B2094757D06FABFF4799","title":"老碗 源深店","lon":"121.537022054","lat":"31.229380793","category":"84","category_name":"西北菜","address":"浦东新区羽山路68号(近源深路)"},{"poiid":"B2094654DA6AA2FD4292","title":"东方国际科技大厦","lon":"121.537","lat":"31.2299","category":"46","category_name":"楼宇","address":"浦东新区向城路58号"},{"poiid":"B2094757D06FA6FD449B","title":"盛世年华花园","lon":"121.5390333","lat":"31.229134892","category":"47","category_name":"住宅区","address":"上海市浦东新区羽山路100弄"},{"poiid":"B2094757D06AA3FF4998","title":"东方希望大厦","lon":"121.54448413658","lat":"31.229635061024","category":"46","category_name":"楼宇","address":"世纪大道1777号"},{"poiid":"B2094757D06FA2F9499F","title":"源深体育中心羽毛球场","lon":"121.538296989","lat":"31.2324749785","category":"220","category_name":"运动场所","address":"浦东新区张杨路1458号源深体育中心内(近源深路)"},{"poiid":"B2094757D06FAAF94899","title":"同盛大厦","lon":"121.538","lat":"31.2292","category":"46","category_name":"楼宇","address":"黄浦区南京东路311号"},{"poiid":"B2094757D06FA0FC4893","title":"上海市电力公司","lon":"121.53781276","lat":"31.224534954","category":"46","category_name":"楼宇","address":"上海源深路1122号"},{"poiid":"B2094757D06FABFF429A","title":"山水国际(陆家嘴美丽苑)","lon":"121.542354","lat":"31.233936","category":"500","category_name":"未知分类","address":"上海羽山路383弄"},{"poiid":"B2094654DA6AA3F5479A","title":"钱江大厦","lon":"121.537","lat":"31.2286","category":"46","category_name":"楼宇","address":"浦东新区东方路971号"},{"poiid":"B2094757D069A1F84599","title":"全华信息大厦","lon":"121.538","lat":"31.2304","category":"46","category_name":"楼宇","address":"黄陂区楚天大道与盘龙三路交汇处"},{"poiid":"B2094757D064AAFE4599","title":"易公馆","lon":"121.536671","lat":"31.228654","category":"72","category_name":"广东菜","address":"浦东新区源深路789号2楼(近羽山路)"},{"poiid":"B2094654DB64A6FB449B","title":"莫泰268(上海羽山路店)","lon":"121.53953","lat":"31.23068","category":"250","category_name":"公园户外","address":"上海市浦东新区羽山路166号(近桃林路)"},{"poiid":"B2094751D465A3F4489B","title":"镰仓pasta","lon":"121.538772","lat":"31.229763","category":"247","category_name":"餐饮美食","address":"浦东新区东方路796号96广场9号门2楼212单元(近世纪大道)"},{"poiid":"B2094757D069A0FB4392","title":"民生路杨高中路","lon":"121.54730074","lat":"31.227248106","category":"500","category_name":"未知分类","address":"上海民生路杨高中路"},{"poiid":"B2094757D069A5FC439C","title":"陆家嘴花园二期(峰会)","lon":"121.54248869","lat":"31.230623372","category":"47","category_name":"住宅区","address":"陆家嘴花园二期(峰会)位于浦东桃林路815弄"},{"poiid":"B2094757D069A2FF419B","title":"上海市工商行政管理局浦东新区分局","lon":"121.544212738","lat":"31.2269792308","category":"250","category_name":"公园户外","address":"上海浦东新区杨高中路2900号(近桃林路)"},{"poiid":"B2094757D06FABF5459A","title":"新天国际大厦","lon":"121.538","lat":"31.2301","category":"46","category_name":"楼宇","address":"上海市长宁区遵义南路88号"},{"poiid":"B2094757D06FA5FB4192","title":"感智盲人保健会所(源深路店)","lon":"121.53671","lat":"31.22726","category":"149","category_name":"洗浴推拿场所","address":"浦东新区源深路836弄香榭丽舍花园18号中心会所楼底(近松林路)"},{"poiid":"B2094757D068A1F44199","title":"阿英煲(灵山路店)","lon":"121.53893","lat":"31.22548","category":"260","category_name":"其他","address":"上海浦东新区灵山路28号(近桃林路)  "},{"poiid":"B2094655D26EA2FF4192","title":"法国餐馆巴黎上海","lon":"121.54141","lat":"31.22273","category":"97","category_name":"法式菜品餐厅","address":"浦东新区丁香路425号上海东方艺术中心B1楼(近世纪大道)"},{"poiid":"B2094654DA69A1FB469F","title":"由由燕乔大厦","lon":"121.541","lat":"31.2287","category":"46","category_name":"楼宇","address":"静安区长寿路(万航渡路口)"},{"poiid":"B2094655D26BAAFD4493","title":"阿英煲","lon":"121.54076","lat":"31.22727","category":"257","category_name":"中餐厅","address":""},{"poiid":"B2094757D06BA6FC429B","title":"佳思多食品料理店(羽山路店)","lon":"121.53914","lat":"31.22978","category":"91","category_name":"台湾菜","address":"浦东新区羽山路146号(近源深路)"},{"poiid":"B2094757D16CA5FF489F","title":"豆香园","lon":"121.540669682","lat":"31.2269513783","category":"196","category_name":"公园","address":"浦东新区灵山路412号(桃林路口)"},{"poiid":"B2094654DB64A4FA469D","title":"馨月汇","lon":"121.54143","lat":"31.2271","category":"47","category_name":"住宅区","address":"上海桃林路1160号"},{"poiid":"B2094654DB6BABF5469E","title":"桃林一小区","lon":"121.54308","lat":"31.228199","category":"47","category_name":"住宅区","address":"灵山路600弄1-44号"},{"poiid":"B2094654DA69A3F8449B","title":"快客联华便利No.006423","lon":"121.54213","lat":"31.22802","category":"117","category_name":"便民商店/便利店","address":"灵山路576"},{"poiid":"B2094757D168A4FE489F","title":"福山羽毛球馆","lon":"121.54214","lat":"31.22844","category":"220","category_name":"运动场所","address":"上海浦东新区桃林路1055号福山外国语小学内(近灵山路)  "},{"poiid":"B2094654DB65A0FC4893","title":"光明便利店","lon":"121.54271","lat":"31.2284","category":"117","category_name":"便民商店/便利店","address":"浦东新区峨山路191-193号(近东方路)"},{"poiid":"B2094757D165A7FF4193","title":"品盛养生","lon":"121.541132238","lat":"31.2273275382","category":"148","category_name":"美容美发店","address":"浦东新区灵山路420号(近桃林路)"},{"poiid":"B2094655D264ABFE429A","title":"CareBay","lon":"121.54189","lat":"31.22711","category":"257","category_name":"中餐厅","address":"桃林路1160"},{"poiid":"B2094655D265A4FB4299","title":"远东国际大厦","lon":"121.539","lat":"31.2297","category":"46","category_name":"楼宇","address":"丰台学城海鹰路1号,3号"},{"poiid":"B2094654DA69A3FE4792","title":"上海东方艺术中心(Shanghai Oriental Art Center)","lon":"121.54141","lat":"31.22273","category":"180","category_name":"剧场","address":"上海浦东新区丁香路425号(近世纪大道)"},{"poiid":"B2094757D06FA2FA429A","title":"上海东方艺术中心Shanghai Oriental Art Center","lon":"121.54141842189642","lat":"31.22291030374493","category":"179","category_name":"音乐厅","address":"上海浦东新区丁香路425号"},{"poiid":"B2094757D06FA3FB429D","title":"浦东游泳馆(源深馆)","lon":"121.53847","lat":"31.23198","category":"231","category_name":"游泳馆","address":"浦东新区张杨路1458号源深体育中心内(近源深路)"},{"poiid":"B2094757D06FA4FF479C","title":"进才中学","lon":"121.54602813","lat":"31.22998619","category":"55","category_name":"中学","address":"浦东新区杨高中路2788号(近成山路)"},{"poiid":"B2094757D06FABF44193","title":"长泰国际金融大厦","lon":"121.542","lat":"31.231","category":"46","category_name":"楼宇","address":"上海市浦东新区世纪大道1589号"},{"poiid":"B2094757D06FA1F5459F","title":"中建大厦","lon":"121.54","lat":"31.2295","category":"46","category_name":"楼宇","address":"上海市浦东新区世纪大道1568号"},{"poiid":"B2094757D06FA6F54999","title":"东怡大酒店","lon":"121.54299542","lat":"31.22411864","category":"217","category_name":"旅馆招待所","address":"浦东新区丁香路555号(东方艺术中心旁)"},{"poiid":"B2094757D06FA6FA469D","title":"重庆老火锅","lon":"121.54202","lat":"31.23087","category":"86","category_name":"火锅店","address":"浦东新区羽山路288号(近桃林路)"},{"poiid":"B2094757D068A4F9469E","title":"汉唐酒店","lon":"121.539241","lat":"31.23287","category":"72","category_name":"广东菜","address":"浦东新区桃林路777号(近张杨路)"},{"poiid":"B2094654DA69A3FE489F","title":"浦东新区人民法院","lon":"121.54447","lat":"31.22483","category":"608","category_name":"法院","address":"上海市浦东新区丁香路611号"},{"poiid":"B2094757D06FA5F8489D","title":"源深篮球公园","lon":"121.536632157","lat":"31.2295100303","category":"220","category_name":"运动场所","address":"浦东新区羽山路9号浦东源深体育中心6号门(潍坊路羽山路)"},{"poiid":"B2094757D068A0F44198","title":"上海东方艺术中心-演奏厅(Shanghai Oriental Art Center - Performance Hall)","lon":"121.541374736","lat":"31.2227814309","category":"260","category_name":"其他","address":"上海浦东新区丁香路425号"},{"poiid":"B2094757D068A5F8469D","title":"大马可意大利餐厅(羽山店)","lon":"121.54301","lat":"31.23189","category":"94","category_name":"西餐厅","address":"浦东新区羽山路350号(近桃林路)"},{"poiid":"B2094757D06FA0FB439F","title":"宝钢大厦","lon":"121.538","lat":"31.2278","category":"46","category_name":"楼宇","address":"朝阳区北三环东路与京顺路交接处路口北侧"},{"poiid":"B2094654DA69ABF5489A","title":"陆家嘴钻石大厦","lon":"121.543","lat":"31.2305","category":"46","category_name":"楼宇","address":"中央商务区CBD22号"},{"poiid":"B2094757D06FABFE439A","title":"宏嘉大厦","lon":"121.537","lat":"31.2307","category":"46","category_name":"楼宇","address":"上海浦东新区福山路388号"},{"poiid":"B2094757D068A1FB479A","title":"陆家嘴花园","lon":"121.540586699","lat":"31.2326953785","category":"47","category_name":"住宅区","address":"上海浦东新区桃林路815弄"},{"poiid":"B2094757D165AAF54892","title":"陆家嘴基金大厦","lon":"121.539","lat":"31.2302","category":"46","category_name":"楼宇","address":"上海竹林路101號"},{"poiid":"B2094757D06FABFF4799","title":"老碗 源深店","lon":"121.537022054","lat":"31.229380793","category":"84","category_name":"西北菜","address":"浦东新区羽山路68号(近源深路)"},{"poiid":"B2094654DA6AA2FD4292","title":"东方国际科技大厦","lon":"121.537","lat":"31.2299","category":"46","category_name":"楼宇","address":"浦东新区向城路58号"},{"poiid":"B2094757D06FA6FD449B","title":"盛世年华花园","lon":"121.5390333","lat":"31.229134892","category":"47","category_name":"住宅区","address":"上海市浦东新区羽山路100弄"},{"poiid":"B2094757D06AA3FF4998","title":"东方希望大厦","lon":"121.54448413658","lat":"31.229635061024","category":"46","category_name":"楼宇","address":"世纪大道1777号"},{"poiid":"B2094757D06FA2F9499F","title":"源深体育中心羽毛球场","lon":"121.538296989","lat":"31.2324749785","category":"220","category_name":"运动场所","address":"浦东新区张杨路1458号源深体育中心内(近源深路)"},{"poiid":"B2094757D06FAAF94899","title":"同盛大厦","lon":"121.538","lat":"31.2292","category":"46","category_name":"楼宇","address":"黄浦区南京东路311号"},{"poiid":"B2094757D06FA0FC4893","title":"上海市电力公司","lon":"121.53781276","lat":"31.224534954","category":"46","category_name":"楼宇","address":"上海源深路1122号"},{"poiid":"B2094757D06FABFF429A","title":"山水国际(陆家嘴美丽苑)","lon":"121.542354","lat":"31.233936","category":"500","category_name":"未知分类","address":"上海羽山路383弄"},{"poiid":"B2094654DA6AA3F5479A","title":"钱江大厦","lon":"121.537","lat":"31.2286","category":"46","category_name":"楼宇","address":"浦东新区东方路971号"},{"poiid":"B2094757D069A1F84599","title":"全华信息大厦","lon":"121.538","lat":"31.2304","category":"46","category_name":"楼宇","address":"黄陂区楚天大道与盘龙三路交汇处"},{"poiid":"B2094757D064AAFE4599","title":"易公馆","lon":"121.536671","lat":"31.228654","category":"72","category_name":"广东菜","address":"浦东新区源深路789号2楼(近羽山路)"},{"poiid":"B2094654DB64A6FB449B","title":"莫泰268(上海羽山路店)","lon":"121.53953","lat":"31.23068","category":"250","category_name":"公园户外","address":"上海市浦东新区羽山路166号(近桃林路)"},{"poiid":"B2094751D465A3F4489B","title":"镰仓pasta","lon":"121.538772","lat":"31.229763","category":"247","category_name":"餐饮美食","address":"浦东新区东方路796号96广场9号门2楼212单元(近世纪大道)"},{"poiid":"B2094757D069A0FB4392","title":"民生路杨高中路","lon":"121.54730074","lat":"31.227248106","category":"500","category_name":"未知分类","address":"上海民生路杨高中路"},{"poiid":"B2094757D069A5FC439C","title":"陆家嘴花园二期(峰会)","lon":"121.54248869","lat":"31.230623372","category":"47","category_name":"住宅区","address":"陆家嘴花园二期(峰会)位于浦东桃林路815弄"},{"poiid":"B2094757D069A2FF419B","title":"上海市工商行政管理局浦东新区分局","lon":"121.544212738","lat":"31.2269792308","category":"250","category_name":"公园户外","address":"上海浦东新区杨高中路2900号(近桃林路)"},{"poiid":"B2094757D06FABF5459A","title":"新天国际大厦","lon":"121.538","lat":"31.2301","category":"46","category_name":"楼宇","address":"上海市长宁区遵义南路88号"},{"poiid":"B2094757D06FA5FB4192","title":"感智盲人保健会所(源深路店)","lon":"121.53671","lat":"31.22726","category":"149","category_name":"洗浴推拿场所","address":"浦东新区源深路836弄香榭丽舍花园18号中心会所楼底(近松林路)"},{"poiid":"B2094757D068A1F44199","title":"阿英煲(灵山路店)","lon":"121.53893","lat":"31.22548","category":"260","category_name":"其他","address":"上海浦东新区灵山路28号(近桃林路)  "},{"poiid":"B2094655D26EA2FF4192","title":"法国餐馆巴黎上海","lon":"121.54141","lat":"31.22273","category":"97","category_name":"法式菜品餐厅","address":"浦东新区丁香路425号上海东方艺术中心B1楼(近世纪大道)"},{"poiid":"B2094654DA69A1FB469F","title":"由由燕乔大厦","lon":"121.541","lat":"31.2287","category":"46","category_name":"楼宇","address":"静安区长寿路(万航渡路口)"},{"poiid":"B2094655D26BAAFD4493","title":"阿英煲","lon":"121.54076","lat":"31.22727","category":"257","category_name":"中餐厅","address":""},{"poiid":"B2094757D06BA6FC429B","title":"佳思多食品料理店(羽山路店)","lon":"121.53914","lat":"31.22978","category":"91","category_name":"台湾菜","address":"浦东新区羽山路146号(近源深路)"},{"poiid":"B2094757D16CA5FF489F","title":"豆香园","lon":"121.540669682","lat":"31.2269513783","category":"196","category_name":"公园","address":"浦东新区灵山路412号(桃林路口)"},{"poiid":"B2094654DB64A4FA469D","title":"馨月汇","lon":"121.54143","lat":"31.2271","category":"47","category_name":"住宅区","address":"上海桃林路1160号"},{"poiid":"B2094654DB6BABF5469E","title":"桃林一小区","lon":"121.54308","lat":"31.228199","category":"47","category_name":"住宅区","address":"灵山路600弄1-44号"},{"poiid":"B2094654DA69A3F8449B","title":"快客联华便利No.006423","lon":"121.54213","lat":"31.22802","category":"117","category_name":"便民商店/便利店","address":"灵山路576"},{"poiid":"B2094757D168A4FE489F","title":"福山羽毛球馆","lon":"121.54214","lat":"31.22844","category":"220","category_name":"运动场所","address":"上海浦东新区桃林路1055号福山外国语小学内(近灵山路)  "},{"poiid":"B2094654DB65A0FC4893","title":"光明便利店","lon":"121.54271","lat":"31.2284","category":"117","category_name":"便民商店/便利店","address":"浦东新区峨山路191-193号(近东方路)"},{"poiid":"B2094757D165A7FF4193","title":"品盛养生","lon":"121.541132238","lat":"31.2273275382","category":"148","category_name":"美容美发店","address":"浦东新区灵山路420号(近桃林路)"},{"poiid":"B2094655D264ABFE429A","title":"CareBay","lon":"121.54189","lat":"31.22711","category":"257","category_name":"中餐厅","address":"桃林路1160"},{"poiid":"B2094655D265A4FB4299","title":"远东国际大厦","lon":"121.539","lat":"31.2297","category":"46","category_name":"楼宇","address":"丰台学城海鹰路1号,3号"},{"poiid":"B2094654DA69A3FE4792","title":"上海东方艺术中心(Shanghai Oriental Art Center)","lon":"121.54141","lat":"31.22273","category":"180","category_name":"剧场","address":"上海浦东新区丁香路425号(近世纪大道)"},{"poiid":"B2094757D06FA2FA429A","title":"上海东方艺术中心Shanghai Oriental Art Center","lon":"121.54141842189642","lat":"31.22291030374493","category":"179","category_name":"音乐厅","address":"上海浦东新区丁香路425号"},{"poiid":"B2094757D06FA3FB429D","title":"浦东游泳馆(源深馆)","lon":"121.53847","lat":"31.23198","category":"231","category_name":"游泳馆","address":"浦东新区张杨路1458号源深体育中心内(近源深路)"},{"poiid":"B2094757D06FA4FF479C","title":"进才中学","lon":"121.54602813","lat":"31.22998619","category":"55","category_name":"中学","address":"浦东新区杨高中路2788号(近成山路)"},{"poiid":"B2094757D06FABF44193","title":"长泰国际金融大厦","lon":"121.542","lat":"31.231","category":"46","category_name":"楼宇","address":"上海市浦东新区世纪大道1589号"},{"poiid":"B2094757D06FA1F5459F","title":"中建大厦","lon":"121.54","lat":"31.2295","category":"46","category_name":"楼宇","address":"上海市浦东新区世纪大道1568号"},{"poiid":"B2094757D06FA6F54999","title":"东怡大酒店","lon":"121.54299542","lat":"31.22411864","category":"217","category_name":"旅馆招待所","address":"浦东新区丁香路555号(东方艺术中心旁)"},{"poiid":"B2094757D06FA6FA469D","title":"重庆老火锅","lon":"121.54202","lat":"31.23087","category":"86","category_name":"火锅店","address":"浦东新区羽山路288号(近桃林路)"},{"poiid":"B2094757D068A4F9469E","title":"汉唐酒店","lon":"121.539241","lat":"31.23287","category":"72","category_name":"广东菜","address":"浦东新区桃林路777号(近张杨路)"},{"poiid":"B2094654DA69A3FE489F","title":"浦东新区人民法院","lon":"121.54447","lat":"31.22483","category":"608","category_name":"法院","address":"上海市浦东新区丁香路611号"},{"poiid":"B2094757D06FA5F8489D","title":"源深篮球公园","lon":"121.536632157","lat":"31.2295100303","category":"220","category_name":"运动场所","address":"浦东新区羽山路9号浦东源深体育中心6号门(潍坊路羽山路)"},{"poiid":"B2094757D068A0F44198","title":"上海东方艺术中心-演奏厅(Shanghai Oriental Art Center - Performance Hall)","lon":"121.541374736","lat":"31.2227814309","category":"260","category_name":"其他","address":"上海浦东新区丁香路425号"},{"poiid":"B2094757D068A5F8469D","title":"大马可意大利餐厅(羽山店)","lon":"121.54301","lat":"31.23189","category":"94","category_name":"西餐厅","address":"浦东新区羽山路350号(近桃林路)"},{"poiid":"B2094757D06FA0FB439F","title":"宝钢大厦","lon":"121.538","lat":"31.2278","category":"46","category_name":"楼宇","address":"朝阳区北三环东路与京顺路交接处路口北侧"},{"poiid":"B2094654DA69ABF5489A","title":"陆家嘴钻石大厦","lon":"121.543","lat":"31.2305","category":"46","category_name":"楼宇","address":"中央商务区CBD22号"},{"poiid":"B2094757D06FABFE439A","title":"宏嘉大厦","lon":"121.537","lat":"31.2307","category":"46","category_name":"楼宇","address":"上海浦东新区福山路388号"},{"poiid":"B2094757D068A1FB479A","title":"陆家嘴花园","lon":"121.540586699","lat":"31.2326953785","category":"47","category_name":"住宅区","address":"上海浦东新区桃林路815弄"},{"poiid":"B2094757D165AAF54892","title":"陆家嘴基金大厦","lon":"121.539","lat":"31.2302","category":"46","category_name":"楼宇","address":"上海竹林路101號"},{"poiid":"B2094757D06FABFF4799","title":"老碗 源深店","lon":"121.537022054","lat":"31.229380793","category":"84","category_name":"西北菜","address":"浦东新区羽山路68号(近源深路)"},{"poiid":"B2094654DA6AA2FD4292","title":"东方国际科技大厦","lon":"121.537","lat":"31.2299","category":"46","category_name":"楼宇","address":"浦东新区向城路58号"},{"poiid":"B2094757D06FA6FD449B","title":"盛世年华花园","lon":"121.5390333","lat":"31.229134892","category":"47","category_name":"住宅区","address":"上海市浦东新区羽山路100弄"},{"poiid":"B2094757D06AA3FF4998","title":"东方希望大厦","lon":"121.54448413658","lat":"31.229635061024","category":"46","category_name":"楼宇","address":"世纪大道1777号"},{"poiid":"B2094757D06FA2F9499F","title":"源深体育中心羽毛球场","lon":"121.538296989","lat":"31.2324749785","category":"220","category_name":"运动场所","address":"浦东新区张杨路1458号源深体育中心内(近源深路)"},{"poiid":"B2094757D06FAAF94899","title":"同盛大厦","lon":"121.538","lat":"31.2292","category":"46","category_name":"楼宇","address":"黄浦区南京东路311号"},{"poiid":"B2094757D06FA0FC4893","title":"上海市电力公司","lon":"121.53781276","lat":"31.224534954","category":"46","category_name":"楼宇","address":"上海源深路1122号"},{"poiid":"B2094757D06FABFF429A","title":"山水国际(陆家嘴美丽苑)","lon":"121.542354","lat":"31.233936","category":"500","category_name":"未知分类","address":"上海羽山路383弄"},{"poiid":"B2094654DA6AA3F5479A","title":"钱江大厦","lon":"121.537","lat":"31.2286","category":"46","category_name":"楼宇","address":"浦东新区东方路971号"},{"poiid":"B2094757D069A1F84599","title":"全华信息大厦","lon":"121.538","lat":"31.2304","category":"46","category_name":"楼宇","address":"黄陂区楚天大道与盘龙三路交汇处"},{"poiid":"B2094757D064AAFE4599","title":"易公馆","lon":"121.536671","lat":"31.228654","category":"72","category_name":"广东菜","address":"浦东新区源深路789号2楼(近羽山路)"},{"poiid":"B2094654DB64A6FB449B","title":"莫泰268(上海羽山路店)","lon":"121.53953","lat":"31.23068","category":"250","category_name":"公园户外","address":"上海市浦东新区羽山路166号(近桃林路)"},{"poiid":"B2094751D465A3F4489B","title":"镰仓pasta","lon":"121.538772","lat":"31.229763","category":"247","category_name":"餐饮美食","address":"浦东新区东方路796号96广场9号门2楼212单元(近世纪大道)"},{"poiid":"B2094757D069A0FB4392","title":"民生路杨高中路","lon":"121.54730074","lat":"31.227248106","category":"500","category_name":"未知分类","address":"上海民生路杨高中路"},{"poiid":"B2094757D069A5FC439C","title":"陆家嘴花园二期(峰会)","lon":"121.54248869","lat":"31.230623372","category":"47","category_name":"住宅区","address":"陆家嘴花园二期(峰会)位于浦东桃林路815弄"},{"poiid":"B2094757D069A2FF419B","title":"上海市工商行政管理局浦东新区分局","lon":"121.544212738","lat":"31.2269792308","category":"250","category_name":"公园户外","address":"上海浦东新区杨高中路2900号(近桃林路)"},{"poiid":"B2094757D06FABF5459A","title":"新天国际大厦","lon":"121.538","lat":"31.2301","category":"46","category_name":"楼宇","address":"上海市长宁区遵义南路88号"},{"poiid":"B2094757D06FA5FB4192","title":"感智盲人保健会所(源深路店)","lon":"121.53671","lat":"31.22726","category":"149","category_name":"洗浴推拿场所","address":"浦东新区源深路836弄香榭丽舍花园18号中心会所楼底(近松林路)"},{"poiid":"B2094757D068A1F44199","title":"阿英煲(灵山路店)","lon":"121.53893","lat":"31.22548","category":"260","category_name":"其他","address":"上海浦东新区灵山路28号(近桃林路)  "},{"poiid":"B2094655D26EA2FF4192","title":"法国餐馆巴黎上海","lon":"121.54141","lat":"31.22273","category":"97","category_name":"法式菜品餐厅","address":"浦东新区丁香路425号上海东方艺术中心B1楼(近世纪大道)"},{"poiid":"B2094654DA69A1FB469F","title":"由由燕乔大厦","lon":"121.541","lat":"31.2287","category":"46","category_name":"楼宇","address":"静安区长寿路(万航渡路口)"},{"poiid":"B2094655D26BAAFD4493","title":"阿英煲","lon":"121.54076","lat":"31.22727","category":"257","category_name":"中餐厅","address":""},{"poiid":"B2094757D06BA6FC429B","title":"佳思多食品料理店(羽山路店)","lon":"121.53914","lat":"31.22978","category":"91","category_name":"台湾菜","address":"浦东新区羽山路146号(近源深路)"},{"poiid":"B2094757D16CA5FF489F","title":"豆香园","lon":"121.540669682","lat":"31.2269513783","category":"196","category_name":"公园","address":"浦东新区灵山路412号(桃林路口)"},{"poiid":"B2094654DB64A4FA469D","title":"馨月汇","lon":"121.54143","lat":"31.2271","category":"47","category_name":"住宅区","address":"上海桃林路1160号"},{"poiid":"B2094654DB6BABF5469E","title":"桃林一小区","lon":"121.54308","lat":"31.228199","category":"47","category_name":"住宅区","address":"灵山路600弄1-44号"},{"poiid":"B2094654DA69A3F8449B","title":"快客联华便利No.006423","lon":"121.54213","lat":"31.22802","category":"117","category_name":"便民商店/便利店","address":"灵山路576"},{"poiid":"B2094757D168A4FE489F","title":"福山羽毛球馆","lon":"121.54214","lat":"31.22844","category":"220","category_name":"运动场所","address":"上海浦东新区桃林路1055号福山外国语小学内(近灵山路)  "},{"poiid":"B2094654DB65A0FC4893","title":"光明便利店","lon":"121.54271","lat":"31.2284","category":"117","category_name":"便民商店/便利店","address":"浦东新区峨山路191-193号(近东方路)"},{"poiid":"B2094757D165A7FF4193","title":"品盛养生","lon":"121.541132238","lat":"31.2273275382","category":"148","category_name":"美容美发店","address":"浦东新区灵山路420号(近桃林路)"},{"poiid":"B2094655D264ABFE429A","title":"CareBay","lon":"121.54189","lat":"31.22711","category":"257","category_name":"中餐厅","address":"桃林路1160"},{"poiid":"B2094655D265A4FB4299","title":"远东国际大厦","lon":"121.539","lat":"31.2297","category":"46","category_name":"楼宇","address":"丰台学城海鹰路1号,3号"}]