[{"poiid":"B2094757D06EAAF4499F","title":"柚子(陆家嘴店)","lon":"121.50722621","lat":"31.240286474","category":"95","category_name":"日本料理","address":"浦东新区陆家嘴环路1000号恒生大楼46楼(近银城中路)"},{"poiid":"B2094654DA6FA7FF419A","title":"花旗集团大厦","lon":"121.507","lat":"31.2397","category":"46","category_name":"楼宇","address":"行宫位于沈河北站一路41号"},{"poiid":"B2094757D06EAAFC429A","title":"恒生银行大厦","lon":"121.50714642","lat":"31.240029324","category":"46","category_name":"楼宇","address":"浦东新区金湘路225弄"},{"poiid":"B209475CD564A7F84392","title":"上海滩浦东香格里拉店","lon":"121.50058","lat":"31.23634","category":"119","category_name":"商场","address":"浦东富成路33号香格里拉酒店内大堂层"},{"poiid":"B2094654DA69A7F4429F","title":"陆家嘴中心绿地","lon":"121.50614","lat":"31.23796","category":"202","category_name":"公园广场","address":"浦东新区陆家嘴东路160号(金茂大厦对面)"},{"poiid":"B2094757D06FA1F9449F","title":"王朝大酒店(浦东店)","lon":"121.50810175","lat":"31.2391448509","category":"76","category_name":"上海菜","address":"浦东新区陆家嘴环路958号华能大厦3楼(近银城中路)"},{"poiid":"B2094654DA6FA7FE449F","title":"未来资产大厦","lon":"121.50676432182","lat":"31.240975297556","category":"46","category_name":"楼宇","address":"卫清西路139_149号等"},{"poiid":"B2094655D268A3FB439E","title":"东亚银行金融大厦","lon":"121.509","lat":"31.2399","category":"46","category_name":"楼宇","address":"陆家嘴花园石桥路66号"},{"poiid":"B2094757D06EAAF9469F","title":"星展银行大厦","lon":"121.504057228","lat":"31.2418020945","category":"46","category_name":"楼宇","address":"浦东新区陆家嘴环路1318号B109"},{"poiid":"B2094654DA6FA7FD439C","title":"汇亚大厦","lon":"121.50415","lat":"31.24097","category":"46","category_name":"楼宇","address":"重庆北部新区金渝大道89号(北部新区管委会对面)"},{"poiid":"B2094757D06FA2FC4593","title":"hoF(陆家嘴店)","lon":"121.503866724","lat":"31.2410764887","category":"260","category_name":"其他","address":"浦东新区陆家嘴环路1318号星展银行大厦下沉式广场8号商铺(近东园路)"},{"poiid":"B2094757D06FABFD4792","title":"中融碧玉蓝天大厦","lon":"121.507242203","lat":"31.2415278323","category":"46","category_name":"楼宇","address":"上海市浦东新区银城中路8号"},{"poiid":"B2094757D068A2FC4593","title":"民生银行大厦(陆家嘴)","lon":"121.50841305","lat":"31.240807181","category":"46","category_name":"楼宇","address":"上海浦东新区浦东南路100号(浦东南路银城中路)"},{"poiid":"B2094655D268A4F9409E","title":"太平金融大厦","lon":"121.51","lat":"31.2396","category":"46","category_name":"楼宇","address":"上海市浦东新区陆家嘴环路、花园石桥路"},{"poiid":"B2094757D06FA4FA499A","title":"晶采轩(浦东店)","lon":"121.50676","lat":"31.24102","category":"72","category_name":"广东菜","address":"浦东新区银城中路68号时代金融中心2-3楼(金洲街银城中路)"},{"poiid":"B2094757D06FA2F4419E","title":"新上海国际大厦","lon":"121.50929927","lat":"31.238815674","category":"46","category_name":"楼宇","address":"浦东南路360号，中国人民银行北侧"},{"poiid":"B2094753D66DA6FD409B","title":"上海凯宾斯基大酒店","lon":"121.504465341568","lat":"31.2420219309263","category":"213","category_name":"五星级宾馆","address":"陆家嘴环路1288号"},{"poiid":"B2094757D06FA4FB4098","title":"中国民生银行上海总部","lon":"121.508242","lat":"31.240765","category":"260","category_name":"其他","address":"上海浦东新浦东南路100号"},{"poiid":"B2094757D06FA2FF4092","title":"建设银行(陆家嘴分行)","lon":"121.50870513","lat":"31.238155365","category":"150","category_name":"银行","address":"上海浦东新区陆家嘴环路900号"},{"poiid":"B2094757D06FA7F9449C","title":"瑞慈健康管理中心(华夏银行店)","lon":"121.50933","lat":"31.2392","category":"162","category_name":"医院","address":"浦东新区浦东南路256号华夏银行大厦3楼(近浦东大道)"},{"poiid":"B2094757D06FA7F54993","title":"老山东鲁菜馆","lon":"121.510469","lat":"31.239297","category":"73","category_name":"山东菜","address":"浦东新区浦东南路379号金穗大厦6楼(近浦东大道)"},{"poiid":"B2094757D06FA2FC419C","title":"星巴克(森茂店)","lon":"121.507817","lat":"31.240365","category":"260","category_name":"其他","address":"浦东新区陆家嘴环路1000号恒生大厦1楼(金洲街银城中路)"},{"poiid":"B2094757D06FA2FF419F","title":"星巴克(时代金融店)","lon":"121.506498","lat":"31.241296","category":"65","category_name":"咖啡厅","address":"浦东新区银城中路68号时代金融中心2楼(近汇丰大厦)"},{"poiid":"B2094757D068A4FE4098","title":"顺峰(浦东银城店)","lon":"121.50784301","lat":"31.24158287","category":"72","category_name":"广东菜","address":"浦东新区银城中路8号碧玉蓝天3-4楼(金洲街银城中路)"},{"poiid":"B2094757D06FA7FA459A","title":"宝寿司(陆家嘴店)","lon":"121.503959724","lat":"31.2409894884","category":"95","category_name":"日本料理","address":"浦东新区陆家嘴环路1318号星展银行大厦B1楼5号铺(近东园路)"},{"poiid":"B2094655D26DA1F8439E","title":"世界金融大厦","lon":"121.50865","lat":"31.23839","category":"46","category_name":"楼宇","address":"上海陆家嘴环路900号"},{"poiid":"B2094757D168A5F9409F","title":"Sunflour 星展银行店","lon":"121.50335","lat":"31.241352","category":"94","category_name":"西餐厅","address":"浦东新区陆家嘴环路1318号星展银行大厦美食广场(近东方明珠)"},{"poiid":"B2094750D665A1FB499C","title":"天厨日式料理","lon":"121.507","lat":"31.2402","category":"95","category_name":"日本料理","address":"浦东新区陆家嘴环路1000号恒生银行大厦2楼(近银城中路)"},{"poiid":"B2094757D06FA3FA489F","title":"外汇管理局","lon":"121.509963989","lat":"31.2383117676","category":"500","category_name":"未知分类","address":"上海陆家嘴东路181号"},{"poiid":"B2094757D06AA0FB409B","title":"名豪酒窖","lon":"121.50896","lat":"31.23754","category":"72","category_name":"广东菜","address":"浦东新区陆家嘴东路161号招商局大厦4楼(近陆家嘴环路)"},{"poiid":"B2094757D06FA6F5479E","title":"民生银行上海分行","lon":"121.50772374","lat":"31.240858936","category":"150","category_name":"银行","address":"上海浦东南路100号"},{"poiid":"B2094757D16DA6FD499B","title":"上海农商银行总行","lon":"121.50773373","lat":"31.241263535","category":"150","category_name":"银行","address":"上海中融碧玉蓝天大厦(银城中路8号)"},{"poiid":"B2094655D26AA2FF419C","title":"汇丰银行食堂","lon":"121.50737","lat":"31.24024","category":"76","category_name":"上海菜","address":"浦东新区陆家嘴环路1000号汇丰大厦B1楼(近陆家嘴)"},{"poiid":"B2094757D069A7FE499D","title":"伊藤家(汇亚店)","lon":"121.504283","lat":"31.241407","category":"95","category_name":"日本料理","address":"浦东新区陆家嘴环路1233号汇亚大厦M楼(近海族馆)"},{"poiid":"B2094654DB6AA2FC4898","title":"沃歌斯 汇亚店 Wagas","lon":"121.504424054","lat":"31.241192793","category":"94","category_name":"西餐厅","address":"浦东新区陆家嘴环路1233号汇亚大厦1楼(近海族馆)"},{"poiid":"B2094752D26EA3F94493","title":"点沁陆家嘴店","lon":"121.50729","lat":"31.24015","category":"68","category_name":"快餐厅","address":"浦东新区陆家嘴环路1000号2楼"},{"poiid":"B2094757D068A3FF4899","title":"华夏银行上海分行","lon":"121.508972168","lat":"31.2394714355","category":"125","category_name":"书店","address":"上海浦东南路256号 （近东城路）"},{"poiid":"B2094757D16CA2FD4493","title":"洋食寅八轩","lon":"121.50768","lat":"31.23495","category":"68","category_name":"快餐厅","address":"浦东新区世纪大道100号环球金融中心B1楼B106-2(近东泰路)"},{"poiid":"B2094757D068ABFA409A","title":"五芳面馆 森茂店","lon":"121.50692728121","lat":"31.240418848214","category":"68","category_name":"快餐厅","address":"浦东新区陆家嘴环路1000号恒生大厦2楼(东城路陆家嘴环路)"},{"poiid":"B2094757D16DA3FC479C","title":"方方面面","lon":"121.506746838","lat":"31.2391964912","category":"68","category_name":"快餐厅","address":"浦东新区银城东路15号陆家嘴中心绿地内"},{"poiid":"B2094757D76DA1FE459D","title":"果之满满（ 时代金融店）","lon":"121.50655","lat":"31.24118","category":"113","category_name":"冷饮店","address":"浦东新区银城中路68号时代金融中心1楼106单元(近花园石桥路)"},{"poiid":"B2094655D268A4F4429F","title":"陆家嘴中心绿地(北门)","lon":"121.50523","lat":"31.23914","category":"202","category_name":"公园广场","address":""},{"poiid":"B2094753DB68A4F84292","title":"上海浦东文华东方大酒店","lon":"121.507225","lat":"31.243402","category":"500","category_name":"未知分类","address":"上海市 浦东南路111号"},{"poiid":"B2094654DB6BAAFA4698","title":"上海森茂诊疗所","lon":"121.50738","lat":"31.24024","category":"162","category_name":"医院","address":"浦东新区银城东路101号3楼(金洲街银城中路)"},{"poiid":"B2094654DB6BAAFA4499","title":"罗森","lon":"121.50738","lat":"31.24024","category":"117","category_name":"便民商店/便利店","address":"陆家嘴环路1000号汇丰大厦"},{"poiid":"B2094757D068A5FA4492","title":"苏浙总会","lon":"121.50131","lat":"31.23663","category":"74","category_name":"江苏菜","address":"浦东新区世纪大道8号国金中心4楼(近银城中路)"},{"poiid":"B2094757D06FA4FD459E","title":"招商银行上海分行营业部","lon":"121.50905712","lat":"31.237428479","category":"46","category_name":"楼宇","address":"浦东新区陆家嘴东路161号(近陆家嘴环路)"},{"poiid":"B2094655D26DA7F4489D","title":"陆家嘴中心绿地(东门)","lon":"121.50744","lat":"31.23808","category":"202","category_name":"公园广场","address":""},{"poiid":"B2094752D269A4FF419D","title":"上海老友记主题店central perk","lon":"121.506612","lat":"31.239856","category":"247","category_name":"餐饮美食","address":"哈尔滨路1913老洋行"},{"poiid":"B2094757D16CAAF8449E","title":"C多多(陆家嘴店)","lon":"121.50724","lat":"31.24006","category":"500","category_name":"未知分类","address":"浦东新区花园石桥路33号花旗银行集团大楼1楼(近富城路)"},{"poiid":"B2094757D16EA0FC449F","title":"五芳面馆(恒生大厦店)","lon":"121.508184738","lat":"31.2404355176","category":"247","category_name":"餐饮美食","address":"上海市浦东陆家嘴环路1000号恒生银行大厦二楼"},{"poiid":"B2094753DA68AAFD4292","title":"上海，外滩","lon":"121.506752","lat":"31.23994","category":"500","category_name":"未知分类","address":"上海市 上海市"},{"poiid":"B2094757D06AA7FA459D","title":"三菱东京日联银行","lon":"121.504083","lat":"31.240775","category":"46","category_name":"楼宇","address":"上海汇亚大厦21楼"},{"poiid":"B2094655D26FA7FF449A","title":"汇丰银行(中国)上海分行","lon":"121.50738","lat":"31.24024","category":"150","category_name":"银行","address":"陆家嘴环路1000号汇丰大厦1、3、23、20、22、35-36、44"},{"poiid":"B2094753D46BA2F4479E","title":"mos buger摩斯汉堡","lon":"121.508033","lat":"31.240217","category":"247","category_name":"餐饮美食","address":"上海市 陆家嘴环路1000号2楼"},{"poiid":"B2094655D26AA6FF449A","title":"VC1000水果吧","lon":"121.506995054","lat":"31.240630793","category":"113","category_name":"冷饮店","address":"浦东新区银城中路68号时代金融中心1楼106室(近陆家嘴环路)"},{"poiid":"B2094753D26FA4F8429E","title":"文華廚房","lon":"121.507316","lat":"31.243278","category":"249","category_name":"购物服务","address":"上海市 浦東南路111號"},{"poiid":"B2094654DB6BAAFA4692","title":"新韩银行上海分行","lon":"121.50737","lat":"31.24024","category":"150","category_name":"银行","address":"陆家嘴环路1000号汇丰大厦"},{"poiid":"B2094757D66DAAF8429B","title":"瑞慈健康连锁 陆家嘴机构","lon":"121.508789","lat":"31.239701","category":"500","category_name":"未知分类","address":"上海陆家嘴金融区浦东南路256号华夏银行大厦3楼"},{"poiid":"B2094654DB6BAAFA4393","title":"瑞穗实业银行(中国)有限公司","lon":"121.50738","lat":"31.24024","category":"150","category_name":"银行","address":"陆家嘴环路1000号汇丰大厦"},{"poiid":"B2094654DB6BAAFA449B","title":"日本三井住友银行股份有限公司上海分行","lon":"121.50738","lat":"31.24024","category":"150","category_name":"银行","address":"陆家嘴环路1000号汇丰大厦29-30"},{"poiid":"B2094654DB6BAAFA4198","title":"松下电器(中国)有限公司上海分公司(汇丰大厦)","lon":"121.50737","lat":"31.24024","category":"263","category_name":"公司","address":"陆家嘴环路1000号汇丰大厦4-6、9"},{"poiid":"B2094757D065A0FE4492","title":"乔治咖喱屋","lon":"121.504274738","lat":"31.2413885379","category":"68","category_name":"快餐厅","address":"浦东新区陆家嘴环路1318号星展银行大厦B1楼3铺(汇亚大厦对面)"},{"poiid":"B2094655D26BA1F4409D","title":"陆家嘴环路东城路","lon":"121.50743","lat":"31.23896","category":"38","category_name":"公交车站","address":""},{"poiid":"B2094757D164A4F9469D","title":"罗森便利(恒生大厦店)","lon":"121.507361","lat":"31.240277","category":"249","category_name":"购物服务","address":"上海浦东新区陆家嘴环路1000号2楼"},{"poiid":"B2094654DB6BAAFA4292","title":"荷兰合作银行有限公司上海分行(汇丰大厦)","lon":"121.50737","lat":"31.24024","category":"150","category_name":"银行","address":"陆家嘴环路1000号汇丰大厦19"},{"poiid":"B2094750D26BA2F4409A","title":"环球金融大厦","lon":"121.508422","lat":"31.238952","category":"252","category_name":"楼宇机构","address":"陆家嘴"},{"poiid":"B2094757D069A5FD429A","title":"华夏银行大厦食堂","lon":"121.50908","lat":"31.23911","category":"68","category_name":"快餐厅","address":"浦东新区浦东南路256号华夏银行大厦B1楼(近陆家嘴环路)"},{"poiid":"B2094757D164A2FF4799","title":"益海嘉里","lon":"121.507573738","lat":"31.2399355069","category":"500","category_name":"未知分类","address":"上海华能8楼"},{"poiid":"B209475CD069A3FA419D","title":"皇璽","lon":"121.50641","lat":"31.24304","category":"47","category_name":"住宅区","address":"浦东南路27号(近银城路)"},{"poiid":"B2094654DA69A1F5489F","title":"黄金大厦","lon":"121.50547","lat":"31.24047","category":"46","category_name":"楼宇","address":"银城中路150临"},{"poiid":"B2094654DA69A7F4499F","title":"日立高新(上海)国际贸易有限公司(陆家嘴环路)","lon":"121.50738","lat":"31.24024","category":"263","category_name":"公司","address":"陆家嘴环路1000号汇丰大厦21"},{"poiid":"B2094654DA69A7F5419B","title":"科尔尼(上海)企业咨询有限公司(陆家嘴环路)","lon":"121.50738","lat":"31.24024","category":"263","category_name":"公司","address":"陆家嘴环路1000号汇丰大厦42"},{"poiid":"B2094753D56CA0F54798","title":"皇玺酒家","lon":"121.50669","lat":"31.243375","category":"247","category_name":"餐饮美食","address":"上海市 浦东南路27号"},{"poiid":"B2094654DB64A5FA4199","title":"上海启明金融管理专修学院","lon":"121.50878","lat":"31.23973","category":"52","category_name":"高等院校","address":"浦东新区浦东南路256号2305"},{"poiid":"B2094757D465A5FF499B","title":"香啡缤 汇亚大厦店 Coffee Bean&Tea Leaf","lon":"121.504424054","lat":"31.241192793","category":"247","category_name":"餐饮美食","address":"陆家嘴环路1233号汇亚大厦1楼近东园路"},{"poiid":"B2094655D269ABFC489A","title":"快验保门诊部","lon":"121.50879","lat":"31.23972","category":"162","category_name":"医院","address":"浦东新区浦东南路256号华夏银行大厦1楼102座(近浦东大道)"},{"poiid":"B2094655D26BA2F5439D","title":"浦东南路银城中路","lon":"121.50916","lat":"31.24052","category":"38","category_name":"公交车站","address":""},{"poiid":"B2094757DB69A4FB4998","title":"獐子岛美食养生馆","lon":"121.507342","lat":"31.241627","category":"260","category_name":"其他","address":"浦东新区银城中路8号中融碧玉蓝天裙楼3-4楼(近浦东南路)"},{"poiid":"B2094757D16BAAF5489B","title":"渤海银行上海分行","lon":"121.506723738","lat":"31.24101853","category":"150","category_name":"银行","address":"浦东新区银城中路68号时代金融中心1楼"},{"poiid":"B2094757D06BA0F84699","title":"吴昌硕纪念馆","lon":"121.507438","lat":"31.238921","category":"260","category_name":"其他","address":"上海陆家嘴东路15号"},{"poiid":"B2094757D169A3F4439A","title":"獐子岛养生会馆","lon":"121.508397438","lat":"31.2410419305","category":"148","category_name":"美容美发店","address":"上海银城中路8号中融碧玉蓝天裙楼3楼"},{"poiid":"B2094753D66AABFA4092","title":"上海浦东汤臣一品","lon":"121.508598","lat":"31.240236","category":"500","category_name":"未知分类","address":"上海市 陆家嘴"},{"poiid":"B2094751DA68A2FC419A","title":"Gloria jean\\'s coffees時代金融店","lon":"121.506545","lat":"31.240754","category":"260","category_name":"其他","address":"浦东新区银城中路68号时代金融中心1楼(近陆家嘴环路)"},{"poiid":"B2094757D16AAAFC449E","title":"DBS Building 5F Pearl River Rm","lon":"121.507134","lat":"31.24159","category":"500","category_name":"未知分类","address":"上海陆家嘴环路1318号"},{"poiid":"B2094654DB6AA3FF4593","title":"东京海上保险上海分公司","lon":"121.50737","lat":"31.24024","category":"219","category_name":"其他","address":"浦东新区陆家嘴环路1000号汇丰大厦38楼"},{"poiid":"B2094757D164A7FC4299","title":"诚马汽车","lon":"121.507183738","lat":"31.2391004891","category":"163","category_name":"4S店","address":"上海政本路123号"},{"poiid":"B2094757D06BA6F9409F","title":"全家FamilyMart(中融碧玉蓝天大厦)","lon":"121.50655365","lat":"31.2411804199","category":"500","category_name":"未知分类","address":"上海浦东新区银城中路8号中融碧玉蓝天大厦底商"},{"poiid":"B2094757D66CA0F8489D","title":"799路东方医院站","lon":"121.508990238","lat":"31.2391169895","category":"38","category_name":"公交车站","address":"上海东方医院浦东大道口"},{"poiid":"B2094757D069A4FA469C","title":"Airmarine China","lon":"121.50777","lat":"31.239183","category":"500","category_name":"未知分类","address":"上海陆家嘴环路958号华能联合大厦13楼"},{"poiid":"B2094654DB69A6FC4492","title":"浦东公园","lon":"121.50651","lat":"31.23806","category":"196","category_name":"公园","address":"浦东新区陆家嘴路480号"},{"poiid":"B209475CD06EA3FF499E","title":"文华厨房","lon":"121.50745","lat":"31.24278","category":"268","category_name":"自助","address":"浦东南路111号文华东方酒店内(近泰公线渡口)"},{"poiid":"B2094757D169A5F9409C","title":"公交85","lon":"121.505909738","lat":"31.2412695354","category":"500","category_name":"未知分类","address":"上海陆家嘴----长岛路"},{"poiid":"B2094757D069A3FE449D","title":"全家便利(华能大厦店)","lon":"121.50865","lat":"31.23884","category":"117","category_name":"便民商店/便利店","address":"上海浦东新区陆家嘴环路958号底商南侧(东城路金洲街)"},{"poiid":"B2094654DB69A6FE489B","title":"银都大厦","lon":"121.50748","lat":"31.23738","category":"46","category_name":"楼宇","address":"浦东区陆家嘴西路153号"},{"poiid":"B2094655D26BA0FB479B","title":"建设银行职工餐厅","lon":"121.50866","lat":"31.2384","category":"257","category_name":"中餐厅","address":"浦东新区陆家嘴环路900号B1楼(近东城路)"},{"poiid":"B2094757D16BA0F54998","title":"华都大厦八楼","lon":"121.50835773","lat":"31.239882505","category":"252","category_name":"楼宇机构","address":"上海市浦东新区"},{"poiid":"B2094757D66CA2FE459B","title":"永诚保险","lon":"121.5080265","lat":"31.238982653","category":"500","category_name":"未知分类","address":"浦东新区浦东大道900号8-9楼(近源深路)"},{"poiid":"B2094757D16CA6FC489F","title":"交通银行(交银大厦支行)","lon":"121.50447","lat":"31.23882","category":"150","category_name":"银行","address":"浦东新区银城中路188号(东园路银城中路)"},{"poiid":"B2094655D26FABFF429E","title":"招商银行上海大厦","lon":"121.50601","lat":"31.24282","category":"46","category_name":"楼宇","address":"浦东南路26临"},{"poiid":"B2094654DA69A7F4439E","title":"上海海尔工贸有限公司(陆家嘴环路)","lon":"121.50804","lat":"31.23915","category":"263","category_name":"公司","address":"陆家嘴环路958号华能联合大厦29层"},{"poiid":"B2094757D465A7FD409F","title":"欧米亚","lon":"121.5078963","lat":"31.2378526","category":"65","category_name":"咖啡厅","address":"陆家嘴环路环形天桥上2F-8近东方明珠近浦东大道"},{"poiid":"B2094757D16AABFE449B","title":"Lavazza","lon":"121.50766073","lat":"31.241315536","category":"260","category_name":"其他","address":"浦东新区银城中路8号中融碧玉蓝天大厦1楼105铺"},{"poiid":"B2094757D16DAAFC4593","title":"公交钦东专线","lon":"121.50802133","lat":"31.238956486","category":"500","category_name":"未知分类","address":"上海泰东路渡口-钦公塘大码头"},{"poiid":"B2094753D46AA5FE459F","title":"浦东新区陆家嘴滨江大道","lon":"121.508735","lat":"31.241422","category":"500","category_name":"未知分类","address":"上海市 浦东陆家嘴"},{"poiid":"B2094655D26DA1F8429E","title":"中融·碧玉蓝天(西门)","lon":"121.50705","lat":"31.2417","category":"48","category_name":"楼宇大门","address":"银城中路8号"},{"poiid":"B2094751D56DA3F8459B","title":"Red Passion","lon":"121.50439","lat":"31.24204","category":"247","category_name":"餐饮美食","address":"浦东新区浦东新区陆家嘴环路1288号新天哈瓦那大酒店30楼(近东方明珠)"},{"poiid":"B2094655D26DA7FB409E","title":"华一银行(华夏银行大厦)","lon":"121.50878","lat":"31.23973","category":"150","category_name":"银行","address":"浦东南路256号华夏银行大厦202"},{"poiid":"B2094752D76FA1FE439E","title":"卢湾区泰康路","lon":"121.505527","lat":"31.242306","category":"116","category_name":"特色商业街","address":"上海市 田子坊248弄23号-9"},{"poiid":"B2094654DA6FA7FD419A","title":"中国太平洋保险(集团)股份有限公司","lon":"121.50402","lat":"31.23916","category":"219","category_name":"其他","address":"银城中路188交银金融大厦"},{"poiid":"B209475CD764A1FE4098","title":"58 扒房  58°Grill","lon":"121.507403","lat":"31.2428164","category":"104","category_name":"牛扒店","address":"浦东南路111号浦东文华东方酒店"},{"poiid":"B2094654DA69A7F4469D","title":"协力律师事务所(陆家嘴环路)","lon":"121.50804","lat":"31.23915","category":"633","category_name":"商务服务类公司","address":"陆家嘴环路958号华能联合大厦31层"},{"poiid":"B2094757D16EA2F9409A","title":"老上海8","lon":"121.50620269","lat":"31.237758636","category":"260","category_name":"其他","address":"上海浦东世纪大道1号东方明珠8号门"},{"poiid":"B2094655D26FABFF4299","title":"上海农商银行(时代金融中心东北)","lon":"121.50738","lat":"31.24162","category":"150","category_name":"银行","address":""},{"poiid":"B2094654DA69A1F54999","title":"美国车桥亚洲总部及研发中心","lon":"121.50655","lat":"31.24117","category":"191","category_name":"科研机构","address":"银城中路68号时代金融中心1805-08"},{"poiid":"B209475CD365A5F9479F","title":"雍颐庭","lon":"121.50745","lat":"31.24278","category":"76","category_name":"上海菜","address":"浦东南路111号文华东方酒店内(近泰公线渡口)"},{"poiid":"B2094752D56BA6F8499C","title":"陆家嘴","lon":"121.507419","lat":"31.24186","category":"263","category_name":"公司","address":"上海市浦东新区"},{"poiid":"B2094757D568A5FE4899","title":"鹭鹭商务套餐食堂","lon":"121.5089719","lat":"31.23754611","category":"68","category_name":"快餐厅","address":"浦东新区陆家嘴东路161号招商局大厦4楼(近陆家嘴环路)"},{"poiid":"B2094654DB6BAAFA489C","title":"上海北田共国际贸易有限公司(华夏银行大厦)","lon":"121.50878","lat":"31.23972","category":"263","category_name":"公司","address":"浦东南路256号华夏银行大厦1603"},{"poiid":"B2094654DA69A7F54292","title":"上海华厦商务咨询有限公司(浦东南路)","lon":"121.50878","lat":"31.23972","category":"263","category_name":"公司","address":"浦东南路256号华夏银行大厦204"},{"poiid":"B2094757D06AA1F5469C","title":"中国农业银行浦东分行","lon":"121.510352","lat":"31.239387","category":"500","category_name":"未知分类","address":"上海浦东南路377号"},{"poiid":"B2094654DA69A7F44799","title":"湘财证券(陆家嘴环路)","lon":"121.50804","lat":"31.23915","category":"219","category_name":"其他","address":"陆家嘴环路958号华能联合大厦1、5、13层"},{"poiid":"B2094757D168A5FD439E","title":"双辉停车场","lon":"121.50837438","lat":"31.241456826","category":"500","category_name":"未知分类","address":"上海浦东南路东城路(华夏银行对面)"},{"poiid":"B2094655D36CA6FA449D","title":"东园路银城中路","lon":"121.50375","lat":"31.23998","category":"38","category_name":"公交车站","address":""},{"poiid":"B2094654DA69A7F44798","title":"通联期货万向资源(陆家嘴环路)","lon":"121.50804","lat":"31.23915","category":"219","category_name":"其他","address":"陆家嘴环路958号华能联合大厦7层"},{"poiid":"B2094654DA69A7F5439B","title":"华夏银行大厦联通客户服务中心(浦东南路)","lon":"121.50879","lat":"31.23972","category":"248","category_name":"生活娱乐","address":"浦东南路256号华夏银行大厦206"},{"poiid":"B2094750D36BA7F84898","title":"上海一圈","lon":"121.50616503135","lat":"31.237966042997","category":"617","category_name":"政府机构","address":"浦东新区陆家嘴中心绿地公园"},{"poiid":"B2094654DB64A7F8499F","title":"申银万国证券","lon":"121.50796","lat":"31.23892","category":"219","category_name":"其他","address":""},{"poiid":"B2094757D069A2FD4492","title":"全家便利(星展大厦店)","lon":"121.504068","lat":"31.240765","category":"117","category_name":"便民商店/便利店","address":"上海浦东新区陆家嘴环路1318号星展银行大厦1楼"},{"poiid":"B209475CD06EA1F84893","title":"皇玺酒家","lon":"121.50641","lat":"31.24304","category":"88","category_name":"海鲜酒楼","address":"浦东南路27号近银城中路"},{"poiid":"B2094655D36CA6F44398","title":"东城路浦东南路","lon":"121.51019","lat":"31.23988","category":"38","category_name":"公交车站","address":""},{"poiid":"B2094753D76BA4F84199","title":"金茂仁清日本料理","lon":"121.508018","lat":"31.237308","category":"500","category_name":"未知分类","address":"上海市 世纪大道88号金茂大厦裙楼3楼"},{"poiid":"B2094655D26DA1F54099","title":"日本东京三菱日联银行","lon":"121.50469","lat":"31.2398","category":"150","category_name":"银行","address":"银城中路168号上海银行大厦20层"},{"poiid":"B2094757D16AABF44593","title":"罗森(上海银行大厦店)","lon":"121.504209","lat":"31.239541","category":"117","category_name":"便民商店/便利店","address":"浦东新区银城中路168号上海银行大厦B1楼(近东园路)"},{"poiid":"B2094757D66DA4F84393","title":"雅弗源养生中心","lon":"121.509517308","lat":"31.2405585802","category":"500","category_name":"未知分类","address":"上海商城路2120号"},{"poiid":"B2094655D26BA2FA4699","title":"泰东路","lon":"121.50704","lat":"31.24285","category":"38","category_name":"公交车站","address":""},{"poiid":"B2094757D169A2F5459F","title":"club monaco(IFC店)","lon":"121.506047738","lat":"31.2380749673","category":"500","category_name":"未知分类","address":"上海浦东陆家嘴世纪大道8号国金中心地下一层8号铺"},{"poiid":"B2094655D26AA0FB449B","title":"卡塔尔航空","lon":"121.50879","lat":"31.23972","category":"219","category_name":"其他","address":"浦东新区浦东南路256号华夏银行大厦2202室(东城路浦东南路)"},{"poiid":"B2094757D16CABFA439C","title":"瑞苑公寓","lon":"121.51055173","lat":"31.240868526","category":"252","category_name":"楼宇机构","address":"浦东新区浦东大道3号(近即墨路)"},{"poiid":"B2094654DB6BAAF9489A","title":"罗森便利店","lon":"121.50897","lat":"31.23754","category":"117","category_name":"便民商店/便利店","address":"陆家嘴东路161号上海招商局大厦B1层"},{"poiid":"B2094654DA6FA7FD439F","title":"新加坡星展银行上海分行","lon":"121.50415","lat":"31.24097","category":"150","category_name":"银行","address":"陆家嘴环路1233号汇亚大厦103、2906、28F-29F"},{"poiid":"B2094654DB6BA4F5499A","title":"日本三菱东京日联银行股份有限公司上海分行","lon":"121.50415","lat":"31.24097","category":"150","category_name":"银行","address":"陆家嘴环路1233号汇亚大厦2303"},{"poiid":"B2094757D16AA3FE459D","title":"Albero","lon":"121.504721998","lat":"31.2418465477","category":"500","category_name":"未知分类","address":"上海新天哈瓦酒店2樓"},{"poiid":"B2094655D26BA4FA4299","title":"陆家嘴开发陈列馆","lon":"121.50691","lat":"31.2368","category":"182","category_name":"博物馆","address":"陆家嘴东路15号"},{"poiid":"B2094757D16CAAFB439D","title":"美国银行","lon":"121.50415039","lat":"31.240966796","category":"150","category_name":"银行","address":"浦东新区陆家嘴环路1233号汇亚大厦17楼"},{"poiid":"B2094752D36BABFB4299","title":"国泰君安食堂","lon":"121.50421","lat":"31.23954","category":"76","category_name":"上海菜","address":"浦东新区银城中路168号上海银行大厦B1楼(近东园路)"},{"poiid":"B2094655D26EA1F5449B","title":"新上海国际大厦有限公司(新上海国际大厦)","lon":"121.50932","lat":"31.2388","category":"263","category_name":"公司","address":"浦东南路360号新上海国际大厦7A"},{"poiid":"B2094757D16AA6F44399","title":"交通银行","lon":"121.504264","lat":"31.239142","category":"150","category_name":"银行","address":"上海钦江路333号42号楼"},{"poiid":"B2094753D065AAFF459D","title":"中国建设银行(浦东分行营业室)","lon":"121.50912","lat":"31.23805","category":"150","category_name":"银行","address":"浦东新区陆家嘴环路900号(金洲街银洲街)"},{"poiid":"B2094654DB6BAAFB4392","title":"DST INTERNATIONAL(新上海国际大厦)","lon":"121.50933","lat":"31.23881","category":"263","category_name":"公司","address":"浦东南路360号新上海国际大厦20G"},{"poiid":"B2094757D06BA2F4499D","title":"农屋里香","lon":"121.50927843","lat":"31.237358552","category":"247","category_name":"餐饮美食","address":"上海闵行区平吉路8号"},{"poiid":"B2094654DA69A7F54793","title":"保利协鑫能源控股有限公司(浦东南路)","lon":"121.50933","lat":"31.23881","category":"263","category_name":"公司","address":"浦东南路360号新上海国际大厦9层"},{"poiid":"B2094654DA69A7F5469E","title":"派格聚合物贸易(上海)有限公司(浦东南路)","lon":"121.50933","lat":"31.23881","category":"263","category_name":"公司","address":"浦东南路360号新上海国际大厦32层"},{"poiid":"B2094655D26DA7F4429B","title":"华能联合大厦(东二门)","lon":"121.50852","lat":"31.23923","category":"656","category_name":"大门","address":""},{"poiid":"B2094654DA69A7F54693","title":"欧士机(上海)精密工具有限公司(浦东南路)","lon":"121.50933","lat":"31.2388","category":"263","category_name":"公司","address":"浦东南路360号新上海国际大厦17D"},{"poiid":"B209475CD66EA7FC4599","title":"文华东方大酒店","lon":"121.507225","lat":"31.243377","category":"500","category_name":"未知分类","address":"上海市 浦东南路111号"},{"poiid":"B2094751D06CA1FA479F","title":"汤姆熊","lon":"121.50639427","lat":"31.23721478999999","category":"500","category_name":"未知分类","address":null},{"poiid":"B2094654DA69A7F54898","title":"上海华日商品检定有限公司(浦东南路)","lon":"121.50933","lat":"31.2388","category":"263","category_name":"公司","address":"浦东南路360号新上海国际大厦21D"},{"poiid":"B2094753D669A3FB4398","title":"文華東方酒店","lon":"121.507972","lat":"31.243326","category":"500","category_name":"未知分类","address":"上海市 浦东南路111号上海浦东文华东方酒店"},{"poiid":"B2094655D26CABFD469E","title":"星展银行(中国)上海分行","lon":"121.50415","lat":"31.24096","category":"150","category_name":"银行","address":"陆家嘴环路1233号汇亚大厦2803、2805-2808、2903-2905、2907-2908"},{"poiid":"B2094654DA6FA7FD439E","title":"路透社上海记者站","lon":"121.50415","lat":"31.24097","category":"252","category_name":"楼宇机构","address":"陆家嘴环路1233号汇亚大厦3004"},{"poiid":"B2094757D065A3FD499B","title":"热风(正大店)","lon":"121.50912","lat":"31.23716","category":"141","category_name":"服装鞋帽皮具店","address":"浦东新区陆家嘴西路168号正大广场5楼(近东方明珠)"},{"poiid":"B2094757D165A0F84698","title":"银洲街","lon":"121.50925005","lat":"31.238116154","category":"500","category_name":"未知分类","address":"上海靠近浦东南路东城路"},{"poiid":"B2094654DA69A1F5469E","title":"国华人寿股份有限公司","lon":"121.5047","lat":"31.2398","category":"219","category_name":"其他","address":"银城中路168号上海银行大厦23层"},{"poiid":"B2094757D16DA1FC4993","title":"泛亚班拿","lon":"121.50376855","lat":"31.240673922","category":"500","category_name":"未知分类","address":"上海陆家嘴环路1233号5楼6楼"},{"poiid":"B2094654DA6FA7FD4392","title":"荷兰银行","lon":"121.50415","lat":"31.24096","category":"150","category_name":"银行","address":"陆家嘴环路1233"},{"poiid":"B209475CD665A7F9479B","title":"柚子","lon":"121.504653","lat":"31.237916","category":"500","category_name":"未知分类","address":"上海市 恒生"},{"poiid":"B2094757D16FA2FB439A","title":"上海市规划和国土资源管理局","lon":"121.51000473","lat":"31.238962486","category":"500","category_name":"未知分类","address":"上海北京西路99号"},{"poiid":"B2094757D76CA3F8419B","title":"哈瓦那酒吧","lon":"121.50455","lat":"31.24202","category":"260","category_name":"其他","address":"浦东新区陆家嘴环路1288号新天哈瓦那大酒店2楼(近海族馆)"},{"poiid":"B2094752D76EA6FB439F","title":"陆家嘴 招商局大厦","lon":"121.503587","lat":"31.240332","category":"252","category_name":"楼宇机构","address":"上海市浦东新区陆家嘴东路161号招商局大厦"},{"poiid":"B2094654DB6BAAF94593","title":"韩国广播公司上海分社","lon":"121.50897","lat":"31.23755","category":"60","category_name":"电台","address":"陆家嘴东路161号上海招商局大厦1912"},{"poiid":"B2094654DB69AAF9439F","title":"中行上海总部","lon":"121.50967","lat":"31.23821","category":"150","category_name":"银行","address":"浦东新区陆家嘴东路181号"},{"poiid":"B2094654DA69A0FC409A","title":"中国农业银行浦东分行营业部","lon":"121.51029","lat":"31.23953","category":"150","category_name":"银行","address":"浦东南路377"},{"poiid":"B2094654DA6FA7FD4199","title":"Deutsche Bank AG Shanghai Branch","lon":"121.50415","lat":"31.24096","category":"263","category_name":"公司","address":"陆家嘴环路1233号汇亚大厦3305-3308"},{"poiid":"B2094654DB6BA4F54892","title":"上海香啡缤餐饮有限公司","lon":"121.50415","lat":"31.24096","category":"263","category_name":"公司","address":"陆家嘴环路1233号汇亚大厦1楼近东园路"},{"poiid":"B2094654DA6FA7FD429C","title":"星辰亚洲融资有限公司上海代表处","lon":"121.50415","lat":"31.24096","category":"263","category_name":"公司","address":"陆家嘴环路1233号汇亚大厦2804B"},{"poiid":"B2094655D26DA7F8469E","title":"上海沃歌斯餐厅有限公司","lon":"121.50415","lat":"31.24097","category":"263","category_name":"公司","address":"陆家嘴环路1233号汇亚大厦102"},{"poiid":"B2094654DA6FA7FD439D","title":"中国国际金融有限公司","lon":"121.50415","lat":"31.24097","category":"263","category_name":"公司","address":"银城中路200号中银大厦2802"},{"poiid":"B2094654DA6FA7FD419E","title":"达索析统(上海)信息技术有限公司","lon":"121.50415","lat":"31.24097","category":"263","category_name":"公司","address":"陆家嘴环路1233号汇亚大厦806-808"},{"poiid":"B2094654DB6BAAFB459B","title":"中国平安保险股份有限公司上海浦东支公司","lon":"121.50933","lat":"31.2388","category":"219","category_name":"其他","address":"浦东南路360号新上海国际大厦28"},{"poiid":"B2094757D16FAAFD4393","title":"鑫麟桌球俱乐部","lon":"121.50811323","lat":"31.237068945","category":"500","category_name":"未知分类","address":"上海浦东南路2100号6楼"},{"poiid":"B2094757D165A4FB4493","title":"苏格兰皇家银行","lon":"121.50529483","lat":"31.237237749","category":"500","category_name":"未知分类","address":"上海陆家嘴汇亚大厦"},{"poiid":"B2094757D568AAFB419E","title":"意大利商业银行(上海分行)","lon":"121.50901015","lat":"31.237567","category":"150","category_name":"银行","address":"陆家嘴东路161号上海招商局大厦10层1室"},{"poiid":"B2094757D66DA5FC489E","title":"SalvatoreFerragamo IFC PUDONG","lon":"121.50664147","lat":"31.236574913","category":"500","category_name":"未知分类","address":"上海浦东陆家嘴世纪大道8号上海国金中心购物商城"},{"poiid":"B209475CD165A6FE489E","title":"东方文华大酒店","lon":"121.507156","lat":"31.243297","category":"500","category_name":"未知分类","address":"上海市 浦东南路111号"},{"poiid":"B2094655D26DA7F84899","title":"汇亚大厦(北二门)","lon":"121.50378","lat":"31.24092","category":"656","category_name":"大门","address":"陆家嘴环路1233"},{"poiid":"B2094655D26DAAFA459B","title":"汇亚大厦(北一门)","lon":"121.50429","lat":"31.24141","category":"656","category_name":"大门","address":""},{"poiid":"B2094655D26EA3F9429E","title":"上海招商局大厦(东二门)","lon":"121.50942","lat":"31.23758","category":"656","category_name":"大门","address":""}]