[{"poiid":"B2094654DB6BAAF8479D","title":"环球金融中心","lon":"121.514","lat":"31.241","category":"46","category_name":"楼宇","address":"上海市浦东新区陆家嘴世纪大道8号"},{"poiid":"B2094757D06FA3F8439A","title":"时代金融中心","lon":"121.513","lat":"31.2467","category":"46","category_name":"楼宇","address":"上海市浦东新区银城中路68号"},{"poiid":"B2094757D06EAAFF479A","title":"杨树浦路地铁站","lon":"121.51719604","lat":"31.252407847","category":"36","category_name":"地铁站","address":"上海轨道交通 四号线 轨交杨树浦路站 轻轨 4"},{"poiid":"B209475CD564A7F84392","title":"上海滩浦东香格里拉店","lon":"121.50058","lat":"31.23634","category":"119","category_name":"商场","address":"浦东富成路33号香格里拉酒店内大堂层"},{"poiid":"B2094654DA69A7FB489A","title":"渣打银行大厦","lon":"121.516","lat":"31.2415","category":"46","category_name":"楼宇","address":"浦东区金融贸易区D3-5"},{"poiid":"B2094757D06FA0FA489F","title":"秦皇岛路轮渡站","lon":"121.51639044","lat":"31.249174771","category":"35","category_name":"长途汽车站","address":"上海虹口区秦皇岛路1号"},{"poiid":"B2094655D26FA5F9439B","title":"上海证券大厦","lon":"121.517707","lat":"31.241749","category":"46","category_name":"楼宇","address":"浦东新区浦东南路528号"},{"poiid":"B2094654D56FA3F44099","title":"上海瑞丰国际大厦","lon":"121.51557","lat":"31.25078","category":"46","category_name":"楼宇","address":"上海市奉贤区环城东路455、465弄"},{"poiid":"B2094757D06FA5FA479F","title":"华夏银行大厦","lon":"121.5152","lat":"31.245346","category":"46","category_name":"楼宇","address":"上海浦东新区浦东南路256号"},{"poiid":"B2094757D06FA1FA4498","title":"招商局大厦","lon":"121.515135","lat":"31.242879","category":"46","category_name":"楼宇","address":"浦东新区陆家嘴东路161号"},{"poiid":"B2094655D26FA5FF479B","title":"华能联合大厦","lon":"121.515","lat":"31.245","category":"46","category_name":"楼宇","address":"朝阳华威桥东北角"},{"poiid":"B2094757D065A5FA449E","title":"阿根廷庄园","lon":"121.517910103","lat":"31.2503280024","category":"94","category_name":"西餐厅","address":"杨浦区秦皇岛路32号19幢(近北外滩东码头)"},{"poiid":"B2094757D068AAFC469B","title":"保利广场","lon":"121.514956916","lat":"31.2433600232","category":"500","category_name":"未知分类","address":"闸北区共和新路3703,3737号"},{"poiid":"B2094757D068A1FA489C","title":"其昌栈渡口","lon":"121.51963307","lat":"31.242515608","category":"500","category_name":"未知分类","address":"上海东方路滨江大道"},{"poiid":"B2094757D06FA2FF4099","title":"中国保险大厦","lon":"121.516","lat":"31.2421","category":"46","category_name":"楼宇","address":"浦东临港新城主城区申港大道200号"},{"poiid":"B2094757D06FA3FC479F","title":"上海航运交易所","lon":"121.51347327","lat":"31.250775518","category":"260","category_name":"其他","address":"上海杨树浦路88号(近惠民路)"},{"poiid":"B2094757D16DABF9429A","title":"浦江游览","lon":"121.516154","lat":"31.249603","category":"607","category_name":"一般景点","address":"上海秦皇岛"},{"poiid":"B2094757D16CABFF429D","title":"雅典皇宫","lon":"121.51895673","lat":"31.242752567","category":"500","category_name":"未知分类","address":"上海浦东新区东方路8号(近浦东大道)  "},{"poiid":"B2094655D26CA6FC4493","title":"61号老栈(百联创意)","lon":"121.51188","lat":"31.25121","category":"46","category_name":"楼宇","address":"杨树浦路61号"},{"poiid":"B2094655D36DA2FB459B","title":"大连路隧道","lon":"121.51973","lat":"31.2428","category":"250","category_name":"公园户外","address":"上海市杨浦区大连路-浦东新区东方路"},{"poiid":"B2094654DA69A1F54992","title":"金穗大厦","lon":"121.517","lat":"31.245","category":"46","category_name":"楼宇","address":"上海市奉贤区环城东路455,465弄"},{"poiid":"B2094750D66CABFB4693","title":"Mio Ita","lon":"121.517906","lat":"31.243383","category":"94","category_name":"西餐厅","address":"浦东新区东方路18号保利大厦E栋2楼"},{"poiid":"B2094757DB69A3F44599","title":"富淳饭店 保利店","lon":"121.5189019","lat":"31.242405","category":"72","category_name":"广东菜","address":"浦东新区东方路18号保利广场E座G楼"},{"poiid":"B2094757D06FA3FF4692","title":"提篮桥监狱","lon":"121.51515197","lat":"31.253217697","category":"608","category_name":"法院","address":"上海市虹口区长阳路147号"},{"poiid":"B2094757D064AAF5409A","title":"浦东陆家嘴图书馆","lon":"121.518913","lat":"31.241753","category":"181","category_name":"图书馆","address":"上海浦东新区东方路38号"},{"poiid":"B2094654DB69A5FE4693","title":"肯德基 KFC (杨树浦店)","lon":"121.51166","lat":"31.25119","category":"68","category_name":"快餐厅","address":"虹口区杨树浦路45号(近浦江海关)"},{"poiid":"B2094654D56FA3FB479A","title":"港运大厦","lon":"121.51116","lat":"31.25012","category":"46","category_name":"楼宇","address":"静安区长寿路(万航渡路口)"},{"poiid":"B2094655D26FA5FE4498","title":"汇丰大厦","lon":"121.514","lat":"31.2458","category":"46","category_name":"楼宇","address":"上海陆家嘴环路1000号"},{"poiid":"B2094655D264ABF8459A","title":"马登国际航运商务中心","lon":"121.51322","lat":"31.25147","category":"46","category_name":"楼宇","address":"杨树浦路147号"},{"poiid":"B2094757D469A5F9409A","title":"松临日本料理 保利广场店","lon":"121.5189019","lat":"31.242405","category":"95","category_name":"日本料理","address":"浦东新区东方路18号保利广场E座2楼(近地铁四号线浦东大道站)"},{"poiid":"B2094757D16EA4F44799","title":"秦皇岛路水门码头","lon":"121.518441738","lat":"31.2456866296","category":"260","category_name":"其他","address":"杨浦区秦皇岛路32号(近杨树浦路)"},{"poiid":"B2094655D36CA0FB4799","title":"霍山路临潼路","lon":"121.51298","lat":"31.25114","category":"38","category_name":"公交车站","address":"霍山路临潼路"},{"poiid":"B2094750DB6EAAF5489D","title":"滨江大道","lon":"121.518669","lat":"31.245016","category":"250","category_name":"公园户外","address":"东方路"},{"poiid":"B2094750DB6BA3FF479B","title":"浦东滨江大道","lon":"121.515625","lat":"31.248435","category":"500","category_name":"未知分类","address":null},{"poiid":"B2094655D26AA0F9409B","title":"地铁杨树浦路站","lon":"121.5172","lat":"31.25241","category":"36","category_name":"地铁站","address":""},{"poiid":"B2094757D169A2F4479D","title":"翡翠公主号","lon":"121.5164","lat":"31.2507","category":"76","category_name":"上海菜","address":"杨浦区秦皇岛路码头(近杨树浦路)"},{"poiid":"B2094757D065A4FB449B","title":"老头菜饭","lon":"121.51482053","lat":"31.25163419","category":"68","category_name":"快餐厅","address":"杨浦区杨树浦路205号(临潼路口)"},{"poiid":"B2094655D36DA6FE4992","title":"杨树浦路","lon":"121.5172","lat":"31.25241","category":"38","category_name":"公交车站","address":""},{"poiid":"B2094655D26BA1FC489F","title":"平凉路大连路","lon":"121.51745","lat":"31.25307","category":"38","category_name":"公交车站","address":""},{"poiid":"B2094757D068A4F5479A","title":"隧道工程股份有限公司","lon":"121.517015","lat":"31.253451","category":"263","category_name":"公司","address":"上海大连路118号"},{"poiid":"B2094654D56EA5FB449B","title":"上海船厂总部码头","lon":"121.51973","lat":"31.25131","category":"34","category_name":"港口码头","address":""},{"poiid":"B2094750DA6AA0F9409A","title":"北外滩滨江大道","lon":"121.512023","lat":"31.244825","category":"250","category_name":"公园户外","address":null},{"poiid":"B2094757D064AAF84392","title":"东码头","lon":"121.5206998","lat":"31.25262055","category":"500","category_name":"未知分类","address":"上海市杨浦区秦皇岛路32号"},{"poiid":"B2094757D66BA4F8409D","title":"阿王菜饭","lon":"121.5143770854","lat":"31.251560061639","category":"68","category_name":"快餐厅","address":"杨浦区杨树浦路197-1号(近临潼路)"},{"poiid":"B2094753D668A6F54393","title":"黃記煌三汁燜鍋（第一食品商店）","lon":"121.515002","lat":"31.2428","category":"247","category_name":"餐饮美食","address":"上海市 第一食品商店"},{"poiid":"B2094757D06FABFC469C","title":"平凉路大连路站(公交842,155,137,25,853,申川线,921终,79终)","lon":"121.518741","lat":"31.252096","category":"38","category_name":"公交车站","address":"上海市杨浦区平凉路179号"},{"poiid":"B2094757D06FAAFF469B","title":"DQ冰雪皇后(正大二店)","lon":"121.51651915","lat":"31.251704193","category":"113","category_name":"冷饮店","address":"浦东新区陆家嘴西路168号正大广场B2楼(近东方明珠)"},{"poiid":"B2094654DA69A0FC499D","title":"荣城花苑","lon":"121.51794","lat":"31.242142","category":"47","category_name":"住宅区","address":"荣城路9弄"},{"poiid":"B2094757D06FA5F84293","title":"浦江海关","lon":"121.51242875","lat":"31.250188419","category":"500","category_name":"未知分类","address":"上海杨树浦路88号"},{"poiid":"B2094757DA6EAAF94392","title":"东码头创意园","lon":"121.516459399999","lat":"31.2500832000003","category":"263","category_name":"公司","address":"虹口区秦皇岛路32号"},{"poiid":"B2094654D56FA2FE4199","title":"为民点心店","lon":"121.51166","lat":"31.2521","category":"68","category_name":"快餐厅","address":"虹口区惠民路62号(近杨树浦路)"},{"poiid":"B2094655D268A7FF4893","title":"马登仓库办公大楼","lon":"121.51322","lat":"31.25146","category":"46","category_name":"楼宇","address":"杨树浦路147、155"},{"poiid":"B2094757D065A7FC4892","title":"世博秦皇岛水门","lon":"121.52025604","lat":"31.248537063","category":"500","category_name":"未知分类","address":"上海秦皇岛路"},{"poiid":"B2094752DB69A3FB4999","title":"东方私宴","lon":"121.520776","lat":"31.243821","category":"500","category_name":"未知分类","address":"上海市 上海市滨江大道1658号"},{"poiid":"B2094655D36DA0F94198","title":"杨树浦路大连路","lon":"121.51857","lat":"31.25196","category":"38","category_name":"公交车站","address":""},{"poiid":"B2094757D16BAAFF4698","title":"临潼路杨树浦路站(公交28,137终)","lon":"121.5150478","lat":"31.251107918","category":"38","category_name":"公交车站","address":"上海虹口区临潼路平凉路"},{"poiid":"B2094757D465A3F9439D","title":"柯记港式茶餐厅","lon":"121.513903054","lat":"31.240806793","category":"72","category_name":"广东菜","address":"浦东新区昌邑路88号(近即墨路)"},{"poiid":"B2094753DB64AAFE4092","title":"黄浦江上","lon":"121.519149","lat":"31.248441","category":"500","category_name":"未知分类","address":"上海市 上海市黄浦江"},{"poiid":"B2094757D56CAAF84799","title":"佳汇阁 私房菜","lon":"121.51535659799","lat":"31.243942370505","category":"247","category_name":"餐饮美食","address":"昌邑路569号近东方路"},{"poiid":"B2094655D36CA3FF469B","title":"上海美博城","lon":"121.51167","lat":"31.2512","category":"46","category_name":"楼宇","address":"杨树浦路61号"},{"poiid":"B2094757D464A7FD4298","title":"御庭","lon":"121.519856064","lat":"31.242143345783","category":"72","category_name":"广东菜","address":"浦东新区浦东大道535号裕景大饭店5楼(近东方路)"},{"poiid":"B2094757D069ABFE469C","title":"马登国际商务航运中心","lon":"121.519119263","lat":"31.2482662201","category":"500","category_name":"未知分类","address":"上海杨树浦路147号"},{"poiid":"B2094757D06AA2FC4399","title":"上海美设国际货运代理有限公司","lon":"121.5156121","lat":"31.250757011","category":"263","category_name":"公司","address":"上海杨树浦路248号28楼"},{"poiid":"B2094654DA69A0FC479F","title":"浦江茗园","lon":"121.5135","lat":"31.241152","category":"47","category_name":"住宅区","address":"上海市浦东新区昌邑路55弄"},{"poiid":"B2094757D464A7F94193","title":"豪碗福","lon":"121.519856064","lat":"31.242143345783","category":"68","category_name":"快餐厅","address":"浦东新区浦东大道535号裕景大饭店大堂(近东方路)"},{"poiid":"B2094757D06BA5F4409C","title":"921终点站","lon":"121.514079103","lat":"31.2493519821","category":"500","category_name":"未知分类","address":"上海平凉路34号(靠近临潼路)"},{"poiid":"B2094757D16EA2FB4999","title":"美诗美芙 浦东店","lon":"121.518914","lat":"31.243195","category":"500","category_name":"未知分类","address":"上海良丰大厦22F"},{"poiid":"B2094757D06BA3F4429D","title":"520台球俱乐部","lon":"121.51171","lat":"31.2512","category":"171","category_name":"台球厅","address":"虹口区惠民路38号3楼(近杨树浦路)"},{"poiid":"B2094654DB69A6FD489C","title":"上海港务工程公司码头","lon":"121.5147","lat":"31.25132","category":"34","category_name":"港口码头","address":"杨浦区杨树浦路210号"},{"poiid":"B2094757D66AA0F8499D","title":"腾格里乡村酒家 陆家嘴店","lon":"121.51971082221","lat":"31.242546742313","category":"84","category_name":"西北菜","address":"东方路43号近昌邑路"},{"poiid":"B2094757D16CA1FE449B","title":"滨江茗园","lon":"121.52151","lat":"31.242653","category":"247","category_name":"餐饮美食","address":"上海市长宁区延安西路1235弄"},{"poiid":"B2094654DA69A0FC499F","title":"荣成大厦","lon":"121.51813","lat":"31.24095","category":"47","category_name":"住宅区","address":"荣成路85弄1-2号"},{"poiid":"B2094757D06BA2FF4793","title":"金丰閣","lon":"121.515496103","lat":"31.2506935101","category":"500","category_name":"未知分类","address":"上海楊樹浦路248號瑞丰大廈大堂"},{"poiid":"B2094654D56FA3F44292","title":"海上人家","lon":"121.515036054","lat":"31.251712793","category":"257","category_name":"中餐厅","address":"上海杨浦区平凉路1号(近隆昌路)  "},{"poiid":"B2094757D66FA1F94699","title":"赣江村","lon":"121.520063738","lat":"31.2410805314","category":"260","category_name":"其他","address":"浦东新区东方路41号(近昌邑路)"},{"poiid":"B2094757D068ABFE489E","title":"世博园秦皇岛水门","lon":"121.51718895","lat":"31.253926877","category":"260","category_name":"其他","address":"上海秦皇岛路32号"},{"poiid":"B2094750DB6BAAFC459A","title":"悦品鲜","lon":"121.5112","lat":"31.25152","category":"86","category_name":"火锅店","address":"虹口区惠民路36号(近东大名路)"},{"poiid":"B2094757D56CA0FF439E","title":"国国餐厅","lon":"121.51478","lat":"31.24268","category":"68","category_name":"快餐厅","address":"浦东新区昌邑路346号(近浦东大道地铁站)"},{"poiid":"B2094757D06AA5FF4493","title":"临潼苑","lon":"121.51397","lat":"31.252007","category":"500","category_name":"未知分类","address":"上海市虹口区杨树浦路183号"},{"poiid":"B2094654DB6BA3F54399","title":"快客(杨树浦路)","lon":"121.51831","lat":"31.25177","category":"117","category_name":"便民商店/便利店","address":"杨树浦路622号A-7"},{"poiid":"B2094750D76FAAFE4193","title":"光头正宗千里香馄饨","lon":"121.512","lat":"31.2523","category":"68","category_name":"快餐厅","address":"虹口区惠民路71号(近临潼路)"},{"poiid":"B2094757D06AAAFD4399","title":"上海出入境检验检疫局航交所办事处","lon":"121.512217","lat":"31.250148098","category":"500","category_name":"未知分类","address":"上海杨树浦路88号3楼"},{"poiid":"B2094751DA6EA0F5439F","title":"上海市中西结合医院","lon":"121.513936","lat":"31.252164","category":"162","category_name":"医院","address":"保定路230号"},{"poiid":"B2094655D26AA0FF429D","title":"陆家嘴图书馆东方路店","lon":"121.51887","lat":"31.24191","category":"247","category_name":"餐饮美食","address":"浦东新区东方路38号"},{"poiid":"B2094655D36CA1F94799","title":"临潼路杨树浦路","lon":"121.5143","lat":"31.25222","category":"38","category_name":"公交车站","address":""},{"poiid":"B2094757D16EA2F5479D","title":"蓝桥麻辣烫","lon":"121.51224","lat":"31.25241","category":"68","category_name":"快餐厅","address":"虹口区惠民路85号(近临潼路)"},{"poiid":"B2094757D66FA3FD449C","title":"鲁陈路张行路公交车站","lon":"121.5208131","lat":"31.250970015","category":"38","category_name":"公交车站","address":"上海鲁陈路张行路(公交有闵行10、11路；浦江9、10路)"},{"poiid":"B2094655D26BA5F5449B","title":"外虹桥国际客运码头","lon":"121.5116","lat":"31.25106","category":"34","category_name":"港口码头","address":"杨树浦路100号"},{"poiid":"B2094654D56FA3F5419F","title":"来伊客餐厅","lon":"121.51357","lat":"31.25299","category":"68","category_name":"快餐厅","address":"虹口区临潼路101号(近霍山路)"},{"poiid":"B2094654DB65AAF9479A","title":"浦东大道275弄","lon":"121.52221491238","lat":"31.245548263134","category":"47","category_name":"住宅区","address":"浦东新区浦东大道275弄"},{"poiid":"B2094757D569A1F5429F","title":"浦东第一图书馆","lon":"121.518875","lat":"31.24191806","category":"181","category_name":"图书馆","address":"东方路38号"},{"poiid":"B2094654D56FA3F44193","title":"快客No.1324","lon":"121.5161","lat":"31.25248","category":"117","category_name":"便民商店/便利店","address":"平凉路87"},{"poiid":"B2094757D16FA5FB449E","title":"一个神马鬼地方","lon":"121.51675075","lat":"31.251311223","category":"500","category_name":"未知分类","address":"上海"},{"poiid":"B2094654D56FA3F54599","title":"罗森(杨树浦路)","lon":"121.51179","lat":"31.25119","category":"117","category_name":"便民商店/便利店","address":"杨树浦路59"},{"poiid":"B2094757D16AAAFE4198","title":"平凉路临潼路","lon":"121.51530097","lat":"31.251615993","category":"500","category_name":"未知分类","address":"上海平凉路临潼路公交站点(868,37,921,330)"},{"poiid":"B2094757D169ABFC439B","title":"闸航路","lon":"121.5150136","lat":"31.250760311","category":"500","category_name":"未知分类","address":"上海闸航路"},{"poiid":"B2094654DA69A0FC4992","title":"荣城花苑(南门)","lon":"121.51731","lat":"31.24166","category":"47","category_name":"住宅区","address":"荣城路9弄"},{"poiid":"B2094753D76EA1FB499B","title":"上海外滩悅榕庄","lon":"121.511711","lat":"31.249649","category":"500","category_name":"未知分类","address":"上海市 上海市虹口区公平路19号"},{"poiid":"B2094757D16DA7FD4192","title":"荣成小区","lon":"121.51881","lat":"31.240702","category":"47","category_name":"住宅区","address":"上海浦东新区浦东大道501弄"},{"poiid":"B2094757D169A6F4439F","title":"上海交通大学锦绣华检(浦东分院)","lon":"121.52079373","lat":"31.241544541","category":"500","category_name":"未知分类","address":"上海浦东大道545号裙楼二楼"},{"poiid":"B2094655D26DABFE429A","title":"杨树浦路471弄小区","lon":"121.52003","lat":"31.25246","category":"47","category_name":"住宅区","address":"杨树浦路471弄"},{"poiid":"B2094757D164A4FD419C","title":"全家便利(杨树浦路店)","lon":"121.51762975","lat":"31.251271447","category":"249","category_name":"购物服务","address":"4号线杨树浦路站-4-102"},{"poiid":"B2094757D16BA5FB439C","title":"招远二村","lon":"121.516076438","lat":"31.2414186386","category":"47","category_name":"住宅区","address":"上海陆家嘴招远路即墨路"},{"poiid":"B2094655D26CA6FD469D","title":"丁和里(北门)","lon":"121.51745","lat":"31.25282","category":"47","category_name":"住宅区","address":"平凉路164弄"},{"poiid":"B2094655D26DA6F44192","title":"裕景宴会厅","lon":"121.52017","lat":"31.24091","category":"88","category_name":"海鲜酒楼","address":"东方路69号5层"},{"poiid":"B2094655D26DABFB429E","title":"杨树浦路461弄小区(南门)","lon":"121.5193","lat":"31.25217","category":"47","category_name":"住宅区","address":"杨树浦路461弄"},{"poiid":"B2094654DA69A0FC499C","title":"荣成大厦(西门)","lon":"121.51765","lat":"31.24108","category":"47","category_name":"住宅区","address":"荣成路85弄1-2号"},{"poiid":"B2094757D065A7FA439F","title":"惠民路","lon":"121.512171103","lat":"31.2525720493","category":"500","category_name":"未知分类","address":"上海28路終點站"},{"poiid":"B2094655D26DA6FA439D","title":"丁和里","lon":"121.5175","lat":"31.25272","category":"47","category_name":"住宅区","address":"平凉路164弄"},{"poiid":"B2094655D26CA6FD499C","title":"平凉路174弄小区","lon":"121.51785","lat":"31.25286","category":"47","category_name":"住宅区","address":"平凉路174弄"},{"poiid":"B2094655D26BAAFF429E","title":"丰泰世纪大厦","lon":"121.52152","lat":"31.25216","category":"46","category_name":"楼宇","address":"杨树浦路1736号"},{"poiid":"B209475CD76EA0F84093","title":"东方薇婷","lon":"121.520011","lat":"31.242712","category":"500","category_name":"未知分类","address":"上海市 东方路昌邑路"},{"poiid":"B2094757DB68AAF9469B","title":"秦皇岛码头","lon":"121.511417","lat":"31.251273","category":"251","category_name":"出行住宿","address":"大连路"},{"poiid":"B2094654DB64A3FF419D","title":"喜士多便利连锁(裕景国际北)","lon":"121.52001","lat":"31.24148","category":"117","category_name":"便民商店/便利店","address":""},{"poiid":"B2094753D76CA5FD459A","title":"上海1937往事","lon":"121.515014","lat":"31.253509","category":"247","category_name":"餐饮美食","address":"上海市 上海市虹口区临潼路110号"},{"poiid":"B2094757D068A5FD429C","title":"绅德世健身中心(昌邑路店)","lon":"121.5141","lat":"31.2408","category":"221","category_name":"健身中心","address":"浦东新区昌邑路55弄22号(近浦东大道)"},{"poiid":"B2094655D26CA7F5449A","title":"杨树浦路461弄小区","lon":"121.51922","lat":"31.25242","category":"47","category_name":"住宅区","address":""},{"poiid":"B2094655D265A3FD4098","title":"中信银行上海北外滩支行","lon":"121.51336","lat":"31.25138","category":"150","category_name":"银行","address":"杨树浦路147"},{"poiid":"B2094757D069A3F9409B","title":"上行线(杨树浦路店)","lon":"121.51722015","lat":"31.252408306","category":"125","category_name":"书店","address":"上海虹口区地铁四号线杨树浦路站"},{"poiid":"B2094655D26CA7F5449B","title":"杨树浦路471弄小区(南门)","lon":"121.52007","lat":"31.25223","category":"47","category_name":"住宅区","address":"杨树浦路471弄"},{"poiid":"B2094757D16CA3F5439B","title":"马登商务中心","lon":"121.512967103","lat":"31.2518510343","category":"500","category_name":"未知分类","address":"上海市虹口区杨树浦路147号"},{"poiid":"B2094757D065A7FC4499","title":"东北一家人","lon":"121.52049","lat":"31.24176","category":"247","category_name":"餐饮美食","address":"上海浦东新区东方路40号(近昌邑路)  "},{"poiid":"B2094654D56FA2FE4093","title":"晋阳里","lon":"121.51199","lat":"31.252001","category":"47","category_name":"住宅区","address":"惠民路74弄3-100号"},{"poiid":"B2094757D16CA6F44992","title":"昌邑小区","lon":"121.51673","lat":"31.240412","category":"47","category_name":"住宅区","address":"上海市浦东新区浦东大道荣城路"},{"poiid":"B2094655D26BA2F54693","title":"浦东大道荣成路","lon":"121.51865","lat":"31.24033","category":"38","category_name":"公交车站","address":""},{"poiid":"B2094654DB69A7F44699","title":"浦江茗园物业会所游泳馆","lon":"121.5135","lat":"31.24115","category":"231","category_name":"游泳馆","address":"浦东新区昌邑路55号(近浦东大道)"},{"poiid":"B2094655D26CA6FD4692","title":"平凉路174弄小区(北门)","lon":"121.5177","lat":"31.253","category":"47","category_name":"住宅区","address":"平凉路174弄"},{"poiid":"B2094757D169A4F84192","title":"28路终点站","lon":"121.511508803","lat":"31.2511147189","category":"500","category_name":"未知分类","address":"上海杨树浦路惠民路"},{"poiid":"B2094655D26EA4F84793","title":"吉米Express餐厅","lon":"121.52074","lat":"31.24184","category":"98","category_name":"意式菜品餐厅","address":"浦东新区昌邑路543号(东方路口)"},{"poiid":"B2094752D66CA3F94398","title":"上海市浦东新区陆家嘴","lon":"121.519124","lat":"31.241793","category":"500","category_name":"未知分类","address":null},{"poiid":"B2094655D268A2FE4899","title":"COYOTES","lon":"121.52059","lat":"31.24186","category":"172","category_name":"酒吧","address":"昌邑路541"},{"poiid":"B2094757D16CA7F8469B","title":"842路終點站","lon":"121.517201","lat":"31.252419","category":"500","category_name":"未知分类","address":"上海楊樹浦路"},{"poiid":"B2094654D56FA3F4429C","title":"小江扦脚","lon":"121.51546","lat":"31.25207","category":"149","category_name":"洗浴推拿场所","address":"平凉路43"},{"poiid":"B2094750D665A7F9439F","title":"金丰咖啡厅","lon":"121.515","lat":"31.2516","category":"260","category_name":"其他","address":"杨浦区杨树浦路248号瑞丰国际大厦1楼(近地铁四号线杨树浦路站)"},{"poiid":"B2094757D165A5FF4492","title":"犹太百年老宅","lon":"121.512533103","lat":"31.2527640533","category":"247","category_name":"餐饮美食","address":"上海市惠民路120弄"},{"poiid":"B2094757D165ABF84193","title":"飞利浦游船","lon":"121.511839103","lat":"31.2496129875","category":"219","category_name":"其他","address":"上海秦皇岛世博水门"},{"poiid":"B2094750DB65AAFF469A","title":"迷笛电子音乐节","lon":"121.511039","lat":"31.249126","category":"248","category_name":"生活娱乐","address":"银城路双辉大厦9号"},{"poiid":"B2094654D56FA3F5489B","title":"健苑小区","lon":"121.51276","lat":"31.252394","category":"47","category_name":"住宅区","address":"惠民路118弄1-17号"},{"poiid":"B2094655D26CA6FC449C","title":"临潼路99弄小区","lon":"121.51351","lat":"31.25278","category":"47","category_name":"住宅区","address":"临潼路99弄4-16号"},{"poiid":"B2094750D069ABF8489A","title":"中国工商银行虹口提篮桥支行","lon":"121.512","lat":"31.251","category":"150","category_name":"银行","address":"上海市虹口区杨树浦路61号204-2幢底层1-B2-B9室"},{"poiid":"B2094757D16BA3F54893","title":"概念紫尚造型","lon":"121.515866138","lat":"31.242003451","category":"500","category_name":"未知分类","address":"上海浦东陆家嘴南泉北路39号"},{"poiid":"B2094654DA69A0FD4592","title":"好德便利NO.418","lon":"121.51889","lat":"31.24047","category":"117","category_name":"便民商店/便利店","address":"浦东大道"},{"poiid":"B2094655D26EA2F4469D","title":"良丰大厦(西南门)","lon":"121.51868","lat":"31.2431","category":"48","category_name":"楼宇大门","address":"东方路8号"},{"poiid":"B2094654DA69A0FD419D","title":"俊雅网吧","lon":"121.51897","lat":"31.24201","category":"176","category_name":"网吧","address":""},{"poiid":"B2094655D26DAAF94392","title":"临潼路99弄小区(北门)","lon":"121.51364","lat":"31.25291","category":"47","category_name":"住宅区","address":"临潼路99弄4-16号"},{"poiid":"B2094655D26FA0FC489A","title":"海翔小区南区","lon":"121.51294","lat":"31.25293","category":"47","category_name":"住宅区","address":"惠民路150弄5-6号"},{"poiid":"B2094757D66EA4FB439B","title":"迪亚天天(崂山路)","lon":"121.515945738","lat":"31.2417600458","category":"249","category_name":"购物服务","address":"浦东新区崂山东路153号"},{"poiid":"B2094750D66AAAF94798","title":"东方明珠号渡轮上","lon":"121.509979","lat":"31.248355","category":"500","category_name":"未知分类","address":null},{"poiid":"B2094655D265A3FD469C","title":"佐登妮丝美容SPA生活馆陆家嘴店","lon":"121.52014","lat":"31.24148","category":"148","category_name":"美容美发店","address":""},{"poiid":"B2094654D56FA3F54192","title":"宏惠花苑","lon":"121.51508","lat":"31.25386","category":"47","category_name":"住宅区","address":"榆林路69弄1-6号"},{"poiid":"B2094654D56FA3F4449C","title":"上海市虹口区临潼路幼儿园","lon":"121.51345","lat":"31.25343","category":"57","category_name":"幼儿园","address":"虹口区临潼路130号(惠民路临潼路)"},{"poiid":"B2094757DA65A3F54293","title":"上海海神诺富特大酒店","lon":"121.5201236130666","lat":"31.24162355106969","category":"251","category_name":"出行住宿","address":"浦东大道728号"},{"poiid":"B2094654DB6BA2FE419A","title":"健苑小区(北门)","lon":"121.51216","lat":"31.25255","category":"47","category_name":"住宅区","address":"惠民路118弄1-17号"},{"poiid":"B2094655D265A6F8499A","title":"有家便当","lon":"121.51714","lat":"31.24006","category":"68","category_name":"快餐厅","address":"浦东新区浦东大道307号(浦东大道荣成路)"},{"poiid":"B2094654DB6BA2FE409D","title":"临潼苑(南门)","lon":"121.51416","lat":"31.25156","category":"48","category_name":"楼宇大门","address":"杨树浦路189弄1-30号"},{"poiid":"B2094750DB6BA3FE499B","title":"banyantree悦蓉庄","lon":"121.5102","lat":"31.247686","category":"251","category_name":"出行住宿","address":"海平路19号"},{"poiid":"B2094751DA6DA7FB4693","title":"上海国际航运服务中心","lon":"121.511328","lat":"31.251668","category":"252","category_name":"楼宇机构","address":"杨树浦路8号"},{"poiid":"B2094757D16CA6FB4993","title":"马登仓库","lon":"121.5132621","lat":"31.251714031","category":"263","category_name":"公司","address":"虹口区杨树浦路155号(近东大名路)"},{"poiid":"B2094655D26DAAFF499A","title":"临潼路120弄小区","lon":"121.51378","lat":"31.2535","category":"47","category_name":"住宅区","address":"临潼路120弄2-12号"},{"poiid":"B2094654DA69A0FC489B","title":"伊姿三日瘦身","lon":"121.51406","lat":"31.24074","category":"148","category_name":"美容美发店","address":"昌邑路59"},{"poiid":"B2094655D26CA6FC449D","title":"临潼路120弄小区(南门)","lon":"121.51348","lat":"31.25334","category":"47","category_name":"住宅区","address":"临潼路120弄2-12号"},{"poiid":"B2094757D165A5FF499A","title":"钱仓站","lon":"121.517709738","lat":"31.2403415156","category":"500","category_name":"未知分类","address":"上海市浦东大道钱仓站"},{"poiid":"B2094757D169A7FB4493","title":"Jayne.Lu@宅","lon":"121.5192381","lat":"31.252392045","category":"500","category_name":"未知分类","address":"上海杨树浦路471弄"},{"poiid":"B2094654DA69A0FC4892","title":"新狂剪专业烫染社(昌邑路)","lon":"121.51453","lat":"31.24061","category":"148","category_name":"美容美发店","address":"浦东新区昌邑路90号(东方路即墨路间)"},{"poiid":"B2094655D26BA6F54899","title":"近胜里小区(南门)","lon":"121.51865","lat":"31.25392","category":"47","category_name":"住宅区","address":"平凉路245弄"},{"poiid":"B2094757D165A5FF439C","title":"东方路昌邑路","lon":"121.513258738","lat":"31.240970529","category":"500","category_name":"未知分类","address":"上海市浦东新区东方路昌邑路"},{"poiid":"B2094757D16BA1F54698","title":"上海农村商业银行","lon":"121.51384863","lat":"31.241302536","category":"150","category_name":"银行","address":"上海银城中路8号"},{"poiid":"B2094655D26CA7F5499F","title":"上海优佛物流有限公司","lon":"121.51189","lat":"31.25121","category":"248","category_name":"生活娱乐","address":"杨树浦路18号港运大厦26层"},{"poiid":"B209475CD26CABF4409A","title":"桔子水晶酒店.北外滩","lon":"121.514915","lat":"31.253559","category":"251","category_name":"出行住宿","address":"虹口区东大名路1191号"},{"poiid":"B2094655D26EA5FA4293","title":"上海贝菲特健身(昌邑店)","lon":"121.5135","lat":"31.24115","category":"221","category_name":"健身中心","address":"浦东新区昌邑路55弄22号"},{"poiid":"B2094757D16EA5FF459C","title":"北京银行(上海分行)","lon":"121.510778","lat":"31.250412","category":"150","category_name":"银行","address":"上海金陵东路18号"},{"poiid":"B2094753DB6BAAFC429B","title":"Mr. Pancake House","lon":"121.519371","lat":"31.240739","category":"500","category_name":"未知分类","address":"上海市 长宁区汇川路168号玫瑰坊1层"},{"poiid":"B2094654DB65A7F54698","title":"贝菲特国际健身中心(陆家嘴店)","lon":"121.51315","lat":"31.24132","category":"221","category_name":"健身中心","address":"上海市浦东新区昌邑路55弄22号"},{"poiid":"B2094655D26CA6FF419E","title":"上海中外运报关有限公司","lon":"121.51189","lat":"31.25121","category":"263","category_name":"公司","address":"杨树浦路61号百联创意61号老栈4-E1"},{"poiid":"B2094757D66FA2FE459F","title":"申川线","lon":"121.517830303","lat":"31.2536470718","category":"500","category_name":"未知分类","address":"上海大连路长阳路"},{"poiid":"B2094655D26CA6FD4899","title":"虹口公安分局交通警察支队二中队","lon":"121.5168","lat":"31.25399","category":"248","category_name":"生活娱乐","address":"榆林路192号"},{"poiid":"B2094654D56FA2FE419F","title":"上海新提篮网吧","lon":"121.51176","lat":"31.25191","category":"176","category_name":"网吧","address":""},{"poiid":"B2094757D16DA2F8489B","title":"华浦教育(八佰伴校区)","lon":"121.52144073","lat":"31.242044551","category":"500","category_name":"未知分类","address":"上海市浦东新区浦东南路1036号隆宇大厦15F"},{"poiid":"B2094655D26FA0FE419D","title":"上海船厂船舶有限公司(北二门)","lon":"121.52085","lat":"31.25197","category":"263","category_name":"公司","address":"杨树浦路540"},{"poiid":"B2094654DA69AAFB459E","title":"上海凯莉斯咖啡屋","lon":"121.52097","lat":"31.24183","category":"260","category_name":"其他","address":"浦东新区昌邑路549号(东方路口)"},{"poiid":"B2094654DA69AAFB469A","title":"金凤咖啡屋","lon":"121.52044","lat":"31.24184","category":"260","category_name":"其他","address":"浦东新区昌邑路537号(近东方路)"},{"poiid":"B2094757D16CA6FA4192","title":"卡莎布兰卡(平凉店)","lon":"121.517949","lat":"31.253487","category":"500","category_name":"未知分类","address":"杨浦区平凉路183号(近大连路)"},{"poiid":"B2094757D66DA7F5409C","title":"爱妖流社团","lon":"121.521287803","lat":"31.252271843","category":"253","category_name":"校园生活","address":null},{"poiid":"B2094757D06FA3FC4098","title":"昌邑路","lon":"121.519513","lat":"31.2416478","category":"260","category_name":"其他","address":"上海消防队红绿灯"},{"poiid":"B2094757D164A4FF469C","title":"康翔商务中心","lon":"121.52142","lat":"31.252301","category":"500","category_name":"未知分类","address":"上海杨树浦路622号"},{"poiid":"B2094757D16EA6FF4093","title":"浦东大道290弄20号","lon":"121.518877138","lat":"31.240592721","category":"500","category_name":"未知分类","address":null},{"poiid":"B2094654D56EA5FF4793","title":"上海景程旅行社有限公司","lon":"121.51812","lat":"31.25324","category":"248","category_name":"生活娱乐","address":"杨浦区平凉路200号(近大连路)"},{"poiid":"B2094655D26DA4F5469A","title":"E-吧","lon":"121.52017","lat":"31.24091","category":"260","category_name":"其他","address":"浦东新区浦东大道535号裕景大饭店4楼(近东方路)"},{"poiid":"B2094655D26DA5F4449C","title":"西邨小区(南门)","lon":"121.51538","lat":"31.25209","category":"656","category_name":"大门","address":"平凉路41弄1-90号"},{"poiid":"B2094752D06BA0FA4392","title":"上海外滩悦容庄","lon":"121.51133","lat":"31.246155","category":"251","category_name":"出行住宿","address":"公平路近海平路"},{"poiid":"B2094757D164A1F8409D","title":"大董棋牌室","lon":"121.5186491","lat":"31.253221062","category":"248","category_name":"生活娱乐","address":"上海杨树铺路461弄199号"},{"poiid":"B2094654D56EA5FF4592","title":"上海上隧实业公司大连路隧道养护管理分公司","lon":"121.51687","lat":"31.25417","category":"263","category_name":"公司","address":"榆林路192号"},{"poiid":"B2094655D268A7FF499B","title":"晋阳里(南门)","lon":"121.51274","lat":"31.25118","category":"656","category_name":"大门","address":"杨树浦路115弄"},{"poiid":"B2094654DA69AAFB479A","title":"滨江茗园(西门)","lon":"121.51995","lat":"31.24236","category":"656","category_name":"大门","address":""},{"poiid":"B2094654D56EA5FF4999","title":"麻将天地","lon":"121.51833","lat":"31.25369","category":"175","category_name":"棋牌室","address":"平凉路211"},{"poiid":"B2094654D56FA3F5419D","title":"西邨小区(北门)","lon":"121.51445","lat":"31.25289","category":"656","category_name":"大门","address":"提篮桥"},{"poiid":"B2094757DA6EA5FE409A","title":"惠民路公交站","lon":"121.511760950087","lat":"31.2522217385435","category":"251","category_name":"出行住宿","address":"28路,875路惠民路杨树浦路附近"},{"poiid":"B2094654DB6BAAFD489E","title":"浦江茗园(南二门)","lon":"121.51447","lat":"31.24091","category":"656","category_name":"大门","address":"昌邑路55弄"},{"poiid":"B2094654DB6BA2FE429F","title":"晋阳里(北门)","lon":"121.51193","lat":"31.25221","category":"656","category_name":"大门","address":"惠民路74弄3-100号"},{"poiid":"B2094655D26DA5FE469C","title":"宏惠花苑(南二门)","lon":"121.51505","lat":"31.25353","category":"656","category_name":"大门","address":"榆林路69弄1-6号"},{"poiid":"B2094654DB6BA2FE409C","title":"宏惠花苑(南一门)","lon":"121.51538","lat":"31.25366","category":"656","category_name":"大门","address":"榆林路69弄"}]