[{"poiid":"B2094757D06FA3FA409C","title":"滴水湖","lon":"121.93183575","lat":"30.896988697","category":"260","category_name":"其他","address":"上海浦东新区"},{"poiid":"B2094757D56EA2FF429F","title":"上海滴水湖皇冠假日酒店","lon":"121.93648338317871","lat":"30.89108501037207","category":"251","category_name":"出行住宿","address":"上海,上海市,上海市浦东新区临港新城南岛1号"},{"poiid":"B2094757D064A5FF479D","title":"南汇嘴","lon":"121.95101135","lat":"30.896040513","category":"500","category_name":"未知分类","address":"上海滴水湖"},{"poiid":"B2094655D26FA3FF449E","title":"滴水湖水上运动俱乐部","lon":"121.9524","lat":"30.89094","category":"200","category_name":"水上活动中心","address":""},{"poiid":"B2094757D069ABFC4393","title":"一号码头","lon":"121.951011358","lat":"30.8960405135","category":"216","category_name":"经济型连锁酒店","address":"上海普陀区宜昌路88号梦清园内(近昌化路)"},{"poiid":"B2094750D365A5FF4899","title":"南汇嘴观海公园","lon":"121.934234","lat":"30.906095","category":"250","category_name":"公园户外","address":"南汇嘴观海公园"},{"poiid":"B209475CD06FA3FB419D","title":"滴水湖露营烧烤区","lon":"121.93822","lat":"30.89149","category":"269","category_name":"烧烤","address":"环湖西一路(近皇冠假日酒店)"},{"poiid":"B209475DD169A3FC4898","title":"滴水湖","lon":"121.93222","lat":"30.903299","category":"500","category_name":"未知分类","address":"上海市 滴水湖"},{"poiid":"B209475DD66EABFC489E","title":"滴水湖地铁站","lon":"121.93547","lat":"30.903694","category":"627","category_name":"一般地点标志","address":"上海市 临港大道"},{"poiid":"B2094757D168A7FC449A","title":"悦临酒店","lon":"121.92965595","lat":"30.899707364","category":"75","category_name":"浙江菜","address":"浦东新区临港新城环湖西一路99号"}]