[{"poiid":"B2094750D26DA0F44692","title":"上海虹桥机场T2航站","lon":"121.40392","lat":"31.165797","category":"500","category_name":"未知分类","address":null},{"poiid":"B2094757D06FA6FD4199","title":"漕河泾国际商务中心","lon":"121.40445258","lat":"31.164370143","category":"46","category_name":"楼宇","address":"上海市徐汇区桂平路391号"},{"poiid":"B2094757D06FA2F84399","title":"上海腾讯大厦","lon":"121.40175628","lat":"31.165849685","category":"46","category_name":"楼宇","address":"上海市徐汇区虹梅路1801号"},{"poiid":"B2094757D06FABF94498","title":"华美达新园酒店","lon":"121.406080905","lat":"31.1640171109","category":"217","category_name":"旅馆招待所","address":"上海徐汇区漕宝路509号(近桂平路)"},{"poiid":"B2094757D06FABFF4093","title":"一番屋(华美达店)","lon":"121.40698438","lat":"31.164436905","category":"268","category_name":"自助","address":"徐汇区漕宝路509号华美达老楼2楼"},{"poiid":"B2094757D06FA0F9449A","title":"中环路漕宝路出入口","lon":"121.402781486","lat":"31.1616737919","category":"260","category_name":"其他","address":"上海虹梅路漕宝路"},{"poiid":"B2094757D06FA7F94999","title":"法拉利玛莎拉蒂上海","lon":"121.40203714","lat":"31.161340388","category":"158","category_name":"汽车销售","address":"上海徐汇区漕宝路1008号(近中环路)"},{"poiid":"B2094654DA65A5FB409E","title":"新漕河泾大厦","lon":"121.40551","lat":"31.16386","category":"46","category_name":"楼宇","address":"行宫位于沈河北站一路41号"},{"poiid":"B2094757D068A5FB4693","title":"中友嘉园","lon":"121.40012","lat":"31.159718","category":"47","category_name":"住宅区","address":"上海市闵行区古美路1458弄"},{"poiid":"B2094655D26FA6F9479C","title":"古美小区","lon":"121.407","lat":"31.1619","category":"47","category_name":"住宅区","address":"东兰路111弄1-19号；东兰路121弄1-36号；东兰路151弄1-20号；古美路1107弄；古美路1135弄"},{"poiid":"B2094654D564A2FD469F","title":"中国银行国际金融研修院(上海)","lon":"121.40663","lat":"31.16538","category":"150","category_name":"银行","address":"桂箐路5"},{"poiid":"B2094757D069A2F84192","title":"西域盛宴","lon":"121.39917543","lat":"31.160197442","category":"90","category_name":"清真餐馆","address":"徐汇区古美路1488号(漕宝路口)"},{"poiid":"B2094752D06EABFB429D","title":"上海虹桥火车站","lon":"121.40551","lat":"31.16386","category":"627","category_name":"一般地点标志","address":"上海虹桥火车站"},{"poiid":"B2094654D564A2FD469E","title":"上海市漕河泾新兴技术开发区","lon":"121.4063","lat":"31.16595","category":"45","category_name":"产业园区","address":"桂箐路7"},{"poiid":"B2094757D06FA0F54198","title":"漕河泾桂果园","lon":"121.403384","lat":"31.166817","category":"249","category_name":"购物服务","address":"上海桂平路471号"},{"poiid":"B2094757D16DA3FB4393","title":"漕宝路桂平路","lon":"121.40600308","lat":"31.163236571","category":"500","category_name":"未知分类","address":"上海桂平路某小区"},{"poiid":"B2094757DB65AAF4489C","title":"湘鄂情","lon":"121.3983780180117","lat":"31.16424632677644","category":"77","category_name":"湖南菜","address":"徐汇区桂平路391号新漕河泾国际商务中心裙楼(近漕宝路)"},{"poiid":"B2094750DB65A6FF4899","title":"印象台北","lon":"121.4048","lat":"31.165285","category":"91","category_name":"台湾菜","address":"徐汇区桂平路(近全州路)"},{"poiid":"B2094757D06AA0F84493","title":"莲花大厦","lon":"121.40152632888","lat":"31.16812260307","category":"46","category_name":"楼宇","address":"上海,上海市,田州路159号"},{"poiid":"B2094757D068A5FE4099","title":"永和大王(漕宝路店)","lon":"121.398748","lat":"31.160401195","category":"68","category_name":"快餐厅","address":"闵行区漕宝路1096号(古美路口)"},{"poiid":"B2094655D265A6FB459D","title":"华东理工大学国家大学科技园G7软件基地","lon":"121.40484","lat":"31.16531","category":"45","category_name":"产业园区","address":""},{"poiid":"B2094654DA65A6F5449C","title":"上海漕河泾开发区凤凰园(田州路)","lon":"121.39713","lat":"31.16232","category":"45","category_name":"产业园区","address":"田州路99"},{"poiid":"B2094757D065A6F54693","title":"永达斯柯达4S漕宝店","lon":"121.401243","lat":"31.165403","category":"500","category_name":"未知分类","address":"上海虹梅路1682号"},{"poiid":"B2094757D06AA1F9469C","title":"地球上","lon":"121.40505194","lat":"31.163069256","category":"500","category_name":"未知分类","address":"上海地球上"},{"poiid":"B2094750D464A2FD4793","title":"Tony`s Kitchen","lon":"121.40467","lat":"31.165403","category":"247","category_name":"餐饮美食","address":"徐汇区桂菁路7号(近桂平路)"},{"poiid":"B2094757D664A7FD4798","title":"烤满分","lon":"121.400244","lat":"31.157674","category":"68","category_name":"快餐厅","address":"闵行区古美路1390号(近东兰路)"},{"poiid":"B2094750D165A7F4439F","title":"星联科研楼","lon":"121.403343","lat":"31.161474","category":"500","category_name":"未知分类","address":"虹梅路1535号"},{"poiid":"B2094757D66CA6F4469D","title":"吉祥馄饨(漕宝路店)","lon":"121.400793586","lat":"31.1621941013","category":"68","category_name":"快餐厅","address":"徐汇区古美路1500号(漕宝路口)"},{"poiid":"B2094655D36CA6FC4293","title":"古美路漕宝路","lon":"121.39947","lat":"31.1593","category":"38","category_name":"公交车站","address":"上海古美路1483号中原地产"},{"poiid":"B2094757D468A7F44298","title":"赛百味 古美路店 SUBWAY","lon":"121.39844","lat":"31.1616","category":"94","category_name":"西餐厅","address":"徐汇区古美路1528号A7座B1楼D3室(近田州路)"},{"poiid":"B2094654DB65A6F94392","title":"徐汇区虹梅地段医院","lon":"121.40158","lat":"31.16224","category":"162","category_name":"医院","address":"徐汇区漕河泾开发区(虹梅路1501号)"},{"poiid":"B2094757D164A3F84599","title":"聚科生命园2期","lon":"121.402933086","lat":"31.1614565869","category":"500","category_name":"未知分类","address":"上海桂平路333号"},{"poiid":"B2094757D56CA2FE4693","title":"新漕河泾国际商务中心食堂","lon":"121.4049709","lat":"31.1636597","category":"68","category_name":"快餐厅","address":"徐汇区桂平路391号副楼3楼"},{"poiid":"B2094654DA65A6F5479D","title":"同济华城商业广场","lon":"121.39864","lat":"31.16024","category":"119","category_name":"商场","address":"古美路1471、1487弄1-23号"},{"poiid":"B2094654DA65A6F54692","title":"虹梅街道社区卫生服务中心","lon":"121.40157","lat":"31.162","category":"162","category_name":"医院","address":"闵行区漕宝路1001号(近虹梅路)"},{"poiid":"B2094655D36DA6FC409B","title":"漕宝路虹梅路","lon":"121.40107","lat":"31.16161","category":"38","category_name":"公交车站","address":""},{"poiid":"B209475CD764A1F8419C","title":"星巴克 桂平路店","lon":"121.40496","lat":"31.16366","category":"65","category_name":"咖啡厅","address":"桂平路391号新漕河泾国际商务中心内(近漕宝路)"},{"poiid":"B2094757D569A0FD419E","title":"兴园技术中心","lon":"121.4044","lat":"31.16352024","category":"46","category_name":"楼宇","address":"中国上海市徐汇区漕宝路"},{"poiid":"B2094757DB68A5F44599","title":"燕赵会馆","lon":"121.39557","lat":"31.16743","category":"76","category_name":"上海菜","address":"徐汇区古美路1528号7幢201B--203铺(近漕宝路)"},{"poiid":"B2094757D068A5F84898","title":"泰科电子","lon":"121.39844","lat":"31.161607","category":"46","category_name":"楼宇","address":"上海古美路1528号5号楼"},{"poiid":"B2094757D06BA0F9449E","title":"宏亮食艺坊","lon":"121.407021","lat":"31.159352","category":"76","category_name":"上海菜","address":"徐汇区桂平路295号(漕宝路钦州南路间)"},{"poiid":"B2094757D165A7F54898","title":"徐汇区红梅街道社区卫生服务中心","lon":"121.401971586","lat":"31.162333104","category":"500","category_name":"未知分类","address":"上海市闵行区古美路"},{"poiid":"B2094654DA65A5F44299","title":"兴园坊","lon":"121.40506354009","lat":"31.16319913268","category":"76","category_name":"上海菜","address":"徐汇区漕宝路509号兴园宾馆1楼(桂平路口)"},{"poiid":"B2094655D36CA7F4449B","title":"桂平路漕宝路","lon":"121.40504","lat":"31.16352","category":"38","category_name":"公交车站","address":""},{"poiid":"B2094757D065A2FF409F","title":"京世造型(漕宝路店)","lon":"121.399968","lat":"31.160631","category":"148","category_name":"美容美发店","address":"上海漕宝路1068號(近古美路)"},{"poiid":"B2094655D36CA7F4449D","title":"桂平路","lon":"121.40548","lat":"31.16321","category":"38","category_name":"公交车站","address":""},{"poiid":"B2094654DA65A5FE449C","title":"良友金伴(漕宝路)","lon":"121.40128","lat":"31.16119","category":"117","category_name":"便民商店/便利店","address":"漕宝路1034"},{"poiid":"B2094654DA65A6F5479A","title":"上海星联实业有限公司","lon":"121.40158","lat":"31.16337","category":"263","category_name":"公司","address":"虹梅路1535号"},{"poiid":"B2094751D568A7FD4993","title":"桃江苑韩国料理","lon":"121.4054","lat":"31.16339","category":"269","category_name":"烧烤","address":"徐汇区桂平路391号新漕河泾国际商务中心裙楼(近桂果路)"},{"poiid":"B2094654D564A2FE469C","title":"田林大楼","lon":"121.40265","lat":"31.1677","category":"46","category_name":"楼宇","address":"浦东区达尔文路88号"},{"poiid":"B2094757D165A1F5469B","title":"兴园大楼","lon":"121.40365918","lat":"31.162687711","category":"252","category_name":"楼宇机构","address":"上海桂平路410号"},{"poiid":"B2094757D168A0FE4293","title":"冠生园集团技术中心","lon":"121.40292933","lat":"31.161802693","category":"500","category_name":"未知分类","address":"上海市桂平路353号"},{"poiid":"B2094750D365A2FD4793","title":"悦车坊汽车服务漕宝店","lon":"121.401596","lat":"31.161907","category":"163","category_name":"4S店","address":"漕宝路1012号"},{"poiid":"B2094757D16FA0FD489F","title":"蒲公英幼儿园","lon":"121.40322658","lat":"31.161051079","category":"57","category_name":"幼儿园","address":"上海浦东金桥清水苑内"},{"poiid":"B2094757D06BA6FC4993","title":"中国科学院","lon":"121.407004","lat":"31.161934","category":"671","category_name":"高校中心点","address":"上海漕宝路500号"},{"poiid":"B2094751D365A2FD4898","title":"上海漕河径新兴技术开发区科技创业中心","lon":"121.4019417","lat":"31.1638837","category":"252","category_name":"楼宇机构","address":"上海市桂平路410号"},{"poiid":"B2094757D16FA0FC479B","title":"上海师范大学西部操场","lon":"121.40107858","lat":"31.160259063","category":"500","category_name":"未知分类","address":"上海徐汇区桂林路100号"},{"poiid":"B2094757D168A2FB449D","title":"93路漕宝路","lon":"121.405703","lat":"31.163331","category":"38","category_name":"公交车站","address":"上海漕宝路桂平路"},{"poiid":"B2094757D76AA1F84498","title":"四海游龙 古美店","lon":"121.39846","lat":"31.160318","category":"68","category_name":"快餐厅","address":"徐汇区漕宝路1100号(近古美路)"},{"poiid":"B2094655D26FA5F84298","title":"梅莲苑","lon":"121.40269","lat":"31.159204","category":"47","category_name":"住宅区","address":"虹梅路1109-1111弄"},{"poiid":"B2094757D165A4F9429D","title":"上海航天能源有限公司","lon":"121.40304498","lat":"31.161948996","category":"263","category_name":"公司","address":"上海浦东新区龙东大道4493号"},{"poiid":"B2094757D164A6FD4698","title":"中山大学格致园","lon":"121.402075186","lat":"31.1639214351","category":"253","category_name":"校园生活","address":"广州小谷围大学城中山大学格致园"},{"poiid":"B2094757D66DA5FE499C","title":"兴园科技广场","lon":"121.405095","lat":"31.164673","category":"500","category_name":"未知分类","address":"上海桂平路418号"},{"poiid":"B2094757D16CA5FA489D","title":"秦香阁","lon":"121.39973","lat":"31.15967","category":"84","category_name":"西北菜","address":"闵行区古美路1470号(近漕宝路)"},{"poiid":"B2094654DB64A4F4409A","title":"新漕河泾大厦物业管理处","lon":"121.40556","lat":"31.16374","category":"46","category_name":"楼宇","address":"漕宝路509号0204"},{"poiid":"B2094654DB69A5FB469B","title":"重庆鸡公煲 古美路店","lon":"121.398867054","lat":"31.160488793","category":"247","category_name":"餐饮美食","address":"闵行区东兰路318号2楼(近古美路)"},{"poiid":"B2094750DB6BA7FD449C","title":"漕河泾万丽大酒店","lon":"121.40187","lat":"31.164295","category":"251","category_name":"出行住宿","address":"田林路397号"},{"poiid":"B2094750D66CA5FF479F","title":"小东烧烤","lon":"121.403221","lat":"31.159074","category":"68","category_name":"快餐厅","address":"闵行区东兰路258号院内(漕河泾实验小学对面)"},{"poiid":"B2094757D16AA1F94892","title":"蒋记麻辣烫","lon":"121.406726786","lat":"31.1611086801","category":"68","category_name":"快餐厅","address":"徐汇区桂平路362号(近漕宝路)"},{"poiid":"B2094655D268A1FE4193","title":"上海市地方税务局徐汇分局第九税务所","lon":"121.40536","lat":"31.16435","category":"250","category_name":"公园户外","address":"桂平路410号兴园大楼2层"},{"poiid":"B2094757D464AAFC4293","title":"西秦美味","lon":"121.399033054","lat":"31.160499793","category":"68","category_name":"快餐厅","address":"徐汇区古美路1479号(近漕宝路)"},{"poiid":"B2094655D36CA7F84899","title":"虹梅路东兰路","lon":"121.40386","lat":"31.15997","category":"38","category_name":"公交车站","address":""},{"poiid":"B2094757D169A6FA429C","title":"虹梅路漕宝路","lon":"121.40257658","lat":"31.159336045","category":"500","category_name":"未知分类","address":"上海市徐汇区古美路"},{"poiid":"B2094757D168A4FE449B","title":"星翰奔驰","lon":"121.40330858","lat":"31.161497587","category":"263","category_name":"公司","address":"上海金沙江路万镇路"},{"poiid":"B2094655D268A1FE429A","title":"罗森(漕河泾新兴技术开发区工商所消费者权益申诉站北)","lon":"121.4052","lat":"31.16479","category":"117","category_name":"便民商店/便利店","address":"桂平路418"},{"poiid":"B2094757D069A5FE489E","title":"上岛咖啡 古美路店 UBC Coffee","lon":"121.398231054","lat":"31.160329793","category":"260","category_name":"其他","address":"徐汇区古美路1500号(漕宝路口)"},{"poiid":"B2094654DA65A5FA499B","title":"中国科学院上海生命科学研究院","lon":"121.407","lat":"31.16193","category":"671","category_name":"高校中心点","address":"漕宝路500号上海聚科生物园区"},{"poiid":"B2094757D16AA3FD4793","title":"COVIDIEN泰科医疗","lon":"121.39891748","lat":"31.162320803","category":"500","category_name":"未知分类","address":"上海闵行区古美路1528号6号楼5-6楼"},{"poiid":"B2094655D26FABF94399","title":"中友休闲街","lon":"121.39944","lat":"31.16066","category":"116","category_name":"特色商业街","address":""},{"poiid":"B2094654DA65A5FE459F","title":"中国移动漕宝路营业厅","lon":"121.39987","lat":"31.1606","category":"151","category_name":"电讯营业厅","address":"闵行区漕宝路1070-1072号"},{"poiid":"B2094654DA65A6F5499A","title":"京乾老鸭粉丝汤","lon":"121.39971","lat":"31.15925","category":"68","category_name":"快餐厅","address":"徐汇区古美路1442号(近漕宝路)"},{"poiid":"B2094654DA65A5F44292","title":"田林工商所","lon":"121.40509","lat":"31.16478","category":"250","category_name":"公园户外","address":"桂平路418号上海漕河泾新园科技广场"},{"poiid":"B2094757DA6EABFF469E","title":"全家便利店(桂平路店)","lon":"121.405920982363","lat":"31.1622108113992","category":"249","category_name":"购物服务","address":"徐汇区桂平路391号新漕河泾国际商务中心内(漕宝路桂平路)"},{"poiid":"B2094757D66CA6FA419F","title":"和绿寿司(淮海路店)","lon":"121.39871158","lat":"31.164112138","category":"247","category_name":"餐饮美食","address":"上海市黄浦区淮海路"},{"poiid":"B2094757D465ABF84798","title":"山里人家","lon":"121.39839","lat":"31.1603","category":"87","category_name":"特色／地方风味餐厅","address":"闵行区漕宝路1102号(近古美路)"},{"poiid":"B2094757D469A5F84492","title":"东北烧烤店","lon":"121.39964","lat":"31.15875","category":"68","category_name":"快餐厅","address":"闵行区古美路1383号(近东兰路)"},{"poiid":"B2094757D069A6FA479E","title":"中国建设银行(漕河泾支行)","lon":"121.4058","lat":"31.16397","category":"150","category_name":"银行","address":"徐汇区桂平路418号(漕宝路桂平路)"},{"poiid":"B2094757D66CA1F8499F","title":"淞滨路同济路公车站","lon":"121.40289558","lat":"31.164890154","category":"500","category_name":"未知分类","address":"上海宝山区淞滨路同济路"},{"poiid":"B2094757D16AA7FE4298","title":"鸿元中心","lon":"121.398092535","lat":"31.1639414291","category":"46","category_name":"楼宇","address":"上海徐汇区古美路1528号A3"},{"poiid":"B2094757D568A4FF4699","title":"紫竹大厦","lon":"121.40674","lat":"31.16398","category":"46","category_name":"楼宇","address":"芳甸路1088号"},{"poiid":"B2094757D66AABFE469E","title":"美诗美芙DIY甜品坊 漕宝店","lon":"121.399279054","lat":"31.159881793","category":"67","category_name":"甜品店","address":"古美路1458弄中友嘉园2号1401室近漕宝路"},{"poiid":"B2094655D26EA1FE4293","title":"东方剑桥幼儿园(古美路)","lon":"121.40013","lat":"31.15971","category":"57","category_name":"幼儿园","address":"闵行区古美路1458弄中友嘉园48号"},{"poiid":"B2094757D16BA2F8409A","title":"鸡大排(古美店)","lon":"121.40146558","lat":"31.16058907","category":"500","category_name":"未知分类","address":"上海市闵行区古美路1478号"},{"poiid":"B2094757D065A7FE4499","title":"中石油","lon":"121.40078001","lat":"31.16697589","category":"500","category_name":"未知分类","address":"上海田林路虹許路"},{"poiid":"B2094751DA65AAF5429D","title":"腾云大厦","lon":"121.397952","lat":"31.165224","category":"263","category_name":"公司","address":"田林路397号A楼"},{"poiid":"B2094655D265ABFE479C","title":"撞球馆","lon":"121.40049","lat":"31.1609","category":"171","category_name":"台球厅","address":""},{"poiid":"B2094654DA65A5FF4098","title":"世纪林","lon":"121.40445","lat":"31.15932","category":"196","category_name":"公园","address":""},{"poiid":"B2094757D169AAF4429B","title":"Nusoup(古美驿)","lon":"121.39856496","lat":"31.164005247","category":"500","category_name":"未知分类","address":"徐汇区古美路1528号漕河泾开发区总业园B1楼D4室"},{"poiid":"B2094654DA65A5FB439A","title":"中国银行上海市漕河泾支行","lon":"121.40612","lat":"31.16386","category":"150","category_name":"银行","address":"漕宝路509号新漕河泾大厦9层0901"},{"poiid":"B2094757D06AA5FE449C","title":"罗森便利店(新园科技广场店)","lon":"121.404616","lat":"31.164782","category":"500","category_name":"未知分类","address":"上海桂平路418号新园科技广场一楼"},{"poiid":"B2094757D069A5FB489C","title":"上海专利商标事务所有限公司","lon":"121.403995","lat":"31.165183","category":"500","category_name":"未知分类","address":"上海桂平路435号"},{"poiid":"B2094751D268A5FE4893","title":"上海市国际孵化中心","lon":"121.405299","lat":"31.164781","category":"252","category_name":"楼宇机构","address":"徐汇区桂平路410路"},{"poiid":"B2094655D26BA5F4459E","title":"田林园","lon":"121.40466","lat":"31.16715","category":"45","category_name":"产业园区","address":"桂平路470号"},{"poiid":"B2094757D16CA1FA4692","title":"康普中国","lon":"121.405563","lat":"31.163739","category":"500","category_name":"未知分类","address":"上海漕宝路509号新漕河泾大厦10楼"},{"poiid":"B2094751D264A0F8449D","title":"上海虹橋機場","lon":"121.407311","lat":"31.16299","category":"500","category_name":"未知分类","address":null},{"poiid":"B2094655D265A6F84093","title":"黑田小子自助烤肉","lon":"121.3997","lat":"31.15938","category":"95","category_name":"日本料理","address":"闵行区古美路1422号(近东兰路)"},{"poiid":"B2094654DA65A6F5489F","title":"文峰美发美容(古美路)","lon":"121.39942","lat":"31.16003","category":"148","category_name":"美容美发店","address":""},{"poiid":"B2094757D169A6FC489C","title":"桂箐路漕宝路公交站","lon":"121.407226","lat":"31.164135","category":"38","category_name":"公交车站","address":"上海桂箐路漕宝路113路公共汽车站"},{"poiid":"B2094654DA65A6F5499D","title":"上海古美医院","lon":"121.40034","lat":"31.15803","category":"162","category_name":"医院","address":"徐汇区古美路1388号(近东兰路)"},{"poiid":"B2094757D16DA4FB419F","title":"南北小酒楼(古美店)","lon":"121.39845","lat":"31.16122","category":"247","category_name":"餐饮美食","address":"上海徐汇区古美路1418号(近东兰路)  "},{"poiid":"B2094655D268A1FE4299","title":"全家(古美路)","lon":"121.39785","lat":"31.16168","category":"117","category_name":"便民商店/便利店","address":"古美路1515"},{"poiid":"B2094757D06AA1FB4993","title":"中石化加油站（漕宝路虹梅路）","lon":"121.40688324","lat":"31.159936904","category":"154","category_name":"加油加气站","address":"闵行区虹梅路2028号"},{"poiid":"B2094655D264AAF44692","title":"桂果园","lon":"121.40331","lat":"31.1668","category":"45","category_name":"产业园区","address":"桂平路470号"},{"poiid":"B2094757D469A7F8429B","title":"大东北农家院","lon":"121.39987","lat":"31.15825","category":"82","category_name":"东北菜","address":"闵行区古美路1378号龙享湾假日酒店1楼(东兰路古美路)"},{"poiid":"B2094753D26BA3F4499C","title":"段氏龙虾","lon":"121.406326","lat":"31.159988","category":"247","category_name":"餐饮美食","address":"上海市 桂平路299-2号"},{"poiid":"B2094655D36CA6FC429D","title":"古美路田州路","lon":"121.39775","lat":"31.1627","category":"38","category_name":"公交车站","address":""},{"poiid":"B209475DD268A6FB4498","title":"龙之梦购物广场中心","lon":"121.400405","lat":"31.159919","category":"500","category_name":"未知分类","address":"上海市 虹口足球场"},{"poiid":"B2094757D66DA7FA439F","title":"中国石化","lon":"121.40528106","lat":"31.164833068","category":"154","category_name":"加油加气站","address":"上海中环线田林出口"},{"poiid":"B2094655D265A5F5479D","title":"美域高(上海)投资有限公司","lon":"121.40054","lat":"31.16092","category":"158","category_name":"汽车销售","address":"漕宝路1058号"},{"poiid":"B2094757D66EA1FF479D","title":"同济华城","lon":"121.39851","lat":"31.159132","category":"47","category_name":"住宅区","address":"上海市闵行区漕宝路1158弄"},{"poiid":"B2094757D16AA3F8429D","title":"上海移动漕宝路营业厅","lon":"121.403600186","lat":"31.1597483536","category":"150","category_name":"银行","address":"上海漕宝路1078号(近古美路)"},{"poiid":"B2094757D569A2F4459A","title":"美诗美芙DIY蛋糕甜品烘焙坊","lon":"121.3994969","lat":"31.15961194","category":"112","category_name":"糕饼店","address":"徐汇区古美路1458号中友嘉园2号1401室(近漕宝路)"},{"poiid":"B2094654DA65A6F5499E","title":"煲煲仔 古美店","lon":"121.39970211851","lat":"31.15873933073","category":"257","category_name":"中餐厅","address":"闵行区古美路1426号(东兰路漕宝路间)"},{"poiid":"B2094757D465A4F5469F","title":"田仓米粉 古美店","lon":"121.398844054","lat":"31.159691793","category":"68","category_name":"快餐厅","address":"徐汇区古美路1460号(漕宝路口)"},{"poiid":"B2094757D169A6F4499D","title":"闵行汽轮新村","lon":"121.40077862","lat":"31.165218517","category":"500","category_name":"未知分类","address":"上海闵行区江川路"},{"poiid":"B2094757D66AABFC4293","title":"景湖茶馆","lon":"121.399462","lat":"31.160773","category":"260","category_name":"其他","address":"闵行区漕宝路1086号1-3楼(漕宝路古美路)"},{"poiid":"B2094757D66CA0F9459F","title":"某大厦","lon":"121.40621531","lat":"31.16336379","category":"500","category_name":"未知分类","address":"上海漕宝路"},{"poiid":"B2094654DA65A5FA4593","title":"桂莘小区(西门)","lon":"121.40699","lat":"31.1601","category":"47","category_name":"住宅区","address":"桂平路350弄"},{"poiid":"B2094757D16FABFB489E","title":"悦车坊(漕宝店)","lon":"121.403514586","lat":"31.1661331782","category":"500","category_name":"未知分类","address":"徐汇区漕宝路1012号(近中环)"},{"poiid":"B2094757D16EA1FF4892","title":"平南二村","lon":"121.401","lat":"31.159594","category":"252","category_name":"楼宇机构","address":"万源路2388弄"},{"poiid":"B2094757D164A2F4479F","title":"一茶一坐(企业总部)","lon":"121.39760458","lat":"31.164930154","category":"247","category_name":"餐饮美食","address":"上海田林路398号"},{"poiid":"B2094757D568A0F4469E","title":"新漕河客运大楼","lon":"121.4022728","lat":"31.16779278","category":"46","category_name":"楼宇","address":"徐汇区田林路300号"},{"poiid":"B2094654DA65A5F94893","title":"狄龙商务楼","lon":"121.4067","lat":"31.1593","category":"46","category_name":"楼宇","address":"桂平路299"},{"poiid":"B2094654DB64A2FA449A","title":"香樟园","lon":"121.40168","lat":"31.15811","category":"45","category_name":"产业园区","address":"东兰路248"},{"poiid":"B2094654DA65A5F9439C","title":"良友金伴No.445","lon":"121.40676","lat":"31.15978","category":"117","category_name":"便民商店/便利店","address":"桂平路297-7"},{"poiid":"B2094757D164A2F84093","title":"Resto","lon":"121.39825458","lat":"31.163013117","category":"500","category_name":"未知分类","address":"上海市古美路1528号B1美食广场"},{"poiid":"B2094750D268A2F84992","title":"滨江大道","lon":"121.399032","lat":"31.159303","category":"250","category_name":"公园户外","address":null},{"poiid":"B2094757DB6CA3FE489A","title":"上海非同时尚酒店","lon":"121.397925317","lat":"31.160296611","category":"214","category_name":"四星级宾馆","address":"闵行区漕宝路1108号漕宝大厦6-9楼(近古美路)"},{"poiid":"B2094750D56EA5F44292","title":"老纪面馆","lon":"121.4002","lat":"31.16678","category":"68","category_name":"快餐厅","address":"徐汇区田林路(近桂林路)"},{"poiid":"B2094757DA69A2F8489E","title":"永达巴士斯柯达4S店","lon":"121.40121899699","lat":"31.165610886171","category":"639","category_name":"汽车交通类公司","address":"徐汇区虹梅路1682号(近中环漕宝路)"},{"poiid":"B2094654DA65A5FE409E","title":"新弘商馆","lon":"121.40246","lat":"31.15789","category":"46","category_name":"楼宇","address":"东兰路228号"},{"poiid":"B2094654DA65A5FA469A","title":"上海精忠摩托车行上海地区销售服务中心","lon":"121.40657","lat":"31.16102","category":"159","category_name":"汽车维修","address":"桂平路354-1"},{"poiid":"B2094654DA65A5FE4798","title":"华一新城(东门)","lon":"121.39944","lat":"31.15903","category":"47","category_name":"住宅区","address":"古美路1455弄1-31号"},{"poiid":"B2094655D26EABF9499C","title":"苏州藏书羊肉馆(桂平路)","lon":"121.40691","lat":"31.15954","category":"257","category_name":"中餐厅","address":"徐汇区桂平路297号(漕宝路口)"},{"poiid":"B2094757D66CA2FC479E","title":"聚科园区","lon":"121.402260586","lat":"31.1591940428","category":"252","category_name":"楼宇机构","address":"上海徐汇区漕宝路桂平路"},{"poiid":"B2094655D265A2F54592","title":"东欧餐厅","lon":"121.40337","lat":"31.15818","category":"257","category_name":"中餐厅","address":""},{"poiid":"B2094757D16FA2FC489E","title":"浦世健身","lon":"121.40149","lat":"31.16746","category":"148","category_name":"美容美发店","address":"闵行区田林路358号漕河泾公园(近桂平路)"},{"poiid":"B2094654DA65A5FE4493","title":"中友嘉园(北门)","lon":"121.40045","lat":"31.16095","category":"656","category_name":"大门","address":""},{"poiid":"B2094654DB64A4F5489C","title":"中友休闲会所","lon":"121.4","lat":"31.16064","category":"248","category_name":"生活娱乐","address":"漕宝路1066"},{"poiid":"B2094757D464A6FA4493","title":"5days","lon":"121.40508","lat":"31.16465","category":"260","category_name":"其他","address":"徐汇区桂平路418号兴园科技广场1楼(近漕宝路)"},{"poiid":"B2094654DB6AA7F5439C","title":"国际金融研修院","lon":"121.40663","lat":"31.16538","category":"253","category_name":"校园生活","address":"徐汇区桂箐路5号"},{"poiid":"B2094654DB64A2FA449F","title":"上海冠骏汽车服务有限公司","lon":"121.40351","lat":"31.15921","category":"159","category_name":"汽车维修","address":"虹梅路1077-1079"},{"poiid":"B2094655D265A6FC469E","title":"中友嘉园(东门)","lon":"121.40288","lat":"31.16044","category":"656","category_name":"大门","address":""},{"poiid":"B2094655D36CA6FB4293","title":"东兰路虹梅路","lon":"121.40228","lat":"31.15769","category":"38","category_name":"公交车站","address":""},{"poiid":"B2094757D165AAFE4198","title":"上海啤酒","lon":"121.399288","lat":"31.16034","category":"500","category_name":"未知分类","address":"上海虹梅路休闲街"},{"poiid":"B2094757D16DA1FA459D","title":"华一新城","lon":"121.39867","lat":"31.158777","category":"47","category_name":"住宅区","address":"上海闵行区古美路1455弄"},{"poiid":"B2094751D264A0FC409E","title":"南京东路","lon":"121.407715","lat":"31.161911","category":"500","category_name":"未知分类","address":"南京东路"},{"poiid":"B2094654DB65A0FF4893","title":"华美达兴园酒店(漕宝路)","lon":"121.39714","lat":"31.16231","category":"215","category_name":"三星级宾馆","address":"漕宝路509号"},{"poiid":"B2094757D165A5FD439B","title":"上海移动天山西路营业厅","lon":"121.404413886","lat":"31.1591483419","category":"500","category_name":"未知分类","address":"上海天山西路141-147号"},{"poiid":"B2094757D465A1FD4198","title":"倍爱吾有机咖啡","lon":"121.3987","lat":"31.161087","category":"260","category_name":"其他","address":"徐汇区古美路1528号A7幢D10室(近漕宝路)"},{"poiid":"B2094654D564A2FE469A","title":"上海市社会保障和市民服务信息中心","lon":"121.40338","lat":"31.16681","category":"248","category_name":"生活娱乐","address":"桂平路471号漕河泾物业6号楼5层"},{"poiid":"B2094757DA6EAAF5479C","title":"上海研祥智能科技有限公司","lon":"121.3984144","lat":"31.1616279000002","category":"263","category_name":"公司","address":"古美路1528号6幢12层"},{"poiid":"B2094757DA69A3FB419A","title":"标致雪铁龙集团","lon":"121.39806767037","lat":"31.163642331123","category":"639","category_name":"汽车交通类公司","address":"漕河泾开发区古美路1528号标致雪铁龙集团亚洲运营部"},{"poiid":"B2094757D66DA6FB449C","title":"中环线 锦绣路","lon":"121.39837558","lat":"31.160768073","category":"500","category_name":"未知分类","address":"上海市"},{"poiid":"B2094757D16BA2F9439C","title":"上海大光明电影院","lon":"121.399259586","lat":"31.1669581944","category":"500","category_name":"未知分类","address":"上海南京西路216号"},{"poiid":"B2094654DA65A6F54893","title":"芳洲盲人按摩古美店","lon":"121.39969","lat":"31.15931","category":"149","category_name":"洗浴推拿场所","address":"闵行区古美路1448号 "},{"poiid":"B2094757DA6FA3F9449D","title":"上海揆志网络科技有限公司 (云诺 Yunio)","lon":"121.407161999997","lat":"31.1640159999998","category":"263","category_name":"公司","address":"徐汇区漕宝路509号新漕河泾大厦"},{"poiid":"B2094655D26EA2FD419A","title":"中国银行国际金融研修院外语测试中心","lon":"121.40663","lat":"31.16538","category":"150","category_name":"银行","address":"桂箐路5"},{"poiid":"B2094757D16DA6F4479F","title":"桂平路","lon":"121.40503958","lat":"31.167412203","category":"500","category_name":"未知分类","address":"上海市徐汇区桂平路470號"},{"poiid":"B2094655D268A0FC469A","title":"中国航空无线电电子研究所(桂平路)","lon":"121.40478","lat":"31.16646","category":"191","category_name":"科研机构","address":"桂平路555"},{"poiid":"B2094757D069A4FB4099","title":"古美路1528号","lon":"121.399873486","lat":"31.1590187393","category":"500","category_name":"未知分类","address":"上海A2栋5楼"},{"poiid":"B2094757DA69A1FB489F","title":"育碧上海工作室","lon":"121.40571304374","lat":"31.166027876318","category":"634","category_name":"IT类公司","address":"上海市桂箐路7号，G7华东理工科技园区3号楼3楼"},{"poiid":"B2094750D66CA6F4499C","title":"世纪大道","lon":"121.402275","lat":"31.1674","category":"500","category_name":"未知分类","address":null},{"poiid":"B2094654D564A2FE449D","title":"上海广安电热锅炉厂","lon":"121.40338","lat":"31.16682","category":"263","category_name":"公司","address":"桂平路471号漕河泾物业"},{"poiid":"B2094654D564A2FE459E","title":"理光图像技术(上海)有限公司","lon":"121.40338","lat":"31.16682","category":"263","category_name":"公司","address":"桂平路471号漕河泾物业8号楼6层"},{"poiid":"B2094757D16EA1FD4599","title":"满杆度桌球汇所(龙茗店)","lon":"121.398624","lat":"31.160221","category":"248","category_name":"生活娱乐","address":"闵行区龙茗路1300弄58号(近古龙路)"},{"poiid":"B2094751D468ABF5499A","title":"甜愛路","lon":"121.403046","lat":"31.157135","category":"500","category_name":"未知分类","address":null},{"poiid":"B2094654D564A2FE459F","title":"上海中科光纤通讯器件有限公司","lon":"121.40338","lat":"31.16681","category":"263","category_name":"公司","address":"桂平路471号漕河泾物业8号楼4-5层"},{"poiid":"B2094757D164ABFC459C","title":"Route 1壹号线","lon":"121.40058348","lat":"31.166932543","category":"500","category_name":"未知分类","address":"上海虹梅路1688号(田林路中环路加油站内)"},{"poiid":"B2094757D568A4F84693","title":"上海市社会保障卡服务中心","lon":"121.4033778","lat":"31.16680773","category":"248","category_name":"生活娱乐","address":"桂平路470号桂果园6号楼5层"},{"poiid":"B2094654D564A2FD469B","title":"上海光通信发展股份有限公司","lon":"121.40603","lat":"31.16648","category":"263","category_name":"公司","address":"桂箐路15号"},{"poiid":"B2094655D26BA6F5449F","title":"闵行区梅陇城乡建设发展公司","lon":"121.40382","lat":"31.15845","category":"263","category_name":"公司","address":"虹梅1047号"},{"poiid":"B2094654DA65A5FE4092","title":"欧宁宫休闲广场","lon":"121.40256","lat":"31.15816","category":"248","category_name":"生活娱乐","address":"闵行区东兰路220号"},{"poiid":"B2094654D564A2FE479F","title":"上海漕河泾开发区物业管理有限公司","lon":"121.40092","lat":"31.16709","category":"263","category_name":"公司","address":"田林路301"},{"poiid":"B2094757D66EA5FB4092","title":"卡雨诗","lon":"121.399656586","lat":"31.15854003","category":"500","category_name":"未知分类","address":"上海市徐汇区漕宝路古美路1392号"},{"poiid":"B2094654DA65A5FE429F","title":"梅莲苑(东门)","lon":"121.40338","lat":"31.15954","category":"656","category_name":"大门","address":"虹梅路1109-1111弄"},{"poiid":"B2094654D564A2FE439D","title":"上海开通数控公司","lon":"121.40459","lat":"31.16713","category":"263","category_name":"公司","address":"桂平路470号"},{"poiid":"B2094757D065A0F84593","title":"Dying's shelter","lon":"121.39862413","lat":"31.158827393","category":"500","category_name":"未知分类","address":null},{"poiid":"B2094757D16BA7FE469A","title":"古道村落","lon":"121.40384358","lat":"31.157310606","category":"500","category_name":"未知分类","address":"上海闵行区古美路595号"},{"poiid":"B2094654DB65A3FF469F","title":"迪韵茶坊","lon":"121.3999","lat":"31.1586","category":"260","category_name":"其他","address":"徐汇区古美路1416号(近东兰路)"},{"poiid":"B2094654D564A2FD4699","title":"上海光通","lon":"121.40603","lat":"31.16648","category":"263","category_name":"公司","address":"桂箐路15号"},{"poiid":"B2094757D164A0FE499F","title":"白羊座","lon":"121.402628586","lat":"31.1589380378","category":"260","category_name":"其他","address":"上海市天空"},{"poiid":"B2094654DA65A5FE479B","title":"同济华城(东门)","lon":"121.3991","lat":"31.15923","category":"48","category_name":"楼宇大门","address":"漕宝路1158弄"},{"poiid":"B2094757D169A0F44998","title":"黑皮驴舍会所","lon":"121.4071861","lat":"31.159398736","category":"500","category_name":"未知分类","address":"上海徐家汇蒲汇塘路50号玉兰花苑3号楼1701"},{"poiid":"B2094654DA65A5FD449A","title":"松顺旅馆","lon":"121.40077","lat":"31.15794","category":"217","category_name":"旅馆招待所","address":"东兰路258号"},{"poiid":"B2094655D26FA7F9449B","title":"中友嘉园(西门)","lon":"121.39949","lat":"31.15961","category":"656","category_name":"大门","address":"古美路1458弄"},{"poiid":"B2094655D268A4F5499D","title":"梅莲苑(东二门)","lon":"121.4037","lat":"31.15869","category":"656","category_name":"大门","address":""},{"poiid":"B2094654D564A2FE479E","title":"漕河泾开发区公园(南门)","lon":"121.40114","lat":"31.16751","category":"656","category_name":"大门","address":"田林路358"},{"poiid":"B2094757D568AAF4469B","title":"上海旺安城市快捷酒店","lon":"121.4068061","lat":"31.15928","category":"251","category_name":"出行住宿","address":"徐汇区桂平路291号"},{"poiid":"B2094654DA65A5FD4392","title":"东兰小区(北门)","lon":"121.40176","lat":"31.15731","category":"656","category_name":"大门","address":"东兰路51弄1-8号"}]