[{"poiid":"B2094655D26AAAF4479E","title":"庆春电影城","lon":"121.41084","lat":"31.1694","category":"178","category_name":"电影院","address":"徐汇区田林路140号15幢2楼近苍梧路;;"},{"poiid":"B2094757D064A7FF469A","title":"新南华大酒店","lon":"121.412288686","lat":"31.1702543587","category":"76","category_name":"上海菜","address":"徐汇区田林路140号越界创意园区内(近苍梧路)"},{"poiid":"B2094655D265A3FE489F","title":"越界徐汇创意新天地","lon":"121.41225","lat":"31.17062","category":"45","category_name":"产业园区","address":"田林路140号"},{"poiid":"B2094757D068A5F9489F","title":"轨道交通9号线桂林路站","lon":"121.413074286","lat":"31.1771445933","category":"36","category_name":"地铁站","address":"上海徐汇区宜山路桂林路"},{"poiid":"B2094757D06FA3F54593","title":"越界创意园区","lon":"121.41123461","lat":"31.171096845","category":"260","category_name":"其他","address":"上海田林路140号"},{"poiid":"B2094757D06FA0F5409C","title":"侬好蛙干锅传奇(田林店)","lon":"121.4144","lat":"31.16919","category":"71","category_name":"四川菜","address":"徐汇区田林路109号3楼(近苍梧路)"},{"poiid":"B2094757DA6EABFD499A","title":"宝燕壹号(宜山路店)","lon":"121.414997999998","lat":"31.174531","category":"247","category_name":"餐饮美食","address":"徐汇区宜山路700号新宜街84幢5楼(近地铁9号线桂林路站4号出口)"},{"poiid":"B2094757D064A7F9459F","title":"田林路","lon":"121.415352886","lat":"31.1718784904","category":"500","category_name":"未知分类","address":"上海田林路"},{"poiid":"B2094757D06FA4FA499C","title":"洋葱餐厅 田林店 Young Zone","lon":"121.410719054","lat":"31.169577793","category":"72","category_name":"广东菜","address":"徐汇区田林路140号15号楼东1楼(越界园区内)"},{"poiid":"B2094655D26AA0F8419D","title":"领域射箭台球馆","lon":"121.41084","lat":"31.1694","category":"247","category_name":"餐饮美食","address":"徐汇区田林路140号越界创意园区15号楼2楼(近苍梧路)"},{"poiid":"B2094750D76EABFB489B","title":"星巴克(钦江路店)","lon":"121.41","lat":"31.1767","category":"260","category_name":"其他","address":"徐汇区钦江路102号(近虹漕路)"},{"poiid":"B2094757D06FA6FD4592","title":"萨莉亚(田林路店)","lon":"121.41548","lat":"31.16986","category":"94","category_name":"西餐厅","address":"徐汇区田林路124号2楼(近桂林路)"},{"poiid":"B2094757D068ABF5489B","title":"虹漕园","lon":"121.40989177","lat":"31.176366091","category":"46","category_name":"楼宇","address":"上海虹漕路421号"},{"poiid":"B2094654DB6AA6F84398","title":"上海海悦酒店","lon":"121.41069","lat":"31.17636","category":"214","category_name":"四星级宾馆","address":"徐汇区钦江路99号(近苍梧路)"},{"poiid":"B2094757D069A7FB419A","title":"上海市质量技术监督局","lon":"121.410964","lat":"31.174055","category":"46","category_name":"楼宇","address":"上海宜山路728号"},{"poiid":"B2094757DA6FA3FF459F","title":"光头烧烤广场(田林店)","lon":"121.414233000003","lat":"31.1699390000001","category":"247","category_name":"餐饮美食","address":"徐汇区田林路132号2楼(近苍梧路)"},{"poiid":"B2094757D06FA6F84392","title":"壹题咖啡 ET Cafe &amp; Tea","lon":"121.412184","lat":"31.170211","category":"260","category_name":"其他","address":"徐汇区田林路140号越界创意园区140号16号楼E座(近苍梧路)"},{"poiid":"B2094655D269A4FB429A","title":"一兆韦德(田林店)","lon":"121.41084","lat":"31.1694","category":"247","category_name":"餐饮美食","address":"徐汇区田林路140号越界创意园区15号楼2楼(近苍梧路)"},{"poiid":"B2094757D069A2F4469A","title":"湘西山寨","lon":"121.4141","lat":"31.16915","category":"77","category_name":"湖南菜","address":"徐汇区田林路109号秀衣坊4楼(近苍梧路)"},{"poiid":"B2094757DB68A5F9439B","title":"禾新医院","lon":"121.40938229781227","lat":"31.175985834927737","category":"162","category_name":"医院","address":"徐汇区钦江路120号(近虹漕路)"},{"poiid":"B2094757D068A4F4469A","title":"K歌迷","lon":"121.41492935","lat":"31.169776699","category":"170","category_name":"KTV","address":"上海田林路132号"},{"poiid":"B2094757D068A7F54893","title":"上海核工程研究设计院","lon":"121.410720825","lat":"31.1686153412","category":"500","category_name":"未知分类","address":"上海徐汇区虹漕路29号"},{"poiid":"B2094750D76EAAF8479F","title":"谷村","lon":"121.413","lat":"31.1711","category":"110","category_name":"其他亚洲菜","address":"徐汇区苍梧路14号25铺(近田林路)"},{"poiid":"B2094757D069A7F4489A","title":"怡虹科技园","lon":"121.40966033","lat":"31.17092514","category":"500","category_name":"未知分类","address":"上海田林路192号"},{"poiid":"B2094757D06FA3F94299","title":"COOLLIFE.asia","lon":"121.41505158","lat":"31.171642285","category":"94","category_name":"西餐厅","address":"上海徐汇区田林路140号越界创意园区15栋D单元(近苍梧路)"},{"poiid":"B2094750DA6EA2F5409B","title":"窑洞小厨","lon":"121.411277","lat":"31.172582","category":"247","category_name":"餐饮美食","address":null},{"poiid":"B2094750D76EA6FE4098","title":"小巴辣子川湘菜餐厅(田林店)","lon":"121.411","lat":"31.1692","category":"71","category_name":"四川菜","address":"徐汇区田林路140号15号楼东1楼2楼(越界园区内)"},{"poiid":"B2094757D064A7FA499E","title":"SVA","lon":"121.411353586","lat":"31.1726453054","category":"46","category_name":"楼宇","address":"上海市徐汇区宜山路757号"},{"poiid":"B2094655D36CA3FC469E","title":"东北廉家大院","lon":"121.41334","lat":"31.17073","category":"82","category_name":"东北菜","address":"徐汇区苍梧路14-6号(近田林路)"},{"poiid":"B2094757D069A1F94398","title":"复茂小龙虾 田林店 FOMO","lon":"121.413978054","lat":"31.169902793","category":"68","category_name":"快餐厅","address":"徐汇区田林路128号2楼(近苍梧路)"},{"poiid":"B2094757D06AA3FB489B","title":"上海市计量测试技术研究院(一分部)","lon":"121.411825","lat":"31.173763","category":"500","category_name":"未知分类","address":"上海宜山路716号"},{"poiid":"B2094750D26DA5FA4699","title":"上海八万人体育场","lon":"121.415724","lat":"31.173371","category":"500","category_name":"未知分类","address":"徐汇区"},{"poiid":"B2094654D564A2FC4593","title":"上海金陵商务广场","lon":"121.40777","lat":"31.17252","category":"45","category_name":"产业园区","address":"宜山路801"},{"poiid":"B2094757D065A6FD409E","title":"上海航天技术研究院第803研究所","lon":"121.41211558","lat":"31.176902388","category":"46","category_name":"楼宇","address":"上海市徐汇区宜山路710号"},{"poiid":"B2094655D26FAAF4449B","title":"上广电会展中心","lon":"121.41198","lat":"31.1728","category":"185","category_name":"会展中心","address":"苍梧路199"},{"poiid":"B2094757D069ABF84698","title":"招商银行(田林支行)","lon":"121.412648","lat":"31.170261","category":"150","category_name":"银行","address":"徐汇区田林路140号越界创意园区内(近苍梧路)"},{"poiid":"B2094750D26CA5FE429B","title":"感智盲人按摩田林店","lon":"121.4107497742822","lat":"31.17201746351366","category":"248","category_name":"生活娱乐","address":"徐汇区田林路124号2铺3楼"},{"poiid":"B2094757D069A6F54399","title":"小荧星艺校","lon":"121.413817","lat":"31.169173","category":"500","category_name":"未知分类","address":"徐汇区苍梧路12号INTOWN7幢"},{"poiid":"B2094757D168A6FD449A","title":"803研究所","lon":"121.413348","lat":"31.174029","category":"253","category_name":"校园生活","address":"上海宜山路710号"},{"poiid":"B2094757D66EA3F84393","title":"甲甲小小休闲小站","lon":"121.412109586","lat":"31.1714102813","category":"247","category_name":"餐饮美食","address":"徐汇区苍梧路10号4幢B1楼01室(近田林路)"},{"poiid":"B2094752D26CABFB429C","title":"陇上人家","lon":"121.41215","lat":"31.17038","category":"84","category_name":"西北菜","address":"徐汇区田林路140号越界园区15号楼西侧(近苍梧路)"},{"poiid":"B2094655D26BA6F9419A","title":"含香顺饺子馆","lon":"121.413051","lat":"31.170139","category":"87","category_name":"特色／地方风味餐厅","address":"徐汇区苍梧路14号31铺(近田林路)"},{"poiid":"B2094757D16EA5FA489D","title":"缤视智造","lon":"121.41136558","lat":"31.171722287","category":"46","category_name":"楼宇","address":"徐汇区田林路140号越界创意园区28号楼347A(近苍梧路)"},{"poiid":"B2094757D065ABFE459C","title":"Verawom","lon":"121.411460876","lat":"31.1717454178","category":"46","category_name":"楼宇","address":"上海苍梧路14-28临2层"},{"poiid":"B2094757D16CA5FF409F","title":"湘韵百味","lon":"121.413244054","lat":"31.169953793","category":"77","category_name":"湖南菜","address":"徐汇区苍梧路14号(近田林路)"},{"poiid":"B2094655D264ABF8459E","title":"乌冬创作餐厅","lon":"121.41235","lat":"31.17052","category":"257","category_name":"中餐厅","address":""},{"poiid":"B2094751D36BA6F4499F","title":"SMG百視通","lon":"121.411752","lat":"31.173053","category":"500","category_name":"未知分类","address":null},{"poiid":"B2094757D06BA2F5409D","title":"上海市质量监督检验技术研究院","lon":"121.411692586","lat":"31.1753133575","category":"46","category_name":"楼宇","address":"上海市徐汇区苍梧路381号"},{"poiid":"B2094751D26DA5FA439D","title":"真粥道","lon":"121.411918","lat":"31.171455","category":"68","category_name":"快餐厅","address":"徐汇区苍梧路14号(近田林路)"},{"poiid":"B209475DDB6CA1F4409F","title":"公主与骑士","lon":"121.41201","lat":"31.171398","category":"247","category_name":"餐饮美食","address":"上海市 田林路155号"},{"poiid":"B2094757D66BA3FE449A","title":"酷乐线下主题店 Cool Life","lon":"121.411157","lat":"31.169228","category":"94","category_name":"西餐厅","address":"徐汇区田林路140号越界创意园区15D(近苍梧路)"},{"poiid":"B2094654D56BAAFA469B","title":"七浦路游子老鸭粉丝汤","lon":"121.41313","lat":"31.17148","category":"68","category_name":"快餐厅","address":"徐汇区苍梧路14号(近田林路)"},{"poiid":"B2094655D268A1F9489D","title":"越界商务楼","lon":"121.41228","lat":"31.17097","category":"46","category_name":"楼宇","address":""},{"poiid":"B2094655D268A1F94898","title":"Citysbest Coffee","lon":"121.41168","lat":"31.17072","category":"65","category_name":"咖啡厅","address":""},{"poiid":"B2094751DA6AA6F44999","title":"谷村东南亚创意料理","lon":"121.408302","lat":"31.173097","category":"247","category_name":"餐饮美食","address":"苍梧路14号25铺"},{"poiid":"B2094752DA6DA1FB4599","title":"SMG百视通新媒体股份有限公司","lon":"121.410417","lat":"31.173679","category":"263","category_name":"公司","address":"宜山路757号"},{"poiid":"B2094757D66BA6F4439B","title":"韩福宫","lon":"121.41281","lat":"31.17027","category":"96","category_name":"韩国料理","address":"徐汇区田林路140号越界创意园区15号楼东1楼(近苍梧路)"},{"poiid":"B2094654D56BABFB489D","title":"上海市计量器具强制检定中心","lon":"121.41182","lat":"31.17376","category":"250","category_name":"公园户外","address":"宜山路716"},{"poiid":"B2094750DA6EAAFF4292","title":"雾山地道韩国料理","lon":"121.41208","lat":"31.16938","category":"96","category_name":"韩国料理","address":"徐汇区田林路397号漕河泾万丽大酒店1楼(近古美路)"},{"poiid":"B2094757D064A4FC459D","title":"新粤小厨","lon":"121.41362958","lat":"31.170129256","category":"72","category_name":"广东菜","address":"徐汇区苍梧路14-9-10(近田林路)"},{"poiid":"B2094750D664A6FB489D","title":"函轩速之味","lon":"121.413","lat":"31.1721","category":"95","category_name":"日本料理","address":"徐汇区苍梧路197号2楼(近宜山路)"},{"poiid":"B2094654D56BAAF8479C","title":"傣妹火锅(田林路)","lon":"121.41513","lat":"31.17011","category":"86","category_name":"火锅店","address":"徐汇区田林路128号3楼(桂林路苍梧路间)"},{"poiid":"B2094654D56BAAFB449B","title":"科技大厦(宜山路)","lon":"121.41583","lat":"31.17405","category":"46","category_name":"楼宇","address":"上海宜山路705号(近桂林路)"},{"poiid":"B2094757D06AA5F44699","title":"新疆人特色菜","lon":"121.415829514","lat":"31.1708147528","category":"90","category_name":"清真餐馆","address":"徐汇区田林路118号后栋2楼(桂林路口)"},{"poiid":"B2094752DA69A0FA4892","title":"巫溪烤全鱼","lon":"121.409337","lat":"31.17175","category":"247","category_name":"餐饮美食","address":"上海市 上海市徐汇区田林路128号2楼"},{"poiid":"B2094654D56BAAFA4693","title":"上海广电中央技术研究院","lon":"121.41146","lat":"31.17245","category":"191","category_name":"科研机构","address":"宜山路757"},{"poiid":"B2094757D569A1FD4298","title":"SVA越界","lon":"121.4126479","lat":"31.17026126","category":"47","category_name":"住宅区","address":"田林路140号(苍梧路口)"},{"poiid":"B2094751D465A4FA439C","title":"百视通新媒体","lon":"121.412186","lat":"31.173508","category":"263","category_name":"公司","address":"宜山路757号"},{"poiid":"B2094654D564A2FC459A","title":"快客No.6546","lon":"121.40951","lat":"31.17249","category":"117","category_name":"便民商店/便利店","address":""},{"poiid":"B2094750D664A0FE439D","title":"麦上原汁牛肉面","lon":"121.413","lat":"31.1713","category":"68","category_name":"快餐厅","address":"徐汇区苍梧路14号(近田林路)"},{"poiid":"B2094757D069ABF8499E","title":"一兆偉德","lon":"121.4118317","lat":"31.17007237","category":"500","category_name":"未知分类","address":"上海田林路140號"},{"poiid":"B2094654D56BAAFC429D","title":"怡和轩","lon":"121.41135958596","lat":"31.176417557785","category":"72","category_name":"广东菜","address":"徐汇区钦江路99号海悦宾馆三号楼内(苍梧路口)"},{"poiid":"B2094757D064A6FE4693","title":"南华川湘汇","lon":"121.412543054","lat":"31.169735793","category":"71","category_name":"四川菜","address":"徐汇区田林路140号越界创意园区内(近苍梧路)"},{"poiid":"B2094757D06FA6FD4193","title":"7-ELEVEN(田林店)","lon":"121.41427","lat":"31.16964","category":"117","category_name":"便民商店/便利店","address":"徐汇区田林路132号10-2(近苍梧路)"},{"poiid":"B2094757D065A5FC4792","title":"TOTO","lon":"121.40869","lat":"31.17258","category":"123","category_name":"家具建材市场","address":"徐汇区宜山路408号(近轻轨宜山路站)"},{"poiid":"B2094757D16CA4FD469F","title":"Le Cake(諾心蛋糕)公司","lon":"121.412042586","lat":"31.1720032929","category":"263","category_name":"公司","address":"上海市徐汇区田林路140號28號樓216室"},{"poiid":"B209475CD76CA5FB439E","title":"星巴克（越界店）","lon":"121.411979","lat":"31.169387","category":"500","category_name":"未知分类","address":"上海市 上海市徐汇区田林路140号越界创意园区"},{"poiid":"B2094655D26BA3FF4699","title":"风波庄 田林店","lon":"121.413208054","lat":"31.170094793","category":"260","category_name":"其他","address":"徐汇区苍梧路14-22号(近田林路)"},{"poiid":"B2094655D36DA0FA4598","title":"宜山路虹漕路","lon":"121.40861","lat":"31.17292","category":"38","category_name":"公交车站","address":""},{"poiid":"B2094655D264ABF4429C","title":"都市白领快捷公寓","lon":"121.41232","lat":"31.17438","category":"250","category_name":"公园户外","address":""},{"poiid":"B2094757D069A3F84299","title":"CooTek","lon":"121.4115818","lat":"31.170135415","category":"46","category_name":"楼宇","address":"上海市田林路140号15-V"},{"poiid":"B2094757D16CAAF8459D","title":"海悦酒店自助餐","lon":"121.41104","lat":"31.176","category":"268","category_name":"自助","address":"徐汇区钦江路99号1楼(近苍梧路)"},{"poiid":"B2094757D16CA4FB459C","title":"心一代 田林店","lon":"121.410844","lat":"31.169405","category":"68","category_name":"快餐厅","address":"徐汇区田林路142号怡虹科技园103室(虹漕路口)"},{"poiid":"B2094655D26BA2F84498","title":"田林路虹漕路","lon":"121.41117","lat":"31.16924","category":"38","category_name":"公交车站","address":""},{"poiid":"B2094757D06AA5F84293","title":"贝贝之车","lon":"121.41141542","lat":"31.171409923","category":"500","category_name":"未知分类","address":"上海贝贝之车"},{"poiid":"B2094757D16DA1F54592","title":"家湘味道","lon":"121.415889","lat":"31.17026","category":"77","category_name":"湖南菜","address":"徐汇区田林路120号2楼"},{"poiid":"B2094654D56BAAFC4292","title":"上海质量检测服务科技园","lon":"121.41105","lat":"31.17532","category":"45","category_name":"产业园区","address":"苍梧路381"},{"poiid":"B2094757D168ABFE479C","title":"89路田林路桂林路站","lon":"121.41289158","lat":"31.171407281","category":"500","category_name":"未知分类","address":"上海田林路桂林路"},{"poiid":"B2094750D76EA2F44393","title":"向阳桔子","lon":"121.412","lat":"31.1756","category":"86","category_name":"火锅店","address":"徐汇区苍梧路366号1楼(近宜山路)"},{"poiid":"B2094757D665A0FA419B","title":"新食潮美食","lon":"121.4122","lat":"31.16941","category":"68","category_name":"快餐厅","address":"徐汇区田林路115号丙(近桂林路)"},{"poiid":"B2094757D16CABFF4399","title":"加怡客西餐厅","lon":"121.413326","lat":"31.170828","category":"500","category_name":"未知分类","address":"徐汇区苍悟路14-20号(近田林路)"},{"poiid":"B2094757D16FA2F9419E","title":"中石化加油站","lon":"121.40904998","lat":"31.173383712","category":"154","category_name":"加油加气站","address":"徐汇区宜山路771号(虹漕路宜山路)"},{"poiid":"B2094654D56BABFB499A","title":"上海市激光技术研究所(宜山路)","lon":"121.41033","lat":"31.17352","category":"191","category_name":"科研机构","address":"宜山路770"},{"poiid":"B2094655D265A5FD439E","title":"上海航天科技园区","lon":"121.41487","lat":"31.17613","category":"45","category_name":"产业园区","address":"桂林路408"},{"poiid":"B2094757D66CA2FF4798","title":"九号线桂林路4出口","lon":"121.414439486","lat":"31.1712510782","category":"500","category_name":"未知分类","address":"上海桂林路"},{"poiid":"B2094750D76CA6F5419C","title":"我爱我家麻辣烫","lon":"121.413","lat":"31.1697","category":"68","category_name":"快餐厅","address":"徐汇区田林路(近桂林路)"},{"poiid":"B2094757D665A0FB4498","title":"小勇烧烤 田林路店","lon":"121.41182","lat":"31.169132","category":"68","category_name":"快餐厅","address":"徐汇区田林路117号(近苍梧路)"},{"poiid":"B2094654D564A2FC4493","title":"上海自动化仪表股份有限公司(虹漕路)","lon":"121.40953","lat":"31.1724","category":"263","category_name":"公司","address":"虹漕路41"},{"poiid":"B2094757D16AAAFC4598","title":"上自仪","lon":"121.40953","lat":"31.172407","category":"249","category_name":"购物服务","address":"上海虹漕路41号"},{"poiid":"B2094757D16FA5F5479C","title":"金陵网络股份公司","lon":"121.40736358","lat":"31.172573304","category":"46","category_name":"楼宇","address":"上海市宜山路801号"},{"poiid":"B2094655D265A1F4439D","title":"石坊铁板烧","lon":"121.41044","lat":"31.17637","category":"269","category_name":"烧烤","address":"徐汇区钦江路88号海悦酒店内(虹漕路钦江路)"},{"poiid":"B2094655D36CA2FF469D","title":"钦江路苍梧路","lon":"121.41202","lat":"31.17683","category":"38","category_name":"公交车站","address":""},{"poiid":"B2094757D069A7F54193","title":"现代物流大厦","lon":"121.409635","lat":"31.177039","category":"252","category_name":"楼宇机构","address":"上海虹漕路481号"},{"poiid":"B2094757D568A4F4419F","title":"罗森便利店(宜山路)","lon":"121.40840088","lat":"31.17266764","category":"117","category_name":"便民商店/便利店","address":"中国上海市徐汇区宜山路"},{"poiid":"B2094757D569A0F84492","title":"超然美容田林路店","lon":"121.413398","lat":"31.170534","category":"148","category_name":"美容美发店","address":"徐汇区苍梧路130弄14-2号(近田林路)"},{"poiid":"B2094654D56BAAFC439C","title":"国家食品质量监督检验中心(上海)","lon":"121.41106","lat":"31.17533","category":"250","category_name":"公园户外","address":"苍梧路381号上海质量检测服务科技园"},{"poiid":"B2094757D16CAAF54498","title":"马记黑鱼","lon":"121.4135","lat":"31.16871","category":"76","category_name":"上海菜","address":"徐汇区苍梧路14-18号(近田林路)"},{"poiid":"B2094655D26BA6FE4092","title":"好邻居烟杂店","lon":"121.41486","lat":"31.17427","category":"117","category_name":"便民商店/便利店","address":"徐汇区宜山路"},{"poiid":"B2094654D564A2FC4492","title":"罗汉松","lon":"121.40885","lat":"31.17107","category":"47","category_name":"住宅区","address":"怡虹科技园西"},{"poiid":"B2094753D76AA7F84493","title":"川娃子刘氏龙虾(田林店)","lon":"121.415277","lat":"31.170234","category":"71","category_name":"四川菜","address":"上海市徐汇区田林路124-4号3楼(近桂林路)"},{"poiid":"B2094655D265AAFA439B","title":"全家","lon":"121.41039","lat":"31.16922","category":"117","category_name":"便民商店/便利店","address":""},{"poiid":"B2094654D56BAAFC419C","title":"上海激光汽车修理厂","lon":"121.40956","lat":"31.17409","category":"159","category_name":"汽车维修","address":"徐汇区虹漕路380号"},{"poiid":"B2094750DA6EA6F94892","title":"巫山烤全鱼","lon":"121.415802","lat":"31.170137","category":"247","category_name":"餐饮美食","address":null},{"poiid":"B2094757D16EAAF94092","title":"国家核电工程公司","lon":"121.409118","lat":"31.172529","category":"263","category_name":"公司","address":"上海田林路888号2号楼"},{"poiid":"B2094655D265A3FC4398","title":"骑士快捷酒店","lon":"121.41145","lat":"31.16956","category":"216","category_name":"经济型连锁酒店","address":""},{"poiid":"B2094753D76AA0F4409E","title":"创作小城火锅(宜山路店)","lon":"121.415463","lat":"31.174534","category":"86","category_name":"火锅店","address":"上海市徐汇区宜山路706号1楼(近桂林路)"},{"poiid":"B2094757D464A0F9489B","title":"海悦酒店西餐厅","lon":"121.411360054","lat":"31.176417793","category":"268","category_name":"自助","address":"钦江路99号1楼近苍梧路"},{"poiid":"B2094655D36CA7F8409F","title":"虹漕路田林路","lon":"121.41077","lat":"31.16891","category":"38","category_name":"公交车站","address":""},{"poiid":"B2094757D569A1F54492","title":"海悦ktv","lon":"121.4104839","lat":"31.17609889","category":"170","category_name":"KTV","address":"钦江路99号3层"},{"poiid":"B2094655D264AAF84292","title":"酒酷","lon":"121.41229","lat":"31.17082","category":"136","category_name":"烟酒专卖店","address":""},{"poiid":"B2094752DB68A2F4469A","title":"刘氏龙虾","lon":"121.414856","lat":"31.169968","category":"247","category_name":"餐饮美食","address":"上海市 田林路124号"},{"poiid":"B2094757D568A5F54699","title":"全家便利店(田林路)","lon":"121.41040283","lat":"31.16923041","category":"117","category_name":"便民商店/便利店","address":"闵行区田林路142号(近虹漕路)"},{"poiid":"B2094655D265A3F4409E","title":"江南快餐","lon":"121.41373","lat":"31.17696","category":"68","category_name":"快餐厅","address":"徐汇区钦江路(近桂林路)"},{"poiid":"B2094757D065A5FE4298","title":"桂平路680号","lon":"121.411802986","lat":"31.1700523548","category":"500","category_name":"未知分类","address":"上海桂平路680号"},{"poiid":"B2094654D56BAAFC429A","title":"上海先进半导体制造股份有限公司","lon":"121.40778","lat":"31.17534","category":"263","category_name":"公司","address":"虹漕路385"},{"poiid":"B2094655D268A1F94999","title":"辣街","lon":"121.41451","lat":"31.1697","category":"116","category_name":"特色商业街","address":""},{"poiid":"B2094654D56BAAFC4298","title":"海悦国际会所","lon":"121.41048","lat":"31.17609","category":"149","category_name":"洗浴推拿场所","address":"钦江路99"},{"poiid":"B2094654D56BAAFA419D","title":"乐帮佳佳饮食馆","lon":"121.41161","lat":"31.16907","category":"257","category_name":"中餐厅","address":"田林路119-3"},{"poiid":"B2094757D164A3FA4599","title":"靓点烧味站","lon":"121.41340571","lat":"31.169269449","category":"247","category_name":"餐饮美食","address":"上海田林路124号-4三楼"},{"poiid":"B209475CDB69A6FE4199","title":"田林路星巴克","lon":"121.411819","lat":"31.169267","category":"500","category_name":"未知分类","address":"上海市 上海市徐汇区田林路"},{"poiid":"B2094654D56BAAF8489D","title":"中国电信田林路营业厅","lon":"121.41453","lat":"31.17","category":"151","category_name":"电讯营业厅","address":"徐汇区田林路128号-5(近桂林路)"},{"poiid":"B2094654D56BAAF9479E","title":"田林工业园区","lon":"121.41271","lat":"31.1687","category":"45","category_name":"产业园区","address":"苍梧路25"},{"poiid":"B2094757D06BA3FF439A","title":"怡虹科技园H楼","lon":"121.410283","lat":"31.169215","category":"500","category_name":"未知分类","address":"上海田林路142号"},{"poiid":"B2094654D56BAAF84899","title":"真辛食驿","lon":"121.41383486249","lat":"31.169922660848","category":"257","category_name":"中餐厅","address":"田林路128号2楼近桂林路"},{"poiid":"B2094757D164A1FB469A","title":"雅静棋牌","lon":"121.413388","lat":"31.170532","category":"248","category_name":"生活娱乐","address":"上海田林路苍梧路"},{"poiid":"B2094655D36CA2FF4693","title":"钦江路虹漕路","lon":"121.40809","lat":"31.17612","category":"38","category_name":"公交车站","address":""},{"poiid":"B2094757D66CA6FC459E","title":"中信银行(漕河泾支行)","lon":"121.412629186","lat":"31.1695152443","category":"150","category_name":"银行","address":"徐汇区苍梧路12号(近田林路)"},{"poiid":"B2094655D26BA3F4429D","title":"苏宁电器宜山路店","lon":"121.41584","lat":"31.17405","category":"138","category_name":"家电电子卖场","address":"徐汇区宜山路705号桂林路口;;"},{"poiid":"B2094655D269ABFC4099","title":"昂立中学生教育田林分校","lon":"121.41595","lat":"31.17153","category":"247","category_name":"餐饮美食","address":"徐汇区桂林路402号(近沃尔玛)"},{"poiid":"B209475CD564ABFF4493","title":"星巴克越界店","lon":"121.411994","lat":"31.169475","category":"500","category_name":"未知分类","address":"上海市 田林路140号"},{"poiid":"B2094757D16CA3F8479F","title":"原味坊桂林路","lon":"121.40815658","lat":"31.173762727","category":"500","category_name":"未知分类","address":"上海9号线桂林路站出口"},{"poiid":"B2094654D56BAAFA459E","title":"大衡建筑景观设计有限公司","lon":"121.41339","lat":"31.17044","category":"263","category_name":"公司","address":""},{"poiid":"B2094757D069A4FA449C","title":"CITY  BEST  COFFEE","lon":"121.41111","lat":"31.16913","category":"260","category_name":"其他","address":"徐汇区田林路140号越界创意园区内(近苍梧路)"},{"poiid":"B2094655D26FAAF9439C","title":"昂立学院","lon":"121.41632","lat":"31.17161","category":"671","category_name":"高校中心点","address":""},{"poiid":"B2094757D16FAAF44893","title":"上海航天建筑设计院","lon":"121.414874","lat":"31.176134","category":"500","category_name":"未知分类","address":"上海桂林路408号"},{"poiid":"B2094655D26BA4FE499B","title":"步源轩北京布鞋坊","lon":"121.41306","lat":"31.16937","category":"141","category_name":"服装鞋帽皮具店","address":"苍梧路25-4临"},{"poiid":"B2094757D66BA4F54992","title":"啤也酒吧 Beer Master","lon":"121.412927","lat":"31.169645","category":"260","category_name":"其他","address":"徐汇区田林路109号(近苍梧路)"},{"poiid":"B2094654D56BABFB499D","title":"中国科学院上海微系统与信息技术研究所(宜山路)","lon":"121.40827","lat":"31.17347","category":"191","category_name":"科研机构","address":"宜山路800"},{"poiid":"B2094655D268A1F9499C","title":"喜士多田林2门市","lon":"121.4137","lat":"31.16863","category":"117","category_name":"便民商店/便利店","address":""},{"poiid":"B2094757D16EA5FD439D","title":"上海儀電控股(集團)公司","lon":"121.40957328","lat":"31.169090536","category":"263","category_name":"公司","address":"上海田林路168號"},{"poiid":"B2094655D26BA6FD4492","title":"上海市田林路130号8号楼","lon":"121.41615","lat":"31.17112","category":"47","category_name":"住宅区","address":"田林路130号"},{"poiid":"B2094752D764ABF5479F","title":"苍梧路","lon":"121.408337","lat":"31.172653","category":"627","category_name":"一般地点标志","address":null},{"poiid":"B2094757D068A1FC479F","title":"哆啦A梦开心乐园","lon":"121.413612","lat":"31.169923","category":"173","category_name":"游戏厅","address":"上海徐汇区田林路132号(近苍梧路)"},{"poiid":"B2094757D06BA3FE4193","title":"乌东创意餐厅","lon":"121.41133","lat":"31.16911","category":"500","category_name":"未知分类","address":"上海徐汇区田林路140号越界创意园区内(近苍梧路)  "},{"poiid":"B2094654D56BABFB4992","title":"上海贝岭","lon":"121.40742","lat":"31.17331","category":"263","category_name":"公司","address":"宜山路810"},{"poiid":"B2094757D169ABF5499E","title":"一伍一拾(田林店)","lon":"121.41622","lat":"31.17126","category":"118","category_name":"超级市场","address":"上海徐汇区桂林路402号好又多1楼(近田林路)  "},{"poiid":"B2094654D564A2FC4599","title":"普天教育集团","lon":"121.40778","lat":"31.17252","category":"263","category_name":"公司","address":"宜山路801号上海金陵商务广场A座4层401室"},{"poiid":"B2094757D169A4FB429C","title":"朱家角 水都南岸","lon":"121.41487545","lat":"31.170585937","category":"500","category_name":"未知分类","address":"上海康园路399弄"},{"poiid":"B2094655D268A5FF4899","title":"乔家塘小区(北门)","lon":"121.41523","lat":"31.1698","category":"47","category_name":"住宅区","address":"田林路109弄"},{"poiid":"B2094757D06BABFA429A","title":"TRW","lon":"121.41401229","lat":"31.175881993","category":"249","category_name":"购物服务","address":"上海虹漕路456号光启园"},{"poiid":"B2094750DB6BA4FE409B","title":"学而思","lon":"121.414001","lat":"31.16945","category":"190","category_name":"培训机构","address":"徐汇区苍梧路12号"},{"poiid":"B2094654D56BAAFC4499","title":"九天大楼","lon":"121.41336","lat":"31.17683","category":"47","category_name":"住宅区","address":"钦江路15"},{"poiid":"B2094757D168A3FC4699","title":"上海仪电","lon":"121.40928758","lat":"31.169469243","category":"500","category_name":"未知分类","address":"上海市徐汇区田林路"},{"poiid":"B2094655D265A1FE419C","title":"上海核工程科技交流中心酒店","lon":"121.41059","lat":"31.16869","category":"250","category_name":"公园户外","address":"虹漕路29号"},{"poiid":"B2094655D264A1FA4398","title":"秀衣坊","lon":"121.41476","lat":"31.16971","category":"141","category_name":"服装鞋帽皮具店","address":"田林路109-8临"},{"poiid":"B2094757D16EA5FB4292","title":"中国电子科技集团第二十一研究所","lon":"121.411377","lat":"31.168533","category":"500","category_name":"未知分类","address":"上海虹漕路30号"},{"poiid":"B2094654D56BABFB4698","title":"中国航天科技(集团)公司第八研究院培训中心","lon":"121.41487","lat":"31.17613","category":"190","category_name":"培训机构","address":"徐汇区桂林路408号上海航天职工大学内(近宜山路)"},{"poiid":"B2094757DA6FA3FC489E","title":"上海仪电控股(集团)公司","lon":"121.410007000002","lat":"31.16911","category":"263","category_name":"公司","address":"徐汇区田林路168号"},{"poiid":"B2094757D16FA2F84493","title":"桂箐园","lon":"121.41634558","lat":"31.173257317","category":"500","category_name":"未知分类","address":"上海市闵行区桂箐路69号"},{"poiid":"B2094655D268A3F44592","title":"苏活酒吧","lon":"121.41097","lat":"31.17642","category":"260","category_name":"其他","address":"徐汇区钦江路88号海悦酒店内(近苍梧路)"},{"poiid":"B2094757D16DA5FE4598","title":"K歌量贩式","lon":"121.41242858","lat":"31.168095216","category":"500","category_name":"未知分类","address":"上海田林路132号"},{"poiid":"B2094757D16BA3FB469D","title":"居礼·五粹轩京剧艺术养生餐厅","lon":"121.410501786","lat":"31.1689529333","category":"500","category_name":"未知分类","address":"上海徐汇区田林路虹漕路口,电话33676500"},{"poiid":"B2094757D065ABFD4893","title":"印格网咖","lon":"121.41381658","lat":"31.169738248","category":"248","category_name":"生活娱乐","address":"徐汇区田林路109号5楼(近苍梧路)"},{"poiid":"B2094654D56BAAF8449C","title":"宝岛眼镜(田林路)","lon":"121.41561","lat":"31.17021","category":"132","category_name":"眼镜店","address":"徐汇区田林路132号(苍梧路口)"},{"poiid":"B2094654D56BABFB469A","title":"上海市长宁科技进修学院徐汇分部","lon":"121.41487","lat":"31.17613","category":"53","category_name":"成人教育","address":"桂林路408号"},{"poiid":"B2094655D26BA6FD449A","title":"学而思·乐加乐","lon":"121.41382","lat":"31.1689","category":"190","category_name":"培训机构","address":""},{"poiid":"B2094654D56BAAFB419B","title":"上海信康自动化设备有限公司","lon":"121.41584","lat":"31.17405","category":"263","category_name":"公司","address":"宜山路705号科技大厦B座1602室"},{"poiid":"B2094757D16FA3F8499A","title":"雅境棋牌室","lon":"121.41404","lat":"31.16933","category":"175","category_name":"棋牌室","address":"徐汇区田林路109-26号3楼(近苍梧路口)"},{"poiid":"B2094757D06FA7F54593","title":"18th Studio 高清影像工作室","lon":"121.41364","lat":"31.168323","category":"249","category_name":"购物服务","address":"上海徐汇区苍梧路10号In Town创意园4栋A2-15号(近田林路)"},{"poiid":"B2094654D56BAAF94599","title":"上海广电通信技术有限公司","lon":"121.41313","lat":"31.16806","category":"263","category_name":"公司","address":"苍梧路9"},{"poiid":"B2094750D76FABFA4899","title":"热带林咖啡","lon":"121.414","lat":"31.1699","category":"260","category_name":"其他","address":"徐汇区田林路132号5楼(近苍梧路)"},{"poiid":"B2094654D56BAAFC439D","title":"乐清(上海)清洁用具租赁有限公司","lon":"121.41136","lat":"31.17735","category":"263","category_name":"公司","address":"苍梧路450-460号"},{"poiid":"B2094654D56BAAFC449A","title":"东方康洛(南门)","lon":"121.41271","lat":"31.17716","category":"48","category_name":"楼宇大门","address":"钦江路28弄1-15号"},{"poiid":"B2094757DA6EABF8449F","title":"香榭俪舍美容美体SPA会所(苍梧路店)","lon":"121.414246999997","lat":"31.1686549999998","category":"248","category_name":"生活娱乐","address":"徐汇区苍梧路10号(近田林路)"},{"poiid":"B2094654D56BABFB4592","title":"新课标教育中心","lon":"121.41487","lat":"31.17613","category":"632","category_name":"教育出国类公司","address":"桂林路408号"},{"poiid":"B2094655D268A3F4469A","title":"现代物流大厦(南门)","lon":"121.41013","lat":"31.17656","category":"656","category_name":"大门","address":"钦江路102"}]