[{"poiid":"B2094757D068A1F84599","title":"曹路","lon":"121.668468","lat":"31.278657","category":"500","category_name":"未知分类","address":"上海上川路川沙路"},{"poiid":"B2094757D16DA1F9439F","title":"长江隧桥大桥长兴入口","lon":"121.679452","lat":"31.308655","category":"500","category_name":"未知分类","address":"上海长江隧桥"},{"poiid":"B2094655D36CA0FD4792","title":"金钻路海松路","lon":"121.67915","lat":"31.27706","category":"38","category_name":"公交车站","address":""},{"poiid":"B2094757D064A2FD499F","title":"上海绕城高速高东收费站","lon":"121.665118229","lat":"31.3054575424","category":"267","category_name":"收费站","address":"上海绕城高速高东收费站"},{"poiid":"B2094757D16CABFA429F","title":"顾三村","lon":"121.67687245","lat":"31.2948507594","category":"500","category_name":"未知分类","address":"上海市浦东新区曹路镇"},{"poiid":"B2094655D264A4F94692","title":"G1501上海绕城高速高东收费站","lon":"121.66703","lat":"31.30552","category":"267","category_name":"收费站","address":"G1501上海绕城高速"},{"poiid":"B2094757D065A6FE499A","title":"曹路打一小学","lon":"121.67025733","lat":"31.289803599","category":"56","category_name":"小学","address":"上海金睦路50号"},{"poiid":"B2094757DB6CA4FC469E","title":"海尚东苑","lon":"121.67447","lat":"31.286863","category":"47","category_name":"住宅区","address":"浦东新区金睦路353弄"},{"poiid":"B2094655D36DA2F4479D","title":"大生港路桥","lon":"121.68195","lat":"31.29232","category":"250","category_name":"公园户外","address":""},{"poiid":"B2094655D36CA0FD489A","title":"金钻路上川路","lon":"121.6756","lat":"31.2823","category":"38","category_name":"公交车站","address":""},{"poiid":"B2094757D06AA6FB489A","title":"缘中林庄园","lon":"121.692482","lat":"31.28229","category":"76","category_name":"上海菜","address":"浦东新区东川公路3229号(近金海路龙王庙)"},{"poiid":"B2094655D36CA2F4429E","title":"上川路东川公路","lon":"121.685","lat":"31.28528","category":"38","category_name":"公交车站","address":""},{"poiid":"B2094757D164A5FE469E","title":"RiTA中虹家园","lon":"121.67226745","lat":"31.2907176701","category":"500","category_name":"未知分类","address":null},{"poiid":"B2094757D66CAAFB4692","title":"五号沟","lon":"121.678108","lat":"31.299012","category":"500","category_name":"未知分类","address":"上海东川公路联合村"},{"poiid":"B2094752DA6AA5F54299","title":"星纳家园","lon":"121.670885","lat":"31.291956","category":"500","category_name":"未知分类","address":"上海市 海纳路129弄"},{"poiid":"B2094757DB69AAF8439D","title":"舜峰家苑","lon":"121.6678901066666","lat":"31.29271723333332","category":"47","category_name":"住宅区","address":"浦东新区曹路镇海鹏路301弄"},{"poiid":"B2094757D16FABFF419D","title":"青草沙原水厂","lon":"121.67813092","lat":"31.299257094","category":"263","category_name":"公司","address":"上海浦东新区东川公路2125号"},{"poiid":"B2094655D36CA2F9419A","title":"群乐","lon":"121.68624","lat":"31.2873","category":"38","category_name":"公交车站","address":""},{"poiid":"B2094751DB6CA0FC429D","title":"佳伟景苑","lon":"121.6719845603167","lat":"31.28561246637041","category":"47","category_name":"住宅区","address":"金钻路669弄"},{"poiid":"B2094654D569A3FF4892","title":"浦东新区顾路中心小学","lon":"121.66734","lat":"31.29484","category":"56","category_name":"小学","address":"浦东新区顾路镇水洞港路301号"},{"poiid":"B2094654D569A3FF489D","title":"潮音庵","lon":"121.66739","lat":"31.28821","category":"244","category_name":"寺庙道观","address":"上海浦东新区顾路镇李家盘14号  "},{"poiid":"B2094757D16DAAFF429D","title":"中虹家园","lon":"121.66749805","lat":"31.2785678078","category":"500","category_name":"未知分类","address":"上海海鸣路98号"},{"poiid":"B2094654D569A3FE489C","title":"潮音庙","lon":"121.6666","lat":"31.289","category":"244","category_name":"寺庙道观","address":"顾曹路"},{"poiid":"B2094757D66CA5F44593","title":"崇启大桥","lon":"121.66493595","lat":"31.3052409838","category":"260","category_name":"其他","address":"上海崇明到启东"},{"poiid":"B2094751DA64A1FA4492","title":"星晓家园","lon":"121.682233","lat":"31.28393","category":"252","category_name":"楼宇机构","address":"上海市浦东新区金晓路96弄"},{"poiid":"B2094757DA6EABF4419D","title":"金钻苑","lon":"121.6881930838","lat":"31.284075437374","category":"252","category_name":"楼宇机构","address":"浦东海松路359弄"},{"poiid":"B2094654D569A3FE499C","title":"顾路卫生院","lon":"121.66521","lat":"31.29176","category":"162","category_name":"医院","address":"浦东新区顾路镇顾曹路681号(顾曹公路顾三路)"},{"poiid":"B2094757D66DAAFC4298","title":"东海村篮球场","lon":"121.67133745","lat":"31.3003018771","category":"220","category_name":"运动场所","address":"上海市浦东新区曹路镇东海村委会"},{"poiid":"B2094654D569A3FA429C","title":"顾路百货商场","lon":"121.66461","lat":"31.29552","category":"119","category_name":"商场","address":""},{"poiid":"B2094654D569A3FA4392","title":"上海曹路期颐老年公寓","lon":"121.66538","lat":"31.29277","category":"207","category_name":"度假疗养场所","address":"浦东新区杨东路6号"},{"poiid":"B2094654D569A3FE499F","title":"顾路派出所","lon":"121.66465","lat":"31.29256","category":"609","category_name":"警察局","address":"顾曹路951号"},{"poiid":"B2094654D569A3F9489E","title":"上海晓舟船舶配件有限公司","lon":"121.68672","lat":"31.29946","category":"263","category_name":"公司","address":""},{"poiid":"B2094757D66DABFC4298","title":"顾路车站","lon":"121.67188245","lat":"31.299153852","category":"251","category_name":"出行住宿","address":"上海市浦东新区顾曹公路"},{"poiid":"B2094757D169A4FB4992","title":"曹路镇","lon":"121.66704745","lat":"31.278432404","category":"500","category_name":"未知分类","address":"上海市浦东新区上川路1639号"},{"poiid":"B2094753D16BABF84398","title":"超歌量贩KTV","lon":"121.66945","lat":"31.27943","category":"170","category_name":"KTV","address":"浦东新区曹路镇上川路1774号东田市场内(近曹路政府)"},{"poiid":"B2094654D569A2FE4792","title":"东田羊肉馆","lon":"121.66904","lat":"31.27897","category":"76","category_name":"上海菜","address":"浦东新区上川路1728号(近川沙路)"},{"poiid":"B2094757D16AA1FF4999","title":"金砖苑 海顺路359弄","lon":"121.68340345","lat":"31.2759013503","category":"252","category_name":"楼宇机构","address":"上海浦东新区曹路镇金砖苑海顺路359弄"},{"poiid":"B2094757D164A7FE4992","title":"上海宝井钢材加工配送有限公司","lon":"121.673353","lat":"31.281342","category":"500","category_name":"未知分类","address":"上海上川路1888号"},{"poiid":"B2094655D26BA1F9449B","title":"民冬路川沙路","lon":"121.66072","lat":"31.28843","category":"38","category_name":"公交车站","address":""},{"poiid":"B2094757D16FA3F54098","title":"宋先生草莓园","lon":"121.69375945","lat":"31.283479513","category":"500","category_name":"未知分类","address":"浦东新区川沙曹路镇龚路星丰路9号"},{"poiid":"B2094757D16EA7FC489F","title":"上海长望气象科技有限公司","lon":"121.665591","lat":"31.286974","category":"263","category_name":"公司","address":"上海浦东新区民秋路669号"},{"poiid":"B2094654DB6BA1FA4598","title":"上海龙飞国际物流有限公司","lon":"121.66432","lat":"31.28972","category":"248","category_name":"生活娱乐","address":"民冬路128号(乙)"},{"poiid":"B2094757D16DA3F5419C","title":"爵鼎鸡 曹路店","lon":"121.66967","lat":"31.27519","category":"87","category_name":"特色／地方风味餐厅","address":"浦东新区曹路镇川沙路562-572号(近民春路)"},{"poiid":"B2094654D569A2FF4599","title":"曹路镇顾路社区服务中心","lon":"121.66348","lat":"31.29425","category":"248","category_name":"生活娱乐","address":""},{"poiid":"B2094655D36CA5FD479D","title":"川沙路上川路","lon":"121.66743","lat":"31.27842","category":"38","category_name":"公交车站","address":""},{"poiid":"B2094654DB69A6FD4592","title":"创联金海花苑学园绿洲","lon":"121.6727","lat":"31.27818","category":"47","category_name":"住宅区","address":"浦东新区曹路镇名名路318号"},{"poiid":"B2094654D569A3FF489C","title":"上海市顾路中学","lon":"121.6591","lat":"31.28837","category":"55","category_name":"中学","address":"浦东新区曹路镇民冬路71号(顾曹公路顾三路)"},{"poiid":"B2094654D569A3FA4492","title":"上海大白兔糖果厂","lon":"121.6622","lat":"31.28906","category":"263","category_name":"公司","address":""},{"poiid":"B2094655D36DA0FF4792","title":"迅建村","lon":"121.69363","lat":"31.28074","category":"38","category_name":"公交车站","address":""},{"poiid":"B2094757D168A2FF4493","title":"建设银行曹路支行","lon":"121.668023","lat":"31.279829","category":"150","category_name":"银行","address":"上海上川路1685号"},{"poiid":"B2094654D569A2F84998","title":"梦都酒店","lon":"121.66891","lat":"31.27705","category":"250","category_name":"公园户外","address":"浦东新区川沙路1588号(近曹路镇)"},{"poiid":"B2094654D569A3FA4699","title":"上海捷虹化工集团","lon":"121.66356","lat":"31.28505","category":"263","category_name":"公司","address":""},{"poiid":"B2094654D569A3FA459B","title":"越兴物流","lon":"121.66209","lat":"31.28788","category":"248","category_name":"生活娱乐","address":""},{"poiid":"B2094654D569A3FA4598","title":"东方国际物流集团上海佳达国际货运有限公司物流中心","lon":"121.66269","lat":"31.28664","category":"248","category_name":"生活娱乐","address":""},{"poiid":"B2094757D06BA3F5429E","title":"曹路住宅基地","lon":"121.66924786","lat":"31.278962346","category":"500","category_name":"未知分类","address":"上海浦东川沙"},{"poiid":"B2094654D569A3FA4693","title":"上海启鹏化工有限公司","lon":"121.66461","lat":"31.28275","category":"263","category_name":"公司","address":"川沙路158"},{"poiid":"B2094654D569A3FB459F","title":"庙港文化公园","lon":"121.67013","lat":"31.27462","category":"196","category_name":"公园","address":"川沙路582号"},{"poiid":"B2094654D569A3FA4092","title":"上海浦东汽车修配厂","lon":"121.66099","lat":"31.29821","category":"159","category_name":"汽车维修","address":"顾曹路200"},{"poiid":"B2094654D569A3FF4292","title":"中国建设银行上海市曹路支行","lon":"121.66781","lat":"31.27891","category":"150","category_name":"银行","address":"浦东新区上川路1685号(川沙路上川路)"},{"poiid":"B2094654DB6BA1FA439E","title":"中国农业银行","lon":"121.66719","lat":"31.27844","category":"150","category_name":"银行","address":"上川路1639号"},{"poiid":"B2094654D569A3FF499D","title":"曹路邮政支局","lon":"121.66716","lat":"31.27984","category":"248","category_name":"生活娱乐","address":"浦东新区川沙路329号"},{"poiid":"B2094757D16AA5FB469F","title":"银峰苑","lon":"121.668695","lat":"31.277505","category":"500","category_name":"未知分类","address":"上海银峰路549弄"},{"poiid":"B2094757D66DA7F4459A","title":"长兴岛摆渡口","lon":"121.67334965","lat":"31.27496113","category":"500","category_name":"未知分类","address":"上海崇明长兴岛"},{"poiid":"B2094757D065A3F5439E","title":"品悦酒店(川沙店)","lon":"121.66854778","lat":"31.277513748","category":"217","category_name":"旅馆招待所","address":"上海浦东新区曹路镇川沙路420号(近上川路)"},{"poiid":"B2094757D164A4F84393","title":"水玫女子SPA专业会所(中山公园店)","lon":"121.66443935","lat":"31.3050891805","category":"500","category_name":"未知分类","address":"上海长宁区武夷路777号长宁国际体操中心游泳馆2楼"},{"poiid":"B2094750D76CA2F4489B","title":"苏拿咖啡","lon":"121.67","lat":"31.2749","category":"260","category_name":"其他","address":"浦东新区曹路镇川沙路572号3楼"},{"poiid":"B2094757D16AA2FC419C","title":"怡世翔","lon":"121.66180595","lat":"31.3035601475","category":"500","category_name":"未知分类","address":"上海德堡路379号"},{"poiid":"B2094654D569A3FB4198","title":"上海金立仓储有限公司","lon":"121.66486","lat":"31.27792","category":"263","category_name":"公司","address":""},{"poiid":"B2094752D065A6F44398","title":"星颂家园","lon":"121.675705","lat":"31.273788","category":"500","category_name":"未知分类","address":"海松路52弄"}]