[{"poiid":"B2094654DA6FAAF5479E","title":"上海长征医院","lon":"121.46721","lat":"31.23279","category":"162","category_name":"医院","address":"黄浦区凤阳路415号(近成都北路)"},{"poiid":"B2094757D06FA2F54492","title":"沪上一家辣肉面馆(成都北路店)","lon":"121.46618","lat":"31.23239","category":"68","category_name":"快餐厅","address":"黄浦区凤阳路535号(近成都北路)"},{"poiid":"B2094751DA69A6FB499A","title":"王品  仙乐斯广场","lon":"121.465452","lat":"31.233329","category":"247","category_name":"餐饮美食","address":"南京西路338号"},{"poiid":"B2094753D76FAAFA449C","title":"上海滩国泰旗舰店","lon":"121.466011","lat":"31.216125","category":"249","category_name":"购物服务","address":"淮海中路868号"},{"poiid":"B209475CD564A7F84292","title":"上海滩新天地店","lon":"121.47463","lat":"31.22164","category":"119","category_name":"商场","address":"\"太仓路181弄新天地北里15号\r\n\""},{"poiid":"B209475CD564A7F8439E","title":"上海滩中信泰富店","lon":"121.45602","lat":"31.22851","category":"119","category_name":"商场","address":"\"南京西路1168号中信泰富广场，店铺号221.\r\n\""},{"poiid":"B2094757D16EA2FB419D","title":"长征医院门诊部","lon":"121.466702738","lat":"31.2317713329","category":"162","category_name":"医院","address":"上海成都北路480号"},{"poiid":"B2094655D26BA1FF479B","title":"南京西路成都北路","lon":"121.46601","lat":"31.23086","category":"38","category_name":"公交车站","address":""},{"poiid":"B2094750DB6CA1F8439B","title":"人民公园","lon":"121.466559","lat":"31.233402","category":"196","category_name":"公园","address":"黄浦区南京西路75号人民公园内(近黄陂北路)"},{"poiid":"B2094757D06FA6FF4598","title":"晶采世纪大厦","lon":"121.468","lat":"31.2329","category":"46","category_name":"楼宇","address":"珠江新城华穗路与华利路交汇处"},{"poiid":"B2094757DB68A5FF449C","title":"上海 来福士","lon":"121.4678278181757","lat":"31.23394058782101","category":"247","category_name":"餐饮美食","address":"人民广场"},{"poiid":"B2094757DA6EAAFD429A","title":"御景轩凯宾斯基酒店","lon":"121.465211999998","lat":"31.2323450000001","category":"251","category_name":"出行住宿","address":"静安区凤阳路601号"},{"poiid":"B2094654DA6CA1FD409A","title":"555商厦","lon":"121.46653","lat":"31.23057","category":"119","category_name":"商场","address":"静安区南京西路555号三五大厦内(近成都北路)"},{"poiid":"B2094751D56FA4F4419B","title":"木有鸭梨餐吧","lon":"121.4664323","lat":"31.2333259","category":"247","category_name":"餐饮美食","address":"南京西路456号4楼"},{"poiid":"B2094757D06FA0FA4992","title":"上海壹街区","lon":"121.465136","lat":"31.232562","category":"47","category_name":"住宅区","address":"静安区凤阳路588弄"},{"poiid":"B2094757D16FAAFA429B","title":"长征医院住院部","lon":"121.466941738","lat":"31.2327763544","category":"162","category_name":"医院","address":"上海凤阳路415号"},{"poiid":"B2094757D065A7F44593","title":"日月光中心 OLIVE DES OLIVE","lon":"121.46757623","lat":"31.232956358","category":"500","category_name":"未知分类","address":"上海打浦桥"},{"poiid":"B2094752D069A5FA4393","title":"上海国际时尚中心","lon":"121.465475","lat":"31.233833","category":"249","category_name":"购物服务","address":"上海市杨树浦路2866号"},{"poiid":"B2094752DA65A2FD439E","title":"上海明天广场JW万豪酒店","lon":"121.46729","lat":"31.233113","category":"500","category_name":"未知分类","address":"上海市 南京西路399号"},{"poiid":"B2094654DA6FAAF5489C","title":"中华保险华盛大厦","lon":"121.46685","lat":"31.23415","category":"46","category_name":"楼宇","address":"成都北路600"},{"poiid":"B2094757D06AA7F8439F","title":"上海科勒设计中心","lon":"121.46708813","lat":"31.231715631","category":"260","category_name":"其他","address":"静安区南京西路456号(近仙乐斯广场)"},{"poiid":"B2094752D06FA4FA499D","title":"MOCA ON THE PARK","lon":"121.465445","lat":"31.233023","category":"247","category_name":"餐饮美食","address":"南京西路231号人民公园内上海当代艺术馆3楼"},{"poiid":"B2094757DA68A1F84099","title":"Starbucks","lon":"121.4661986","lat":"31.2337571","category":"247","category_name":"餐饮美食","address":"People square"},{"poiid":"B2094757D064A3F9429E","title":"缤纷年代娱乐会所","lon":"121.46641","lat":"31.23063","category":"170","category_name":"KTV","address":"静安区南京西路580号(近成都北路)"},{"poiid":"B2094757D06FABFF439E","title":"宜芝多(南京西路二店)","lon":"121.46665","lat":"31.23076","category":"112","category_name":"糕饼店","address":"静安区南京西路596号(近成都北路)"},{"poiid":"B2094757D068A6FD469D","title":"盛贺美 三五广场店","lon":"121.465672054","lat":"31.230538793","category":"95","category_name":"日本料理","address":"静安区南京西路555号三五大厦B1楼(近成都北路)"},{"poiid":"B2094757D068A0F4469E","title":"韩膳宫","lon":"121.4661986","lat":"31.2337571","category":"46","category_name":"楼宇","address":"上海静安区成都北路333号"},{"poiid":"B2094757D064A7FA499D","title":"上海电视台17楼东方卫视","lon":"121.46445823","lat":"31.232827705","category":"500","category_name":"未知分类","address":"上海威海路298号"},{"poiid":"B2094757D66DA7F9469E","title":"先乐施广场","lon":"121.46722173","lat":"31.232177341","category":"500","category_name":"未知分类","address":"上海南京西路388号"},{"poiid":"B2094757D06FA4FC4298","title":"华盛大公馆","lon":"121.46709","lat":"31.234617","category":"47","category_name":"住宅区","address":"上海黄浦区北京西路355弄1-2号"},{"poiid":"B2094750D164ABFC419E","title":"凯宾斯基御锦轩(The One Shanghai)","lon":"121.46516923247","lat":"31.232415869772","category":"215","category_name":"三星级宾馆","address":"上海市静安区凤阳路601号"},{"poiid":"B2094757D068A3F5439A","title":"中国建设银行(南京西路支行)","lon":"121.46604156","lat":"31.230787277","category":"150","category_name":"银行","address":"静安区南京西路577-587号(近上海电视台)"},{"poiid":"B2094757D069A0F8499D","title":"味之都 南京路旗舰店 Wish Doing","lon":"121.466702229","lat":"31.231038929722","category":"68","category_name":"快餐厅","address":"静安区南京西路580号南证大厦1楼(近成都北路)"},{"poiid":"B2094655D269ABFF469A","title":"鼎中鼎澳门豆捞 南京西路店","lon":"121.466702229","lat":"31.231038929722","category":"247","category_name":"餐饮美食","address":"南京西路580号南证大厦淘宝城2楼近成都北路"},{"poiid":"B2094752D36DA6F5489E","title":"老丰阁品珍轩酒店","lon":"121.466232","lat":"31.232044","category":"247","category_name":"餐饮美食","address":"黄浦区南京西路388号仙乐斯广场"},{"poiid":"B2094757D06AA0F44793","title":"庄氏隆兴小龙虾面馆(凤阳路店)","lon":"121.46873","lat":"31.23286","category":"68","category_name":"快餐厅","address":"黄浦区凤阳路409号(近成都北路)"},{"poiid":"B2094757D164A7F94899","title":"上海理工大学停尸房","lon":"121.46705813","lat":"31.231867635","category":"500","category_name":"未知分类","address":"上海杨浦区军工路516号，毛像北"},{"poiid":"B2094757D469A0FB449C","title":"京城日本烧烤","lon":"121.4661399","lat":"31.2307753","category":"95","category_name":"日本料理","address":"静安区南京西路555号三五商厦B1楼(近成都北路)"},{"poiid":"B2094654DA6FAAF5479A","title":"峻岭广场一期","lon":"121.46722","lat":"31.23218","category":"46","category_name":"楼宇","address":"成都北路500"},{"poiid":"B2094757D56CA1FB4593","title":"汉堡王 吴江路店 Burger King","lon":"121.46583","lat":"31.23111","category":"68","category_name":"快餐厅","address":"静安区南京西路580号南证大厦1楼(近成都北路)"},{"poiid":"B2094752D169A6FF489D","title":"上海大光明影院","lon":"121.467849","lat":"31.234863","category":"248","category_name":"生活娱乐","address":"上海市南京西路216号"},{"poiid":"B2094655D269A4FA4393","title":"淘宝城","lon":"121.46615","lat":"31.23114","category":"247","category_name":"餐饮美食","address":"静安区南京西路580号南证大厦1-3楼(近成都北路)"},{"poiid":"B2094752D76FAAFE4192","title":"Lingo餐厅","lon":"121.466171","lat":"31.234406","category":"247","category_name":"餐饮美食","address":"南京西路仙乐斯"},{"poiid":"B2094757D068AAF4429D","title":"峻岭大厦","lon":"121.467391968","lat":"31.232170105","category":"46","category_name":"楼宇","address":"上海成都北路500号"},{"poiid":"B2094751D565A7F4479A","title":"佳家湯包","lon":"121.466453","lat":"31.234724","category":"247","category_name":"餐饮美食","address":"黄河路店"},{"poiid":"B2094757D169A0F94499","title":"雅珠粥店","lon":"121.465196","lat":"31.234423","category":"68","category_name":"快餐厅","address":"静安区北京西路370号(成都路口)"},{"poiid":"B2094753D26EA3FE499A","title":"The Cookery酷瑞西餐馆","lon":"121.464401","lat":"31.233083","category":"247","category_name":"餐饮美食","address":"上海市 南京西路388号仙乐斯广场108单元(近黄陂北路)"},{"poiid":"B2094757D16BA6FB439F","title":"amato gelato","lon":"121.466807738","lat":"31.2306733095","category":"500","category_name":"未知分类","address":"上海市静安区南京西路555号103室"},{"poiid":"B2094654DB65A5FB489A","title":"渣打银行(中国)(南京西路)","lon":"121.46806","lat":"31.23108","category":"150","category_name":"银行","address":"静安区南京西路456号1-2号(成都北路南京西路)"},{"poiid":"B2094757D66DA5FB429B","title":"八七七双皮汤包","lon":"121.467168","lat":"31.233185","category":"68","category_name":"快餐厅","address":"黄浦区凤阳路470号(近成都北路)"},{"poiid":"B2094757D06FA6F5489F","title":"雅力留学专家","lon":"121.46727123","lat":"31.232208642","category":"46","category_name":"楼宇","address":"上海市虹口区西江湾路388号虹口龙之梦广场A座20层"},{"poiid":"B2094753D765A7F44899","title":"木鸭梨露天餐厅","lon":"121.466018","lat":"31.234704","category":"500","category_name":"未知分类","address":"上海市 南京西路456号科勒设计中心4楼(近仙乐斯广场)"},{"poiid":"B2094654DA6CA2F9429B","title":"静安华庭","lon":"121.46486","lat":"31.2334","category":"47","category_name":"住宅区","address":"大田路158"},{"poiid":"B2094757DB69A4FE489E","title":"苏浙汇","lon":"121.4655447326625","lat":"31.23379043700509","category":"500","category_name":"未知分类","address":null},{"poiid":"B2094753D36DA3FE4193","title":"元道料理","lon":"121.46641","lat":"31.23087","category":"96","category_name":"韩国料理","address":"南京西路555大厦地下1层"},{"poiid":"B2094750D46BABF54492","title":"徳大西餐社","lon":"121.466133","lat":"31.233747","category":"247","category_name":"餐饮美食","address":"南京西路473号"},{"poiid":"B2094757D16AA2FE479B","title":"康道养生堂","lon":"121.465622","lat":"31.230801","category":"500","category_name":"未知分类","address":"上海南京西路成都路口"},{"poiid":"B2094757D068A0FE4099","title":"火舞冰点舞蹈休闲会所(南京西路店)","lon":"121.46643","lat":"31.23075","category":"500","category_name":"未知分类","address":"上海静安区南京西路580号南证大厦B座907-910室(近成都北路)  "},{"poiid":"B2094654DA6CA1FE4499","title":"淘宝城凤翔服饰礼品广场","lon":"121.46557","lat":"31.23241","category":"120","category_name":"小商品市场","address":"南京西路580"},{"poiid":"B2094753D068A4FE459E","title":"第二军医大学附属长征医院(凤阳路院)","lon":"121.46721","lat":"31.23279","category":"162","category_name":"医院","address":"黄浦区凤阳路415号(近成都北路)"},{"poiid":"B2094751D565A7F5479C","title":"中华艺术宫","lon":"121.465068","lat":"31.234241","category":"500","category_name":"未知分类","address":null},{"poiid":"B2094757D06FA4F4469B","title":"爱心献血点(南京西路)","lon":"121.46638295","lat":"31.231081618","category":"162","category_name":"医院","address":"上海静安区成都北路408号(近南京西路)"},{"poiid":"B2094752DB6CA2F8469F","title":"大光明电影院","lon":"121.467461","lat":"31.234931","category":"178","category_name":"电影院","address":"上海市 南京西路"},{"poiid":"B2094655D26FA2F5459B","title":"中国移动(南京西路营业厅)","lon":"121.46692","lat":"31.23086","category":"151","category_name":"电讯营业厅","address":"静安区南京西路938号"},{"poiid":"B209475CDA6DABFC469C","title":"人民广场","lon":"121.468284","lat":"31.23184","category":"500","category_name":"未知分类","address":"上海市 地铁站"},{"poiid":"B2094753D56AA4FD469B","title":"MUSE2[M2]","lon":"121.467201","lat":"31.232212","category":"500","category_name":"未知分类","address":"上海市 淮海中路香港广场"},{"poiid":"B209475CD26EA7FA459D","title":"大光明电影院","lon":"121.467018","lat":"31.232618","category":"178","category_name":"电影院","address":"上海市 南京西路"},{"poiid":"B2094654DA68A3F54092","title":"南都商厦","lon":"121.46736","lat":"31.23069","category":"46","category_name":"楼宇","address":"静安区南京西路499号(近成都北路)"},{"poiid":"B2094757D168AAFC4199","title":"大姨妈家","lon":"121.46657435","lat":"31.2334957402","category":"247","category_name":"餐饮美食","address":"上海长寿路"},{"poiid":"B2094655D26AA0FD449A","title":"Neverland桌面游戏南京西路店","lon":"121.46413","lat":"31.23307","category":"247","category_name":"餐饮美食","address":"静安区大田路129弄嘉发大厦B幢8A室(近凤阳路)"},{"poiid":"B2094655D26AA4FB499C","title":"好小囡幼儿园","lon":"121.46856","lat":"31.23316","category":"57","category_name":"幼儿园","address":"黄浦区凤阳路399弄16号(近新昌路)"},{"poiid":"B2094753D565A3FF479F","title":"cat eyes 猫咪咖啡屋","lon":"121.465499","lat":"31.232082","category":"500","category_name":"未知分类","address":"上海市 大田路129弄A幢17楼A室 （近北京西路）"},{"poiid":"B2094750D26FA6FC4192","title":"家","lon":"121.467308","lat":"31.234594","category":"500","category_name":"未知分类","address":null},{"poiid":"B2094654DA6CA2F9419F","title":"华联投资商务楼","lon":"121.46437","lat":"31.23258","category":"46","category_name":"楼宇","address":"大田路105"},{"poiid":"B2094654DB69A6FA4692","title":"谭氏官府菜 静安店","lon":"121.466702229","lat":"31.231038929722","category":"70","category_name":"综合酒楼","address":"南京西路580号南证大厦B座4楼近成都北路"},{"poiid":"B2094654DA6CA1FE459D","title":"长征医院整形美容科","lon":"121.46598","lat":"31.23293","category":"162","category_name":"医院","address":"凤阳路558"},{"poiid":"B2094750D665AAFE429C","title":"167美食广场","lon":"121.466","lat":"31.2314","category":"68","category_name":"快餐厅","address":"静安区南京西路580号南证大厦4楼(近555广场)"},{"poiid":"B2094757D16BA2FC4198","title":"大田路","lon":"121.464386","lat":"31.232592","category":"500","category_name":"未知分类","address":"上海市静安区,大田路山海关路"},{"poiid":"B2094655D264A1FB4498","title":"喜士多便利(华庭店)","lon":"121.46556","lat":"31.23412","category":"117","category_name":"便民商店/便利店","address":"北京西路483号"},{"poiid":"B2094757D164A0FE4698","title":"HongKong567 慕斯奶茶","lon":"121.468150938","lat":"31.2344654904","category":"247","category_name":"餐饮美食","address":"上海虹口区四川北路2288号(鲁迅公园正门)"},{"poiid":"B2094757D56CAAFC4993","title":"欧拓意式餐厅 南京西路店 OTTO Gourmet Cafe","lon":"121.46784192316","lat":"31.231110686209","category":"247","category_name":"餐饮美食","address":"南京西路456号4楼近成都北路"},{"poiid":"B2094757D16AA0FC469D","title":"凤阳路新昌路","lon":"121.46795073","lat":"31.232919357","category":"500","category_name":"未知分类","address":"上海凤阳路新昌路"},{"poiid":"B2094655D265A4FA4993","title":"喜士多华庭门市","lon":"121.46551","lat":"31.23409","category":"117","category_name":"便民商店/便利店","address":"北京西路485弄2"},{"poiid":"B2094655D26CABF84398","title":"好德No.3010","lon":"121.46623","lat":"31.2327","category":"117","category_name":"便民商店/便利店","address":"凤阳路525"},{"poiid":"B2094655D26CAAFC449A","title":"浦行别墅(西门)","lon":"121.46639","lat":"31.23531","category":"47","category_name":"住宅区","address":"成都北路696弄1-35号"},{"poiid":"B2094757DB68A3FA479F","title":"芭芭露沙","lon":"121.467488","lat":"31.234191","category":"500","category_name":"未知分类","address":"人民公园"},{"poiid":"B2094757D66CA0FC4699","title":"D318次","lon":"121.466134","lat":"31.233413","category":"22","category_name":"火车站","address":"成都-北京西"},{"poiid":"B2094655D26EA2F9489D","title":"一街坊口腔门诊部","lon":"121.46475","lat":"31.23389","category":"162","category_name":"医院","address":"静安区北京西路503号(近大田路)"},{"poiid":"B2094655D26CAAFC4393","title":"浦行别墅","lon":"121.46661","lat":"31.23531","category":"47","category_name":"住宅区","address":"成都北路696弄1-35号"},{"poiid":"B2094654DA6FAAF54792","title":"雷允上凤阳药房","lon":"121.46691","lat":"31.23337","category":"162","category_name":"医院","address":"静安区成都北路568号(北京西路成都北路)"},{"poiid":"B2094654DA68A3FC429F","title":"长征医院医疗纠纷处理办公室","lon":"121.46804","lat":"31.23323","category":"162","category_name":"医院","address":"凤阳路428"},{"poiid":"B2094757D164A7FC429C","title":"杰米宠物俱乐部","lon":"121.46605","lat":"31.23387","category":"162","category_name":"医院","address":"上海静安区北京西路479号(近成都北路)  "},{"poiid":"B2094654DA6CA2F9499D","title":"芬芳上瑞","lon":"121.46459","lat":"31.23383","category":"162","category_name":"医院","address":"北京西路509-511"},{"poiid":"B2094655D26DABF54099","title":"上海147桌球俱乐部","lon":"121.46455","lat":"31.23286","category":"171","category_name":"台球厅","address":"静安区大田路128号B1楼(近北京西路)"},{"poiid":"B2094750DA6EA6F94599","title":"博燚玉石会所","lon":"121.465744","lat":"31.233383","category":"263","category_name":"公司","address":"南京西路612弄3号"},{"poiid":"B209475DD268A5FE419E","title":"徐家汇","lon":"121.468902","lat":"31.232416","category":"500","category_name":"未知分类","address":"上海市 上海市"},{"poiid":"B2094757D164A2FC4199","title":"仙乐斯汇丰银行","lon":"121.467447738","lat":"31.232664352","category":"500","category_name":"未知分类","address":"上海南京西路388号19楼"},{"poiid":"B2094757D66EA7FB4098","title":"桂林米粉 江阴路","lon":"121.46646773","lat":"31.230786611","category":"247","category_name":"餐饮美食","address":"上海明天广场后面"},{"poiid":"B2094655D26DA7FC419D","title":"珍兴里(北门)","lon":"121.46757","lat":"31.23501","category":"47","category_name":"住宅区","address":"北京西路335弄2-28号"},{"poiid":"B2094757D16CA3FF489D","title":"浦发银行","lon":"121.46658447","lat":"31.232914757","category":"500","category_name":"未知分类","address":"上海石门二路88号"},{"poiid":"B2094655D26EA2FA479E","title":"承德坊(南门)","lon":"121.46729","lat":"31.23517","category":"47","category_name":"住宅区","address":"北京西路340弄1-5号"},{"poiid":"B2094654DA6FAAF5499D","title":"珍兴里","lon":"121.46765","lat":"31.23481","category":"47","category_name":"住宅区","address":"北京西路335弄2-28号"},{"poiid":"B2094654DA6CA1F54398","title":"九福新邨","lon":"121.467","lat":"31.2324","category":"47","category_name":"住宅区","address":"茂名北路141弄6-1"},{"poiid":"B2094654DA6CA1FE4392","title":"静安新村","lon":"121.4651","lat":"31.231558","category":"47","category_name":"住宅区","address":"南京西路612弄3-88号"},{"poiid":"B2094757D568A0F84793","title":"北欧卡拉OK","lon":"121.4656139","lat":"31.23069","category":"170","category_name":"KTV","address":"静安区南京西路595号(近成都北路)"},{"poiid":"B2094654DA6CA1FB4599","title":"丰盛里一街","lon":"121.466","lat":"31.2332","category":"47","category_name":"住宅区","address":"茂名北路199弄3-14号"},{"poiid":"B2094655D26DA7FE4398","title":"润康邨(北门)","lon":"121.46575","lat":"31.23071","category":"47","category_name":"住宅区","address":"南京西路591弄1-178号"},{"poiid":"B2094654DA6CA1FB469F","title":"丰盛里二街","lon":"121.466","lat":"31.2338","category":"47","category_name":"住宅区","address":"茂名北路235弄1-18号"},{"poiid":"B2094654DA6CA1FB479F","title":"蕃祉里一街","lon":"121.466","lat":"31.2343","category":"47","category_name":"住宅区","address":"茂名北路257弄4-8号"},{"poiid":"B2094655D26DA7FD499A","title":"静安新邨(南门)","lon":"121.4654","lat":"31.23095","category":"47","category_name":"住宅区","address":""},{"poiid":"B2094654DB69A0F4469B","title":"上海武术院","lon":"121.46561","lat":"31.23068","category":"253","category_name":"校园生活","address":"静安区南京西路595弄"},{"poiid":"B2094655D26DA3FC469A","title":"承德坊","lon":"121.46709","lat":"31.23529","category":"47","category_name":"住宅区","address":"北京西路340弄1-5号"},{"poiid":"B2094654DA6CA1FB489F","title":"蕃祉里四街","lon":"121.465251","lat":"31.234841","category":"47","category_name":"住宅区","address":"茂名北路285弄4-8号"},{"poiid":"B2094753D768ABF4429E","title":"嘉善西塘","lon":"121.467002","lat":"31.234098","category":"500","category_name":"未知分类","address":"上海市 嘉善西塘"},{"poiid":"B2094757D068A5FE4299","title":"凤阳路大田路路口","lon":"121.464323","lat":"31.232573","category":"500","category_name":"未知分类","address":"上海到家了"},{"poiid":"B2094757D66CA5FB479C","title":"莊氏隆興","lon":"121.466184938","lat":"31.2342647861","category":"500","category_name":"未知分类","address":"上海市黄浦区凤阳路409号(近成都北路)"},{"poiid":"B2094753D165A4F8469A","title":"田子坊","lon":"121.465468","lat":"31.233832","category":"500","category_name":"未知分类","address":"上海市 卢湾区"},{"poiid":"B2094757D16BA3F9429A","title":"miracle makers时尚彩绘店","lon":"121.464426738","lat":"31.2321653413","category":"500","category_name":"未知分类","address":"上海凤阳路578号"},{"poiid":"B2094654DA6CA1FE449E","title":"中国银行上海市南京西路支行","lon":"121.46603","lat":"31.23111","category":"150","category_name":"银行","address":"静安区南京西路580号南证大厦内(近成都北路)"},{"poiid":"B2094654DA6CA1FE449A","title":"天美意","lon":"121.46551","lat":"31.23094","category":"141","category_name":"服装鞋帽皮具店","address":"南京西路608"},{"poiid":"B2094753D164A6F8449D","title":"7号线昌平路站","lon":"121.467346","lat":"31.234501","category":"500","category_name":"未知分类","address":"上海市 常德路800号"},{"poiid":"B2094750D565A7FA489B","title":"一兆伟德","lon":"121.465133","lat":"31.23213","category":"500","category_name":"未知分类","address":"凤阳路"},{"poiid":"B209475CD664ABF5419B","title":"上海虹桥机场","lon":"121.464492","lat":"31.232608","category":"500","category_name":"未知分类","address":"上海市 上海虹桥机场"},{"poiid":"B2094757D16AAAF9479F","title":"祥康里","lon":"121.4686","lat":"31.232643","category":"252","category_name":"楼宇机构","address":"上海市黄浦区新昌路"},{"poiid":"B2094655D268A5FF4498","title":"中国邮政储蓄银行凤阳路支行","lon":"121.46545","lat":"31.23284","category":"150","category_name":"银行","address":"凤阳路572"},{"poiid":"B2094757D06AA2FD489D","title":"FINE Furniture Design","lon":"121.46585","lat":"31.234135","category":"500","category_name":"未知分类","address":"上海北京西路473号"},{"poiid":"B2094757D16AA6FD479C","title":"新昌路220号","lon":"121.46618493","lat":"31.234264786","category":"500","category_name":"未知分类","address":"上海新昌路220号"},{"poiid":"B2094757D168A3FA469F","title":"黄浦区南京东路街道社会保障服务中心","lon":"121.46707003","lat":"31.231887285","category":"500","category_name":"未知分类","address":"上海江阴路101号"},{"poiid":"B2094655D26EA3FC4398","title":"火舞冰点南京西路人气店","lon":"121.46582","lat":"31.23136","category":"190","category_name":"培训机构","address":"南京西路580号南证大厦B座907-910室"},{"poiid":"B2094753D46CA6FF409F","title":"Center TLScontact","lon":"121.465797","lat":"31.234468","category":"500","category_name":"未知分类","address":"上海市 恒丰路329号隆宇国际商务广场8楼"},{"poiid":"B2094654DA68A3F5409D","title":"林内牌展示服务中心","lon":"121.46737","lat":"31.23074","category":"123","category_name":"家具建材市场","address":""},{"poiid":"B2094757D168A6F94899","title":"兴业银行(市中支行)","lon":"121.466635738","lat":"31.2343163872","category":"150","category_name":"银行","address":"上海成都路 北京西路"},{"poiid":"B2094757DA69A1FF419D","title":"德真会齿科诊所(静安店)","lon":"121.46656771250241","lat":"31.23062507448777","category":"622","category_name":"医疗健康类公司","address":"静安区南京西路555号555商厦2楼(近成都北路)"},{"poiid":"B2094655D265A0F54799","title":"剑锋击剑俱乐部","lon":"121.46461","lat":"31.23384","category":"220","category_name":"运动场所","address":"北京西路511"},{"poiid":"B2094757D064ABFC429A","title":"夜色中。","lon":"121.46896398","lat":"31.23352412","category":"500","category_name":"未知分类","address":"上海."},{"poiid":"B2094757D16BA5FB4292","title":"马克西姆面包房(周家嘴路店)","lon":"121.46812673","lat":"31.234188384","category":"500","category_name":"未知分类","address":"上海杨浦区周家嘴路2190号(近许昌路)"},{"poiid":"B2094757D16FA6F54099","title":"黄河大楼","lon":"121.468215738","lat":"31.2346903951","category":"500","category_name":"未知分类","address":"上海北京西路199号"},{"poiid":"B2094757D66EA4F94993","title":"36路公交","lon":"121.468123","lat":"31.233006","category":"500","category_name":"未知分类","address":"海口36路公交车上"},{"poiid":"B2094757D568A5FA499C","title":"京都日式大浴场","lon":"121.4641325","lat":"31.23307194","category":"149","category_name":"洗浴推拿场所","address":"大田路129号"},{"poiid":"B2094757D168AAFE4892","title":"华一静安支行","lon":"121.466311838","lat":"31.2309597156","category":"150","category_name":"银行","address":"上海南京西路555号"},{"poiid":"B2094757D465A4F4479E","title":"上岛咖啡 成都北路店 UBC Coffee","lon":"121.466784","lat":"31.234384","category":"260","category_name":"其他","address":"静安区成都北路656号(成都北路凤阳路)"},{"poiid":"B2094757D66EA1FE459C","title":"麓庭","lon":"121.465485738","lat":"31.2328833566","category":"260","category_name":"其他","address":"静安区北京西路500号(近静安雕塑公园)"},{"poiid":"B2094757D069A6F9409F","title":"威海大楼","lon":"121.46663890759","lat":"31.232656335846","category":"500","category_name":"未知分类","address":"上海威海路163号&amp;167号"},{"poiid":"B2094654DA68A3F94392","title":"中国工商银行北京西路支行","lon":"121.4668","lat":"31.23499","category":"150","category_name":"银行","address":"黄浦区北京西路380号近北京路(北京西路成都北路)"},{"poiid":"B2094654DA68A3FA479C","title":"兴业银行上海市中支行","lon":"121.46679","lat":"31.23425","category":"150","category_name":"银行","address":"成都北路600"},{"poiid":"B2094757D06AABF4499F","title":"双鱼座","lon":"121.46635873","lat":"31.230952315","category":"500","category_name":"未知分类","address":"上海海上"},{"poiid":"B2094757D168A7FE409F","title":"凡尘冰镇桌游吧","lon":"121.46447","lat":"31.23297","category":"175","category_name":"棋牌室","address":"上海静安区大田路129弄1号嘉发大厦A幢10楼E室(近北京西路)  "},{"poiid":"B2094750D76FA2F84892","title":"Lind(凯宾斯基店)","lon":"121.465","lat":"31.2323","category":"260","category_name":"其他","address":"静安区凤阳路601号御锦轩凯宾斯基酒店1楼(近南京西路)"},{"poiid":"B2094757D66EA3F54099","title":"黄浦区新昌路245弄","lon":"121.468363","lat":"31.234597","category":"500","category_name":"未知分类","address":"上海新昌路245弄"},{"poiid":"B2094757D164A5FE4693","title":"中山南路28号Fesco•Adecco","lon":"121.46656773","lat":"31.231507327","category":"500","category_name":"未知分类","address":"上海市静安区北京西路"},{"poiid":"B2094757D569A2FF4692","title":"华一银行(南京西路)","lon":"121.4664874","lat":"31.23070936","category":"150","category_name":"银行","address":"静安区南京西路(近成都北路)"},{"poiid":"B2094757D16EA5F5459B","title":"喜士多便利(壹街区店)","lon":"121.46541565","lat":"31.23420584","category":"249","category_name":"购物服务","address":"上海市静安区北京西路485弄2号"},{"poiid":"B2094757D16EABFD4798","title":"好晦涩","lon":"121.46665373","lat":"31.231099318","category":"500","category_name":"未知分类","address":"上海海上"},{"poiid":"B2094752D66AABFA449C","title":"一兆韦德凤阳路店","lon":"121.464992","lat":"31.23226","category":"248","category_name":"生活娱乐","address":"上海市凤阳路"},{"poiid":"B2094757D568A1F5449D","title":"宝点南京西路店","lon":"121.4661708","lat":"31.23086694","category":"249","category_name":"购物服务","address":"静安区南京西路588号淘宝城2-12(近成都北路)"},{"poiid":"B2094654DA6CA2F94992","title":"舞风休闲会所","lon":"121.46459","lat":"31.23383","category":"208","category_name":"休闲场所","address":"静安区北京西路509-511"},{"poiid":"B2094757DA6EAAFA439A","title":"佰褔卡营运中心","lon":"121.464692999999","lat":"31.2338739999999","category":"263","category_name":"公司","address":"静安区北京西路505号"},{"poiid":"B2094654DB6BA6F44793","title":"卡拉威高尔夫贸易(上海)有限公司(成都北路)","lon":"121.46654","lat":"31.23058","category":"263","category_name":"公司","address":"南京西路555号555商厦402-03"},{"poiid":"B2094654DA6CA1FD429E","title":"三丽鸥(上海)国际贸易有限公司","lon":"121.46654","lat":"31.23058","category":"263","category_name":"公司","address":"南京西路555号555商厦7层701B"},{"poiid":"B2094757D568ABFC419F","title":"GAME MAX桌面游戏","lon":"121.4641325","lat":"31.23307194","category":"248","category_name":"生活娱乐","address":"大田路129号嘉发大厦B幢15D"},{"poiid":"B2094654DA68A3F9439D","title":"中国工商银行北京西路支行ATM取款机","lon":"121.46672","lat":"31.23495","category":"152","category_name":"ATM","address":"北京西路380"},{"poiid":"B2094654DA6FAAF5489F","title":"中华联合财产保险股份有限公司上海分公司","lon":"121.46685","lat":"31.23414","category":"219","category_name":"其他","address":"成都北路600号中华保险华盛大厦"},{"poiid":"B2094655D26DA4F8449F","title":"南证大厦(东门)","lon":"121.46643","lat":"31.23157","category":"656","category_name":"大门","address":""},{"poiid":"B2094655D26DA1FC499F","title":"南证大厦(南门)","lon":"121.46583","lat":"31.23097","category":"656","category_name":"大门","address":""},{"poiid":"B2094655D268A4FE4499","title":"静安华庭(南门)","lon":"121.46508","lat":"31.23274","category":"656","category_name":"大门","address":"凤阳路588弄1-27"},{"poiid":"B2094655D26CABF8439A","title":"静安华庭(北门)","lon":"121.46538","lat":"31.23408","category":"656","category_name":"大门","address":"北京西路485弄2"},{"poiid":"B2094654DB6BA6F4499E","title":"静安华庭(西门)","lon":"121.46443","lat":"31.23304","category":"656","category_name":"大门","address":"大田路158"},{"poiid":"B2094655D26DA2FA479E","title":"南证大厦(北门)","lon":"121.4654","lat":"31.23245","category":"656","category_name":"大门","address":""},{"poiid":"B2094654DA6FAAF5489E","title":"华盛大公馆(西门)","lon":"121.4668","lat":"31.23381","category":"656","category_name":"大门","address":""},{"poiid":"B2094655D26CAAF9449C","title":"新中邨(东二门)","lon":"121.46858","lat":"31.23427","category":"656","category_name":"大门","address":""},{"poiid":"B2094655D26DA7FC439E","title":"新中邨(东一门)","lon":"121.46836","lat":"31.2346","category":"656","category_name":"大门","address":"新昌路245弄4-10号"}]