[{"poiid":"B2094654D56EA1F8449B","title":"上海市中医医院","lon":"121.47148","lat":"31.25943","category":"162","category_name":"医院","address":"闸北区芷江中路274"},{"poiid":"B2094757D06FA1FC4793","title":"四川北路","lon":"121.46957283","lat":"31.259405967","category":"260","category_name":"其他","address":"上海虹口区四川北路"},{"poiid":"B2094757D06FA5F8419D","title":"星火电影院","lon":"121.467029185","lat":"31.258047744","category":"178","category_name":"电影院","address":"闸北区芷江西路1号(近西藏北路)"},{"poiid":"B2094757D16CA7FC439A","title":"中海万锦城","lon":"121.468","lat":"31.2574","category":"500","category_name":"未知分类","address":"闸北区长兴路188号(近永兴路)"},{"poiid":"B2094654D464A2FE459E","title":"中兴财富休闲广场","lon":"121.4696667138","lat":"31.258608071362","category":"201","category_name":"城市广场","address":"闸北中兴路1233弄"},{"poiid":"B2094757DA6FA3FB4693","title":"乐购(中兴店)","lon":"121.468737899999","lat":"31.2548925999999","category":"249","category_name":"购物服务","address":"闸北区中华新路396号(近西藏北路)"},{"poiid":"B2094655D36DA1FB419D","title":"西藏北路芷江西路","lon":"121.4675","lat":"31.25762","category":"38","category_name":"公交车站","address":"上海西藏北路"},{"poiid":"B2094757D06BAAFD499A","title":"西藏北路夜排档","lon":"121.46788","lat":"31.25803","category":"68","category_name":"快餐厅","address":"闸北区西藏北路(近芷江西路)"},{"poiid":"B2094654D56CA2FD449F","title":"市北初级中学","lon":"121.46715","lat":"31.25567","category":"55","category_name":"中学","address":"闸北区西藏北路803号(近南山路)"},{"poiid":"B2094654D56EA1F44792","title":"宝山地段医院","lon":"121.46892","lat":"31.25727","category":"162","category_name":"医院","address":"闸北区天通庵路51号(天通庵路止园路)"},{"poiid":"B2094655D26CA0F8429E","title":"芷江中路660弄小区","lon":"121.46886","lat":"31.258","category":"47","category_name":"住宅区","address":"芷江中路660弄"},{"poiid":"B2094655D269AAFA489C","title":"莫泰168南山路店","lon":"121.46663","lat":"31.25665","category":"247","category_name":"餐饮美食","address":"闸北区南山路38号(近西藏北路)"},{"poiid":"B2094654D56CA2F4429E","title":"凯鹏国际大厦","lon":"121.471","lat":"31.2564","category":"46","category_name":"楼宇","address":"卢湾区复兴中路369号(马当路口)"},{"poiid":"B2094750D664A4F9499C","title":"彭浦第一炸鸡腿","lon":"121.469","lat":"31.259","category":"68","category_name":"快餐厅","address":"闸北区止园路336号"},{"poiid":"B2094654D56EA1F44793","title":"闸北区宝山社区卫生服中心","lon":"121.46892","lat":"31.25727","category":"162","category_name":"医院","address":"天通庵路51"},{"poiid":"B2094752D765A6FC419B","title":"上海缘来很多人咖啡馆","lon":"121.47487","lat":"31.253767","category":"247","category_name":"餐饮美食","address":"闸北区公兴路65号"},{"poiid":"B2094654D56EA1FB4393","title":"农家坊","lon":"121.47003","lat":"31.25898","category":"87","category_name":"特色／地方风味餐厅","address":"闸北区芷江中路444号(止园路口)"},{"poiid":"B2094757D465A7F8409E","title":"重庆鸡公煲 止园路店","lon":"121.468461054","lat":"31.259952793","category":"247","category_name":"餐饮美食","address":"闸北区止园路469号(近芷江中路)"},{"poiid":"B2094654D56EA1FB429F","title":"光明便利No.421","lon":"121.46826","lat":"31.25838","category":"117","category_name":"便民商店/便利店","address":"芷江中路541"},{"poiid":"B2094655D26CA7FE459E","title":"芷江中路678弄小区(北门)","lon":"121.46816","lat":"31.25793","category":"47","category_name":"住宅区","address":"芷江中路678弄"},{"poiid":"B2094654D56CA2FD4592","title":"和田饭店","lon":"121.46701","lat":"31.25761","category":"257","category_name":"中餐厅","address":"闸北区芷江西路12号(西藏北路口)"},{"poiid":"B2094655D26EA4FC469B","title":"芷江西路烧烤摊","lon":"121.46695","lat":"31.25797","category":"68","category_name":"快餐厅","address":"闸北区芷江西路1号星火电影院附近(近西藏北路)"},{"poiid":"B2094655D26CA7FF4993","title":"芷江中路660弄小区(北门)","lon":"121.46874","lat":"31.25826","category":"47","category_name":"住宅区","address":""},{"poiid":"B209475CD769A0FB479C","title":"上海火车头体育场","lon":"121.468276","lat":"31.257766","category":"500","category_name":"未知分类","address":"上海市 中国 上海市‎ 上海市市辖区 共和新路955号"},{"poiid":"B2094654D56CA2FE489E","title":"杨师傅生煎王芷江店","lon":"121.46665","lat":"31.25791","category":"68","category_name":"快餐厅","address":"闸北区芷江西路27号(近西藏北路)"},{"poiid":"B2094757D568ABFC4792","title":"上海市中医医院住院部","lon":"121.471862","lat":"31.258842","category":"266","category_name":"三甲医院","address":"天通庵路191号"},{"poiid":"B2094757D664A4F94393","title":"海星酒家","lon":"121.46979261913","lat":"31.259070019054","category":"76","category_name":"上海菜","address":"闸北区芷江中路510号(近止园路)"},{"poiid":"B2094757D069A0F44093","title":"志园公寓","lon":"121.46949","lat":"31.257713","category":"252","category_name":"楼宇机构","address":"上海市闸北区止园路299号"},{"poiid":"B2094654DB6BA3FB439F","title":"良友(芷江中路)","lon":"121.4693","lat":"31.25858","category":"117","category_name":"便民商店/便利店","address":"芷江中路498"},{"poiid":"B2094750D568A1F94792","title":"吉祥馄饨(芷江中路店)","lon":"121.47","lat":"31.2591","category":"68","category_name":"快餐厅","address":"闸北区芷江中路434号(近通阁路)"},{"poiid":"B2094654D56EA1FB439F","title":"小广东","lon":"121.46969134132","lat":"31.258879616364","category":"72","category_name":"广东菜","address":"芷江中路458号近止园路"},{"poiid":"B2094757D76BA1F5439A","title":"大唐人家面馆 芷江路店","lon":"121.469656","lat":"31.259177","category":"68","category_name":"快餐厅","address":"闸北区芷江路462号(止园路口)"},{"poiid":"B2094757D168A5FB4499","title":"良友金伴(西藏北路1店)","lon":"121.46761","lat":"31.2576","category":"117","category_name":"便民商店/便利店","address":"上海闸北区西藏北路891号  "},{"poiid":"B2094655D26CA1FC4792","title":"良友金伴便利连锁No.540","lon":"121.46725","lat":"31.25757","category":"117","category_name":"便民商店/便利店","address":""},{"poiid":"B2094655D26EA2F8479E","title":"草原小肥羊火锅","lon":"121.469757","lat":"31.2584114","category":"86","category_name":"火锅店","address":"止园路299号"},{"poiid":"B2094757D16BAAFE4393","title":"芷江中路幼儿园","lon":"121.467534","lat":"31.259396","category":"57","category_name":"幼儿园","address":"闸北区芷江中路531弄25号(芷江西路芷江中路)"},{"poiid":"B2094654D56EA1F84898","title":"中国工商银行西藏北路支行","lon":"121.46829","lat":"31.2584","category":"150","category_name":"银行","address":"闸北区芷江中路535号近西藏北路(芷江西路芷江中路)"},{"poiid":"B2094757DB6FABF5439B","title":"避风港","lon":"121.469364","lat":"31.257884","category":"500","category_name":"未知分类","address":"中兴路"},{"poiid":"B2094654D56EA1FB429B","title":"信谊大药房芷江店","lon":"121.46756","lat":"31.25849","category":"162","category_name":"医院","address":"宝山路"},{"poiid":"B2094655D26FA0FE469B","title":"良友金伴止园店","lon":"121.47015","lat":"31.25749","category":"117","category_name":"便民商店/便利店","address":"止园路252号"},{"poiid":"B2094757D169A5F9479F","title":"鹿角亭烤鸭店","lon":"121.46687","lat":"31.25657","category":"257","category_name":"中餐厅","address":"闸北区永兴路701号(共和新路口)"},{"poiid":"B2094655D26CA7FE459F","title":"华康客房","lon":"121.46902","lat":"31.25796","category":"217","category_name":"旅馆招待所","address":"芷江中路660弄29号"},{"poiid":"B2094757D16CAAF4429C","title":"良友金伴(芷江中店)","lon":"121.4695","lat":"31.25836","category":"117","category_name":"便民商店/便利店","address":"上海闸北区芷江中路498号  "},{"poiid":"B2094654D56EA1F5439D","title":"止园路邮电小区","lon":"121.46999","lat":"31.25683","category":"47","category_name":"住宅区","address":"止园路240弄"},{"poiid":"B2094757D064A5FE4993","title":"老北京羊蝎子火锅","lon":"121.46852","lat":"31.26095","category":"86","category_name":"火锅店","address":"上海闸北区止园路403号(青云路口)  "},{"poiid":"B2094654D56EA1F54499","title":"光明便利No.063","lon":"121.47026","lat":"31.25807","category":"117","category_name":"便民商店/便利店","address":"止园路281"},{"poiid":"B2094654D56CA2FD4798","title":"和田小区","lon":"121.46623","lat":"31.25948","category":"47","category_name":"住宅区","address":"西藏北路985-987弄"},{"poiid":"B2094757D16DA4F94698","title":"西藏北路1145号","lon":"121.468304","lat":"31.258387","category":"500","category_name":"未知分类","address":"上海市西藏北路"},{"poiid":"B2094654D56EA1F44798","title":"志园公寓(南门)","lon":"121.46958","lat":"31.25757","category":"48","category_name":"楼宇大门","address":"止园路288弄"},{"poiid":"B2094654D56CA2FD449C","title":"快客(童天宾馆西)","lon":"121.46762","lat":"31.2563","category":"117","category_name":"便民商店/便利店","address":"西藏北路843"},{"poiid":"B2094654D56EA1F8449B","title":"上海市中医医院","lon":"121.47148","lat":"31.25943","category":"162","category_name":"医院","address":"闸北区芷江中路274"},{"poiid":"B2094757D06FA1FC4793","title":"四川北路","lon":"121.46957283","lat":"31.259405967","category":"260","category_name":"其他","address":"上海虹口区四川北路"},{"poiid":"B2094757D06FA5F8419D","title":"星火电影院","lon":"121.467029185","lat":"31.258047744","category":"178","category_name":"电影院","address":"闸北区芷江西路1号(近西藏北路)"},{"poiid":"B2094757D16CA7FC439A","title":"中海万锦城","lon":"121.468","lat":"31.2574","category":"500","category_name":"未知分类","address":"闸北区长兴路188号(近永兴路)"},{"poiid":"B2094654D464A2FE459E","title":"中兴财富休闲广场","lon":"121.4696667138","lat":"31.258608071362","category":"201","category_name":"城市广场","address":"闸北中兴路1233弄"},{"poiid":"B2094757DA6FA3FB4693","title":"乐购(中兴店)","lon":"121.468737899999","lat":"31.2548925999999","category":"249","category_name":"购物服务","address":"闸北区中华新路396号(近西藏北路)"},{"poiid":"B2094655D36DA1FB419D","title":"西藏北路芷江西路","lon":"121.4675","lat":"31.25762","category":"38","category_name":"公交车站","address":"上海西藏北路"},{"poiid":"B2094757D06BAAFD499A","title":"西藏北路夜排档","lon":"121.46788","lat":"31.25803","category":"68","category_name":"快餐厅","address":"闸北区西藏北路(近芷江西路)"},{"poiid":"B2094654D56CA2FD449F","title":"市北初级中学","lon":"121.46715","lat":"31.25567","category":"55","category_name":"中学","address":"闸北区西藏北路803号(近南山路)"},{"poiid":"B2094654D56EA1F44792","title":"宝山地段医院","lon":"121.46892","lat":"31.25727","category":"162","category_name":"医院","address":"闸北区天通庵路51号(天通庵路止园路)"},{"poiid":"B2094655D26CA0F8429E","title":"芷江中路660弄小区","lon":"121.46886","lat":"31.258","category":"47","category_name":"住宅区","address":"芷江中路660弄"},{"poiid":"B2094655D269AAFA489C","title":"莫泰168南山路店","lon":"121.46663","lat":"31.25665","category":"247","category_name":"餐饮美食","address":"闸北区南山路38号(近西藏北路)"},{"poiid":"B2094654D56CA2F4429E","title":"凯鹏国际大厦","lon":"121.471","lat":"31.2564","category":"46","category_name":"楼宇","address":"卢湾区复兴中路369号(马当路口)"},{"poiid":"B2094750D664A4F9499C","title":"彭浦第一炸鸡腿","lon":"121.469","lat":"31.259","category":"68","category_name":"快餐厅","address":"闸北区止园路336号"},{"poiid":"B2094654D56EA1F44793","title":"闸北区宝山社区卫生服中心","lon":"121.46892","lat":"31.25727","category":"162","category_name":"医院","address":"天通庵路51"},{"poiid":"B2094752D765A6FC419B","title":"上海缘来很多人咖啡馆","lon":"121.47487","lat":"31.253767","category":"247","category_name":"餐饮美食","address":"闸北区公兴路65号"},{"poiid":"B2094654D56EA1FB4393","title":"农家坊","lon":"121.47003","lat":"31.25898","category":"87","category_name":"特色／地方风味餐厅","address":"闸北区芷江中路444号(止园路口)"},{"poiid":"B2094757D465A7F8409E","title":"重庆鸡公煲 止园路店","lon":"121.468461054","lat":"31.259952793","category":"247","category_name":"餐饮美食","address":"闸北区止园路469号(近芷江中路)"},{"poiid":"B2094654D56EA1FB429F","title":"光明便利No.421","lon":"121.46826","lat":"31.25838","category":"117","category_name":"便民商店/便利店","address":"芷江中路541"},{"poiid":"B2094655D26CA7FE459E","title":"芷江中路678弄小区(北门)","lon":"121.46816","lat":"31.25793","category":"47","category_name":"住宅区","address":"芷江中路678弄"},{"poiid":"B2094654D56CA2FD4592","title":"和田饭店","lon":"121.46701","lat":"31.25761","category":"257","category_name":"中餐厅","address":"闸北区芷江西路12号(西藏北路口)"},{"poiid":"B2094655D26EA4FC469B","title":"芷江西路烧烤摊","lon":"121.46695","lat":"31.25797","category":"68","category_name":"快餐厅","address":"闸北区芷江西路1号星火电影院附近(近西藏北路)"},{"poiid":"B2094655D26CA7FF4993","title":"芷江中路660弄小区(北门)","lon":"121.46874","lat":"31.25826","category":"47","category_name":"住宅区","address":""},{"poiid":"B209475CD769A0FB479C","title":"上海火车头体育场","lon":"121.468276","lat":"31.257766","category":"500","category_name":"未知分类","address":"上海市 中国 上海市‎ 上海市市辖区 共和新路955号"},{"poiid":"B2094654D56CA2FE489E","title":"杨师傅生煎王芷江店","lon":"121.46665","lat":"31.25791","category":"68","category_name":"快餐厅","address":"闸北区芷江西路27号(近西藏北路)"},{"poiid":"B2094757D568ABFC4792","title":"上海市中医医院住院部","lon":"121.471862","lat":"31.258842","category":"266","category_name":"三甲医院","address":"天通庵路191号"},{"poiid":"B2094757D664A4F94393","title":"海星酒家","lon":"121.46979261913","lat":"31.259070019054","category":"76","category_name":"上海菜","address":"闸北区芷江中路510号(近止园路)"},{"poiid":"B2094757D069A0F44093","title":"志园公寓","lon":"121.46949","lat":"31.257713","category":"252","category_name":"楼宇机构","address":"上海市闸北区止园路299号"},{"poiid":"B2094654DB6BA3FB439F","title":"良友(芷江中路)","lon":"121.4693","lat":"31.25858","category":"117","category_name":"便民商店/便利店","address":"芷江中路498"},{"poiid":"B2094750D568A1F94792","title":"吉祥馄饨(芷江中路店)","lon":"121.47","lat":"31.2591","category":"68","category_name":"快餐厅","address":"闸北区芷江中路434号(近通阁路)"},{"poiid":"B2094654D56EA1FB439F","title":"小广东","lon":"121.46969134132","lat":"31.258879616364","category":"72","category_name":"广东菜","address":"芷江中路458号近止园路"},{"poiid":"B2094757D76BA1F5439A","title":"大唐人家面馆 芷江路店","lon":"121.469656","lat":"31.259177","category":"68","category_name":"快餐厅","address":"闸北区芷江路462号(止园路口)"},{"poiid":"B2094757D168A5FB4499","title":"良友金伴(西藏北路1店)","lon":"121.46761","lat":"31.2576","category":"117","category_name":"便民商店/便利店","address":"上海闸北区西藏北路891号  "},{"poiid":"B2094655D26CA1FC4792","title":"良友金伴便利连锁No.540","lon":"121.46725","lat":"31.25757","category":"117","category_name":"便民商店/便利店","address":""},{"poiid":"B2094655D26EA2F8479E","title":"草原小肥羊火锅","lon":"121.469757","lat":"31.2584114","category":"86","category_name":"火锅店","address":"止园路299号"},{"poiid":"B2094757D16BAAFE4393","title":"芷江中路幼儿园","lon":"121.467534","lat":"31.259396","category":"57","category_name":"幼儿园","address":"闸北区芷江中路531弄25号(芷江西路芷江中路)"},{"poiid":"B2094654D56EA1F84898","title":"中国工商银行西藏北路支行","lon":"121.46829","lat":"31.2584","category":"150","category_name":"银行","address":"闸北区芷江中路535号近西藏北路(芷江西路芷江中路)"},{"poiid":"B2094757DB6FABF5439B","title":"避风港","lon":"121.469364","lat":"31.257884","category":"500","category_name":"未知分类","address":"中兴路"},{"poiid":"B2094654D56EA1FB429B","title":"信谊大药房芷江店","lon":"121.46756","lat":"31.25849","category":"162","category_name":"医院","address":"宝山路"},{"poiid":"B2094655D26FA0FE469B","title":"良友金伴止园店","lon":"121.47015","lat":"31.25749","category":"117","category_name":"便民商店/便利店","address":"止园路252号"},{"poiid":"B2094757D169A5F9479F","title":"鹿角亭烤鸭店","lon":"121.46687","lat":"31.25657","category":"257","category_name":"中餐厅","address":"闸北区永兴路701号(共和新路口)"},{"poiid":"B2094655D26CA7FE459F","title":"华康客房","lon":"121.46902","lat":"31.25796","category":"217","category_name":"旅馆招待所","address":"芷江中路660弄29号"},{"poiid":"B2094757D16CAAF4429C","title":"良友金伴(芷江中店)","lon":"121.4695","lat":"31.25836","category":"117","category_name":"便民商店/便利店","address":"上海闸北区芷江中路498号  "},{"poiid":"B2094654D56EA1F5439D","title":"止园路邮电小区","lon":"121.46999","lat":"31.25683","category":"47","category_name":"住宅区","address":"止园路240弄"},{"poiid":"B2094757D064A5FE4993","title":"老北京羊蝎子火锅","lon":"121.46852","lat":"31.26095","category":"86","category_name":"火锅店","address":"上海闸北区止园路403号(青云路口)  "},{"poiid":"B2094654D56EA1F54499","title":"光明便利No.063","lon":"121.47026","lat":"31.25807","category":"117","category_name":"便民商店/便利店","address":"止园路281"},{"poiid":"B2094654D56CA2FD4798","title":"和田小区","lon":"121.46623","lat":"31.25948","category":"47","category_name":"住宅区","address":"西藏北路985-987弄"},{"poiid":"B2094757D16DA4F94698","title":"西藏北路1145号","lon":"121.468304","lat":"31.258387","category":"500","category_name":"未知分类","address":"上海市西藏北路"},{"poiid":"B2094654D56EA1F44798","title":"志园公寓(南门)","lon":"121.46958","lat":"31.25757","category":"48","category_name":"楼宇大门","address":"止园路288弄"},{"poiid":"B2094654D56CA2FD449C","title":"快客(童天宾馆西)","lon":"121.46762","lat":"31.2563","category":"117","category_name":"便民商店/便利店","address":"西藏北路843"},{"poiid":"B2094654D56EA1F8449B","title":"上海市中医医院","lon":"121.47148","lat":"31.25943","category":"162","category_name":"医院","address":"闸北区芷江中路274"},{"poiid":"B2094757D06FA1FC4793","title":"四川北路","lon":"121.46957283","lat":"31.259405967","category":"260","category_name":"其他","address":"上海虹口区四川北路"},{"poiid":"B2094757D06FA5F8419D","title":"星火电影院","lon":"121.467029185","lat":"31.258047744","category":"178","category_name":"电影院","address":"闸北区芷江西路1号(近西藏北路)"},{"poiid":"B2094757D16CA7FC439A","title":"中海万锦城","lon":"121.468","lat":"31.2574","category":"500","category_name":"未知分类","address":"闸北区长兴路188号(近永兴路)"},{"poiid":"B2094654D464A2FE459E","title":"中兴财富休闲广场","lon":"121.4696667138","lat":"31.258608071362","category":"201","category_name":"城市广场","address":"闸北中兴路1233弄"},{"poiid":"B2094757DA6FA3FB4693","title":"乐购(中兴店)","lon":"121.468737899999","lat":"31.2548925999999","category":"249","category_name":"购物服务","address":"闸北区中华新路396号(近西藏北路)"},{"poiid":"B2094655D36DA1FB419D","title":"西藏北路芷江西路","lon":"121.4675","lat":"31.25762","category":"38","category_name":"公交车站","address":"上海西藏北路"},{"poiid":"B2094757D06BAAFD499A","title":"西藏北路夜排档","lon":"121.46788","lat":"31.25803","category":"68","category_name":"快餐厅","address":"闸北区西藏北路(近芷江西路)"},{"poiid":"B2094654D56CA2FD449F","title":"市北初级中学","lon":"121.46715","lat":"31.25567","category":"55","category_name":"中学","address":"闸北区西藏北路803号(近南山路)"},{"poiid":"B2094654D56EA1F44792","title":"宝山地段医院","lon":"121.46892","lat":"31.25727","category":"162","category_name":"医院","address":"闸北区天通庵路51号(天通庵路止园路)"},{"poiid":"B2094655D26CA0F8429E","title":"芷江中路660弄小区","lon":"121.46886","lat":"31.258","category":"47","category_name":"住宅区","address":"芷江中路660弄"},{"poiid":"B2094655D269AAFA489C","title":"莫泰168南山路店","lon":"121.46663","lat":"31.25665","category":"247","category_name":"餐饮美食","address":"闸北区南山路38号(近西藏北路)"},{"poiid":"B2094654D56CA2F4429E","title":"凯鹏国际大厦","lon":"121.471","lat":"31.2564","category":"46","category_name":"楼宇","address":"卢湾区复兴中路369号(马当路口)"},{"poiid":"B2094750D664A4F9499C","title":"彭浦第一炸鸡腿","lon":"121.469","lat":"31.259","category":"68","category_name":"快餐厅","address":"闸北区止园路336号"},{"poiid":"B2094654D56EA1F44793","title":"闸北区宝山社区卫生服中心","lon":"121.46892","lat":"31.25727","category":"162","category_name":"医院","address":"天通庵路51"},{"poiid":"B2094752D765A6FC419B","title":"上海缘来很多人咖啡馆","lon":"121.47487","lat":"31.253767","category":"247","category_name":"餐饮美食","address":"闸北区公兴路65号"},{"poiid":"B2094654D56EA1FB4393","title":"农家坊","lon":"121.47003","lat":"31.25898","category":"87","category_name":"特色／地方风味餐厅","address":"闸北区芷江中路444号(止园路口)"},{"poiid":"B2094757D465A7F8409E","title":"重庆鸡公煲 止园路店","lon":"121.468461054","lat":"31.259952793","category":"247","category_name":"餐饮美食","address":"闸北区止园路469号(近芷江中路)"},{"poiid":"B2094654D56EA1FB429F","title":"光明便利No.421","lon":"121.46826","lat":"31.25838","category":"117","category_name":"便民商店/便利店","address":"芷江中路541"},{"poiid":"B2094655D26CA7FE459E","title":"芷江中路678弄小区(北门)","lon":"121.46816","lat":"31.25793","category":"47","category_name":"住宅区","address":"芷江中路678弄"},{"poiid":"B2094654D56CA2FD4592","title":"和田饭店","lon":"121.46701","lat":"31.25761","category":"257","category_name":"中餐厅","address":"闸北区芷江西路12号(西藏北路口)"},{"poiid":"B2094655D26EA4FC469B","title":"芷江西路烧烤摊","lon":"121.46695","lat":"31.25797","category":"68","category_name":"快餐厅","address":"闸北区芷江西路1号星火电影院附近(近西藏北路)"},{"poiid":"B2094655D26CA7FF4993","title":"芷江中路660弄小区(北门)","lon":"121.46874","lat":"31.25826","category":"47","category_name":"住宅区","address":""},{"poiid":"B209475CD769A0FB479C","title":"上海火车头体育场","lon":"121.468276","lat":"31.257766","category":"500","category_name":"未知分类","address":"上海市 中国 上海市‎ 上海市市辖区 共和新路955号"},{"poiid":"B2094654D56CA2FE489E","title":"杨师傅生煎王芷江店","lon":"121.46665","lat":"31.25791","category":"68","category_name":"快餐厅","address":"闸北区芷江西路27号(近西藏北路)"},{"poiid":"B2094757D568ABFC4792","title":"上海市中医医院住院部","lon":"121.471862","lat":"31.258842","category":"266","category_name":"三甲医院","address":"天通庵路191号"},{"poiid":"B2094757D664A4F94393","title":"海星酒家","lon":"121.46979261913","lat":"31.259070019054","category":"76","category_name":"上海菜","address":"闸北区芷江中路510号(近止园路)"},{"poiid":"B2094757D069A0F44093","title":"志园公寓","lon":"121.46949","lat":"31.257713","category":"252","category_name":"楼宇机构","address":"上海市闸北区止园路299号"},{"poiid":"B2094654DB6BA3FB439F","title":"良友(芷江中路)","lon":"121.4693","lat":"31.25858","category":"117","category_name":"便民商店/便利店","address":"芷江中路498"},{"poiid":"B2094750D568A1F94792","title":"吉祥馄饨(芷江中路店)","lon":"121.47","lat":"31.2591","category":"68","category_name":"快餐厅","address":"闸北区芷江中路434号(近通阁路)"},{"poiid":"B2094654D56EA1FB439F","title":"小广东","lon":"121.46969134132","lat":"31.258879616364","category":"72","category_name":"广东菜","address":"芷江中路458号近止园路"},{"poiid":"B2094757D76BA1F5439A","title":"大唐人家面馆 芷江路店","lon":"121.469656","lat":"31.259177","category":"68","category_name":"快餐厅","address":"闸北区芷江路462号(止园路口)"},{"poiid":"B2094757D168A5FB4499","title":"良友金伴(西藏北路1店)","lon":"121.46761","lat":"31.2576","category":"117","category_name":"便民商店/便利店","address":"上海闸北区西藏北路891号  "},{"poiid":"B2094655D26CA1FC4792","title":"良友金伴便利连锁No.540","lon":"121.46725","lat":"31.25757","category":"117","category_name":"便民商店/便利店","address":""},{"poiid":"B2094655D26EA2F8479E","title":"草原小肥羊火锅","lon":"121.469757","lat":"31.2584114","category":"86","category_name":"火锅店","address":"止园路299号"},{"poiid":"B2094757D16BAAFE4393","title":"芷江中路幼儿园","lon":"121.467534","lat":"31.259396","category":"57","category_name":"幼儿园","address":"闸北区芷江中路531弄25号(芷江西路芷江中路)"},{"poiid":"B2094654D56EA1F84898","title":"中国工商银行西藏北路支行","lon":"121.46829","lat":"31.2584","category":"150","category_name":"银行","address":"闸北区芷江中路535号近西藏北路(芷江西路芷江中路)"},{"poiid":"B2094757DB6FABF5439B","title":"避风港","lon":"121.469364","lat":"31.257884","category":"500","category_name":"未知分类","address":"中兴路"},{"poiid":"B2094654D56EA1FB429B","title":"信谊大药房芷江店","lon":"121.46756","lat":"31.25849","category":"162","category_name":"医院","address":"宝山路"},{"poiid":"B2094655D26FA0FE469B","title":"良友金伴止园店","lon":"121.47015","lat":"31.25749","category":"117","category_name":"便民商店/便利店","address":"止园路252号"},{"poiid":"B2094757D169A5F9479F","title":"鹿角亭烤鸭店","lon":"121.46687","lat":"31.25657","category":"257","category_name":"中餐厅","address":"闸北区永兴路701号(共和新路口)"},{"poiid":"B2094655D26CA7FE459F","title":"华康客房","lon":"121.46902","lat":"31.25796","category":"217","category_name":"旅馆招待所","address":"芷江中路660弄29号"},{"poiid":"B2094757D16CAAF4429C","title":"良友金伴(芷江中店)","lon":"121.4695","lat":"31.25836","category":"117","category_name":"便民商店/便利店","address":"上海闸北区芷江中路498号  "},{"poiid":"B2094654D56EA1F5439D","title":"止园路邮电小区","lon":"121.46999","lat":"31.25683","category":"47","category_name":"住宅区","address":"止园路240弄"},{"poiid":"B2094757D064A5FE4993","title":"老北京羊蝎子火锅","lon":"121.46852","lat":"31.26095","category":"86","category_name":"火锅店","address":"上海闸北区止园路403号(青云路口)  "},{"poiid":"B2094654D56EA1F54499","title":"光明便利No.063","lon":"121.47026","lat":"31.25807","category":"117","category_name":"便民商店/便利店","address":"止园路281"},{"poiid":"B2094654D56CA2FD4798","title":"和田小区","lon":"121.46623","lat":"31.25948","category":"47","category_name":"住宅区","address":"西藏北路985-987弄"},{"poiid":"B2094757D16DA4F94698","title":"西藏北路1145号","lon":"121.468304","lat":"31.258387","category":"500","category_name":"未知分类","address":"上海市西藏北路"},{"poiid":"B2094654D56EA1F44798","title":"志园公寓(南门)","lon":"121.46958","lat":"31.25757","category":"48","category_name":"楼宇大门","address":"止园路288弄"},{"poiid":"B2094654D56CA2FD449C","title":"快客(童天宾馆西)","lon":"121.46762","lat":"31.2563","category":"117","category_name":"便民商店/便利店","address":"西藏北路843"}]