[{"poiid":"B2094757D168A5F8409D","title":"浦东机场T1航站楼11号桥","lon":"121.783333","lat":"31.15","category":"21","category_name":"飞机场","address":"上海PVG"},{"poiid":"B2094757D06AAAFD479A","title":"浦东机场一号航站楼24号登机口","lon":"121.757336","lat":"31.153572","category":"21","category_name":"飞机场","address":"上海浦东新区机场镇启航路900号"},{"poiid":"B2094750D06EABF4419B","title":"上海浦东机场综合保税区","lon":"121.784713","lat":"31.135149","category":"252","category_name":"楼宇机构","address":"闻居路1333号"},{"poiid":"B2094757D16CA7FF409A","title":"浦东丽豪国际大酒店","lon":"121.75841599","lat":"31.147969639","category":"217","category_name":"旅馆招待所","address":"浦东新区施新路958号(近川南奉公路)"},{"poiid":"B2094757D069A1FC449E","title":"施湾镇","lon":"121.757073","lat":"31.153482","category":"500","category_name":"未知分类","address":"上海施湾镇"},{"poiid":"B2094757D169A6FE4399","title":"浦東機場工作區","lon":"121.77396149","lat":"31.155401301","category":"500","category_name":"未知分类","address":"上海基地三路"},{"poiid":"B2094654DB64A3F4479D","title":"东航机组公寓","lon":"121.77377","lat":"31.165178","category":"47","category_name":"住宅区","address":"红松路175弄"},{"poiid":"B2094757D164A2F4499D","title":"上海浦东国际机场西区公共货运站有限公司","lon":"121.78259666","lat":"31.146819113","category":"46","category_name":"楼宇","address":"上海市浦东新区河滨西路501号"},{"poiid":"B2094757D16CA3F4429C","title":"祝和苑","lon":"121.76863877244","lat":"31.128664808964","category":"252","category_name":"楼宇机构","address":"上海市浦东新区祝桥镇千汇路1000号"},{"poiid":"B2094757D068A4F5409E","title":"国航上海机组公寓","lon":"121.77600097","lat":"31.163499832","category":"217","category_name":"旅馆招待所","address":"上海浦东新区浦东国际机场工作区基地二路"},{"poiid":"B2094757D065A2FA4692","title":"上海浦东国际机场海关第二监管仓库","lon":"121.767762792","lat":"31.1565497262","category":"46","category_name":"楼宇","address":"上海机场大道180号"},{"poiid":"B2094757D06AA6FB4893","title":"上海磁浮示范运营线","lon":"121.78994199","lat":"31.150904703","category":"36","category_name":"地铁站","address":"上海龙阳路－浦东国际机场 磁悬浮 磁浮列车"},{"poiid":"B2094654DB6DA5FC459F","title":"上海那亚浦东国际机场物流保税中心","lon":"121.76593","lat":"31.14215","category":"248","category_name":"生活娱乐","address":"远航路785"},{"poiid":"B2094752D468AAF44999","title":"虹桥机场2号航站楼","lon":"121.769634","lat":"31.152458","category":"500","category_name":"未知分类","address":null},{"poiid":"B2094655D36CA5FE4298","title":"川南奉公路远航路","lon":"121.7603","lat":"31.14197","category":"38","category_name":"公交车站","address":""},{"poiid":"B2094654DB6DA5FC4598","title":"上海欧罗投资有限公司(远航路)","lon":"121.76869","lat":"31.1426","category":"263","category_name":"公司","address":"远航路909"},{"poiid":"B2094757D66CA0FB4192","title":"NTS","lon":"121.765299263","lat":"31.1432670343","category":"249","category_name":"购物服务","address":"上海市浦东新区远航路785号"},{"poiid":"B2094654DB6DA5FC459B","title":"上海保利佐川物流有限公司","lon":"121.76869","lat":"31.14261","category":"248","category_name":"生活娱乐","address":"远航路909号"},{"poiid":"B2094757D065A1F94699","title":"中国国际航空公司上海基地","lon":"121.77570795","lat":"31.162638688","category":"500","category_name":"未知分类","address":"上海基地二路8号"},{"poiid":"B2094757D16AA0FC4598","title":"沃尔玛","lon":"121.75665026","lat":"31.144802068","category":"500","category_name":"未知分类","address":"上海市浦东新区施新路"},{"poiid":"B2094757D168A4F54799","title":"中國檢驗檢疫","lon":"121.761442992","lat":"31.1540357715","category":"500","category_name":"未知分类","address":"上海航航路666號"},{"poiid":"B2094750D26DA1FA409C","title":"浦东机场停机坪","lon":"121.7659946","lat":"31.1554582","category":"500","category_name":"未知分类","address":null},{"poiid":"B2094655D26DA6FD4092","title":"金湾佳园","lon":"121.75761","lat":"31.141705","category":"47","category_name":"住宅区","address":"航城七路450弄1-89号"},{"poiid":"B2094757DA65A5FB4098","title":"景悦99客栈（上海浦东机场施湾店）","lon":"121.760053","lat":"31.15575195","category":"216","category_name":"经济型连锁酒店","address":"上海市浦东新区航城路60号（近施湾路）"},{"poiid":"B2094655D36CA6F5419B","title":"邓镇","lon":"121.76049","lat":"31.14136","category":"38","category_name":"公交车站","address":""},{"poiid":"B2094655D26DA0FA4899","title":"施湾家园","lon":"121.75668","lat":"31.145536","category":"47","category_name":"住宅区","address":"上海市浦东新区施镇路"},{"poiid":"B2094757D168A7FA449F","title":"盛世联弈苑","lon":"121.75737019","lat":"31.15350696","category":"500","category_name":"未知分类","address":"上海市浦东新区机场镇航城三路675弄"},{"poiid":"B2094655D36DA2FE429F","title":"施湾港桥","lon":"121.76731","lat":"31.15284","category":"250","category_name":"公园户外","address":""},{"poiid":"B2094654DB6DA5FE419D","title":"浦东新区川沙新镇望三村文化广场","lon":"121.7657","lat":"31.15306","category":"201","category_name":"城市广场","address":""},{"poiid":"B2094757D66CA7F5449F","title":"浦东国际机场西货机坪","lon":"121.782141292","lat":"31.1617061383","category":"500","category_name":"未知分类","address":"上海浦东国际机场"},{"poiid":"B2094750DA68A1FE449D","title":"张闻天故居","lon":"121.759719","lat":"31.139444","category":"252","category_name":"楼宇机构","address":"浦东新区川沙新镇闻居路50号(周祝公路祝惠路)"},{"poiid":"B2094654DB6DA5FC449E","title":"上海祝桥空港工业区","lon":"121.77552","lat":"31.1275","category":"45","category_name":"产业园区","address":"祝潘路66"},{"poiid":"B2094654DB6DA5FC459D","title":"上海维安热电材料股份有限公司(施湾七路)","lon":"121.76887","lat":"31.13891","category":"263","category_name":"公司","address":"施湾七路1001"},{"poiid":"B2094655D36CA5FE4293","title":"川南奉公路施新路","lon":"121.75815","lat":"31.14926","category":"38","category_name":"公交车站","address":""},{"poiid":"B2094655D264A4F9489E","title":"G1501闻居路收费站","lon":"121.76962","lat":"31.13378","category":"267","category_name":"收费站","address":""},{"poiid":"B2094750DA6DA6F84193","title":"上海浦东国际机场海关通关处进口报关大厅","lon":"121.777482","lat":"31.133406","category":"617","category_name":"政府机构","address":"上海市 闻居路1333号浦东机场综合保税区公共服务中心C区3楼"},{"poiid":"B2094654DB64A1F4409A","title":"施宏小区(施宏路)","lon":"121.76086","lat":"31.1526","category":"47","category_name":"住宅区","address":"施宏路501、539弄"},{"poiid":"B2094752DA6EA5F54898","title":"上海浦东机场T1航站楼","lon":"121.768386","lat":"31.159191","category":"500","category_name":"未知分类","address":"上海市 上海浦东机场"},{"poiid":"B2094757D165A7FE459B","title":"雪域餐厅","lon":"121.76109366","lat":"31.144795968","category":"500","category_name":"未知分类","address":"拉萨藏医院路雪域餐厅"},{"poiid":"B2094655D36CA0FB469D","title":"机场镇","lon":"121.75746","lat":"31.15179","category":"38","category_name":"公交车站","address":"上海,上海市,机场镇航城五路施湾二路"},{"poiid":"B2094654DB6DA5FE4092","title":"养和堂施湾医药商店","lon":"121.76171","lat":"31.15232","category":"162","category_name":"医院","address":"浦东新区施宏路536号"},{"poiid":"B2094757D164A6FB4292","title":"szx 空运部","lon":"121.770146263","lat":"31.1364808832","category":"263","category_name":"公司","address":"上海市浦东新区施湾六路"},{"poiid":"B2094757D165A0FE429D","title":"OTE办公室","lon":"121.77060026","lat":"31.136060873","category":"500","category_name":"未知分类","address":"上海市浦东新区施湾六路"},{"poiid":"B2094655D26FA4FA409B","title":"金湾佳园(西北门)","lon":"121.75881","lat":"31.14222","category":"47","category_name":"住宅区","address":""},{"poiid":"B2094753D165A5F9419D","title":"上海浦东机场飞机跑道","lon":"121.769075","lat":"31.156161","category":"500","category_name":"未知分类","address":"上海市 上海浦东机场t1航站楼201口"},{"poiid":"B2094655D26FA5FC4492","title":"航城港海鲜大酒店","lon":"121.76196","lat":"31.15545","category":"88","category_name":"海鲜酒楼","address":"浦东新区航程路288号"},{"poiid":"B2094654DB69ABFF409D","title":"农工商超市(机场店)","lon":"121.76051","lat":"31.15202","category":"118","category_name":"超级市场","address":"浦东新区机场镇施宏路480号"},{"poiid":"B2094654DB6DA5FF409D","title":"豪客来酒家","lon":"121.75775","lat":"31.15213","category":"76","category_name":"上海菜","address":"浦东新区川南奉公路3271号(施湾车站对面)"},{"poiid":"B2094655D265A0F4429C","title":"上岛咖啡(弘基店)","lon":"121.76338","lat":"31.13343","category":"65","category_name":"咖啡厅","address":"浦东新区惠南镇川南奉公路6101号弘基广场内(近世纪联华)"},{"poiid":"B2094654DB6DA5FE429F","title":"威埃姆输送机械(上海)有限公司","lon":"121.76708","lat":"31.13618","category":"263","category_name":"公司","address":""},{"poiid":"B2094757D168A5F8409D","title":"浦东机场T1航站楼11号桥","lon":"121.783333","lat":"31.15","category":"21","category_name":"飞机场","address":"上海PVG"},{"poiid":"B2094757D06AAAFD479A","title":"浦东机场一号航站楼24号登机口","lon":"121.757336","lat":"31.153572","category":"21","category_name":"飞机场","address":"上海浦东新区机场镇启航路900号"},{"poiid":"B2094750D06EABF4419B","title":"上海浦东机场综合保税区","lon":"121.784713","lat":"31.135149","category":"252","category_name":"楼宇机构","address":"闻居路1333号"},{"poiid":"B2094757D16CA7FF409A","title":"浦东丽豪国际大酒店","lon":"121.75841599","lat":"31.147969639","category":"217","category_name":"旅馆招待所","address":"浦东新区施新路958号(近川南奉公路)"},{"poiid":"B2094757D069A1FC449E","title":"施湾镇","lon":"121.757073","lat":"31.153482","category":"500","category_name":"未知分类","address":"上海施湾镇"},{"poiid":"B2094757D169A6FE4399","title":"浦東機場工作區","lon":"121.77396149","lat":"31.155401301","category":"500","category_name":"未知分类","address":"上海基地三路"},{"poiid":"B2094654DB64A3F4479D","title":"东航机组公寓","lon":"121.77377","lat":"31.165178","category":"47","category_name":"住宅区","address":"红松路175弄"},{"poiid":"B2094757D164A2F4499D","title":"上海浦东国际机场西区公共货运站有限公司","lon":"121.78259666","lat":"31.146819113","category":"46","category_name":"楼宇","address":"上海市浦东新区河滨西路501号"},{"poiid":"B2094757D16CA3F4429C","title":"祝和苑","lon":"121.76863877244","lat":"31.128664808964","category":"252","category_name":"楼宇机构","address":"上海市浦东新区祝桥镇千汇路1000号"},{"poiid":"B2094757D068A4F5409E","title":"国航上海机组公寓","lon":"121.77600097","lat":"31.163499832","category":"217","category_name":"旅馆招待所","address":"上海浦东新区浦东国际机场工作区基地二路"},{"poiid":"B2094757D065A2FA4692","title":"上海浦东国际机场海关第二监管仓库","lon":"121.767762792","lat":"31.1565497262","category":"46","category_name":"楼宇","address":"上海机场大道180号"},{"poiid":"B2094757D06AA6FB4893","title":"上海磁浮示范运营线","lon":"121.78994199","lat":"31.150904703","category":"36","category_name":"地铁站","address":"上海龙阳路－浦东国际机场 磁悬浮 磁浮列车"},{"poiid":"B2094654DB6DA5FC459F","title":"上海那亚浦东国际机场物流保税中心","lon":"121.76593","lat":"31.14215","category":"248","category_name":"生活娱乐","address":"远航路785"},{"poiid":"B2094752D468AAF44999","title":"虹桥机场2号航站楼","lon":"121.769634","lat":"31.152458","category":"500","category_name":"未知分类","address":null},{"poiid":"B2094655D36CA5FE4298","title":"川南奉公路远航路","lon":"121.7603","lat":"31.14197","category":"38","category_name":"公交车站","address":""},{"poiid":"B2094654DB6DA5FC4598","title":"上海欧罗投资有限公司(远航路)","lon":"121.76869","lat":"31.1426","category":"263","category_name":"公司","address":"远航路909"},{"poiid":"B2094757D66CA0FB4192","title":"NTS","lon":"121.765299263","lat":"31.1432670343","category":"249","category_name":"购物服务","address":"上海市浦东新区远航路785号"},{"poiid":"B2094654DB6DA5FC459B","title":"上海保利佐川物流有限公司","lon":"121.76869","lat":"31.14261","category":"248","category_name":"生活娱乐","address":"远航路909号"},{"poiid":"B2094757D065A1F94699","title":"中国国际航空公司上海基地","lon":"121.77570795","lat":"31.162638688","category":"500","category_name":"未知分类","address":"上海基地二路8号"},{"poiid":"B2094757D16AA0FC4598","title":"沃尔玛","lon":"121.75665026","lat":"31.144802068","category":"500","category_name":"未知分类","address":"上海市浦东新区施新路"},{"poiid":"B2094757D168A4F54799","title":"中國檢驗檢疫","lon":"121.761442992","lat":"31.1540357715","category":"500","category_name":"未知分类","address":"上海航航路666號"},{"poiid":"B2094750D26DA1FA409C","title":"浦东机场停机坪","lon":"121.7659946","lat":"31.1554582","category":"500","category_name":"未知分类","address":null},{"poiid":"B2094655D26DA6FD4092","title":"金湾佳园","lon":"121.75761","lat":"31.141705","category":"47","category_name":"住宅区","address":"航城七路450弄1-89号"},{"poiid":"B2094757DA65A5FB4098","title":"景悦99客栈（上海浦东机场施湾店）","lon":"121.760053","lat":"31.15575195","category":"216","category_name":"经济型连锁酒店","address":"上海市浦东新区航城路60号（近施湾路）"},{"poiid":"B2094655D36CA6F5419B","title":"邓镇","lon":"121.76049","lat":"31.14136","category":"38","category_name":"公交车站","address":""},{"poiid":"B2094655D26DA0FA4899","title":"施湾家园","lon":"121.75668","lat":"31.145536","category":"47","category_name":"住宅区","address":"上海市浦东新区施镇路"},{"poiid":"B2094757D168A7FA449F","title":"盛世联弈苑","lon":"121.75737019","lat":"31.15350696","category":"500","category_name":"未知分类","address":"上海市浦东新区机场镇航城三路675弄"},{"poiid":"B2094655D36DA2FE429F","title":"施湾港桥","lon":"121.76731","lat":"31.15284","category":"250","category_name":"公园户外","address":""},{"poiid":"B2094654DB6DA5FE419D","title":"浦东新区川沙新镇望三村文化广场","lon":"121.7657","lat":"31.15306","category":"201","category_name":"城市广场","address":""},{"poiid":"B2094757D66CA7F5449F","title":"浦东国际机场西货机坪","lon":"121.782141292","lat":"31.1617061383","category":"500","category_name":"未知分类","address":"上海浦东国际机场"},{"poiid":"B2094750DA68A1FE449D","title":"张闻天故居","lon":"121.759719","lat":"31.139444","category":"252","category_name":"楼宇机构","address":"浦东新区川沙新镇闻居路50号(周祝公路祝惠路)"},{"poiid":"B2094654DB6DA5FC449E","title":"上海祝桥空港工业区","lon":"121.77552","lat":"31.1275","category":"45","category_name":"产业园区","address":"祝潘路66"},{"poiid":"B2094654DB6DA5FC459D","title":"上海维安热电材料股份有限公司(施湾七路)","lon":"121.76887","lat":"31.13891","category":"263","category_name":"公司","address":"施湾七路1001"},{"poiid":"B2094655D36CA5FE4293","title":"川南奉公路施新路","lon":"121.75815","lat":"31.14926","category":"38","category_name":"公交车站","address":""},{"poiid":"B2094655D264A4F9489E","title":"G1501闻居路收费站","lon":"121.76962","lat":"31.13378","category":"267","category_name":"收费站","address":""},{"poiid":"B2094750DA6DA6F84193","title":"上海浦东国际机场海关通关处进口报关大厅","lon":"121.777482","lat":"31.133406","category":"617","category_name":"政府机构","address":"上海市 闻居路1333号浦东机场综合保税区公共服务中心C区3楼"},{"poiid":"B2094654DB64A1F4409A","title":"施宏小区(施宏路)","lon":"121.76086","lat":"31.1526","category":"47","category_name":"住宅区","address":"施宏路501、539弄"},{"poiid":"B2094752DA6EA5F54898","title":"上海浦东机场T1航站楼","lon":"121.768386","lat":"31.159191","category":"500","category_name":"未知分类","address":"上海市 上海浦东机场"},{"poiid":"B2094757D165A7FE459B","title":"雪域餐厅","lon":"121.76109366","lat":"31.144795968","category":"500","category_name":"未知分类","address":"拉萨藏医院路雪域餐厅"},{"poiid":"B2094655D36CA0FB469D","title":"机场镇","lon":"121.75746","lat":"31.15179","category":"38","category_name":"公交车站","address":"上海,上海市,机场镇航城五路施湾二路"},{"poiid":"B2094654DB6DA5FE4092","title":"养和堂施湾医药商店","lon":"121.76171","lat":"31.15232","category":"162","category_name":"医院","address":"浦东新区施宏路536号"},{"poiid":"B2094757D164A6FB4292","title":"szx 空运部","lon":"121.770146263","lat":"31.1364808832","category":"263","category_name":"公司","address":"上海市浦东新区施湾六路"},{"poiid":"B2094757D165A0FE429D","title":"OTE办公室","lon":"121.77060026","lat":"31.136060873","category":"500","category_name":"未知分类","address":"上海市浦东新区施湾六路"},{"poiid":"B2094655D26FA4FA409B","title":"金湾佳园(西北门)","lon":"121.75881","lat":"31.14222","category":"47","category_name":"住宅区","address":""},{"poiid":"B2094753D165A5F9419D","title":"上海浦东机场飞机跑道","lon":"121.769075","lat":"31.156161","category":"500","category_name":"未知分类","address":"上海市 上海浦东机场t1航站楼201口"},{"poiid":"B2094655D26FA5FC4492","title":"航城港海鲜大酒店","lon":"121.76196","lat":"31.15545","category":"88","category_name":"海鲜酒楼","address":"浦东新区航程路288号"},{"poiid":"B2094654DB69ABFF409D","title":"农工商超市(机场店)","lon":"121.76051","lat":"31.15202","category":"118","category_name":"超级市场","address":"浦东新区机场镇施宏路480号"},{"poiid":"B2094654DB6DA5FF409D","title":"豪客来酒家","lon":"121.75775","lat":"31.15213","category":"76","category_name":"上海菜","address":"浦东新区川南奉公路3271号(施湾车站对面)"},{"poiid":"B2094655D265A0F4429C","title":"上岛咖啡(弘基店)","lon":"121.76338","lat":"31.13343","category":"65","category_name":"咖啡厅","address":"浦东新区惠南镇川南奉公路6101号弘基广场内(近世纪联华)"},{"poiid":"B2094654DB6DA5FE429F","title":"威埃姆输送机械(上海)有限公司","lon":"121.76708","lat":"31.13618","category":"263","category_name":"公司","address":""}]