[{"poiid":"B2094655D26AA0F94392","title":"地铁东川路站","lon":"121.42009","lat":"31.01749","category":"36","category_name":"地铁站","address":""},{"poiid":"B2094757D06FA2FE4492","title":"欧尚(闵行店)","lon":"121.42","lat":"31.01418","category":"118","category_name":"超级市场","address":"闵行区东川路2092号欧尚超市内(近沪闵路)"},{"poiid":"B2094757D06FA4FA4499","title":"上海交通大学菁菁堂","lon":"121.42978692","lat":"31.017888915","category":"178","category_name":"电影院","address":"闵行区东川路800号上海交通大学校区"},{"poiid":"B2094655D265A5FB449D","title":"上海沪华国际大酒店","lon":"121.41726","lat":"31.00876","category":"250","category_name":"公园户外","address":"闵行区鹤庆路300号(近兰坪路)"},{"poiid":"B2094757D064A0FD479D","title":"川堂风 石屏路店","lon":"121.420453","lat":"31.015849","category":"71","category_name":"四川菜","address":"闵行区石屏路359号(近欧尚超市)"},{"poiid":"B2094655D36CA6F4429B","title":"东川路地铁站","lon":"121.41901","lat":"31.01929","category":"36","category_name":"地铁站","address":""},{"poiid":"B2094757D068A1F84293","title":"萨莉亚(东川路店)","lon":"121.41981","lat":"31.01462","category":"94","category_name":"西餐厅","address":"闵行区东川路2088号欧尚广场2楼(近沪闵路)"},{"poiid":"B2094757D068A2FB469E","title":"闵行公园","lon":"121.42343145","lat":"31.006854963","category":"196","category_name":"公园","address":"闵行区沪闵路249号(江川路口)"},{"poiid":"B2094757D069A3FC459D","title":"迪豪小田园酒店","lon":"121.4225","lat":"31.01029","category":"75","category_name":"浙江菜","address":"闵行区鹤庆路16号(近江川路)"},{"poiid":"B2094654DB65ABF44592","title":"部落情(东川路店)","lon":"121.41885","lat":"31.01345","category":"86","category_name":"火锅店","address":"闵行区东川路2092号欧尚广场3楼(近沪闵路)"},{"poiid":"B2094757D068A7FD409A","title":"肯德基 KFC (东川店)","lon":"121.419301","lat":"31.013649","category":"68","category_name":"快餐厅","address":"闵行区东川路2088-2098号(近轻轨5号线)"},{"poiid":"B2094757D06FA6FE459D","title":"鹤北新村一街坊","lon":"121.427","lat":"31.0161","category":"47","category_name":"住宅区","address":"上海市鹤庆路136弄"},{"poiid":"B2094757D069A4F54192","title":"上海交通大学光明体育场","lon":"121.427507","lat":"31.018782","category":"253","category_name":"校园生活","address":"上海闵行区东川路800号上海交通大学闵行校区"},{"poiid":"B2094655D26EA6FD469C","title":"越岭阁(石屏路店)","lon":"121.41993","lat":"31.016","category":"96","category_name":"韩国料理","address":"闵行区石屏路335号(近欧尚超市)"},{"poiid":"B2094655D264A1FF4093","title":"千岱名墅","lon":"121.421467","lat":"31.022477","category":"47","category_name":"住宅区","address":"上海市闵行区安宁路458弄"},{"poiid":"B2094757D16CA1FC499D","title":"金榜世家","lon":"121.42746912","lat":"31.012706446","category":"500","category_name":"未知分类","address":"上海市闵行区沧源路676-684号"},{"poiid":"B2094654DB6FA2FC409E","title":"金榜人家","lon":"121.41934","lat":"31.0178","category":"47","category_name":"住宅区","address":"上海市闵行区石屏路399弄"},{"poiid":"B2094654DB6EAAF9489D","title":"南洋博仕欣居","lon":"121.42418","lat":"31.019089","category":"47","category_name":"住宅区","address":"上海市闵行区景谷东路99弄"},{"poiid":"B2094757D169A0F5469C","title":"豪尚豪牛排馆 石屏路店","lon":"121.4199548","lat":"31.0160383","category":"68","category_name":"快餐厅","address":"闵行区石屏路335号(近欧尚超市)"},{"poiid":"B2094757D465A4FD4893","title":"重庆鸡公煲 交大店","lon":"121.424697054","lat":"31.015441793","category":"247","category_name":"餐饮美食","address":"闵行区东川路800号上海交通大学内(近永平路)"},{"poiid":"B2094757D66DA6FE469D","title":"韩焱廷","lon":"121.42105","lat":"31.01412","category":"96","category_name":"韩国料理","address":"闵行区石屏路"},{"poiid":"B2094757D66CA0FA4893","title":"吉野家  东川店","lon":"121.42063412","lat":"31.014251478","category":"95","category_name":"日本料理","address":"闵行区东川路2088号欧尚广场入口处(近沪闵路)"},{"poiid":"B2094655D36CA6F44298","title":"东川路沧源路","lon":"121.42755","lat":"31.01618","category":"38","category_name":"公交车站","address":""},{"poiid":"B2094654DB6FA3FC4499","title":"北欧丽景","lon":"121.42962","lat":"31.01656","category":"47","category_name":"住宅区","address":"北欧丽景-东川花园二期位于闵行东川路755弄"},{"poiid":"B2094757D06AABF4459C","title":"三人行新概念川菜","lon":"121.41424","lat":"31.01263","category":"71","category_name":"四川菜","address":"闵行区东川路2272号千代广场1-2楼(近金平路)"},{"poiid":"B2094757D465A5F44199","title":"唐恩都乐 东川欧尚店 Dunkin Donuts","lon":"121.421091","lat":"31.01418","category":"67","category_name":"甜品店","address":"闵行区东川路2092号欧尚超市1楼(近沪闵路)"},{"poiid":"B2094654DB6EAAF5469F","title":"沧源新村","lon":"121.42841","lat":"31.01457","category":"47","category_name":"住宅区","address":"沧源路770弄、925弄"},{"poiid":"B2094757DA65A5F44598","title":"汉庭快捷酒店（上海交大沪闵路店）","lon":"121.423226595","lat":"31.011508984","category":"216","category_name":"经济型连锁酒店","address":"上海市闵行区沪闵路277号(近鹤庆路东川路)"},{"poiid":"B2094757D468A6FE4898","title":"烧烤博士","lon":"121.42681","lat":"31.015344","category":"268","category_name":"自助","address":"闵行区东川路813号(近永平路)"},{"poiid":"B2094750D76DA3FE4593","title":"闵坪烘焙坊","lon":"121.419","lat":"31.018","category":"247","category_name":"餐饮美食","address":"闵行区石屏路415-417号(近东川路地铁站)"},{"poiid":"B2094750D76FAAFF499A","title":"哈里欧咖啡(东川路店)","lon":"121.42","lat":"31.016","category":"260","category_name":"其他","address":"闵行区石屏路455号(近欧尚超市)"},{"poiid":"B2094757D465A1FC419E","title":"海京阁","lon":"121.42665382637","lat":"31.015660399839","category":"76","category_name":"上海菜","address":"闵行区东川路897号(近交通大学)"},{"poiid":"B2094655D36CA7FD479B","title":"沪闵路鹤庆路","lon":"121.42282","lat":"31.01177","category":"38","category_name":"公交车站","address":""},{"poiid":"B2094757D464AAF54398","title":"西部高地 HIGH LAND","lon":"121.429608","lat":"31.016678","category":"47","category_name":"住宅区","address":"闵行区东川路847号(交大拖鞋门斜对面)"},{"poiid":"B2094654DB6FA1F8439B","title":"永乐生活电器(东川路)","lon":"121.41965","lat":"31.01402","category":"138","category_name":"家电电子卖场","address":"闵行区东川路2092号欧尚超市内(近沪闵路)"},{"poiid":"B2094654DB6FA2FD479E","title":"鹤北新苑","lon":"121.41712","lat":"31.013958","category":"47","category_name":"住宅区","address":"鹤北新苑位于闵行北桥镇安宁路289弄"},{"poiid":"B2094757D568AAFE4099","title":"曹记菜馆","lon":"121.4199864","lat":"31.01621691","category":"76","category_name":"上海菜","address":"闵行区石屏路347号(近东川路地铁)"},{"poiid":"B2094757D568A7F5459E","title":"交大东川花苑","lon":"121.42569","lat":"31.017105","category":"47","category_name":"住宅区","address":"沧源路880弄"},{"poiid":"B2094757D16AA3F8449F","title":"李永记苏州汤包馆","lon":"121.42105","lat":"31.01412","category":"68","category_name":"快餐厅","address":"闵行区石屏路(近东川路地铁站)"},{"poiid":"B2094655D36CA7FD489B","title":"沪闵路东川路","lon":"121.42098","lat":"31.01657","category":"38","category_name":"公交车站","address":""},{"poiid":"B2094757D065A7FC409E","title":"东川路","lon":"121.419858","lat":"31.017883","category":"500","category_name":"未知分类","address":"上海5号线东川路站"},{"poiid":"B2094655D36CA6F44199","title":"东川路轻轨站","lon":"121.42097","lat":"31.01668","category":"37","category_name":"轻轨站","address":""},{"poiid":"B2094757DA65A5FA4999","title":"锦江之星（上海闵行东川路店）","lon":"121.4232802","lat":"31.01110439","category":"216","category_name":"经济型连锁酒店","address":"上海市闵行区沪闵路319号(近鹤庆路)"},{"poiid":"B2094654DB6EAAF54598","title":"九州拉面 沧源路店","lon":"121.428279054","lat":"31.015183793","category":"95","category_name":"日本料理","address":"闵行区沧源路839号(近东川路闵行交大)"},{"poiid":"B2094757D06AAAFE459E","title":"南亚宾馆","lon":"121.42218","lat":"31.00748","category":"217","category_name":"旅馆招待所","address":"上海闵行区沪闵路280号  "},{"poiid":"B2094655D36CA6F4419D","title":"东川路沪闵路","lon":"121.4204","lat":"31.01397","category":"38","category_name":"公交车站","address":""},{"poiid":"B2094757D56DABFF439F","title":"五越斋","lon":"121.423881","lat":"31.017049","category":"247","category_name":"餐饮美食","address":"沧源路"},{"poiid":"B2094757D16EA7FA489E","title":"江川4路","lon":"121.42096994","lat":"31.016648772","category":"38","category_name":"公交车站","address":"上海东川路地铁站-剑川路碧溪路"},{"poiid":"B2094757D66FA6F8469F","title":"张平","lon":"121.42016712","lat":"31.014752488","category":"500","category_name":"未知分类","address":null},{"poiid":"B2094757D469A3F94492","title":"宏星一号","lon":"121.4149997","lat":"31.0123387","category":"76","category_name":"上海菜","address":"闵行区东川路2318号(近五号线金平路地铁站)"},{"poiid":"B2094655D26AA0F94392","title":"地铁东川路站","lon":"121.42009","lat":"31.01749","category":"36","category_name":"地铁站","address":""},{"poiid":"B2094757D06FA2FE4492","title":"欧尚(闵行店)","lon":"121.42","lat":"31.01418","category":"118","category_name":"超级市场","address":"闵行区东川路2092号欧尚超市内(近沪闵路)"},{"poiid":"B2094757D06FA4FA4499","title":"上海交通大学菁菁堂","lon":"121.42978692","lat":"31.017888915","category":"178","category_name":"电影院","address":"闵行区东川路800号上海交通大学校区"},{"poiid":"B2094655D265A5FB449D","title":"上海沪华国际大酒店","lon":"121.41726","lat":"31.00876","category":"250","category_name":"公园户外","address":"闵行区鹤庆路300号(近兰坪路)"},{"poiid":"B2094757D064A0FD479D","title":"川堂风 石屏路店","lon":"121.420453","lat":"31.015849","category":"71","category_name":"四川菜","address":"闵行区石屏路359号(近欧尚超市)"},{"poiid":"B2094655D36CA6F4429B","title":"东川路地铁站","lon":"121.41901","lat":"31.01929","category":"36","category_name":"地铁站","address":""},{"poiid":"B2094757D068A1F84293","title":"萨莉亚(东川路店)","lon":"121.41981","lat":"31.01462","category":"94","category_name":"西餐厅","address":"闵行区东川路2088号欧尚广场2楼(近沪闵路)"},{"poiid":"B2094757D068A2FB469E","title":"闵行公园","lon":"121.42343145","lat":"31.006854963","category":"196","category_name":"公园","address":"闵行区沪闵路249号(江川路口)"},{"poiid":"B2094757D069A3FC459D","title":"迪豪小田园酒店","lon":"121.4225","lat":"31.01029","category":"75","category_name":"浙江菜","address":"闵行区鹤庆路16号(近江川路)"},{"poiid":"B2094654DB65ABF44592","title":"部落情(东川路店)","lon":"121.41885","lat":"31.01345","category":"86","category_name":"火锅店","address":"闵行区东川路2092号欧尚广场3楼(近沪闵路)"},{"poiid":"B2094757D068A7FD409A","title":"肯德基 KFC (东川店)","lon":"121.419301","lat":"31.013649","category":"68","category_name":"快餐厅","address":"闵行区东川路2088-2098号(近轻轨5号线)"},{"poiid":"B2094757D06FA6FE459D","title":"鹤北新村一街坊","lon":"121.427","lat":"31.0161","category":"47","category_name":"住宅区","address":"上海市鹤庆路136弄"},{"poiid":"B2094757D069A4F54192","title":"上海交通大学光明体育场","lon":"121.427507","lat":"31.018782","category":"253","category_name":"校园生活","address":"上海闵行区东川路800号上海交通大学闵行校区"},{"poiid":"B2094655D26EA6FD469C","title":"越岭阁(石屏路店)","lon":"121.41993","lat":"31.016","category":"96","category_name":"韩国料理","address":"闵行区石屏路335号(近欧尚超市)"},{"poiid":"B2094655D264A1FF4093","title":"千岱名墅","lon":"121.421467","lat":"31.022477","category":"47","category_name":"住宅区","address":"上海市闵行区安宁路458弄"},{"poiid":"B2094757D16CA1FC499D","title":"金榜世家","lon":"121.42746912","lat":"31.012706446","category":"500","category_name":"未知分类","address":"上海市闵行区沧源路676-684号"},{"poiid":"B2094654DB6FA2FC409E","title":"金榜人家","lon":"121.41934","lat":"31.0178","category":"47","category_name":"住宅区","address":"上海市闵行区石屏路399弄"},{"poiid":"B2094654DB6EAAF9489D","title":"南洋博仕欣居","lon":"121.42418","lat":"31.019089","category":"47","category_name":"住宅区","address":"上海市闵行区景谷东路99弄"},{"poiid":"B2094757D169A0F5469C","title":"豪尚豪牛排馆 石屏路店","lon":"121.4199548","lat":"31.0160383","category":"68","category_name":"快餐厅","address":"闵行区石屏路335号(近欧尚超市)"},{"poiid":"B2094757D465A4FD4893","title":"重庆鸡公煲 交大店","lon":"121.424697054","lat":"31.015441793","category":"247","category_name":"餐饮美食","address":"闵行区东川路800号上海交通大学内(近永平路)"},{"poiid":"B2094757D66DA6FE469D","title":"韩焱廷","lon":"121.42105","lat":"31.01412","category":"96","category_name":"韩国料理","address":"闵行区石屏路"},{"poiid":"B2094757D66CA0FA4893","title":"吉野家  东川店","lon":"121.42063412","lat":"31.014251478","category":"95","category_name":"日本料理","address":"闵行区东川路2088号欧尚广场入口处(近沪闵路)"},{"poiid":"B2094655D36CA6F44298","title":"东川路沧源路","lon":"121.42755","lat":"31.01618","category":"38","category_name":"公交车站","address":""},{"poiid":"B2094654DB6FA3FC4499","title":"北欧丽景","lon":"121.42962","lat":"31.01656","category":"47","category_name":"住宅区","address":"北欧丽景-东川花园二期位于闵行东川路755弄"},{"poiid":"B2094757D06AABF4459C","title":"三人行新概念川菜","lon":"121.41424","lat":"31.01263","category":"71","category_name":"四川菜","address":"闵行区东川路2272号千代广场1-2楼(近金平路)"},{"poiid":"B2094757D465A5F44199","title":"唐恩都乐 东川欧尚店 Dunkin Donuts","lon":"121.421091","lat":"31.01418","category":"67","category_name":"甜品店","address":"闵行区东川路2092号欧尚超市1楼(近沪闵路)"},{"poiid":"B2094654DB6EAAF5469F","title":"沧源新村","lon":"121.42841","lat":"31.01457","category":"47","category_name":"住宅区","address":"沧源路770弄、925弄"},{"poiid":"B2094757DA65A5F44598","title":"汉庭快捷酒店（上海交大沪闵路店）","lon":"121.423226595","lat":"31.011508984","category":"216","category_name":"经济型连锁酒店","address":"上海市闵行区沪闵路277号(近鹤庆路东川路)"},{"poiid":"B2094757D468A6FE4898","title":"烧烤博士","lon":"121.42681","lat":"31.015344","category":"268","category_name":"自助","address":"闵行区东川路813号(近永平路)"},{"poiid":"B2094750D76DA3FE4593","title":"闵坪烘焙坊","lon":"121.419","lat":"31.018","category":"247","category_name":"餐饮美食","address":"闵行区石屏路415-417号(近东川路地铁站)"},{"poiid":"B2094750D76FAAFF499A","title":"哈里欧咖啡(东川路店)","lon":"121.42","lat":"31.016","category":"260","category_name":"其他","address":"闵行区石屏路455号(近欧尚超市)"},{"poiid":"B2094757D465A1FC419E","title":"海京阁","lon":"121.42665382637","lat":"31.015660399839","category":"76","category_name":"上海菜","address":"闵行区东川路897号(近交通大学)"},{"poiid":"B2094655D36CA7FD479B","title":"沪闵路鹤庆路","lon":"121.42282","lat":"31.01177","category":"38","category_name":"公交车站","address":""},{"poiid":"B2094757D464AAF54398","title":"西部高地 HIGH LAND","lon":"121.429608","lat":"31.016678","category":"47","category_name":"住宅区","address":"闵行区东川路847号(交大拖鞋门斜对面)"},{"poiid":"B2094654DB6FA1F8439B","title":"永乐生活电器(东川路)","lon":"121.41965","lat":"31.01402","category":"138","category_name":"家电电子卖场","address":"闵行区东川路2092号欧尚超市内(近沪闵路)"},{"poiid":"B2094654DB6FA2FD479E","title":"鹤北新苑","lon":"121.41712","lat":"31.013958","category":"47","category_name":"住宅区","address":"鹤北新苑位于闵行北桥镇安宁路289弄"},{"poiid":"B2094757D568AAFE4099","title":"曹记菜馆","lon":"121.4199864","lat":"31.01621691","category":"76","category_name":"上海菜","address":"闵行区石屏路347号(近东川路地铁)"},{"poiid":"B2094757D568A7F5459E","title":"交大东川花苑","lon":"121.42569","lat":"31.017105","category":"47","category_name":"住宅区","address":"沧源路880弄"},{"poiid":"B2094757D16AA3F8449F","title":"李永记苏州汤包馆","lon":"121.42105","lat":"31.01412","category":"68","category_name":"快餐厅","address":"闵行区石屏路(近东川路地铁站)"},{"poiid":"B2094655D36CA7FD489B","title":"沪闵路东川路","lon":"121.42098","lat":"31.01657","category":"38","category_name":"公交车站","address":""},{"poiid":"B2094757D065A7FC409E","title":"东川路","lon":"121.419858","lat":"31.017883","category":"500","category_name":"未知分类","address":"上海5号线东川路站"},{"poiid":"B2094655D36CA6F44199","title":"东川路轻轨站","lon":"121.42097","lat":"31.01668","category":"37","category_name":"轻轨站","address":""},{"poiid":"B2094757DA65A5FA4999","title":"锦江之星（上海闵行东川路店）","lon":"121.4232802","lat":"31.01110439","category":"216","category_name":"经济型连锁酒店","address":"上海市闵行区沪闵路319号(近鹤庆路)"},{"poiid":"B2094654DB6EAAF54598","title":"九州拉面 沧源路店","lon":"121.428279054","lat":"31.015183793","category":"95","category_name":"日本料理","address":"闵行区沧源路839号(近东川路闵行交大)"},{"poiid":"B2094757D06AAAFE459E","title":"南亚宾馆","lon":"121.42218","lat":"31.00748","category":"217","category_name":"旅馆招待所","address":"上海闵行区沪闵路280号  "},{"poiid":"B2094655D36CA6F4419D","title":"东川路沪闵路","lon":"121.4204","lat":"31.01397","category":"38","category_name":"公交车站","address":""},{"poiid":"B2094757D56DABFF439F","title":"五越斋","lon":"121.423881","lat":"31.017049","category":"247","category_name":"餐饮美食","address":"沧源路"},{"poiid":"B2094757D16EA7FA489E","title":"江川4路","lon":"121.42096994","lat":"31.016648772","category":"38","category_name":"公交车站","address":"上海东川路地铁站-剑川路碧溪路"},{"poiid":"B2094757D66FA6F8469F","title":"张平","lon":"121.42016712","lat":"31.014752488","category":"500","category_name":"未知分类","address":null},{"poiid":"B2094757D469A3F94492","title":"宏星一号","lon":"121.4149997","lat":"31.0123387","category":"76","category_name":"上海菜","address":"闵行区东川路2318号(近五号线金平路地铁站)"},{"poiid":"B2094655D26AA0F94392","title":"地铁东川路站","lon":"121.42009","lat":"31.01749","category":"36","category_name":"地铁站","address":""},{"poiid":"B2094757D06FA2FE4492","title":"欧尚(闵行店)","lon":"121.42","lat":"31.01418","category":"118","category_name":"超级市场","address":"闵行区东川路2092号欧尚超市内(近沪闵路)"},{"poiid":"B2094757D06FA4FA4499","title":"上海交通大学菁菁堂","lon":"121.42978692","lat":"31.017888915","category":"178","category_name":"电影院","address":"闵行区东川路800号上海交通大学校区"},{"poiid":"B2094655D265A5FB449D","title":"上海沪华国际大酒店","lon":"121.41726","lat":"31.00876","category":"250","category_name":"公园户外","address":"闵行区鹤庆路300号(近兰坪路)"},{"poiid":"B2094757D064A0FD479D","title":"川堂风 石屏路店","lon":"121.420453","lat":"31.015849","category":"71","category_name":"四川菜","address":"闵行区石屏路359号(近欧尚超市)"},{"poiid":"B2094655D36CA6F4429B","title":"东川路地铁站","lon":"121.41901","lat":"31.01929","category":"36","category_name":"地铁站","address":""},{"poiid":"B2094757D068A1F84293","title":"萨莉亚(东川路店)","lon":"121.41981","lat":"31.01462","category":"94","category_name":"西餐厅","address":"闵行区东川路2088号欧尚广场2楼(近沪闵路)"},{"poiid":"B2094757D068A2FB469E","title":"闵行公园","lon":"121.42343145","lat":"31.006854963","category":"196","category_name":"公园","address":"闵行区沪闵路249号(江川路口)"},{"poiid":"B2094757D069A3FC459D","title":"迪豪小田园酒店","lon":"121.4225","lat":"31.01029","category":"75","category_name":"浙江菜","address":"闵行区鹤庆路16号(近江川路)"},{"poiid":"B2094654DB65ABF44592","title":"部落情(东川路店)","lon":"121.41885","lat":"31.01345","category":"86","category_name":"火锅店","address":"闵行区东川路2092号欧尚广场3楼(近沪闵路)"},{"poiid":"B2094757D068A7FD409A","title":"肯德基 KFC (东川店)","lon":"121.419301","lat":"31.013649","category":"68","category_name":"快餐厅","address":"闵行区东川路2088-2098号(近轻轨5号线)"},{"poiid":"B2094757D06FA6FE459D","title":"鹤北新村一街坊","lon":"121.427","lat":"31.0161","category":"47","category_name":"住宅区","address":"上海市鹤庆路136弄"},{"poiid":"B2094757D069A4F54192","title":"上海交通大学光明体育场","lon":"121.427507","lat":"31.018782","category":"253","category_name":"校园生活","address":"上海闵行区东川路800号上海交通大学闵行校区"},{"poiid":"B2094655D26EA6FD469C","title":"越岭阁(石屏路店)","lon":"121.41993","lat":"31.016","category":"96","category_name":"韩国料理","address":"闵行区石屏路335号(近欧尚超市)"},{"poiid":"B2094655D264A1FF4093","title":"千岱名墅","lon":"121.421467","lat":"31.022477","category":"47","category_name":"住宅区","address":"上海市闵行区安宁路458弄"},{"poiid":"B2094757D16CA1FC499D","title":"金榜世家","lon":"121.42746912","lat":"31.012706446","category":"500","category_name":"未知分类","address":"上海市闵行区沧源路676-684号"},{"poiid":"B2094654DB6FA2FC409E","title":"金榜人家","lon":"121.41934","lat":"31.0178","category":"47","category_name":"住宅区","address":"上海市闵行区石屏路399弄"},{"poiid":"B2094654DB6EAAF9489D","title":"南洋博仕欣居","lon":"121.42418","lat":"31.019089","category":"47","category_name":"住宅区","address":"上海市闵行区景谷东路99弄"},{"poiid":"B2094757D169A0F5469C","title":"豪尚豪牛排馆 石屏路店","lon":"121.4199548","lat":"31.0160383","category":"68","category_name":"快餐厅","address":"闵行区石屏路335号(近欧尚超市)"},{"poiid":"B2094757D465A4FD4893","title":"重庆鸡公煲 交大店","lon":"121.424697054","lat":"31.015441793","category":"247","category_name":"餐饮美食","address":"闵行区东川路800号上海交通大学内(近永平路)"},{"poiid":"B2094757D66DA6FE469D","title":"韩焱廷","lon":"121.42105","lat":"31.01412","category":"96","category_name":"韩国料理","address":"闵行区石屏路"},{"poiid":"B2094757D66CA0FA4893","title":"吉野家  东川店","lon":"121.42063412","lat":"31.014251478","category":"95","category_name":"日本料理","address":"闵行区东川路2088号欧尚广场入口处(近沪闵路)"},{"poiid":"B2094655D36CA6F44298","title":"东川路沧源路","lon":"121.42755","lat":"31.01618","category":"38","category_name":"公交车站","address":""},{"poiid":"B2094654DB6FA3FC4499","title":"北欧丽景","lon":"121.42962","lat":"31.01656","category":"47","category_name":"住宅区","address":"北欧丽景-东川花园二期位于闵行东川路755弄"},{"poiid":"B2094757D06AABF4459C","title":"三人行新概念川菜","lon":"121.41424","lat":"31.01263","category":"71","category_name":"四川菜","address":"闵行区东川路2272号千代广场1-2楼(近金平路)"},{"poiid":"B2094757D465A5F44199","title":"唐恩都乐 东川欧尚店 Dunkin Donuts","lon":"121.421091","lat":"31.01418","category":"67","category_name":"甜品店","address":"闵行区东川路2092号欧尚超市1楼(近沪闵路)"},{"poiid":"B2094654DB6EAAF5469F","title":"沧源新村","lon":"121.42841","lat":"31.01457","category":"47","category_name":"住宅区","address":"沧源路770弄、925弄"},{"poiid":"B2094757DA65A5F44598","title":"汉庭快捷酒店（上海交大沪闵路店）","lon":"121.423226595","lat":"31.011508984","category":"216","category_name":"经济型连锁酒店","address":"上海市闵行区沪闵路277号(近鹤庆路东川路)"},{"poiid":"B2094757D468A6FE4898","title":"烧烤博士","lon":"121.42681","lat":"31.015344","category":"268","category_name":"自助","address":"闵行区东川路813号(近永平路)"},{"poiid":"B2094750D76DA3FE4593","title":"闵坪烘焙坊","lon":"121.419","lat":"31.018","category":"247","category_name":"餐饮美食","address":"闵行区石屏路415-417号(近东川路地铁站)"},{"poiid":"B2094750D76FAAFF499A","title":"哈里欧咖啡(东川路店)","lon":"121.42","lat":"31.016","category":"260","category_name":"其他","address":"闵行区石屏路455号(近欧尚超市)"},{"poiid":"B2094757D465A1FC419E","title":"海京阁","lon":"121.42665382637","lat":"31.015660399839","category":"76","category_name":"上海菜","address":"闵行区东川路897号(近交通大学)"},{"poiid":"B2094655D36CA7FD479B","title":"沪闵路鹤庆路","lon":"121.42282","lat":"31.01177","category":"38","category_name":"公交车站","address":""},{"poiid":"B2094757D464AAF54398","title":"西部高地 HIGH LAND","lon":"121.429608","lat":"31.016678","category":"47","category_name":"住宅区","address":"闵行区东川路847号(交大拖鞋门斜对面)"},{"poiid":"B2094654DB6FA1F8439B","title":"永乐生活电器(东川路)","lon":"121.41965","lat":"31.01402","category":"138","category_name":"家电电子卖场","address":"闵行区东川路2092号欧尚超市内(近沪闵路)"},{"poiid":"B2094654DB6FA2FD479E","title":"鹤北新苑","lon":"121.41712","lat":"31.013958","category":"47","category_name":"住宅区","address":"鹤北新苑位于闵行北桥镇安宁路289弄"},{"poiid":"B2094757D568AAFE4099","title":"曹记菜馆","lon":"121.4199864","lat":"31.01621691","category":"76","category_name":"上海菜","address":"闵行区石屏路347号(近东川路地铁)"},{"poiid":"B2094757D568A7F5459E","title":"交大东川花苑","lon":"121.42569","lat":"31.017105","category":"47","category_name":"住宅区","address":"沧源路880弄"},{"poiid":"B2094757D16AA3F8449F","title":"李永记苏州汤包馆","lon":"121.42105","lat":"31.01412","category":"68","category_name":"快餐厅","address":"闵行区石屏路(近东川路地铁站)"},{"poiid":"B2094655D36CA7FD489B","title":"沪闵路东川路","lon":"121.42098","lat":"31.01657","category":"38","category_name":"公交车站","address":""},{"poiid":"B2094757D065A7FC409E","title":"东川路","lon":"121.419858","lat":"31.017883","category":"500","category_name":"未知分类","address":"上海5号线东川路站"},{"poiid":"B2094655D36CA6F44199","title":"东川路轻轨站","lon":"121.42097","lat":"31.01668","category":"37","category_name":"轻轨站","address":""},{"poiid":"B2094757DA65A5FA4999","title":"锦江之星（上海闵行东川路店）","lon":"121.4232802","lat":"31.01110439","category":"216","category_name":"经济型连锁酒店","address":"上海市闵行区沪闵路319号(近鹤庆路)"},{"poiid":"B2094654DB6EAAF54598","title":"九州拉面 沧源路店","lon":"121.428279054","lat":"31.015183793","category":"95","category_name":"日本料理","address":"闵行区沧源路839号(近东川路闵行交大)"},{"poiid":"B2094757D06AAAFE459E","title":"南亚宾馆","lon":"121.42218","lat":"31.00748","category":"217","category_name":"旅馆招待所","address":"上海闵行区沪闵路280号  "},{"poiid":"B2094655D36CA6F4419D","title":"东川路沪闵路","lon":"121.4204","lat":"31.01397","category":"38","category_name":"公交车站","address":""},{"poiid":"B2094757D56DABFF439F","title":"五越斋","lon":"121.423881","lat":"31.017049","category":"247","category_name":"餐饮美食","address":"沧源路"},{"poiid":"B2094757D16EA7FA489E","title":"江川4路","lon":"121.42096994","lat":"31.016648772","category":"38","category_name":"公交车站","address":"上海东川路地铁站-剑川路碧溪路"},{"poiid":"B2094757D66FA6F8469F","title":"张平","lon":"121.42016712","lat":"31.014752488","category":"500","category_name":"未知分类","address":null},{"poiid":"B2094757D469A3F94492","title":"宏星一号","lon":"121.4149997","lat":"31.0123387","category":"76","category_name":"上海菜","address":"闵行区东川路2318号(近五号线金平路地铁站)"},{"poiid":"B2094655D26AA0F94392","title":"地铁东川路站","lon":"121.42009","lat":"31.01749","category":"36","category_name":"地铁站","address":""},{"poiid":"B2094757D06FA2FE4492","title":"欧尚(闵行店)","lon":"121.42","lat":"31.01418","category":"118","category_name":"超级市场","address":"闵行区东川路2092号欧尚超市内(近沪闵路)"},{"poiid":"B2094757D06FA4FA4499","title":"上海交通大学菁菁堂","lon":"121.42978692","lat":"31.017888915","category":"178","category_name":"电影院","address":"闵行区东川路800号上海交通大学校区"},{"poiid":"B2094655D265A5FB449D","title":"上海沪华国际大酒店","lon":"121.41726","lat":"31.00876","category":"250","category_name":"公园户外","address":"闵行区鹤庆路300号(近兰坪路)"},{"poiid":"B2094757D064A0FD479D","title":"川堂风 石屏路店","lon":"121.420453","lat":"31.015849","category":"71","category_name":"四川菜","address":"闵行区石屏路359号(近欧尚超市)"},{"poiid":"B2094655D36CA6F4429B","title":"东川路地铁站","lon":"121.41901","lat":"31.01929","category":"36","category_name":"地铁站","address":""},{"poiid":"B2094757D068A1F84293","title":"萨莉亚(东川路店)","lon":"121.41981","lat":"31.01462","category":"94","category_name":"西餐厅","address":"闵行区东川路2088号欧尚广场2楼(近沪闵路)"},{"poiid":"B2094757D068A2FB469E","title":"闵行公园","lon":"121.42343145","lat":"31.006854963","category":"196","category_name":"公园","address":"闵行区沪闵路249号(江川路口)"},{"poiid":"B2094757D069A3FC459D","title":"迪豪小田园酒店","lon":"121.4225","lat":"31.01029","category":"75","category_name":"浙江菜","address":"闵行区鹤庆路16号(近江川路)"},{"poiid":"B2094654DB65ABF44592","title":"部落情(东川路店)","lon":"121.41885","lat":"31.01345","category":"86","category_name":"火锅店","address":"闵行区东川路2092号欧尚广场3楼(近沪闵路)"},{"poiid":"B2094757D068A7FD409A","title":"肯德基 KFC (东川店)","lon":"121.419301","lat":"31.013649","category":"68","category_name":"快餐厅","address":"闵行区东川路2088-2098号(近轻轨5号线)"},{"poiid":"B2094757D06FA6FE459D","title":"鹤北新村一街坊","lon":"121.427","lat":"31.0161","category":"47","category_name":"住宅区","address":"上海市鹤庆路136弄"},{"poiid":"B2094757D069A4F54192","title":"上海交通大学光明体育场","lon":"121.427507","lat":"31.018782","category":"253","category_name":"校园生活","address":"上海闵行区东川路800号上海交通大学闵行校区"},{"poiid":"B2094655D26EA6FD469C","title":"越岭阁(石屏路店)","lon":"121.41993","lat":"31.016","category":"96","category_name":"韩国料理","address":"闵行区石屏路335号(近欧尚超市)"},{"poiid":"B2094655D264A1FF4093","title":"千岱名墅","lon":"121.421467","lat":"31.022477","category":"47","category_name":"住宅区","address":"上海市闵行区安宁路458弄"},{"poiid":"B2094757D16CA1FC499D","title":"金榜世家","lon":"121.42746912","lat":"31.012706446","category":"500","category_name":"未知分类","address":"上海市闵行区沧源路676-684号"},{"poiid":"B2094654DB6FA2FC409E","title":"金榜人家","lon":"121.41934","lat":"31.0178","category":"47","category_name":"住宅区","address":"上海市闵行区石屏路399弄"},{"poiid":"B2094654DB6EAAF9489D","title":"南洋博仕欣居","lon":"121.42418","lat":"31.019089","category":"47","category_name":"住宅区","address":"上海市闵行区景谷东路99弄"},{"poiid":"B2094757D169A0F5469C","title":"豪尚豪牛排馆 石屏路店","lon":"121.4199548","lat":"31.0160383","category":"68","category_name":"快餐厅","address":"闵行区石屏路335号(近欧尚超市)"},{"poiid":"B2094757D465A4FD4893","title":"重庆鸡公煲 交大店","lon":"121.424697054","lat":"31.015441793","category":"247","category_name":"餐饮美食","address":"闵行区东川路800号上海交通大学内(近永平路)"},{"poiid":"B2094757D66DA6FE469D","title":"韩焱廷","lon":"121.42105","lat":"31.01412","category":"96","category_name":"韩国料理","address":"闵行区石屏路"},{"poiid":"B2094757D66CA0FA4893","title":"吉野家  东川店","lon":"121.42063412","lat":"31.014251478","category":"95","category_name":"日本料理","address":"闵行区东川路2088号欧尚广场入口处(近沪闵路)"},{"poiid":"B2094655D36CA6F44298","title":"东川路沧源路","lon":"121.42755","lat":"31.01618","category":"38","category_name":"公交车站","address":""},{"poiid":"B2094654DB6FA3FC4499","title":"北欧丽景","lon":"121.42962","lat":"31.01656","category":"47","category_name":"住宅区","address":"北欧丽景-东川花园二期位于闵行东川路755弄"},{"poiid":"B2094757D06AABF4459C","title":"三人行新概念川菜","lon":"121.41424","lat":"31.01263","category":"71","category_name":"四川菜","address":"闵行区东川路2272号千代广场1-2楼(近金平路)"},{"poiid":"B2094757D465A5F44199","title":"唐恩都乐 东川欧尚店 Dunkin Donuts","lon":"121.421091","lat":"31.01418","category":"67","category_name":"甜品店","address":"闵行区东川路2092号欧尚超市1楼(近沪闵路)"},{"poiid":"B2094654DB6EAAF5469F","title":"沧源新村","lon":"121.42841","lat":"31.01457","category":"47","category_name":"住宅区","address":"沧源路770弄、925弄"},{"poiid":"B2094757DA65A5F44598","title":"汉庭快捷酒店（上海交大沪闵路店）","lon":"121.423226595","lat":"31.011508984","category":"216","category_name":"经济型连锁酒店","address":"上海市闵行区沪闵路277号(近鹤庆路东川路)"},{"poiid":"B2094757D468A6FE4898","title":"烧烤博士","lon":"121.42681","lat":"31.015344","category":"268","category_name":"自助","address":"闵行区东川路813号(近永平路)"},{"poiid":"B2094750D76DA3FE4593","title":"闵坪烘焙坊","lon":"121.419","lat":"31.018","category":"247","category_name":"餐饮美食","address":"闵行区石屏路415-417号(近东川路地铁站)"},{"poiid":"B2094750D76FAAFF499A","title":"哈里欧咖啡(东川路店)","lon":"121.42","lat":"31.016","category":"260","category_name":"其他","address":"闵行区石屏路455号(近欧尚超市)"},{"poiid":"B2094757D465A1FC419E","title":"海京阁","lon":"121.42665382637","lat":"31.015660399839","category":"76","category_name":"上海菜","address":"闵行区东川路897号(近交通大学)"},{"poiid":"B2094655D36CA7FD479B","title":"沪闵路鹤庆路","lon":"121.42282","lat":"31.01177","category":"38","category_name":"公交车站","address":""},{"poiid":"B2094757D464AAF54398","title":"西部高地 HIGH LAND","lon":"121.429608","lat":"31.016678","category":"47","category_name":"住宅区","address":"闵行区东川路847号(交大拖鞋门斜对面)"},{"poiid":"B2094654DB6FA1F8439B","title":"永乐生活电器(东川路)","lon":"121.41965","lat":"31.01402","category":"138","category_name":"家电电子卖场","address":"闵行区东川路2092号欧尚超市内(近沪闵路)"},{"poiid":"B2094654DB6FA2FD479E","title":"鹤北新苑","lon":"121.41712","lat":"31.013958","category":"47","category_name":"住宅区","address":"鹤北新苑位于闵行北桥镇安宁路289弄"},{"poiid":"B2094757D568AAFE4099","title":"曹记菜馆","lon":"121.4199864","lat":"31.01621691","category":"76","category_name":"上海菜","address":"闵行区石屏路347号(近东川路地铁)"},{"poiid":"B2094757D568A7F5459E","title":"交大东川花苑","lon":"121.42569","lat":"31.017105","category":"47","category_name":"住宅区","address":"沧源路880弄"},{"poiid":"B2094757D16AA3F8449F","title":"李永记苏州汤包馆","lon":"121.42105","lat":"31.01412","category":"68","category_name":"快餐厅","address":"闵行区石屏路(近东川路地铁站)"},{"poiid":"B2094655D36CA7FD489B","title":"沪闵路东川路","lon":"121.42098","lat":"31.01657","category":"38","category_name":"公交车站","address":""},{"poiid":"B2094757D065A7FC409E","title":"东川路","lon":"121.419858","lat":"31.017883","category":"500","category_name":"未知分类","address":"上海5号线东川路站"},{"poiid":"B2094655D36CA6F44199","title":"东川路轻轨站","lon":"121.42097","lat":"31.01668","category":"37","category_name":"轻轨站","address":""},{"poiid":"B2094757DA65A5FA4999","title":"锦江之星（上海闵行东川路店）","lon":"121.4232802","lat":"31.01110439","category":"216","category_name":"经济型连锁酒店","address":"上海市闵行区沪闵路319号(近鹤庆路)"},{"poiid":"B2094654DB6EAAF54598","title":"九州拉面 沧源路店","lon":"121.428279054","lat":"31.015183793","category":"95","category_name":"日本料理","address":"闵行区沧源路839号(近东川路闵行交大)"},{"poiid":"B2094757D06AAAFE459E","title":"南亚宾馆","lon":"121.42218","lat":"31.00748","category":"217","category_name":"旅馆招待所","address":"上海闵行区沪闵路280号  "},{"poiid":"B2094655D36CA6F4419D","title":"东川路沪闵路","lon":"121.4204","lat":"31.01397","category":"38","category_name":"公交车站","address":""},{"poiid":"B2094757D56DABFF439F","title":"五越斋","lon":"121.423881","lat":"31.017049","category":"247","category_name":"餐饮美食","address":"沧源路"},{"poiid":"B2094757D16EA7FA489E","title":"江川4路","lon":"121.42096994","lat":"31.016648772","category":"38","category_name":"公交车站","address":"上海东川路地铁站-剑川路碧溪路"},{"poiid":"B2094757D66FA6F8469F","title":"张平","lon":"121.42016712","lat":"31.014752488","category":"500","category_name":"未知分类","address":null},{"poiid":"B2094757D469A3F94492","title":"宏星一号","lon":"121.4149997","lat":"31.0123387","category":"76","category_name":"上海菜","address":"闵行区东川路2318号(近五号线金平路地铁站)"}]