[{"poiid":"B2094757D66BA6FE469E","title":"星巴克(瑞虹店)","lon":"121.4976846","lat":"31.2613082","category":"260","category_name":"其他","address":"虹口区临平路133弄瑞虹新城内(近飞虹路)"},{"poiid":"B2094750D365A4F94493","title":"顺风大酒店(瑞虹路店)","lon":"121.4979346984253","lat":"31.261761356687256","category":"75","category_name":"浙江菜","address":"虹口区瑞虹路116号瑞虹坊2楼(近临平北路)"},{"poiid":"B2094757D06FA4F4429F","title":"必胜客(瑞虹新城店)","lon":"121.4997061","lat":"31.260814221","category":"68","category_name":"快餐厅","address":"虹口区临平路133弄瑞虹生活广场1层17-18单元(近飞虹路)"},{"poiid":"B209475CD564A7F84392","title":"上海滩浦东香格里拉店","lon":"121.50058","lat":"31.23634","category":"119","category_name":"商场","address":"浦东富成路33号香格里拉酒店内大堂层"},{"poiid":"B2094757D464A7F94198","title":"捞王猪肚鸡（临平店）","lon":"121.499637","lat":"31.259866","category":"247","category_name":"餐饮美食","address":"虹口区公平路761号"},{"poiid":"B2094757D06FA3FA489E","title":"瑞虹新城一期","lon":"121.495416194","lat":"31.263365933","category":"47","category_name":"住宅区","address":"上海市虹口区临平路333号"},{"poiid":"B2094757D06FA7F5479F","title":"味千拉面(瑞虹店)","lon":"121.49963849","lat":"31.260690978","category":"95","category_name":"日本料理","address":"虹口区临平路133弄瑞虹生活广场1楼13-14号(近飞虹路)"},{"poiid":"B2094757D66FA6FA4598","title":"临平路地铁站","lon":"121.50087513","lat":"31.260837738","category":"36","category_name":"地铁站","address":"上海轨道交通,四号线,轨交临平路站,轻轨,4"},{"poiid":"B2094751D264A6F9439B","title":"La Tagliatella 纯意堂","lon":"121.498318","lat":"31.262375","category":"98","category_name":"意式菜品餐厅","address":"虹口区飞虹支路118号(近地铁4号线临平路站)"},{"poiid":"B2094654DB65A6FC469D","title":"易买得(瑞虹店)","lon":"121.49843","lat":"31.26181","category":"118","category_name":"超级市场","address":"虹口区临平路133弄瑞虹生活广场内(近飞虹路)"},{"poiid":"B2094654DB6BA3F9449C","title":"一茶一坐 瑞虹店","lon":"121.49391","lat":"31.26285","category":"260","category_name":"其他","address":"虹口区临平路123号瑞虹新城二期商场1-2楼(近飞虹路)"},{"poiid":"B2094750D26AA0F4409F","title":"大家乐香港新一代茶餐厅瑞虹店","lon":"121.498779","lat":"31.262537","category":"247","category_name":"餐饮美食","address":"瑞虹路（瑞虹坊）"},{"poiid":"B2094757D06FA7FB499C","title":"DQ冰雪皇后(瑞虹店)","lon":"121.499096647","lat":"31.2608406891","category":"113","category_name":"冷饮店","address":"虹口区临平路123号瑞虹生活广场1楼(近飞虹路)"},{"poiid":"B2094750D26AA3FB439F","title":"costa瑞虹店","lon":"121.498443","lat":"31.261707","category":"162","category_name":"医院","address":"虹口区临平路225号瑞虹坊内(近瑞虹新城二期)"},{"poiid":"B2094655D26EABFC499E","title":"七十三家房客(虹口店)","lon":"121.49871","lat":"31.26097","category":"76","category_name":"上海菜","address":"虹口区临平路133弄瑞虹生活广场2楼(近飞虹路)"},{"poiid":"B2094750D26CA3FE459B","title":"唐韵秦风 瑞虹路店","lon":"121.49840354919","lat":"31.261897695753","category":"84","category_name":"西北菜","address":"虹口区瑞虹路138号瑞虹坊2楼(近临平路)"},{"poiid":"B2094757D06FA5FE499F","title":"巴黎贝甜(临平店)","lon":"121.49867","lat":"31.26073","category":"67","category_name":"甜品店","address":"虹口区临平路133弄瑞虹生活广场1楼33单元(近飞虹路)"},{"poiid":"B2094757D06FA6FC469F","title":"肯德基 KFC (瑞虹店)","lon":"121.49935","lat":"31.260692","category":"68","category_name":"快餐厅","address":"临平路123号近天宝路"},{"poiid":"B2094757DA69A2F44692","title":"牡丹亭--精品湘菜","lon":"121.49775232302","lat":"31.261720377328","category":"77","category_name":"湖南菜","address":"虹口区瑞虹路134号1楼(近临平路)"},{"poiid":"B2094757D16FA6FF4793","title":"韩礼美食","lon":"121.501349603","lat":"31.2618257426","category":"96","category_name":"韩国料理","address":"虹口区飞虹路115号(近地铁四号线临平路站1号口)"},{"poiid":"B2094757D065A2F54992","title":"木子麻雀","lon":"121.495811103","lat":"31.2608422221","category":"500","category_name":"未知分类","address":"上海市虹口区物化路"},{"poiid":"B2094655D26DA6FA4993","title":"继光中学","lon":"121.49786","lat":"31.25904","category":"55","category_name":"中学","address":"虹口区高阳路690号(近临平路)"},{"poiid":"B2094757D068A5FE4992","title":"邵福楼(物华路店)","lon":"121.4967","lat":"31.259759","category":"76","category_name":"上海菜","address":"虹口区物华路73号渡边物华园附楼(近海拉尔路)"},{"poiid":"B2094757DA6EAAF8439C","title":"深井大叔港式烧腊(瑞虹生活广场店)","lon":"121.49768","lat":"31.2613","category":"72","category_name":"广东菜","address":"虹口区临平路133弄瑞虹生活广场1-01室(近天宝路)"},{"poiid":"B2094757D46FA3FF4292","title":"85度C 临平店","lon":"121.496640054","lat":"31.262250793","category":"67","category_name":"甜品店","address":"虹口区临平路327号(近天宝路)"},{"poiid":"B2094757D069AAF8469C","title":"紫彩寿司(瑞虹店)","lon":"121.499736","lat":"31.259650277","category":"95","category_name":"日本料理","address":"虹口区临平路133弄瑞虹新城内南广场1-06(近瑞虹生活广场)"},{"poiid":"B2094757D06FA0F84898","title":"一茶一座（瑞虹店）","lon":"121.4993515","lat":"31.26114273","category":"47","category_name":"住宅区","address":"上海虹口区临平路瑞虹生活广场"},{"poiid":"B2094757D465A1FE489F","title":"九龙冰室 Kowloon Ice House","lon":"121.498579054","lat":"31.261225793","category":"72","category_name":"广东菜","address":"临平路123号瑞虹生活广场2-22单元"},{"poiid":"B2094751D46DA0FD4098","title":"鱼跃川味小馆","lon":"121.49791","lat":"31.26228","category":"71","category_name":"四川菜","address":"虹口区瑞虹路128号(近天虹路)"},{"poiid":"B2094750DB65A5FA4592","title":"纯意堂 La Tagliatella","lon":"121.49851","lat":"31.26251","category":"94","category_name":"西餐厅","address":"虹口区瑞虹路138号瑞虹坊2区(近天虹路)"},{"poiid":"B2094757D069AAF8429F","title":"虹口现代公寓","lon":"121.49509","lat":"31.261597","category":"500","category_name":"未知分类","address":"上海市虹口区天宝路66弄"},{"poiid":"B2094654D56DAAFB4392","title":"瑞虹生活广场(北门)","lon":"121.49872","lat":"31.26098","category":"119","category_name":"商场","address":"临平路123"},{"poiid":"B2094753D46CA2FC4893","title":"哈根达斯（瑞虹店）","lon":"121.498756","lat":"31.260826","category":"263","category_name":"公司","address":"上海市 上海虹口区瑞虹生活广场"},{"poiid":"B2094757D06FA4FF4293","title":"快乐柠檬(瑞虹生活广场店)","lon":"121.498966","lat":"31.259488","category":"113","category_name":"冷饮店","address":"上海临平路123号"},{"poiid":"B2094757D069A1FA4492","title":"云酒楼","lon":"121.49545","lat":"31.26243","category":"260","category_name":"其他","address":"上海虹口区临平路303号(近天宝路瑞虹新城一期)  "},{"poiid":"B2094750D668AAF5449A","title":"大家乐香港新一代茶餐厅","lon":"121.498474","lat":"31.261953","category":"247","category_name":"餐饮美食","address":"瑞虹路"},{"poiid":"B2094757D469A0F84092","title":"卡乐杯 瑞虹生活广场店","lon":"121.497712","lat":"31.2612903","category":"113","category_name":"冷饮店","address":"虹口区临平路133弄瑞虹生活广场易买得超市出口处"},{"poiid":"B2094757D068A0FE4393","title":"金太子形象设计(临平路店)","lon":"121.49985","lat":"31.25948","category":"148","category_name":"美容美发店","address":"上海虹口区临平路22号(近飞虹路)"},{"poiid":"B2094654DB6BA3F8499A","title":"春草堂足道","lon":"121.49593","lat":"31.26154","category":"149","category_name":"洗浴推拿场所","address":""},{"poiid":"B2094757D164A7F5469B","title":"瑞虹新城","lon":"121.495373","lat":"31.263544","category":"47","category_name":"住宅区","address":"虹口区临平路333号"},{"poiid":"B2094757D16DA6FF409D","title":"临平路天宝路口","lon":"121.495831103","lat":"31.261654239","category":"500","category_name":"未知分类","address":"上海市虹口区临平北路"},{"poiid":"B2094757D069ABFB439A","title":"上海市税务局虹口分局","lon":"121.49753844","lat":"31.26145376","category":"500","category_name":"未知分类","address":"上海虹口区临平北路35号"},{"poiid":"B2094655D36CA3FB499D","title":"毛家湘菜","lon":"121.49622","lat":"31.26126","category":"77","category_name":"湖南菜","address":"虹口区天宝路65号(近物华路)"},{"poiid":"B2094757D069A0FD429D","title":"德笼馆 物华店","lon":"121.497431054","lat":"31.258773793","category":"68","category_name":"快餐厅","address":"虹口区物华路73号(海拉尔路口)"},{"poiid":"B2094654D56DAAFD429E","title":"鲜鸡鲜鱼坊虹临店","lon":"121.49882","lat":"31.26024","category":"90","category_name":"清真餐馆","address":"虹口区临平路28号"},{"poiid":"B2094751DA64A6F84492","title":"呷哺呷哺瑞虹新城店","lon":"121.499328","lat":"31.261074","category":"247","category_name":"餐饮美食","address":null},{"poiid":"B2094757D069A0F94792","title":"临平路小吃摊","lon":"121.495465773","lat":"31.2624106022","category":"68","category_name":"快餐厅","address":"虹口区临平路333号瑞虹一期对面(近天宝路)"},{"poiid":"B2094757D169A7F44998","title":"花王人家","lon":"121.4984325","lat":"31.261492085","category":"247","category_name":"餐饮美食","address":"上海近郊南汇区南芦公路858号  "},{"poiid":"B2094751D26BA5FB489A","title":"瑞虹新城璟庭","lon":"121.496855","lat":"31.2619","category":"47","category_name":"住宅区","address":"虹口区临平路225号(近瑞虹路)"},{"poiid":"B2094654DB69A4FE459D","title":"屈臣氏(瑞虹店)","lon":"121.49871","lat":"31.26097","category":"118","category_name":"超级市场","address":"虹口区临平路123号瑞虹新城1楼29单元2楼197室(近飞虹路)"},{"poiid":"B2094655D26AABF4419A","title":"九龙制造瑞虹店","lon":"121.49871","lat":"31.26097","category":"66","category_name":"茶艺馆","address":"虹口区临平路123号瑞虹生活广场222单元近飞虹路;;"},{"poiid":"B2094757DA69A2F54293","title":"瑞虹新城","lon":"121.49876","lat":"31.26048","category":"47","category_name":"住宅区","address":"临平路225号"},{"poiid":"B2094753D165A4F4489D","title":"文艺小榴芒","lon":"121.497156","lat":"31.261861","category":"247","category_name":"餐饮美食","address":"上海市 临平路"},{"poiid":"B2094757D465ABFE469C","title":"重庆鸡公煲 临平路店","lon":"121.494897054","lat":"31.262573793","category":"71","category_name":"四川菜","address":"虹口区临平路78号(近天宝路)"},{"poiid":"B2094655D26AA3F84992","title":"满记甜品 瑞虹新城店","lon":"121.498579054","lat":"31.261225793","category":"67","category_name":"甜品店","address":"临平路123号瑞虹新城二期商场101单元近瑞虹路"},{"poiid":"B2094655D26FA0FA4492","title":"瑞虹新城二期(北门)","lon":"121.49868","lat":"31.26224","category":"656","category_name":"大门","address":"临平路133弄"},{"poiid":"B2094757DB6AA2FB479A","title":"中国联通营业厅（瑞虹生活广场店）","lon":"121.499","lat":"31.261","category":"151","category_name":"电讯营业厅","address":"上海虹口区临平路123号 瑞虹生活广场二层"},{"poiid":"B2094757DB6AA2FB479B","title":"王亮造型设计（瑞虹生活广场店）","lon":"121.499","lat":"31.261","category":"148","category_name":"美容美发店","address":"虹口区临平路133弄瑞虹生活广场2楼、B1楼01室(近飞虹路)"},{"poiid":"B2094753D768A5F54093","title":"Me.joe Italian Pizza Pasta","lon":"121.499389","lat":"31.260795","category":"500","category_name":"未知分类","address":"上海市 上海市临平路123号01-03室易买得楼上"},{"poiid":"B2094757D06AA2F94793","title":"王亮造型","lon":"121.499353","lat":"31.261142","category":"148","category_name":"美容美发店","address":"上海瑞虹生活广场2楼"},{"poiid":"B2094654D56DAAFD409A","title":"好好栗子临平店","lon":"121.49752","lat":"31.26115","category":"117","category_name":"便民商店/便利店","address":""},{"poiid":"B2094757D06BAAFF499C","title":"湘湘小厨","lon":"121.49723625044","lat":"31.262295285682","category":"77","category_name":"湖南菜","address":"虹口区天宝路63号(近临平路)"},{"poiid":"B2094751DA6AA7FD4199","title":"聚则劲","lon":"121.49778","lat":"31.262339","category":"248","category_name":"生活娱乐","address":"瑞虹路10号"},{"poiid":"B2094750DB6DA4FB449F","title":"思妍丽","lon":"121.498581","lat":"31.262558","category":"248","category_name":"生活娱乐","address":"虹口区瑞虹路150号瑞虹坊1楼(近临平路)"},{"poiid":"B2094757D66CA0FC419F","title":"小绍兴","lon":"121.496257103","lat":"31.2596081963","category":"68","category_name":"快餐厅","address":"虹口区物华路73号(近海拉尔路)"},{"poiid":"B2094757D065A5F44398","title":"全家便利(政肃路店)","lon":"121.49726104","lat":"31.261356353","category":"117","category_name":"便民商店/便利店","address":"上海杨浦区政肃路60号西面"},{"poiid":"B2094655D26EA3FB449A","title":"中国网通营业厅","lon":"121.49935","lat":"31.26115","category":"151","category_name":"电讯营业厅","address":"临平路123号瑞虹生活广场2-17"},{"poiid":"B2094655D26FA2FA439A","title":"元祖 瑞虹新城店 Ganso","lon":"121.495296054","lat":"31.262369793","category":"67","category_name":"甜品店","address":"虹口区临平路333号瑞虹二期1楼(近天宝路)"},{"poiid":"B2094757D06BA4FF489D","title":"瑞虹新城二期健身会所","lon":"121.50028","lat":"31.26061","category":"148","category_name":"美容美发店","address":"虹口区临平路133弄瑞虹新城内(近飞虹路)"},{"poiid":"B2094655D26BA2F94198","title":"天虹路飞虹路","lon":"121.49917","lat":"31.26296","category":"38","category_name":"公交车站","address":""},{"poiid":"B2094757D064A2F94192","title":"红宅","lon":"121.497708","lat":"31.261278","category":"500","category_name":"未知分类","address":null},{"poiid":"B2094757D069ABFC4799","title":"四海游龙 物华路店 OVERSEAS DRAGON","lon":"121.497493054","lat":"31.258761793","category":"68","category_name":"快餐厅","address":"虹口区物华路73号(近海拉尔路)"},{"poiid":"B2094757DA65A5FC409F","title":"虹口妇幼保健院","lon":"121.49711841","lat":"31.26318067","category":"162","category_name":"医院","address":"舟山路"},{"poiid":"B2094757D16FABF8459D","title":"鑫森桌球俱乐部","lon":"121.4984081","lat":"31.260837222","category":"500","category_name":"未知分类","address":"虹口区物华路58号4楼(近海拉尔路)"},{"poiid":"B2094757D065ABFC449A","title":"重庆鸡公煲(天宝店)","lon":"121.49589","lat":"31.26045","category":"71","category_name":"四川菜","address":"虹口区天宝路7号(近物华路)"},{"poiid":"B2094757D16EAAF9479B","title":"雲酒樓","lon":"121.496183202","lat":"31.2623052072","category":"247","category_name":"餐饮美食","address":"上海臨平路328號"},{"poiid":"B2094655D26AA0F94099","title":"地铁临平路站","lon":"121.50093","lat":"31.26092","category":"36","category_name":"地铁站","address":""},{"poiid":"B2094654D56DABFB4192","title":"渡边物华园(物华路)","lon":"121.49663","lat":"31.25981","category":"47","category_name":"住宅区","address":"物华路73"},{"poiid":"B2094655D269ABFC4392","title":"瑞虹新城一期会所游泳馆","lon":"121.49582","lat":"31.26264","category":"247","category_name":"餐饮美食","address":"虹口区临平路133弄瑞虹新城内(近飞虹路)"},{"poiid":"B2094655D265A1F5429E","title":"瑞虹新城2期(南门)","lon":"121.50036","lat":"31.26115","category":"47","category_name":"住宅区","address":""},{"poiid":"B2094655D264A1F5409D","title":"瑞嘉苑二期","lon":"121.496","lat":"31.2623","category":"47","category_name":"住宅区","address":"上海市虹口区新嘉路1弄5-8号"},{"poiid":"B2094655D36CA6FD439D","title":"公平路周家嘴路","lon":"121.50007","lat":"31.25952","category":"38","category_name":"公交车站","address":""},{"poiid":"B2094757D66AAAFA409C","title":"东北年三十饺子","lon":"121.496706","lat":"31.259744","category":"82","category_name":"东北菜","address":"虹口区物华路75号(近海拉尔路)"},{"poiid":"B2094757D16CA0FD4798","title":"和洋日式餐厅","lon":"121.496388103","lat":"31.2598522014","category":"500","category_name":"未知分类","address":"虹口区物华路73号(近香港丽园)"},{"poiid":"B2094654D56DABFB429B","title":"胖子面馆","lon":"121.49729","lat":"31.25938","category":"68","category_name":"快餐厅","address":"虹口区物华路73号渡边商务楼附近(近海拉尔路)"},{"poiid":"B2094654D56DAAFB439C","title":"罗森(临平路)","lon":"121.49945","lat":"31.26039","category":"117","category_name":"便民商店/便利店","address":""},{"poiid":"B2094654D56DABF4459C","title":"虹口现代公寓(边门)","lon":"121.49604","lat":"31.26163","category":"47","category_name":"住宅区","address":"天宝路66弄"},{"poiid":"B2094752D26DA2F84499","title":"元氣咖啡馆","lon":"121.49611","lat":"31.26306","category":"247","category_name":"餐饮美食","address":"虹口区四平路216号(近临平北路)"},{"poiid":"B2094750D665A1F5479B","title":"心琪粥店(天宝路店)","lon":"121.496","lat":"31.2613","category":"68","category_name":"快餐厅","address":"虹口区天宝路69号(近临平路)"},{"poiid":"B2094654D56DAAFA449B","title":"克莉丝汀 公平路店","lon":"121.499741054","lat":"31.259943793","category":"112","category_name":"糕饼店","address":"虹口区公平路776号(近飞虹路)"},{"poiid":"B2094757D065A2F9479E","title":"中国工商银行(瑞虹支行)","lon":"121.49961","lat":"31.26087","category":"150","category_name":"银行","address":"虹口区临平路32号易买得瑞虹店(飞虹路公平路)"},{"poiid":"B2094757D169A5FA439C","title":"途安","lon":"121.499413103","lat":"31.261413234","category":"500","category_name":"未知分类","address":null},{"poiid":"B2094753D468ABFF459C","title":"上海黄浦江外滩","lon":"121.496299","lat":"31.264156","category":"500","category_name":"未知分类","address":"上海市 黄浦江"},{"poiid":"B2094757D66EAAF54799","title":"雷允上(葆华堂药店)","lon":"121.49812","lat":"31.26067","category":"500","category_name":"未知分类","address":"虹口区临平路48号"},{"poiid":"B2094654D56DABF94998","title":"物华大楼","lon":"121.49623","lat":"31.25965","category":"46","category_name":"楼宇","address":"上海物华路58号"},{"poiid":"B2094757D16DA5FA4399","title":"永琪美容美发(飞虹路店)","lon":"121.4991811","lat":"31.260998225","category":"148","category_name":"美容美发店","address":"上海市虹口区临平路28号"},{"poiid":"B2094757D16DAAFC4599","title":"虹口区税务局","lon":"121.499633605","lat":"31.2609013178","category":"500","category_name":"未知分类","address":"上海虹口区临平北路35号"},{"poiid":"B2094757D06BA6FE419D","title":"捞王 锅物料理","lon":"121.4995497","lat":"31.259590195","category":"247","category_name":"餐饮美食","address":"上海公平路751号"},{"poiid":"B2094757D66EA7F84798","title":"雅卓女子芳香spa","lon":"121.499668103","lat":"31.2609652246","category":"500","category_name":"未知分类","address":"上海瑞虹新城二期16号1-01号3户"},{"poiid":"B2094757D56CABFA4898","title":"凯司令西点房 公平路店","lon":"121.500433","lat":"31.259565","category":"67","category_name":"甜品店","address":"虹口区公平路758号"},{"poiid":"B2094757D168A3FD499A","title":"三门路728弄","lon":"121.4994471","lat":"31.262728261","category":"500","category_name":"未知分类","address":"上海市三门路728弄1-7号"},{"poiid":"B2094757D568ABFD469E","title":"中皇外滩","lon":"121.500467","lat":"31.260162","category":"47","category_name":"住宅区","address":"上海市虹口区梧州路218弄"},{"poiid":"B2094757D16FA3F94293","title":"幸福屋","lon":"121.4966941","lat":"31.261356232","category":"500","category_name":"未知分类","address":"上海市虹口区临平路"},{"poiid":"B2094655D26CA0F54793","title":"新虹口市政商务楼(临平路)","lon":"121.49935","lat":"31.25976","category":"46","category_name":"楼宇","address":"临平路8"},{"poiid":"B2094655D36DA6FD4892","title":"临平路","lon":"121.50093","lat":"31.26092","category":"38","category_name":"公交车站","address":""},{"poiid":"B2094757D16BA4F4439E","title":"润欣公寓","lon":"121.49649","lat":"31.260841","category":"252","category_name":"楼宇机构","address":"上海市虹口区天宝路49号"},{"poiid":"B2094655D26FA5FA409A","title":"上海市继光高级中学(北门)","lon":"121.49786","lat":"31.25905","category":"678","category_name":"学校大门","address":"高阳路690"},{"poiid":"B2094654D56DABFA409C","title":"宏伦大厦","lon":"121.501","lat":"31.2627","category":"46","category_name":"楼宇","address":"海伦路178号"},{"poiid":"B2094654D56EA3FD409C","title":"良友(虹镇北街)","lon":"121.50067","lat":"31.26276","category":"117","category_name":"便民商店/便利店","address":"虹镇北街47号"},{"poiid":"B2094757D165A2FC469C","title":"捞王","lon":"121.4995261","lat":"31.260366212","category":"500","category_name":"未知分类","address":"上海市虹口区临平路"},{"poiid":"B2094654D56DABFB419D","title":"快客No.5119","lon":"121.49657","lat":"31.25985","category":"117","category_name":"便民商店/便利店","address":"物华路73"},{"poiid":"B2094750DB6FA1F9429B","title":"瑞虹坊","lon":"121.500946","lat":"31.26291","category":"247","category_name":"餐饮美食","address":null},{"poiid":"B209475CD06BA4F5499A","title":"捞王锅物料理 瑞虹店","lon":"121.49977","lat":"31.25976","category":"72","category_name":"广东菜","address":"公平路761号"},{"poiid":"B2094655D26DA5FB469F","title":"瑞虹新城二期(东门)","lon":"121.50061","lat":"31.26138","category":"656","category_name":"大门","address":""},{"poiid":"B2094757D16EA3F94098","title":"嘉兴路派出所","lon":"121.496934","lat":"31.258691","category":"609","category_name":"警察局","address":"上海虹口区高阳路701号"},{"poiid":"B2094655D26CA0FA4998","title":"好德便利No.678","lon":"121.50011","lat":"31.25995","category":"117","category_name":"便民商店/便利店","address":"飞虹路5"},{"poiid":"B2094654D56DABFB409A","title":"好邻居水果","lon":"121.49558","lat":"31.26056","category":"117","category_name":"便民商店/便利店","address":"物华路"},{"poiid":"B2094655D26DA6FA469D","title":"渡边物华园(南门)","lon":"121.49663","lat":"31.25981","category":"47","category_name":"住宅区","address":"物华路73"},{"poiid":"B2094757D165A7FD419E","title":"虹口公寓","lon":"121.49952697","lat":"31.260412216","category":"500","category_name":"未知分类","address":"上海临平路"},{"poiid":"B2094655D264A7FC429C","title":"瑞嘉苑三期","lon":"121.495099","lat":"31.261467","category":"47","category_name":"住宅区","address":"上海市虹口区新嘉路1弄5－8号"},{"poiid":"B2094654DB6BA3F9489C","title":"北街小区(南门)","lon":"121.5008","lat":"31.26275","category":"47","category_name":"住宅区","address":"虹镇北街43弄"},{"poiid":"B2094757D065A1FC419D","title":"知音音乐培训中心(瑞虹分校)","lon":"121.49562","lat":"31.26268","category":"253","category_name":"校园生活","address":"虹口区临平路325号瑞虹新城裙楼(近飞虹路)"},{"poiid":"B2094654D56DABFB4098","title":"新锦旭美容美发","lon":"121.49578","lat":"31.26043","category":"148","category_name":"美容美发店","address":"物华路143-145"},{"poiid":"B2094757D164A4F4449D","title":"吴记羊蝎子","lon":"121.499719103","lat":"31.2596551973","category":"247","category_name":"餐饮美食","address":"上海市虹口区公平路593号"},{"poiid":"B2094757D168A4F9469A","title":"渡边商务","lon":"121.4967851","lat":"31.260196208","category":"500","category_name":"未知分类","address":"上海物华路73号"},{"poiid":"B2094757D164A6F8499D","title":"上海银行瑞虹支行","lon":"121.4999851","lat":"31.260323211","category":"150","category_name":"银行","address":"上海市虹口区临平路瑞虹新城2期"},{"poiid":"B2094654DB6BA3F8469D","title":"上海市虹口区第二中心小学","lon":"121.49611","lat":"31.25942","category":"56","category_name":"小学","address":"虹口区高阳路640号(近周家嘴路)"},{"poiid":"B2094757D16DAAFD4893","title":"现代棋牌","lon":"121.4957065","lat":"31.26172004","category":"248","category_name":"生活娱乐","address":"上海临平路"},{"poiid":"B2094757D165A5F94693","title":"中国银行瑞虹支行","lon":"121.501282503","lat":"31.2607398199","category":"150","category_name":"银行","address":"上海飞虹路15号"},{"poiid":"B2094654D56DAAFA449A","title":"佐登妮丝美容SPA生活馆公平路店","lon":"121.50031","lat":"31.25961","category":"148","category_name":"美容美发店","address":"公平路772"},{"poiid":"B2094654D56DABFA4992","title":"好德No.614","lon":"121.49518","lat":"31.26048","category":"117","category_name":"便民商店/便利店","address":"物华路102"},{"poiid":"B2094757D66EA6FC4099","title":"来一碗面馆(天宝路)","lon":"121.496228","lat":"31.259642","category":"68","category_name":"快餐厅","address":"虹口区天宝路1号(物华路口)"},{"poiid":"B2094654D56EA3FD409F","title":"北街小区","lon":"121.50094","lat":"31.263063","category":"47","category_name":"住宅区","address":"虹镇北街43弄"},{"poiid":"B2094757D66CAAF8459A","title":"021东方童画","lon":"121.4966641","lat":"31.260152207","category":"253","category_name":"校园生活","address":"上海市虹口区物华路"},{"poiid":"B2094655D264A0FC499B","title":"春草堂","lon":"121.4957","lat":"31.26073","category":"149","category_name":"洗浴推拿场所","address":""},{"poiid":"B2094654D56DABF4429F","title":"虹岳小区","lon":"121.49913","lat":"31.259304","category":"47","category_name":"住宅区","address":"岳州路173弄1-3号"},{"poiid":"B2094655D265A4FC4499","title":"中国银行上海市瑞虹新城支行","lon":"121.50037","lat":"31.2601","category":"150","category_name":"银行","address":"飞虹路15临"},{"poiid":"B2094654DB6BA3F9439F","title":"光明便利No.230","lon":"121.50041","lat":"31.25958","category":"117","category_name":"便民商店/便利店","address":"公平路758"},{"poiid":"B2094757D16AA1F84598","title":"飞虹路飞虹支路","lon":"121.50024","lat":"31.260052","category":"500","category_name":"未知分类","address":"上海虹口区飞虹路飞虹支路"},{"poiid":"B2094757D16AA1FC4892","title":"诚仕会(中凯城市之光会所)","lon":"121.49580766","lat":"31.262935799","category":"500","category_name":"未知分类","address":"上海石门一路威海路"},{"poiid":"B2094757D66CA7F84798","title":"桂林米粉","lon":"121.501558","lat":"31.261716","category":"247","category_name":"餐饮美食","address":"上海飞虹路115号"},{"poiid":"B2094751DA6BA1FE449D","title":"大悦城","lon":"121.4956506442477","lat":"31.26371170115744","category":"500","category_name":"未知分类","address":"西藏南路"},{"poiid":"B2094757D06BA5F5449D","title":"上行线(临平路店)","lon":"121.50104107","lat":"31.2609562","category":"125","category_name":"书店","address":"虹口区地铁四号线临平路站内(近飞虹路)"},{"poiid":"B2094655D26CA0FE479A","title":"喜士多便利店公平门市","lon":"121.50052","lat":"31.25954","category":"117","category_name":"便民商店/便利店","address":""},{"poiid":"B2094655D26CA0FD499C","title":"良友金伴便利连锁No.606","lon":"121.50009","lat":"31.25911","category":"117","category_name":"便民商店/便利店","address":"岳州路205号"},{"poiid":"B2094757D165A1F94099","title":"聚星花鸟市场","lon":"121.500145","lat":"31.26011","category":"249","category_name":"购物服务","address":"上海临平路岳州路"},{"poiid":"B2094655D26CA0F5469B","title":"润欣公寓(西二门)","lon":"121.49645","lat":"31.26156","category":"656","category_name":"大门","address":""},{"poiid":"B2094757D66CA5FA469B","title":"ミチヨのイエ","lon":"121.4956641","lat":"31.260734219","category":"500","category_name":"未知分类","address":null},{"poiid":"B2094757D66CA0FA499D","title":"佐登妮丝","lon":"121.5000011","lat":"31.259886202","category":"148","category_name":"美容美发店","address":"上海市虹口区"},{"poiid":"B2094757D16CA4FD449C","title":"Myhome","lon":"121.4964941","lat":"31.264201292","category":"500","category_name":"未知分类","address":null},{"poiid":"B2094753D66AA4FC4898","title":"1933老场坊","lon":"121.497974","lat":"31.258743","category":"248","category_name":"生活娱乐","address":"上海市 虹口区溧阳路611号(近海宁路)"},{"poiid":"B2094757D064AAF8449C","title":"知音琴行(瑞虹店)","lon":"121.49600219","lat":"31.262100219","category":"260","category_name":"其他","address":"虹口区临平路325号瑞虹新城裙楼内(近飞虹路)"},{"poiid":"B2094757D169A7FC449B","title":"Nuva nail(原丽站美甲)","lon":"121.5009111","lat":"31.260985225","category":"500","category_name":"未知分类","address":"上海市虹口区舟山路580号(四号线临平路站2号出口)"},{"poiid":"B2094752D06AA6FE4098","title":"爱情邮局","lon":"121.49648","lat":"31.263396","category":"621","category_name":"邮局","address":"虹口区四川北路1991号"},{"poiid":"B2094757D169A5FD4698","title":"年三十东北饺子馆","lon":"121.49610757","lat":"31.25997357","category":"500","category_name":"未知分类","address":"上海虹口区物华路51号"},{"poiid":"B2094655D26CA0FC4999","title":"新虹口市政商务楼(北门)","lon":"121.49932","lat":"31.2599","category":"48","category_name":"楼宇大门","address":"临平路8"},{"poiid":"B2094757D16FA6FA419D","title":"驰美","lon":"121.49640725","lat":"31.259953306","category":"158","category_name":"汽车销售","address":"上海市物华路73号"},{"poiid":"B2094757D568ABFD469F","title":"Aroma Coffee瑞虹店","lon":"121.5003811","lat":"31.26021111","category":"260","category_name":"其他","address":"虹口区飞虹路27号(飞虹路公平路)"},{"poiid":"B2094757D169A5FA439F","title":"47路","lon":"121.4948003","lat":"31.261142697","category":"500","category_name":"未知分类","address":"上海临平北路四平路"},{"poiid":"B2094655D26DABF5489F","title":"瑞虹新城一期(北二门)","lon":"121.49704","lat":"31.26379","category":"656","category_name":"大门","address":""},{"poiid":"B2094757D16DA0F44292","title":"lily家","lon":"121.5013081","lat":"31.26126623","category":"500","category_name":"未知分类","address":null},{"poiid":"B2094752D665A7F8499E","title":"恒基名人购物中心","lon":"121.498585","lat":"31.265117","category":"248","category_name":"生活娱乐","address":"南京东路300号"},{"poiid":"B2094757D165A0FD4193","title":"养慈坊","lon":"121.5009881","lat":"31.260390212","category":"500","category_name":"未知分类","address":"上海市虹口区岳州路78弄"},{"poiid":"B2094655D26CA1FB4893","title":"润欣公寓(西一门)","lon":"121.49603","lat":"31.26108","category":"656","category_name":"大门","address":"天宝路59弄"},{"poiid":"B2094654D56DABF9479C","title":"上海虹口动拆迁实业有限公司(物华路)","lon":"121.49623","lat":"31.25964","category":"263","category_name":"公司","address":"物华路58号物华大楼"},{"poiid":"B2094757D66DA1FD449D","title":"周家嘴路通州路","lon":"121.495578","lat":"31.259836","category":"500","category_name":"未知分类","address":"上海通州路15号"},{"poiid":"B2094654D56DAAFA4499","title":"震震棋牌天地","lon":"121.5001","lat":"31.25992","category":"175","category_name":"棋牌室","address":"公平路776号3层"},{"poiid":"B2094655D26EA2FA469E","title":"嘉兴路派出所(高阳路)","lon":"121.49693","lat":"31.25869","category":"248","category_name":"生活娱乐","address":"高阳路701"},{"poiid":"B2094655D26FA1F4439E","title":"虹口现代公寓(东门)","lon":"121.49552","lat":"31.26108","category":"656","category_name":"大门","address":"天宝路66弄1-6号"},{"poiid":"B2094654D56DABF44299","title":"足益轻","lon":"121.50006","lat":"31.25908","category":"149","category_name":"洗浴推拿场所","address":"岳州路203"},{"poiid":"B2094654DB6BA3F9439E","title":"东方都市景苑(南门)","lon":"121.50025","lat":"31.25976","category":"656","category_name":"大门","address":"公平路768弄1-10号"},{"poiid":"B2094654D56DABFB4199","title":"通海小区(北门)","lon":"121.49584","lat":"31.26003","category":"656","category_name":"大门","address":"物华路88"},{"poiid":"B2094654DB6BA3F84893","title":"虹口现代公寓(西门)","lon":"121.49482","lat":"31.26194","category":"656","category_name":"大门","address":""},{"poiid":"B2094655D26CA0F54698","title":"晨林花苑(北门)","lon":"121.49545","lat":"31.2602","category":"656","category_name":"大门","address":"物华路98弄1-13号"},{"poiid":"B2094655D26DABFF499D","title":"虹岳小区(北门)","lon":"121.49994","lat":"31.25935","category":"656","category_name":"大门","address":"公平路751弄1-4号"},{"poiid":"B2094655D26FA0F5459E","title":"虹岳小区(东门)","lon":"121.49996","lat":"31.25901","category":"656","category_name":"大门","address":"岳州路173弄1-3号"}]