[{"poiid":"B2094757D06EABF5479E","title":"南汇区中心医院","lon":"121.73745267","lat":"31.05833135","category":"162","category_name":"医院","address":"浦东新区惠南镇拱为路2800号"},{"poiid":"B2094757D068A2FC449B","title":"欧尚(南汇店)","lon":"121.7353084","lat":"31.049049949","category":"118","category_name":"超级市场","address":"浦东新区惠南镇人民西路955号(近南汇中心医院)"},{"poiid":"B2094757D16EA2F4489F","title":"华山医院附属南汇中心医院","lon":"121.736958022","lat":"31.0592949002","category":"162","category_name":"医院","address":"上海市浦东新区惠南镇拱为路2800号。"},{"poiid":"B2094757D06FABF4449F","title":"上海理工大学(浦东校区)","lon":"121.75110534","lat":"31.051996155","category":"52","category_name":"高等院校","address":"上海浦东新区拱极路3800号"},{"poiid":"B2094757D06AA7FA419F","title":"南汇","lon":"121.746004","lat":"31.047414","category":"500","category_name":"未知分类","address":"上海惠南镇"},{"poiid":"B2094654DB6AA6F84498","title":"上海汇亨新亚大酒店","lon":"121.746","lat":"31.04804","category":"215","category_name":"三星级宾馆","address":"上海市浦东新区惠南镇通济路168号(近人民西路)"},{"poiid":"B2094757D66EA7FC4198","title":"听潮路","lon":"121.742124628","lat":"31.0465143486","category":"500","category_name":"未知分类","address":"上海南汇听潮路"},{"poiid":"B2094757D06AA3F9479C","title":"廊亦舫酒楼(南汇店)","lon":"121.74942","lat":"31.04869","category":"76","category_name":"上海菜","address":"浦东新区惠南镇城西路188号(近人民西路)"},{"poiid":"B2094757D16EA3FD4999","title":"南匯房地產交易中心","lon":"121.74149912","lat":"31.047771377","category":"500","category_name":"未知分类","address":"上海听潮路101弄1号"},{"poiid":"B2094757D168A0F84698","title":"老宅里农家菜","lon":"121.73727562","lat":"31.047234365","category":"76","category_name":"上海菜","address":"浦东新区惠南镇西门路430号(近大川公路)"},{"poiid":"B2094655D265A7FF459E","title":"复旦大学附属华山医院南汇分院","lon":"121.73746","lat":"31.05832","category":"162","category_name":"医院","address":"惠南镇拱为路2800号"},{"poiid":"B2094757D16DA3FC499A","title":"南汇区图书馆","lon":"121.74582","lat":"31.04907","category":"181","category_name":"图书馆","address":"浦东新区惠南镇人民西路20号(人民西路为民路)"},{"poiid":"B2094757D16DA4F9419F","title":"南汇中心医院输液大厅","lon":"121.73567635","lat":"31.059474289","category":"162","category_name":"医院","address":"上海拱为路"},{"poiid":"B2094757D664AAF94892","title":"侬佳蒸菜馆","lon":"121.742072054","lat":"31.053287793","category":"76","category_name":"上海菜","address":"浦东新区惠南镇听潮路555号(拱极路口)"},{"poiid":"B2094757D169AAF4449B","title":"浓佳蒸菜馆","lon":"121.744555057","lat":"31.058212461","category":"247","category_name":"餐饮美食","address":"上海近郊南汇区听潮路(拱挤路口)  "},{"poiid":"B2094757D06BA2FC4793","title":"韶梦酒店(南六公路店)","lon":"121.71694","lat":"31.04472","category":"76","category_name":"上海菜","address":"浦东新区南六公路188号(枫丹白露会所旁)"},{"poiid":"B2094655D265ABF9459F","title":"上海市浦东新区中心医院(南门)","lon":"121.73737","lat":"31.05735","category":"162","category_name":"医院","address":""},{"poiid":"B2094655D265A7FB499F","title":"上海永达汽车南汇销售服务有限公司","lon":"121.73489","lat":"31.04702","category":"159","category_name":"汽车维修","address":"惠南镇大川公路3099号"},{"poiid":"B2094655D26FA2F4419B","title":"85度C(南汇欧尚店)","lon":"121.73654","lat":"31.04921","category":"112","category_name":"糕饼店","address":"浦东新区惠南镇人民西路955号欧尚(近大川公路)"},{"poiid":"B2094753D76EA0FB479D","title":"上海市浦东医院","lon":"121.735023","lat":"31.059215","category":"162","category_name":"医院","address":"上海市 拱为路2800号"},{"poiid":"B2094757D165A3FB439F","title":"上海市南汇第二中学","lon":"121.740454162","lat":"31.0557169149","category":"55","category_name":"中学","address":"上海浦东新区拱北路"},{"poiid":"B2094757D06AA7F8439A","title":"艺泰安邦","lon":"121.7142847","lat":"31.0560212","category":"500","category_name":"未知分类","address":"上海南汇区三灶镇南六公路399弄"},{"poiid":"B2094750D76EAAFA499C","title":"呷哺呷哺(欧尚惠南店)","lon":"121.735","lat":"31.0487","category":"86","category_name":"火锅店","address":"浦东新区惠南镇人民西路955号欧尚超市1楼NH1042号商铺(近大川公路)"},{"poiid":"B2094753D76AA0FC469E","title":"新石器烤肉(南汇欧尚店)","lon":"121.73558","lat":"31.048704","category":"96","category_name":"韩国料理","address":"上海市浦东新区人民西路955号欧尚超市1楼NH1005A室(近大川公路)"},{"poiid":"B2094757D065AAF9499A","title":"彩虹雅苑","lon":"121.74501413052","lat":"31.060615226032","category":"47","category_name":"住宅区","address":"上海市浦东新区南汇惠南镇听悦路685弄"},{"poiid":"B2094655D264A0FE4298","title":"复旦大学附属华山医院南汇分院(南门)","lon":"121.73736","lat":"31.05736","category":"162","category_name":"医院","address":""},{"poiid":"B2094750D26CA3FF469D","title":"南汇中心医院","lon":"121.7348876671194","lat":"31.05969251464545","category":"162","category_name":"医院","address":null},{"poiid":"B2094757D165A7F4419E","title":"味之都欧尚店","lon":"121.735011357","lat":"31.0484225416","category":"68","category_name":"快餐厅","address":"浦东新区人民西路955号欧尚超市大门旁(近大川公路)"},{"poiid":"B2094655D265ABF94998","title":"上海野生动物园(正门)","lon":"121.71458","lat":"31.05408","category":"680","category_name":"楼宇机构","address":""},{"poiid":"B2094757D568A4FC429F","title":"肯德基(西乐路)","lon":"121.73516059","lat":"31.04866509","category":"68","category_name":"快餐厅","address":"中国上海市浦东新区"},{"poiid":"B2094757D16FA4FA409B","title":"永达汽车南汇通用4S店","lon":"121.72802635","lat":"31.057560479","category":"500","category_name":"未知分类","address":"上海市浦东新区大川公路3099号"},{"poiid":"B2094655D36DA1FB4592","title":"西乐路人民西路","lon":"121.73675","lat":"31.04913","category":"38","category_name":"公交车站","address":""},{"poiid":"B2094753D46AA1F9419B","title":"上海市浦东医院","lon":"121.741432","lat":"31.057516","category":"162","category_name":"医院","address":"上海市 上海市浦东新区惠南镇拱为路2800号"},{"poiid":"B2094654DB6FA7FA479C","title":"豪享来上海南汇店","lon":"121.746","lat":"31.05","category":"247","category_name":"餐饮美食","address":"上海南汇区惠南镇西门路95号"},{"poiid":"B2094757D16EA0FF4899","title":"西门锦绣苑(西苑)","lon":"121.736051218","lat":"31.0469211279","category":"47","category_name":"住宅区","address":"上海市浦东新区惠南镇西门路588弄"},{"poiid":"B2094757D66DAAFC4299","title":"观鹤楼大酒店","lon":"121.72323608","lat":"31.051803588","category":"76","category_name":"上海菜","address":"浦东新区三灶镇南六公路178号上海野生动物园内"},{"poiid":"B2094654DB6FA0FB4999","title":"建德南郊别墅","lon":"121.725","lat":"31.0729","category":"47","category_name":"住宅区","address":"浦东新区南汇南六公路"},{"poiid":"B209475CD76EA2FA4293","title":"上海野生动物园","lon":"121.725975","lat":"31.052228","category":"500","category_name":"未知分类","address":"上海市 上海浦东南汇"},{"poiid":"B2094655D26BA2F8429B","title":"听潮路拱为路(南汇二中)","lon":"121.74197","lat":"31.0562","category":"38","category_name":"公交车站","address":""},{"poiid":"B2094757D169A5FB439A","title":"海宁煲(惠南镇店)","lon":"121.74559","lat":"31.04803","category":"76","category_name":"上海菜","address":"浦东新区通济路179号(财政局旁)"},{"poiid":"B2094655D36CA1F9479E","title":"零街二坊","lon":"121.74208","lat":"31.04985","category":"38","category_name":"公交车站","address":""},{"poiid":"B2094655D36CA5F4419F","title":"博佳花园","lon":"121.74425","lat":"31.041212","category":"47","category_name":"住宅区","address":"城南路1号"},{"poiid":"B2094750D465A2F5419B","title":"亿子港式茶餐厅","lon":"121.745658","lat":"31.04722","category":"500","category_name":"未知分类","address":null},{"poiid":"B2094654DB6FA7F9459B","title":"房北大厦(听潮路)","lon":"121.74192","lat":"31.04867","category":"46","category_name":"楼宇","address":"听潮路101弄1-10号"},{"poiid":"B2094757D665A0FA4093","title":"泓泽虾乡 南汇店","lon":"121.746113054","lat":"31.045147793","category":"71","category_name":"四川菜","address":"浦东新区惠南镇通济路112号"},{"poiid":"B2094757D169AAF9409D","title":"爱西西里 上海野生动物园店","lon":"121.72226235","lat":"31.05508569","category":"500","category_name":"未知分类","address":"上海市浦东新区南六公路"},{"poiid":"B2094655D36CA6FD419C","title":"拱极路通济路","lon":"121.74401","lat":"31.05301","category":"38","category_name":"公交车站","address":""},{"poiid":"B2094751D36DA0F5469B","title":"品味千岛湖酒店","lon":"121.73698","lat":"31.04033","category":"76","category_name":"上海菜","address":"浦东新区沪南公路9828号(近莫泰168)"},{"poiid":"B2094655D36CA1FE4593","title":"水岸家园","lon":"121.7416","lat":"31.0457","category":"38","category_name":"公交车站","address":"水岸家园位于奉贤奉贤西渡镇沪杭路"},{"poiid":"B2094757D06AA1FB499F","title":"汇亨新亚大酒店宴会厅","lon":"121.74626","lat":"31.04777","category":"217","category_name":"旅馆招待所","address":"浦东新区惠南镇通济路168号(近人民西路)查看地图"},{"poiid":"B2094757D06EABF5479E","title":"南汇区中心医院","lon":"121.73745267","lat":"31.05833135","category":"162","category_name":"医院","address":"浦东新区惠南镇拱为路2800号"},{"poiid":"B2094757D068A2FC449B","title":"欧尚(南汇店)","lon":"121.7353084","lat":"31.049049949","category":"118","category_name":"超级市场","address":"浦东新区惠南镇人民西路955号(近南汇中心医院)"},{"poiid":"B2094757D16EA2F4489F","title":"华山医院附属南汇中心医院","lon":"121.736958022","lat":"31.0592949002","category":"162","category_name":"医院","address":"上海市浦东新区惠南镇拱为路2800号。"},{"poiid":"B2094757D06FABF4449F","title":"上海理工大学(浦东校区)","lon":"121.75110534","lat":"31.051996155","category":"52","category_name":"高等院校","address":"上海浦东新区拱极路3800号"},{"poiid":"B2094757D06AA7FA419F","title":"南汇","lon":"121.746004","lat":"31.047414","category":"500","category_name":"未知分类","address":"上海惠南镇"},{"poiid":"B2094654DB6AA6F84498","title":"上海汇亨新亚大酒店","lon":"121.746","lat":"31.04804","category":"215","category_name":"三星级宾馆","address":"上海市浦东新区惠南镇通济路168号(近人民西路)"},{"poiid":"B2094757D66EA7FC4198","title":"听潮路","lon":"121.742124628","lat":"31.0465143486","category":"500","category_name":"未知分类","address":"上海南汇听潮路"},{"poiid":"B2094757D06AA3F9479C","title":"廊亦舫酒楼(南汇店)","lon":"121.74942","lat":"31.04869","category":"76","category_name":"上海菜","address":"浦东新区惠南镇城西路188号(近人民西路)"},{"poiid":"B2094757D16EA3FD4999","title":"南匯房地產交易中心","lon":"121.74149912","lat":"31.047771377","category":"500","category_name":"未知分类","address":"上海听潮路101弄1号"},{"poiid":"B2094757D168A0F84698","title":"老宅里农家菜","lon":"121.73727562","lat":"31.047234365","category":"76","category_name":"上海菜","address":"浦东新区惠南镇西门路430号(近大川公路)"},{"poiid":"B2094655D265A7FF459E","title":"复旦大学附属华山医院南汇分院","lon":"121.73746","lat":"31.05832","category":"162","category_name":"医院","address":"惠南镇拱为路2800号"},{"poiid":"B2094757D16DA3FC499A","title":"南汇区图书馆","lon":"121.74582","lat":"31.04907","category":"181","category_name":"图书馆","address":"浦东新区惠南镇人民西路20号(人民西路为民路)"},{"poiid":"B2094757D16DA4F9419F","title":"南汇中心医院输液大厅","lon":"121.73567635","lat":"31.059474289","category":"162","category_name":"医院","address":"上海拱为路"},{"poiid":"B2094757D664AAF94892","title":"侬佳蒸菜馆","lon":"121.742072054","lat":"31.053287793","category":"76","category_name":"上海菜","address":"浦东新区惠南镇听潮路555号(拱极路口)"},{"poiid":"B2094757D169AAF4449B","title":"浓佳蒸菜馆","lon":"121.744555057","lat":"31.058212461","category":"247","category_name":"餐饮美食","address":"上海近郊南汇区听潮路(拱挤路口)  "},{"poiid":"B2094757D06BA2FC4793","title":"韶梦酒店(南六公路店)","lon":"121.71694","lat":"31.04472","category":"76","category_name":"上海菜","address":"浦东新区南六公路188号(枫丹白露会所旁)"},{"poiid":"B2094655D265ABF9459F","title":"上海市浦东新区中心医院(南门)","lon":"121.73737","lat":"31.05735","category":"162","category_name":"医院","address":""},{"poiid":"B2094655D265A7FB499F","title":"上海永达汽车南汇销售服务有限公司","lon":"121.73489","lat":"31.04702","category":"159","category_name":"汽车维修","address":"惠南镇大川公路3099号"},{"poiid":"B2094655D26FA2F4419B","title":"85度C(南汇欧尚店)","lon":"121.73654","lat":"31.04921","category":"112","category_name":"糕饼店","address":"浦东新区惠南镇人民西路955号欧尚(近大川公路)"},{"poiid":"B2094753D76EA0FB479D","title":"上海市浦东医院","lon":"121.735023","lat":"31.059215","category":"162","category_name":"医院","address":"上海市 拱为路2800号"},{"poiid":"B2094757D165A3FB439F","title":"上海市南汇第二中学","lon":"121.740454162","lat":"31.0557169149","category":"55","category_name":"中学","address":"上海浦东新区拱北路"},{"poiid":"B2094757D06AA7F8439A","title":"艺泰安邦","lon":"121.7142847","lat":"31.0560212","category":"500","category_name":"未知分类","address":"上海南汇区三灶镇南六公路399弄"},{"poiid":"B2094750D76EAAFA499C","title":"呷哺呷哺(欧尚惠南店)","lon":"121.735","lat":"31.0487","category":"86","category_name":"火锅店","address":"浦东新区惠南镇人民西路955号欧尚超市1楼NH1042号商铺(近大川公路)"},{"poiid":"B2094753D76AA0FC469E","title":"新石器烤肉(南汇欧尚店)","lon":"121.73558","lat":"31.048704","category":"96","category_name":"韩国料理","address":"上海市浦东新区人民西路955号欧尚超市1楼NH1005A室(近大川公路)"},{"poiid":"B2094757D065AAF9499A","title":"彩虹雅苑","lon":"121.74501413052","lat":"31.060615226032","category":"47","category_name":"住宅区","address":"上海市浦东新区南汇惠南镇听悦路685弄"},{"poiid":"B2094655D264A0FE4298","title":"复旦大学附属华山医院南汇分院(南门)","lon":"121.73736","lat":"31.05736","category":"162","category_name":"医院","address":""},{"poiid":"B2094750D26CA3FF469D","title":"南汇中心医院","lon":"121.7348876671194","lat":"31.05969251464545","category":"162","category_name":"医院","address":null},{"poiid":"B2094757D165A7F4419E","title":"味之都欧尚店","lon":"121.735011357","lat":"31.0484225416","category":"68","category_name":"快餐厅","address":"浦东新区人民西路955号欧尚超市大门旁(近大川公路)"},{"poiid":"B2094655D265ABF94998","title":"上海野生动物园(正门)","lon":"121.71458","lat":"31.05408","category":"680","category_name":"楼宇机构","address":""},{"poiid":"B2094757D568A4FC429F","title":"肯德基(西乐路)","lon":"121.73516059","lat":"31.04866509","category":"68","category_name":"快餐厅","address":"中国上海市浦东新区"},{"poiid":"B2094757D16FA4FA409B","title":"永达汽车南汇通用4S店","lon":"121.72802635","lat":"31.057560479","category":"500","category_name":"未知分类","address":"上海市浦东新区大川公路3099号"},{"poiid":"B2094655D36DA1FB4592","title":"西乐路人民西路","lon":"121.73675","lat":"31.04913","category":"38","category_name":"公交车站","address":""},{"poiid":"B2094753D46AA1F9419B","title":"上海市浦东医院","lon":"121.741432","lat":"31.057516","category":"162","category_name":"医院","address":"上海市 上海市浦东新区惠南镇拱为路2800号"},{"poiid":"B2094654DB6FA7FA479C","title":"豪享来上海南汇店","lon":"121.746","lat":"31.05","category":"247","category_name":"餐饮美食","address":"上海南汇区惠南镇西门路95号"},{"poiid":"B2094757D16EA0FF4899","title":"西门锦绣苑(西苑)","lon":"121.736051218","lat":"31.0469211279","category":"47","category_name":"住宅区","address":"上海市浦东新区惠南镇西门路588弄"},{"poiid":"B2094757D66DAAFC4299","title":"观鹤楼大酒店","lon":"121.72323608","lat":"31.051803588","category":"76","category_name":"上海菜","address":"浦东新区三灶镇南六公路178号上海野生动物园内"},{"poiid":"B2094654DB6FA0FB4999","title":"建德南郊别墅","lon":"121.725","lat":"31.0729","category":"47","category_name":"住宅区","address":"浦东新区南汇南六公路"},{"poiid":"B209475CD76EA2FA4293","title":"上海野生动物园","lon":"121.725975","lat":"31.052228","category":"500","category_name":"未知分类","address":"上海市 上海浦东南汇"},{"poiid":"B2094655D26BA2F8429B","title":"听潮路拱为路(南汇二中)","lon":"121.74197","lat":"31.0562","category":"38","category_name":"公交车站","address":""},{"poiid":"B2094757D169A5FB439A","title":"海宁煲(惠南镇店)","lon":"121.74559","lat":"31.04803","category":"76","category_name":"上海菜","address":"浦东新区通济路179号(财政局旁)"},{"poiid":"B2094655D36CA1F9479E","title":"零街二坊","lon":"121.74208","lat":"31.04985","category":"38","category_name":"公交车站","address":""},{"poiid":"B2094655D36CA5F4419F","title":"博佳花园","lon":"121.74425","lat":"31.041212","category":"47","category_name":"住宅区","address":"城南路1号"},{"poiid":"B2094750D465A2F5419B","title":"亿子港式茶餐厅","lon":"121.745658","lat":"31.04722","category":"500","category_name":"未知分类","address":null},{"poiid":"B2094654DB6FA7F9459B","title":"房北大厦(听潮路)","lon":"121.74192","lat":"31.04867","category":"46","category_name":"楼宇","address":"听潮路101弄1-10号"},{"poiid":"B2094757D665A0FA4093","title":"泓泽虾乡 南汇店","lon":"121.746113054","lat":"31.045147793","category":"71","category_name":"四川菜","address":"浦东新区惠南镇通济路112号"},{"poiid":"B2094757D169AAF9409D","title":"爱西西里 上海野生动物园店","lon":"121.72226235","lat":"31.05508569","category":"500","category_name":"未知分类","address":"上海市浦东新区南六公路"},{"poiid":"B2094655D36CA6FD419C","title":"拱极路通济路","lon":"121.74401","lat":"31.05301","category":"38","category_name":"公交车站","address":""},{"poiid":"B2094751D36DA0F5469B","title":"品味千岛湖酒店","lon":"121.73698","lat":"31.04033","category":"76","category_name":"上海菜","address":"浦东新区沪南公路9828号(近莫泰168)"},{"poiid":"B2094655D36CA1FE4593","title":"水岸家园","lon":"121.7416","lat":"31.0457","category":"38","category_name":"公交车站","address":"水岸家园位于奉贤奉贤西渡镇沪杭路"},{"poiid":"B2094757D06AA1FB499F","title":"汇亨新亚大酒店宴会厅","lon":"121.74626","lat":"31.04777","category":"217","category_name":"旅馆招待所","address":"浦东新区惠南镇通济路168号(近人民西路)查看地图"},{"poiid":"B2094757D06EABF5479E","title":"南汇区中心医院","lon":"121.73745267","lat":"31.05833135","category":"162","category_name":"医院","address":"浦东新区惠南镇拱为路2800号"},{"poiid":"B2094757D068A2FC449B","title":"欧尚(南汇店)","lon":"121.7353084","lat":"31.049049949","category":"118","category_name":"超级市场","address":"浦东新区惠南镇人民西路955号(近南汇中心医院)"},{"poiid":"B2094757D16EA2F4489F","title":"华山医院附属南汇中心医院","lon":"121.736958022","lat":"31.0592949002","category":"162","category_name":"医院","address":"上海市浦东新区惠南镇拱为路2800号。"},{"poiid":"B2094757D06FABF4449F","title":"上海理工大学(浦东校区)","lon":"121.75110534","lat":"31.051996155","category":"52","category_name":"高等院校","address":"上海浦东新区拱极路3800号"},{"poiid":"B2094757D06AA7FA419F","title":"南汇","lon":"121.746004","lat":"31.047414","category":"500","category_name":"未知分类","address":"上海惠南镇"},{"poiid":"B2094654DB6AA6F84498","title":"上海汇亨新亚大酒店","lon":"121.746","lat":"31.04804","category":"215","category_name":"三星级宾馆","address":"上海市浦东新区惠南镇通济路168号(近人民西路)"},{"poiid":"B2094757D66EA7FC4198","title":"听潮路","lon":"121.742124628","lat":"31.0465143486","category":"500","category_name":"未知分类","address":"上海南汇听潮路"},{"poiid":"B2094757D06AA3F9479C","title":"廊亦舫酒楼(南汇店)","lon":"121.74942","lat":"31.04869","category":"76","category_name":"上海菜","address":"浦东新区惠南镇城西路188号(近人民西路)"},{"poiid":"B2094757D16EA3FD4999","title":"南匯房地產交易中心","lon":"121.74149912","lat":"31.047771377","category":"500","category_name":"未知分类","address":"上海听潮路101弄1号"},{"poiid":"B2094757D168A0F84698","title":"老宅里农家菜","lon":"121.73727562","lat":"31.047234365","category":"76","category_name":"上海菜","address":"浦东新区惠南镇西门路430号(近大川公路)"},{"poiid":"B2094655D265A7FF459E","title":"复旦大学附属华山医院南汇分院","lon":"121.73746","lat":"31.05832","category":"162","category_name":"医院","address":"惠南镇拱为路2800号"},{"poiid":"B2094757D16DA3FC499A","title":"南汇区图书馆","lon":"121.74582","lat":"31.04907","category":"181","category_name":"图书馆","address":"浦东新区惠南镇人民西路20号(人民西路为民路)"},{"poiid":"B2094757D16DA4F9419F","title":"南汇中心医院输液大厅","lon":"121.73567635","lat":"31.059474289","category":"162","category_name":"医院","address":"上海拱为路"},{"poiid":"B2094757D664AAF94892","title":"侬佳蒸菜馆","lon":"121.742072054","lat":"31.053287793","category":"76","category_name":"上海菜","address":"浦东新区惠南镇听潮路555号(拱极路口)"},{"poiid":"B2094757D169AAF4449B","title":"浓佳蒸菜馆","lon":"121.744555057","lat":"31.058212461","category":"247","category_name":"餐饮美食","address":"上海近郊南汇区听潮路(拱挤路口)  "},{"poiid":"B2094757D06BA2FC4793","title":"韶梦酒店(南六公路店)","lon":"121.71694","lat":"31.04472","category":"76","category_name":"上海菜","address":"浦东新区南六公路188号(枫丹白露会所旁)"},{"poiid":"B2094655D265ABF9459F","title":"上海市浦东新区中心医院(南门)","lon":"121.73737","lat":"31.05735","category":"162","category_name":"医院","address":""},{"poiid":"B2094655D265A7FB499F","title":"上海永达汽车南汇销售服务有限公司","lon":"121.73489","lat":"31.04702","category":"159","category_name":"汽车维修","address":"惠南镇大川公路3099号"},{"poiid":"B2094655D26FA2F4419B","title":"85度C(南汇欧尚店)","lon":"121.73654","lat":"31.04921","category":"112","category_name":"糕饼店","address":"浦东新区惠南镇人民西路955号欧尚(近大川公路)"},{"poiid":"B2094753D76EA0FB479D","title":"上海市浦东医院","lon":"121.735023","lat":"31.059215","category":"162","category_name":"医院","address":"上海市 拱为路2800号"},{"poiid":"B2094757D165A3FB439F","title":"上海市南汇第二中学","lon":"121.740454162","lat":"31.0557169149","category":"55","category_name":"中学","address":"上海浦东新区拱北路"},{"poiid":"B2094757D06AA7F8439A","title":"艺泰安邦","lon":"121.7142847","lat":"31.0560212","category":"500","category_name":"未知分类","address":"上海南汇区三灶镇南六公路399弄"},{"poiid":"B2094750D76EAAFA499C","title":"呷哺呷哺(欧尚惠南店)","lon":"121.735","lat":"31.0487","category":"86","category_name":"火锅店","address":"浦东新区惠南镇人民西路955号欧尚超市1楼NH1042号商铺(近大川公路)"},{"poiid":"B2094753D76AA0FC469E","title":"新石器烤肉(南汇欧尚店)","lon":"121.73558","lat":"31.048704","category":"96","category_name":"韩国料理","address":"上海市浦东新区人民西路955号欧尚超市1楼NH1005A室(近大川公路)"},{"poiid":"B2094757D065AAF9499A","title":"彩虹雅苑","lon":"121.74501413052","lat":"31.060615226032","category":"47","category_name":"住宅区","address":"上海市浦东新区南汇惠南镇听悦路685弄"},{"poiid":"B2094655D264A0FE4298","title":"复旦大学附属华山医院南汇分院(南门)","lon":"121.73736","lat":"31.05736","category":"162","category_name":"医院","address":""},{"poiid":"B2094750D26CA3FF469D","title":"南汇中心医院","lon":"121.7348876671194","lat":"31.05969251464545","category":"162","category_name":"医院","address":null},{"poiid":"B2094757D165A7F4419E","title":"味之都欧尚店","lon":"121.735011357","lat":"31.0484225416","category":"68","category_name":"快餐厅","address":"浦东新区人民西路955号欧尚超市大门旁(近大川公路)"},{"poiid":"B2094655D265ABF94998","title":"上海野生动物园(正门)","lon":"121.71458","lat":"31.05408","category":"680","category_name":"楼宇机构","address":""},{"poiid":"B2094757D568A4FC429F","title":"肯德基(西乐路)","lon":"121.73516059","lat":"31.04866509","category":"68","category_name":"快餐厅","address":"中国上海市浦东新区"},{"poiid":"B2094757D16FA4FA409B","title":"永达汽车南汇通用4S店","lon":"121.72802635","lat":"31.057560479","category":"500","category_name":"未知分类","address":"上海市浦东新区大川公路3099号"},{"poiid":"B2094655D36DA1FB4592","title":"西乐路人民西路","lon":"121.73675","lat":"31.04913","category":"38","category_name":"公交车站","address":""},{"poiid":"B2094753D46AA1F9419B","title":"上海市浦东医院","lon":"121.741432","lat":"31.057516","category":"162","category_name":"医院","address":"上海市 上海市浦东新区惠南镇拱为路2800号"},{"poiid":"B2094654DB6FA7FA479C","title":"豪享来上海南汇店","lon":"121.746","lat":"31.05","category":"247","category_name":"餐饮美食","address":"上海南汇区惠南镇西门路95号"},{"poiid":"B2094757D16EA0FF4899","title":"西门锦绣苑(西苑)","lon":"121.736051218","lat":"31.0469211279","category":"47","category_name":"住宅区","address":"上海市浦东新区惠南镇西门路588弄"},{"poiid":"B2094757D66DAAFC4299","title":"观鹤楼大酒店","lon":"121.72323608","lat":"31.051803588","category":"76","category_name":"上海菜","address":"浦东新区三灶镇南六公路178号上海野生动物园内"},{"poiid":"B2094654DB6FA0FB4999","title":"建德南郊别墅","lon":"121.725","lat":"31.0729","category":"47","category_name":"住宅区","address":"浦东新区南汇南六公路"},{"poiid":"B209475CD76EA2FA4293","title":"上海野生动物园","lon":"121.725975","lat":"31.052228","category":"500","category_name":"未知分类","address":"上海市 上海浦东南汇"},{"poiid":"B2094655D26BA2F8429B","title":"听潮路拱为路(南汇二中)","lon":"121.74197","lat":"31.0562","category":"38","category_name":"公交车站","address":""},{"poiid":"B2094757D169A5FB439A","title":"海宁煲(惠南镇店)","lon":"121.74559","lat":"31.04803","category":"76","category_name":"上海菜","address":"浦东新区通济路179号(财政局旁)"},{"poiid":"B2094655D36CA1F9479E","title":"零街二坊","lon":"121.74208","lat":"31.04985","category":"38","category_name":"公交车站","address":""},{"poiid":"B2094655D36CA5F4419F","title":"博佳花园","lon":"121.74425","lat":"31.041212","category":"47","category_name":"住宅区","address":"城南路1号"},{"poiid":"B2094750D465A2F5419B","title":"亿子港式茶餐厅","lon":"121.745658","lat":"31.04722","category":"500","category_name":"未知分类","address":null},{"poiid":"B2094654DB6FA7F9459B","title":"房北大厦(听潮路)","lon":"121.74192","lat":"31.04867","category":"46","category_name":"楼宇","address":"听潮路101弄1-10号"},{"poiid":"B2094757D665A0FA4093","title":"泓泽虾乡 南汇店","lon":"121.746113054","lat":"31.045147793","category":"71","category_name":"四川菜","address":"浦东新区惠南镇通济路112号"},{"poiid":"B2094757D169AAF9409D","title":"爱西西里 上海野生动物园店","lon":"121.72226235","lat":"31.05508569","category":"500","category_name":"未知分类","address":"上海市浦东新区南六公路"},{"poiid":"B2094655D36CA6FD419C","title":"拱极路通济路","lon":"121.74401","lat":"31.05301","category":"38","category_name":"公交车站","address":""},{"poiid":"B2094751D36DA0F5469B","title":"品味千岛湖酒店","lon":"121.73698","lat":"31.04033","category":"76","category_name":"上海菜","address":"浦东新区沪南公路9828号(近莫泰168)"},{"poiid":"B2094655D36CA1FE4593","title":"水岸家园","lon":"121.7416","lat":"31.0457","category":"38","category_name":"公交车站","address":"水岸家园位于奉贤奉贤西渡镇沪杭路"},{"poiid":"B2094757D06AA1FB499F","title":"汇亨新亚大酒店宴会厅","lon":"121.74626","lat":"31.04777","category":"217","category_name":"旅馆招待所","address":"浦东新区惠南镇通济路168号(近人民西路)查看地图"},{"poiid":"B2094757D06EABF5479E","title":"南汇区中心医院","lon":"121.73745267","lat":"31.05833135","category":"162","category_name":"医院","address":"浦东新区惠南镇拱为路2800号"},{"poiid":"B2094757D068A2FC449B","title":"欧尚(南汇店)","lon":"121.7353084","lat":"31.049049949","category":"118","category_name":"超级市场","address":"浦东新区惠南镇人民西路955号(近南汇中心医院)"},{"poiid":"B2094757D16EA2F4489F","title":"华山医院附属南汇中心医院","lon":"121.736958022","lat":"31.0592949002","category":"162","category_name":"医院","address":"上海市浦东新区惠南镇拱为路2800号。"},{"poiid":"B2094757D06FABF4449F","title":"上海理工大学(浦东校区)","lon":"121.75110534","lat":"31.051996155","category":"52","category_name":"高等院校","address":"上海浦东新区拱极路3800号"},{"poiid":"B2094757D06AA7FA419F","title":"南汇","lon":"121.746004","lat":"31.047414","category":"500","category_name":"未知分类","address":"上海惠南镇"},{"poiid":"B2094654DB6AA6F84498","title":"上海汇亨新亚大酒店","lon":"121.746","lat":"31.04804","category":"215","category_name":"三星级宾馆","address":"上海市浦东新区惠南镇通济路168号(近人民西路)"},{"poiid":"B2094757D66EA7FC4198","title":"听潮路","lon":"121.742124628","lat":"31.0465143486","category":"500","category_name":"未知分类","address":"上海南汇听潮路"},{"poiid":"B2094757D06AA3F9479C","title":"廊亦舫酒楼(南汇店)","lon":"121.74942","lat":"31.04869","category":"76","category_name":"上海菜","address":"浦东新区惠南镇城西路188号(近人民西路)"},{"poiid":"B2094757D16EA3FD4999","title":"南匯房地產交易中心","lon":"121.74149912","lat":"31.047771377","category":"500","category_name":"未知分类","address":"上海听潮路101弄1号"},{"poiid":"B2094757D168A0F84698","title":"老宅里农家菜","lon":"121.73727562","lat":"31.047234365","category":"76","category_name":"上海菜","address":"浦东新区惠南镇西门路430号(近大川公路)"},{"poiid":"B2094655D265A7FF459E","title":"复旦大学附属华山医院南汇分院","lon":"121.73746","lat":"31.05832","category":"162","category_name":"医院","address":"惠南镇拱为路2800号"},{"poiid":"B2094757D16DA3FC499A","title":"南汇区图书馆","lon":"121.74582","lat":"31.04907","category":"181","category_name":"图书馆","address":"浦东新区惠南镇人民西路20号(人民西路为民路)"},{"poiid":"B2094757D16DA4F9419F","title":"南汇中心医院输液大厅","lon":"121.73567635","lat":"31.059474289","category":"162","category_name":"医院","address":"上海拱为路"},{"poiid":"B2094757D664AAF94892","title":"侬佳蒸菜馆","lon":"121.742072054","lat":"31.053287793","category":"76","category_name":"上海菜","address":"浦东新区惠南镇听潮路555号(拱极路口)"},{"poiid":"B2094757D169AAF4449B","title":"浓佳蒸菜馆","lon":"121.744555057","lat":"31.058212461","category":"247","category_name":"餐饮美食","address":"上海近郊南汇区听潮路(拱挤路口)  "},{"poiid":"B2094757D06BA2FC4793","title":"韶梦酒店(南六公路店)","lon":"121.71694","lat":"31.04472","category":"76","category_name":"上海菜","address":"浦东新区南六公路188号(枫丹白露会所旁)"},{"poiid":"B2094655D265ABF9459F","title":"上海市浦东新区中心医院(南门)","lon":"121.73737","lat":"31.05735","category":"162","category_name":"医院","address":""},{"poiid":"B2094655D265A7FB499F","title":"上海永达汽车南汇销售服务有限公司","lon":"121.73489","lat":"31.04702","category":"159","category_name":"汽车维修","address":"惠南镇大川公路3099号"},{"poiid":"B2094655D26FA2F4419B","title":"85度C(南汇欧尚店)","lon":"121.73654","lat":"31.04921","category":"112","category_name":"糕饼店","address":"浦东新区惠南镇人民西路955号欧尚(近大川公路)"},{"poiid":"B2094753D76EA0FB479D","title":"上海市浦东医院","lon":"121.735023","lat":"31.059215","category":"162","category_name":"医院","address":"上海市 拱为路2800号"},{"poiid":"B2094757D165A3FB439F","title":"上海市南汇第二中学","lon":"121.740454162","lat":"31.0557169149","category":"55","category_name":"中学","address":"上海浦东新区拱北路"},{"poiid":"B2094757D06AA7F8439A","title":"艺泰安邦","lon":"121.7142847","lat":"31.0560212","category":"500","category_name":"未知分类","address":"上海南汇区三灶镇南六公路399弄"},{"poiid":"B2094750D76EAAFA499C","title":"呷哺呷哺(欧尚惠南店)","lon":"121.735","lat":"31.0487","category":"86","category_name":"火锅店","address":"浦东新区惠南镇人民西路955号欧尚超市1楼NH1042号商铺(近大川公路)"},{"poiid":"B2094753D76AA0FC469E","title":"新石器烤肉(南汇欧尚店)","lon":"121.73558","lat":"31.048704","category":"96","category_name":"韩国料理","address":"上海市浦东新区人民西路955号欧尚超市1楼NH1005A室(近大川公路)"},{"poiid":"B2094757D065AAF9499A","title":"彩虹雅苑","lon":"121.74501413052","lat":"31.060615226032","category":"47","category_name":"住宅区","address":"上海市浦东新区南汇惠南镇听悦路685弄"},{"poiid":"B2094655D264A0FE4298","title":"复旦大学附属华山医院南汇分院(南门)","lon":"121.73736","lat":"31.05736","category":"162","category_name":"医院","address":""},{"poiid":"B2094750D26CA3FF469D","title":"南汇中心医院","lon":"121.7348876671194","lat":"31.05969251464545","category":"162","category_name":"医院","address":null},{"poiid":"B2094757D165A7F4419E","title":"味之都欧尚店","lon":"121.735011357","lat":"31.0484225416","category":"68","category_name":"快餐厅","address":"浦东新区人民西路955号欧尚超市大门旁(近大川公路)"},{"poiid":"B2094655D265ABF94998","title":"上海野生动物园(正门)","lon":"121.71458","lat":"31.05408","category":"680","category_name":"楼宇机构","address":""},{"poiid":"B2094757D568A4FC429F","title":"肯德基(西乐路)","lon":"121.73516059","lat":"31.04866509","category":"68","category_name":"快餐厅","address":"中国上海市浦东新区"},{"poiid":"B2094757D16FA4FA409B","title":"永达汽车南汇通用4S店","lon":"121.72802635","lat":"31.057560479","category":"500","category_name":"未知分类","address":"上海市浦东新区大川公路3099号"},{"poiid":"B2094655D36DA1FB4592","title":"西乐路人民西路","lon":"121.73675","lat":"31.04913","category":"38","category_name":"公交车站","address":""},{"poiid":"B2094753D46AA1F9419B","title":"上海市浦东医院","lon":"121.741432","lat":"31.057516","category":"162","category_name":"医院","address":"上海市 上海市浦东新区惠南镇拱为路2800号"},{"poiid":"B2094654DB6FA7FA479C","title":"豪享来上海南汇店","lon":"121.746","lat":"31.05","category":"247","category_name":"餐饮美食","address":"上海南汇区惠南镇西门路95号"},{"poiid":"B2094757D16EA0FF4899","title":"西门锦绣苑(西苑)","lon":"121.736051218","lat":"31.0469211279","category":"47","category_name":"住宅区","address":"上海市浦东新区惠南镇西门路588弄"},{"poiid":"B2094757D66DAAFC4299","title":"观鹤楼大酒店","lon":"121.72323608","lat":"31.051803588","category":"76","category_name":"上海菜","address":"浦东新区三灶镇南六公路178号上海野生动物园内"},{"poiid":"B2094654DB6FA0FB4999","title":"建德南郊别墅","lon":"121.725","lat":"31.0729","category":"47","category_name":"住宅区","address":"浦东新区南汇南六公路"},{"poiid":"B209475CD76EA2FA4293","title":"上海野生动物园","lon":"121.725975","lat":"31.052228","category":"500","category_name":"未知分类","address":"上海市 上海浦东南汇"},{"poiid":"B2094655D26BA2F8429B","title":"听潮路拱为路(南汇二中)","lon":"121.74197","lat":"31.0562","category":"38","category_name":"公交车站","address":""},{"poiid":"B2094757D169A5FB439A","title":"海宁煲(惠南镇店)","lon":"121.74559","lat":"31.04803","category":"76","category_name":"上海菜","address":"浦东新区通济路179号(财政局旁)"},{"poiid":"B2094655D36CA1F9479E","title":"零街二坊","lon":"121.74208","lat":"31.04985","category":"38","category_name":"公交车站","address":""},{"poiid":"B2094655D36CA5F4419F","title":"博佳花园","lon":"121.74425","lat":"31.041212","category":"47","category_name":"住宅区","address":"城南路1号"},{"poiid":"B2094750D465A2F5419B","title":"亿子港式茶餐厅","lon":"121.745658","lat":"31.04722","category":"500","category_name":"未知分类","address":null},{"poiid":"B2094654DB6FA7F9459B","title":"房北大厦(听潮路)","lon":"121.74192","lat":"31.04867","category":"46","category_name":"楼宇","address":"听潮路101弄1-10号"},{"poiid":"B2094757D665A0FA4093","title":"泓泽虾乡 南汇店","lon":"121.746113054","lat":"31.045147793","category":"71","category_name":"四川菜","address":"浦东新区惠南镇通济路112号"},{"poiid":"B2094757D169AAF9409D","title":"爱西西里 上海野生动物园店","lon":"121.72226235","lat":"31.05508569","category":"500","category_name":"未知分类","address":"上海市浦东新区南六公路"},{"poiid":"B2094655D36CA6FD419C","title":"拱极路通济路","lon":"121.74401","lat":"31.05301","category":"38","category_name":"公交车站","address":""},{"poiid":"B2094751D36DA0F5469B","title":"品味千岛湖酒店","lon":"121.73698","lat":"31.04033","category":"76","category_name":"上海菜","address":"浦东新区沪南公路9828号(近莫泰168)"},{"poiid":"B2094655D36CA1FE4593","title":"水岸家园","lon":"121.7416","lat":"31.0457","category":"38","category_name":"公交车站","address":"水岸家园位于奉贤奉贤西渡镇沪杭路"},{"poiid":"B2094757D06AA1FB499F","title":"汇亨新亚大酒店宴会厅","lon":"121.74626","lat":"31.04777","category":"217","category_name":"旅馆招待所","address":"浦东新区惠南镇通济路168号(近人民西路)查看地图"}]