[{"poiid":"B2094655D36CA2F44598","title":"上海火车站","lon":"121.455531","lat":"31.249498","category":"22","category_name":"火车站","address":"上海市闸北区秣陵路303号"},{"poiid":"B2094757D66BA0FA4199","title":"星巴克(闸北太平洋店)","lon":"121.4557284","lat":"31.2457015","category":"260","category_name":"其他","address":"闸北区天目西路188号不夜城商厦24单元(近梅园路)"},{"poiid":"B2094757D06FA3FB449F","title":"上海火车站 八号候车室","lon":"121.45572662","lat":"31.247543335","category":"22","category_name":"火车站","address":"上海火车站"},{"poiid":"B209475CD564A7F8439E","title":"上海滩中信泰富店","lon":"121.45602","lat":"31.22851","category":"119","category_name":"商场","address":"\"南京西路1168号中信泰富广场，店铺号221.\r\n\""},{"poiid":"B2094757D06FA7FE4592","title":"中亚美爵酒店","lon":"121.45657873","lat":"31.246530647","category":"217","category_name":"旅馆招待所","address":"上海市梅园路330号"},{"poiid":"B2094654DA6CA4F5489D","title":"太平洋百货(天目西路)","lon":"121.45679","lat":"31.24542","category":"119","category_name":"商场","address":"闸北区天目西路218号(近民立路)"},{"poiid":"B2094655D269A4FB469F","title":"不夜城手机市场","lon":"121.45781","lat":"31.24567","category":"247","category_name":"餐饮美食","address":"闸北区天目西路188号不夜城商厦2楼78-1铺位(近梅园路)"},{"poiid":"B2094654DA6CA4F5489A","title":"不夜城商厦","lon":"121.45781","lat":"31.24568","category":"119","category_name":"商场","address":"闸北区天目西路218号"},{"poiid":"B2094655D36CA2F4469B","title":"上海火车站南广场","lon":"121.45448","lat":"31.24753","category":"38","category_name":"公交车站","address":""},{"poiid":"B2094757D06FA2F54999","title":"COCO壱番屋(上海火车站店)","lon":"121.4566591","lat":"31.2463349","category":"95","category_name":"日本料理","address":"闸北区天目西路237号(近梅园路)"},{"poiid":"B2094757D06EAAFB449B","title":"上海火车站七号候车室","lon":"121.455726624","lat":"31.247543335","category":"260","category_name":"其他","address":"上海火车站"},{"poiid":"B2094757D06FA3FD499C","title":"三叶眼镜批发市场(闸北店)","lon":"121.45654","lat":"31.24697","category":"132","category_name":"眼镜店","address":"闸北区梅园路360号环龙商厦4-5楼4008号(近秣陵路)"},{"poiid":"B2094757D06FA3FE479A","title":"麦当劳(新客站1号店)","lon":"121.45669","lat":"31.24528","category":"68","category_name":"快餐厅","address":"闸北区天目西路218号太平洋百货1楼(近民立路)"},{"poiid":"B2094757D06FA1FD469F","title":"橘子工房(站太店)","lon":"121.456781","lat":"31.245696","category":"94","category_name":"西餐厅","address":"闸北区天目西路218号太平洋百货3楼(近民立路)"},{"poiid":"B2094757D168A2FF499B","title":"麦当劳","lon":"121.45557773","lat":"31.247067659","category":"500","category_name":"未知分类","address":"上海市火车站店"},{"poiid":"B2094757D068ABF44199","title":"肯德基 KFC (北广场店)","lon":"121.454561","lat":"31.247548","category":"68","category_name":"快餐厅","address":"梅园路360号环龙商厦内(近秣陵路)"},{"poiid":"B2094757D06FA2FE4193","title":"企业广场","lon":"121.45718383","lat":"31.243953704","category":"46","category_name":"楼宇","address":"上海梅园路228号。"},{"poiid":"B2094757D56DA6F5479A","title":"环智国际大厦","lon":"121.45422220230103","lat":"31.244507776936864","category":"252","category_name":"楼宇机构","address":"上海,上海市,恒丰路436号"},{"poiid":"B2094757D065A3FF429C","title":"上海火车站5号月台","lon":"121.45687103","lat":"31.245771408","category":"22","category_name":"火车站","address":"上海闸北区新客站"},{"poiid":"B2094750DB69A7FC459C","title":"外企德科法签上海中心","lon":"121.45568","lat":"31.243995","category":"252","category_name":"楼宇机构","address":"闸北区恒丰路299号隆宇国际商务大厦8层"},{"poiid":"B2094757D16CA1F8449D","title":"三叶眼镜城","lon":"121.456838738","lat":"31.2457916318","category":"249","category_name":"购物服务","address":"闸北区梅园路360号环龙商厦4楼4095(火车站出口)"},{"poiid":"B2094757D16EA5F54492","title":"一号线汉中路站","lon":"121.456673238","lat":"31.2457235303","category":"500","category_name":"未知分类","address":"上海一号线汉中路站"},{"poiid":"B2094655D26AABFE4499","title":"席家花园闸北店","lon":"121.45484","lat":"31.24659","category":"76","category_name":"上海菜","address":"闸北区天目西路285号广场假日酒店2楼(近民立路)"},{"poiid":"B2094757D069A7FE429A","title":"嘉里不夜城第一座","lon":"121.455896738","lat":"31.2448386115","category":"500","category_name":"未知分类","address":"上海市闸北区天目西路218号"},{"poiid":"B2094757D06FA4FA4892","title":"环龙照相器材城","lon":"121.45618569","lat":"31.247277804","category":"138","category_name":"家电电子卖场","address":"闸北区梅园路360号环龙商厦内(近秣陵路)"},{"poiid":"B2094757D068A7FF4999","title":"肯德基 KFC (中亚店)","lon":"121.456925","lat":"31.246358","category":"68","category_name":"快餐厅","address":"闸北区秣陵路228号名品商厦B1楼01铺位(近火车站南广场)"},{"poiid":"B2094757D06AABFD419C","title":"浦西洲际大酒店ECCO自助餐厅","lon":"121.45437","lat":"31.24532","category":"268","category_name":"自助","address":"闸北区恒丰路500号浦西洲际酒店1楼(近上海火车站)"},{"poiid":"B2094750DA6AA6FF439C","title":"炫音KTV(恒汇店)","lon":"121.455757","lat":"31.245769","category":"170","category_name":"KTV","address":"闸北区天目西路477号恒汇国际1栋3楼(近恒丰北路)"},{"poiid":"B2094757D064A5FE409B","title":"上海火车站十号候车室","lon":"121.45545165","lat":"31.248189457","category":"22","category_name":"火车站","address":"上海火车站新客站"},{"poiid":"B2094757D468A4F8419E","title":"锅品面吧 梅园路店 Noodle Bar","lon":"121.457239","lat":"31.246789","category":"68","category_name":"快餐厅","address":"闸北区梅园路330号101-104(近天目路)"},{"poiid":"B2094757D064A4F54393","title":"康师傅面馆","lon":"121.45863","lat":"31.25163","category":"68","category_name":"快餐厅","address":"闸北区秣陵路303号火车站北广场候车厅(近长途汽车站)"},{"poiid":"B2094757D06FA5FF4193","title":"萨莉亚(站太店)","lon":"121.4568","lat":"31.24539","category":"94","category_name":"西餐厅","address":"闸北区天目西路218号太平洋百货B1楼(近民立路)"},{"poiid":"B2094757D064A3FD469D","title":"上岛咖啡 火车站店 UBC Coffee","lon":"121.45675167008","lat":"31.245740857119","category":"65","category_name":"咖啡厅","address":"闸北区天目西路235号2楼中亚饭店裙楼2楼(太平洋百货对面)"},{"poiid":"B2094757D06BA7FE429F","title":"包旺锅贴 梅园店","lon":"121.4572","lat":"31.24643","category":"68","category_name":"快餐厅","address":"闸北区天目西路245号(梅园路口)"},{"poiid":"B2094757D068A1F54498","title":"麦当劳(梅园路店)","lon":"121.456129","lat":"31.247289","category":"68","category_name":"快餐厅","address":"闸北区秣陵路182号(梅园路口)"},{"poiid":"B2094757D16EA2FE4893","title":"琥家拉面","lon":"121.454849738","lat":"31.2455570268","category":"95","category_name":"日本料理","address":"闸北区天目西路218号太平洋百货3楼(近民立路)"},{"poiid":"B2094750DA6AA0F4479F","title":"人才大廈","lon":"121.456268","lat":"31.243707","category":"252","category_name":"楼宇机构","address":"梅園路77號"},{"poiid":"B2094757D068A4FB439B","title":"老娘舅(火车站店)","lon":"121.45512","lat":"31.24783","category":"68","category_name":"快餐厅","address":"闸北区秣陵路186号环龙商场1-2楼(近大娘水饺)"},{"poiid":"B2094751D56EA1FA469A","title":"上海小南国(企业广场店)","lon":"121.45758","lat":"31.24401","category":"76","category_name":"上海菜","address":"闸北区梅园路228号企业广场2楼(近汉中路)"},{"poiid":"B2094757D165A3FD4399","title":"小南国","lon":"121.45711973","lat":"31.244511604","category":"500","category_name":"未知分类","address":"上海市闸北区恒丰路"},{"poiid":"B2094654DB6AA3FB489D","title":"广场长城假日酒店大堂吧","lon":"121.454153054","lat":"31.245983793","category":"67","category_name":"甜品店","address":"上海闸北区天目西路285号(近民立路)  "},{"poiid":"B2094757D068A3F54792","title":"嘉里不夜城第二座","lon":"121.45635793","lat":"31.245115617","category":"500","category_name":"未知分类","address":"上海天目西路218号"},{"poiid":"B2094654D564AAFA4599","title":"联合售票大楼","lon":"121.45791","lat":"31.24736","category":"46","category_name":"楼宇","address":"秣陵路100号"},{"poiid":"B2094757D76AA7F44993","title":"新梅华东大酒店","lon":"121.45780039382","lat":"31.246134784524","category":"76","category_name":"上海菜","address":"天目西路111号新梅华东大酒店"},{"poiid":"B2094757D069A7FF419B","title":"大娘水饺 新客站店","lon":"121.458071054","lat":"31.246187793","category":"68","category_name":"快餐厅","address":"闸北区梅园路360号环龙商厦内(近秣陵路)"},{"poiid":"B2094655D26DA3F44998","title":"天使咖啡厅","lon":"121.45415297938","lat":"31.245983719269","category":"268","category_name":"自助","address":"闸北区天目西路285号广场长城假日酒店3楼(近天目西路)"},{"poiid":"B2094757D06AA6FF409F","title":"永和大王(中亚店)","lon":"121.45838673","lat":"31.245650628","category":"68","category_name":"快餐厅","address":"上海市闸北区天目西路209号"},{"poiid":"B2094654D564AAF4439A","title":"上海不夜城休闲广场","lon":"121.45619","lat":"31.24725","category":"119","category_name":"商场","address":"梅园路360"},{"poiid":"B2094757D069A5F9499D","title":"中国建设银行(闸北支行营业室)","lon":"121.4555","lat":"31.24544","category":"150","category_name":"银行","address":"闸北区天目西路290号(民立路天目西路)"},{"poiid":"B2094750DB6FAAF8419D","title":"星歌主题时尚KTV","lon":"121.454399","lat":"31.245965","category":"248","category_name":"生活娱乐","address":"闸北区恒丰路638号苏河1号B栋1-3楼(近长安路)"},{"poiid":"B2094655D36CA2F44598","title":"上海火车站","lon":"121.455531","lat":"31.249498","category":"22","category_name":"火车站","address":"上海市闸北区秣陵路303号"},{"poiid":"B2094757D66BA0FA4199","title":"星巴克(闸北太平洋店)","lon":"121.4557284","lat":"31.2457015","category":"260","category_name":"其他","address":"闸北区天目西路188号不夜城商厦24单元(近梅园路)"},{"poiid":"B2094757D06FA3FB449F","title":"上海火车站 八号候车室","lon":"121.45572662","lat":"31.247543335","category":"22","category_name":"火车站","address":"上海火车站"},{"poiid":"B209475CD564A7F8439E","title":"上海滩中信泰富店","lon":"121.45602","lat":"31.22851","category":"119","category_name":"商场","address":"\"南京西路1168号中信泰富广场，店铺号221.\r\n\""},{"poiid":"B2094757D06FA7FE4592","title":"中亚美爵酒店","lon":"121.45657873","lat":"31.246530647","category":"217","category_name":"旅馆招待所","address":"上海市梅园路330号"},{"poiid":"B2094654DA6CA4F5489D","title":"太平洋百货(天目西路)","lon":"121.45679","lat":"31.24542","category":"119","category_name":"商场","address":"闸北区天目西路218号(近民立路)"},{"poiid":"B2094655D269A4FB469F","title":"不夜城手机市场","lon":"121.45781","lat":"31.24567","category":"247","category_name":"餐饮美食","address":"闸北区天目西路188号不夜城商厦2楼78-1铺位(近梅园路)"},{"poiid":"B2094654DA6CA4F5489A","title":"不夜城商厦","lon":"121.45781","lat":"31.24568","category":"119","category_name":"商场","address":"闸北区天目西路218号"},{"poiid":"B2094655D36CA2F4469B","title":"上海火车站南广场","lon":"121.45448","lat":"31.24753","category":"38","category_name":"公交车站","address":""},{"poiid":"B2094757D06FA2F54999","title":"COCO壱番屋(上海火车站店)","lon":"121.4566591","lat":"31.2463349","category":"95","category_name":"日本料理","address":"闸北区天目西路237号(近梅园路)"},{"poiid":"B2094757D06EAAFB449B","title":"上海火车站七号候车室","lon":"121.455726624","lat":"31.247543335","category":"260","category_name":"其他","address":"上海火车站"},{"poiid":"B2094757D06FA3FD499C","title":"三叶眼镜批发市场(闸北店)","lon":"121.45654","lat":"31.24697","category":"132","category_name":"眼镜店","address":"闸北区梅园路360号环龙商厦4-5楼4008号(近秣陵路)"},{"poiid":"B2094757D06FA3FE479A","title":"麦当劳(新客站1号店)","lon":"121.45669","lat":"31.24528","category":"68","category_name":"快餐厅","address":"闸北区天目西路218号太平洋百货1楼(近民立路)"},{"poiid":"B2094757D06FA1FD469F","title":"橘子工房(站太店)","lon":"121.456781","lat":"31.245696","category":"94","category_name":"西餐厅","address":"闸北区天目西路218号太平洋百货3楼(近民立路)"},{"poiid":"B2094757D168A2FF499B","title":"麦当劳","lon":"121.45557773","lat":"31.247067659","category":"500","category_name":"未知分类","address":"上海市火车站店"},{"poiid":"B2094757D068ABF44199","title":"肯德基 KFC (北广场店)","lon":"121.454561","lat":"31.247548","category":"68","category_name":"快餐厅","address":"梅园路360号环龙商厦内(近秣陵路)"},{"poiid":"B2094757D06FA2FE4193","title":"企业广场","lon":"121.45718383","lat":"31.243953704","category":"46","category_name":"楼宇","address":"上海梅园路228号。"},{"poiid":"B2094757D56DA6F5479A","title":"环智国际大厦","lon":"121.45422220230103","lat":"31.244507776936864","category":"252","category_name":"楼宇机构","address":"上海,上海市,恒丰路436号"},{"poiid":"B2094757D065A3FF429C","title":"上海火车站5号月台","lon":"121.45687103","lat":"31.245771408","category":"22","category_name":"火车站","address":"上海闸北区新客站"},{"poiid":"B2094750DB69A7FC459C","title":"外企德科法签上海中心","lon":"121.45568","lat":"31.243995","category":"252","category_name":"楼宇机构","address":"闸北区恒丰路299号隆宇国际商务大厦8层"},{"poiid":"B2094757D16CA1F8449D","title":"三叶眼镜城","lon":"121.456838738","lat":"31.2457916318","category":"249","category_name":"购物服务","address":"闸北区梅园路360号环龙商厦4楼4095(火车站出口)"},{"poiid":"B2094757D16EA5F54492","title":"一号线汉中路站","lon":"121.456673238","lat":"31.2457235303","category":"500","category_name":"未知分类","address":"上海一号线汉中路站"},{"poiid":"B2094655D26AABFE4499","title":"席家花园闸北店","lon":"121.45484","lat":"31.24659","category":"76","category_name":"上海菜","address":"闸北区天目西路285号广场假日酒店2楼(近民立路)"},{"poiid":"B2094757D069A7FE429A","title":"嘉里不夜城第一座","lon":"121.455896738","lat":"31.2448386115","category":"500","category_name":"未知分类","address":"上海市闸北区天目西路218号"},{"poiid":"B2094757D06FA4FA4892","title":"环龙照相器材城","lon":"121.45618569","lat":"31.247277804","category":"138","category_name":"家电电子卖场","address":"闸北区梅园路360号环龙商厦内(近秣陵路)"},{"poiid":"B2094757D068A7FF4999","title":"肯德基 KFC (中亚店)","lon":"121.456925","lat":"31.246358","category":"68","category_name":"快餐厅","address":"闸北区秣陵路228号名品商厦B1楼01铺位(近火车站南广场)"},{"poiid":"B2094757D06AABFD419C","title":"浦西洲际大酒店ECCO自助餐厅","lon":"121.45437","lat":"31.24532","category":"268","category_name":"自助","address":"闸北区恒丰路500号浦西洲际酒店1楼(近上海火车站)"},{"poiid":"B2094750DA6AA6FF439C","title":"炫音KTV(恒汇店)","lon":"121.455757","lat":"31.245769","category":"170","category_name":"KTV","address":"闸北区天目西路477号恒汇国际1栋3楼(近恒丰北路)"},{"poiid":"B2094757D064A5FE409B","title":"上海火车站十号候车室","lon":"121.45545165","lat":"31.248189457","category":"22","category_name":"火车站","address":"上海火车站新客站"},{"poiid":"B2094757D468A4F8419E","title":"锅品面吧 梅园路店 Noodle Bar","lon":"121.457239","lat":"31.246789","category":"68","category_name":"快餐厅","address":"闸北区梅园路330号101-104(近天目路)"},{"poiid":"B2094757D064A4F54393","title":"康师傅面馆","lon":"121.45863","lat":"31.25163","category":"68","category_name":"快餐厅","address":"闸北区秣陵路303号火车站北广场候车厅(近长途汽车站)"},{"poiid":"B2094757D06FA5FF4193","title":"萨莉亚(站太店)","lon":"121.4568","lat":"31.24539","category":"94","category_name":"西餐厅","address":"闸北区天目西路218号太平洋百货B1楼(近民立路)"},{"poiid":"B2094757D064A3FD469D","title":"上岛咖啡 火车站店 UBC Coffee","lon":"121.45675167008","lat":"31.245740857119","category":"65","category_name":"咖啡厅","address":"闸北区天目西路235号2楼中亚饭店裙楼2楼(太平洋百货对面)"},{"poiid":"B2094757D06BA7FE429F","title":"包旺锅贴 梅园店","lon":"121.4572","lat":"31.24643","category":"68","category_name":"快餐厅","address":"闸北区天目西路245号(梅园路口)"},{"poiid":"B2094757D068A1F54498","title":"麦当劳(梅园路店)","lon":"121.456129","lat":"31.247289","category":"68","category_name":"快餐厅","address":"闸北区秣陵路182号(梅园路口)"},{"poiid":"B2094757D16EA2FE4893","title":"琥家拉面","lon":"121.454849738","lat":"31.2455570268","category":"95","category_name":"日本料理","address":"闸北区天目西路218号太平洋百货3楼(近民立路)"},{"poiid":"B2094750DA6AA0F4479F","title":"人才大廈","lon":"121.456268","lat":"31.243707","category":"252","category_name":"楼宇机构","address":"梅園路77號"},{"poiid":"B2094757D068A4FB439B","title":"老娘舅(火车站店)","lon":"121.45512","lat":"31.24783","category":"68","category_name":"快餐厅","address":"闸北区秣陵路186号环龙商场1-2楼(近大娘水饺)"},{"poiid":"B2094751D56EA1FA469A","title":"上海小南国(企业广场店)","lon":"121.45758","lat":"31.24401","category":"76","category_name":"上海菜","address":"闸北区梅园路228号企业广场2楼(近汉中路)"},{"poiid":"B2094757D165A3FD4399","title":"小南国","lon":"121.45711973","lat":"31.244511604","category":"500","category_name":"未知分类","address":"上海市闸北区恒丰路"},{"poiid":"B2094654DB6AA3FB489D","title":"广场长城假日酒店大堂吧","lon":"121.454153054","lat":"31.245983793","category":"67","category_name":"甜品店","address":"上海闸北区天目西路285号(近民立路)  "},{"poiid":"B2094757D068A3F54792","title":"嘉里不夜城第二座","lon":"121.45635793","lat":"31.245115617","category":"500","category_name":"未知分类","address":"上海天目西路218号"},{"poiid":"B2094654D564AAFA4599","title":"联合售票大楼","lon":"121.45791","lat":"31.24736","category":"46","category_name":"楼宇","address":"秣陵路100号"},{"poiid":"B2094757D76AA7F44993","title":"新梅华东大酒店","lon":"121.45780039382","lat":"31.246134784524","category":"76","category_name":"上海菜","address":"天目西路111号新梅华东大酒店"},{"poiid":"B2094757D069A7FF419B","title":"大娘水饺 新客站店","lon":"121.458071054","lat":"31.246187793","category":"68","category_name":"快餐厅","address":"闸北区梅园路360号环龙商厦内(近秣陵路)"},{"poiid":"B2094655D26DA3F44998","title":"天使咖啡厅","lon":"121.45415297938","lat":"31.245983719269","category":"268","category_name":"自助","address":"闸北区天目西路285号广场长城假日酒店3楼(近天目西路)"},{"poiid":"B2094757D06AA6FF409F","title":"永和大王(中亚店)","lon":"121.45838673","lat":"31.245650628","category":"68","category_name":"快餐厅","address":"上海市闸北区天目西路209号"},{"poiid":"B2094654D564AAF4439A","title":"上海不夜城休闲广场","lon":"121.45619","lat":"31.24725","category":"119","category_name":"商场","address":"梅园路360"},{"poiid":"B2094757D069A5F9499D","title":"中国建设银行(闸北支行营业室)","lon":"121.4555","lat":"31.24544","category":"150","category_name":"银行","address":"闸北区天目西路290号(民立路天目西路)"},{"poiid":"B2094750DB6FAAF8419D","title":"星歌主题时尚KTV","lon":"121.454399","lat":"31.245965","category":"248","category_name":"生活娱乐","address":"闸北区恒丰路638号苏河1号B栋1-3楼(近长安路)"},{"poiid":"B2094655D36CA2F44598","title":"上海火车站","lon":"121.455531","lat":"31.249498","category":"22","category_name":"火车站","address":"上海市闸北区秣陵路303号"},{"poiid":"B2094757D66BA0FA4199","title":"星巴克(闸北太平洋店)","lon":"121.4557284","lat":"31.2457015","category":"260","category_name":"其他","address":"闸北区天目西路188号不夜城商厦24单元(近梅园路)"},{"poiid":"B2094757D06FA3FB449F","title":"上海火车站 八号候车室","lon":"121.45572662","lat":"31.247543335","category":"22","category_name":"火车站","address":"上海火车站"},{"poiid":"B209475CD564A7F8439E","title":"上海滩中信泰富店","lon":"121.45602","lat":"31.22851","category":"119","category_name":"商场","address":"\"南京西路1168号中信泰富广场，店铺号221.\r\n\""},{"poiid":"B2094757D06FA7FE4592","title":"中亚美爵酒店","lon":"121.45657873","lat":"31.246530647","category":"217","category_name":"旅馆招待所","address":"上海市梅园路330号"},{"poiid":"B2094654DA6CA4F5489D","title":"太平洋百货(天目西路)","lon":"121.45679","lat":"31.24542","category":"119","category_name":"商场","address":"闸北区天目西路218号(近民立路)"},{"poiid":"B2094655D269A4FB469F","title":"不夜城手机市场","lon":"121.45781","lat":"31.24567","category":"247","category_name":"餐饮美食","address":"闸北区天目西路188号不夜城商厦2楼78-1铺位(近梅园路)"},{"poiid":"B2094654DA6CA4F5489A","title":"不夜城商厦","lon":"121.45781","lat":"31.24568","category":"119","category_name":"商场","address":"闸北区天目西路218号"},{"poiid":"B2094655D36CA2F4469B","title":"上海火车站南广场","lon":"121.45448","lat":"31.24753","category":"38","category_name":"公交车站","address":""},{"poiid":"B2094757D06FA2F54999","title":"COCO壱番屋(上海火车站店)","lon":"121.4566591","lat":"31.2463349","category":"95","category_name":"日本料理","address":"闸北区天目西路237号(近梅园路)"},{"poiid":"B2094757D06EAAFB449B","title":"上海火车站七号候车室","lon":"121.455726624","lat":"31.247543335","category":"260","category_name":"其他","address":"上海火车站"},{"poiid":"B2094757D06FA3FD499C","title":"三叶眼镜批发市场(闸北店)","lon":"121.45654","lat":"31.24697","category":"132","category_name":"眼镜店","address":"闸北区梅园路360号环龙商厦4-5楼4008号(近秣陵路)"},{"poiid":"B2094757D06FA3FE479A","title":"麦当劳(新客站1号店)","lon":"121.45669","lat":"31.24528","category":"68","category_name":"快餐厅","address":"闸北区天目西路218号太平洋百货1楼(近民立路)"},{"poiid":"B2094757D06FA1FD469F","title":"橘子工房(站太店)","lon":"121.456781","lat":"31.245696","category":"94","category_name":"西餐厅","address":"闸北区天目西路218号太平洋百货3楼(近民立路)"},{"poiid":"B2094757D168A2FF499B","title":"麦当劳","lon":"121.45557773","lat":"31.247067659","category":"500","category_name":"未知分类","address":"上海市火车站店"},{"poiid":"B2094757D068ABF44199","title":"肯德基 KFC (北广场店)","lon":"121.454561","lat":"31.247548","category":"68","category_name":"快餐厅","address":"梅园路360号环龙商厦内(近秣陵路)"},{"poiid":"B2094757D06FA2FE4193","title":"企业广场","lon":"121.45718383","lat":"31.243953704","category":"46","category_name":"楼宇","address":"上海梅园路228号。"},{"poiid":"B2094757D56DA6F5479A","title":"环智国际大厦","lon":"121.45422220230103","lat":"31.244507776936864","category":"252","category_name":"楼宇机构","address":"上海,上海市,恒丰路436号"},{"poiid":"B2094757D065A3FF429C","title":"上海火车站5号月台","lon":"121.45687103","lat":"31.245771408","category":"22","category_name":"火车站","address":"上海闸北区新客站"},{"poiid":"B2094750DB69A7FC459C","title":"外企德科法签上海中心","lon":"121.45568","lat":"31.243995","category":"252","category_name":"楼宇机构","address":"闸北区恒丰路299号隆宇国际商务大厦8层"},{"poiid":"B2094757D16CA1F8449D","title":"三叶眼镜城","lon":"121.456838738","lat":"31.2457916318","category":"249","category_name":"购物服务","address":"闸北区梅园路360号环龙商厦4楼4095(火车站出口)"},{"poiid":"B2094757D16EA5F54492","title":"一号线汉中路站","lon":"121.456673238","lat":"31.2457235303","category":"500","category_name":"未知分类","address":"上海一号线汉中路站"},{"poiid":"B2094655D26AABFE4499","title":"席家花园闸北店","lon":"121.45484","lat":"31.24659","category":"76","category_name":"上海菜","address":"闸北区天目西路285号广场假日酒店2楼(近民立路)"},{"poiid":"B2094757D069A7FE429A","title":"嘉里不夜城第一座","lon":"121.455896738","lat":"31.2448386115","category":"500","category_name":"未知分类","address":"上海市闸北区天目西路218号"},{"poiid":"B2094757D06FA4FA4892","title":"环龙照相器材城","lon":"121.45618569","lat":"31.247277804","category":"138","category_name":"家电电子卖场","address":"闸北区梅园路360号环龙商厦内(近秣陵路)"},{"poiid":"B2094757D068A7FF4999","title":"肯德基 KFC (中亚店)","lon":"121.456925","lat":"31.246358","category":"68","category_name":"快餐厅","address":"闸北区秣陵路228号名品商厦B1楼01铺位(近火车站南广场)"},{"poiid":"B2094757D06AABFD419C","title":"浦西洲际大酒店ECCO自助餐厅","lon":"121.45437","lat":"31.24532","category":"268","category_name":"自助","address":"闸北区恒丰路500号浦西洲际酒店1楼(近上海火车站)"},{"poiid":"B2094750DA6AA6FF439C","title":"炫音KTV(恒汇店)","lon":"121.455757","lat":"31.245769","category":"170","category_name":"KTV","address":"闸北区天目西路477号恒汇国际1栋3楼(近恒丰北路)"},{"poiid":"B2094757D064A5FE409B","title":"上海火车站十号候车室","lon":"121.45545165","lat":"31.248189457","category":"22","category_name":"火车站","address":"上海火车站新客站"},{"poiid":"B2094757D468A4F8419E","title":"锅品面吧 梅园路店 Noodle Bar","lon":"121.457239","lat":"31.246789","category":"68","category_name":"快餐厅","address":"闸北区梅园路330号101-104(近天目路)"},{"poiid":"B2094757D064A4F54393","title":"康师傅面馆","lon":"121.45863","lat":"31.25163","category":"68","category_name":"快餐厅","address":"闸北区秣陵路303号火车站北广场候车厅(近长途汽车站)"},{"poiid":"B2094757D06FA5FF4193","title":"萨莉亚(站太店)","lon":"121.4568","lat":"31.24539","category":"94","category_name":"西餐厅","address":"闸北区天目西路218号太平洋百货B1楼(近民立路)"},{"poiid":"B2094757D064A3FD469D","title":"上岛咖啡 火车站店 UBC Coffee","lon":"121.45675167008","lat":"31.245740857119","category":"65","category_name":"咖啡厅","address":"闸北区天目西路235号2楼中亚饭店裙楼2楼(太平洋百货对面)"},{"poiid":"B2094757D06BA7FE429F","title":"包旺锅贴 梅园店","lon":"121.4572","lat":"31.24643","category":"68","category_name":"快餐厅","address":"闸北区天目西路245号(梅园路口)"},{"poiid":"B2094757D068A1F54498","title":"麦当劳(梅园路店)","lon":"121.456129","lat":"31.247289","category":"68","category_name":"快餐厅","address":"闸北区秣陵路182号(梅园路口)"},{"poiid":"B2094757D16EA2FE4893","title":"琥家拉面","lon":"121.454849738","lat":"31.2455570268","category":"95","category_name":"日本料理","address":"闸北区天目西路218号太平洋百货3楼(近民立路)"},{"poiid":"B2094750DA6AA0F4479F","title":"人才大廈","lon":"121.456268","lat":"31.243707","category":"252","category_name":"楼宇机构","address":"梅園路77號"},{"poiid":"B2094757D068A4FB439B","title":"老娘舅(火车站店)","lon":"121.45512","lat":"31.24783","category":"68","category_name":"快餐厅","address":"闸北区秣陵路186号环龙商场1-2楼(近大娘水饺)"},{"poiid":"B2094751D56EA1FA469A","title":"上海小南国(企业广场店)","lon":"121.45758","lat":"31.24401","category":"76","category_name":"上海菜","address":"闸北区梅园路228号企业广场2楼(近汉中路)"},{"poiid":"B2094757D165A3FD4399","title":"小南国","lon":"121.45711973","lat":"31.244511604","category":"500","category_name":"未知分类","address":"上海市闸北区恒丰路"},{"poiid":"B2094654DB6AA3FB489D","title":"广场长城假日酒店大堂吧","lon":"121.454153054","lat":"31.245983793","category":"67","category_name":"甜品店","address":"上海闸北区天目西路285号(近民立路)  "},{"poiid":"B2094757D068A3F54792","title":"嘉里不夜城第二座","lon":"121.45635793","lat":"31.245115617","category":"500","category_name":"未知分类","address":"上海天目西路218号"},{"poiid":"B2094654D564AAFA4599","title":"联合售票大楼","lon":"121.45791","lat":"31.24736","category":"46","category_name":"楼宇","address":"秣陵路100号"},{"poiid":"B2094757D76AA7F44993","title":"新梅华东大酒店","lon":"121.45780039382","lat":"31.246134784524","category":"76","category_name":"上海菜","address":"天目西路111号新梅华东大酒店"},{"poiid":"B2094757D069A7FF419B","title":"大娘水饺 新客站店","lon":"121.458071054","lat":"31.246187793","category":"68","category_name":"快餐厅","address":"闸北区梅园路360号环龙商厦内(近秣陵路)"},{"poiid":"B2094655D26DA3F44998","title":"天使咖啡厅","lon":"121.45415297938","lat":"31.245983719269","category":"268","category_name":"自助","address":"闸北区天目西路285号广场长城假日酒店3楼(近天目西路)"},{"poiid":"B2094757D06AA6FF409F","title":"永和大王(中亚店)","lon":"121.45838673","lat":"31.245650628","category":"68","category_name":"快餐厅","address":"上海市闸北区天目西路209号"},{"poiid":"B2094654D564AAF4439A","title":"上海不夜城休闲广场","lon":"121.45619","lat":"31.24725","category":"119","category_name":"商场","address":"梅园路360"},{"poiid":"B2094757D069A5F9499D","title":"中国建设银行(闸北支行营业室)","lon":"121.4555","lat":"31.24544","category":"150","category_name":"银行","address":"闸北区天目西路290号(民立路天目西路)"},{"poiid":"B2094750DB6FAAF8419D","title":"星歌主题时尚KTV","lon":"121.454399","lat":"31.245965","category":"248","category_name":"生活娱乐","address":"闸北区恒丰路638号苏河1号B栋1-3楼(近长安路)"},{"poiid":"B2094655D36CA2F44598","title":"上海火车站","lon":"121.455531","lat":"31.249498","category":"22","category_name":"火车站","address":"上海市闸北区秣陵路303号"},{"poiid":"B2094757D66BA0FA4199","title":"星巴克(闸北太平洋店)","lon":"121.4557284","lat":"31.2457015","category":"260","category_name":"其他","address":"闸北区天目西路188号不夜城商厦24单元(近梅园路)"},{"poiid":"B2094757D06FA3FB449F","title":"上海火车站 八号候车室","lon":"121.45572662","lat":"31.247543335","category":"22","category_name":"火车站","address":"上海火车站"},{"poiid":"B209475CD564A7F8439E","title":"上海滩中信泰富店","lon":"121.45602","lat":"31.22851","category":"119","category_name":"商场","address":"\"南京西路1168号中信泰富广场，店铺号221.\r\n\""},{"poiid":"B2094757D06FA7FE4592","title":"中亚美爵酒店","lon":"121.45657873","lat":"31.246530647","category":"217","category_name":"旅馆招待所","address":"上海市梅园路330号"},{"poiid":"B2094654DA6CA4F5489D","title":"太平洋百货(天目西路)","lon":"121.45679","lat":"31.24542","category":"119","category_name":"商场","address":"闸北区天目西路218号(近民立路)"},{"poiid":"B2094655D269A4FB469F","title":"不夜城手机市场","lon":"121.45781","lat":"31.24567","category":"247","category_name":"餐饮美食","address":"闸北区天目西路188号不夜城商厦2楼78-1铺位(近梅园路)"},{"poiid":"B2094654DA6CA4F5489A","title":"不夜城商厦","lon":"121.45781","lat":"31.24568","category":"119","category_name":"商场","address":"闸北区天目西路218号"},{"poiid":"B2094655D36CA2F4469B","title":"上海火车站南广场","lon":"121.45448","lat":"31.24753","category":"38","category_name":"公交车站","address":""},{"poiid":"B2094757D06FA2F54999","title":"COCO壱番屋(上海火车站店)","lon":"121.4566591","lat":"31.2463349","category":"95","category_name":"日本料理","address":"闸北区天目西路237号(近梅园路)"},{"poiid":"B2094757D06EAAFB449B","title":"上海火车站七号候车室","lon":"121.455726624","lat":"31.247543335","category":"260","category_name":"其他","address":"上海火车站"},{"poiid":"B2094757D06FA3FD499C","title":"三叶眼镜批发市场(闸北店)","lon":"121.45654","lat":"31.24697","category":"132","category_name":"眼镜店","address":"闸北区梅园路360号环龙商厦4-5楼4008号(近秣陵路)"},{"poiid":"B2094757D06FA3FE479A","title":"麦当劳(新客站1号店)","lon":"121.45669","lat":"31.24528","category":"68","category_name":"快餐厅","address":"闸北区天目西路218号太平洋百货1楼(近民立路)"},{"poiid":"B2094757D06FA1FD469F","title":"橘子工房(站太店)","lon":"121.456781","lat":"31.245696","category":"94","category_name":"西餐厅","address":"闸北区天目西路218号太平洋百货3楼(近民立路)"},{"poiid":"B2094757D168A2FF499B","title":"麦当劳","lon":"121.45557773","lat":"31.247067659","category":"500","category_name":"未知分类","address":"上海市火车站店"},{"poiid":"B2094757D068ABF44199","title":"肯德基 KFC (北广场店)","lon":"121.454561","lat":"31.247548","category":"68","category_name":"快餐厅","address":"梅园路360号环龙商厦内(近秣陵路)"},{"poiid":"B2094757D06FA2FE4193","title":"企业广场","lon":"121.45718383","lat":"31.243953704","category":"46","category_name":"楼宇","address":"上海梅园路228号。"},{"poiid":"B2094757D56DA6F5479A","title":"环智国际大厦","lon":"121.45422220230103","lat":"31.244507776936864","category":"252","category_name":"楼宇机构","address":"上海,上海市,恒丰路436号"},{"poiid":"B2094757D065A3FF429C","title":"上海火车站5号月台","lon":"121.45687103","lat":"31.245771408","category":"22","category_name":"火车站","address":"上海闸北区新客站"},{"poiid":"B2094750DB69A7FC459C","title":"外企德科法签上海中心","lon":"121.45568","lat":"31.243995","category":"252","category_name":"楼宇机构","address":"闸北区恒丰路299号隆宇国际商务大厦8层"},{"poiid":"B2094757D16CA1F8449D","title":"三叶眼镜城","lon":"121.456838738","lat":"31.2457916318","category":"249","category_name":"购物服务","address":"闸北区梅园路360号环龙商厦4楼4095(火车站出口)"},{"poiid":"B2094757D16EA5F54492","title":"一号线汉中路站","lon":"121.456673238","lat":"31.2457235303","category":"500","category_name":"未知分类","address":"上海一号线汉中路站"},{"poiid":"B2094655D26AABFE4499","title":"席家花园闸北店","lon":"121.45484","lat":"31.24659","category":"76","category_name":"上海菜","address":"闸北区天目西路285号广场假日酒店2楼(近民立路)"},{"poiid":"B2094757D069A7FE429A","title":"嘉里不夜城第一座","lon":"121.455896738","lat":"31.2448386115","category":"500","category_name":"未知分类","address":"上海市闸北区天目西路218号"},{"poiid":"B2094757D06FA4FA4892","title":"环龙照相器材城","lon":"121.45618569","lat":"31.247277804","category":"138","category_name":"家电电子卖场","address":"闸北区梅园路360号环龙商厦内(近秣陵路)"},{"poiid":"B2094757D068A7FF4999","title":"肯德基 KFC (中亚店)","lon":"121.456925","lat":"31.246358","category":"68","category_name":"快餐厅","address":"闸北区秣陵路228号名品商厦B1楼01铺位(近火车站南广场)"},{"poiid":"B2094757D06AABFD419C","title":"浦西洲际大酒店ECCO自助餐厅","lon":"121.45437","lat":"31.24532","category":"268","category_name":"自助","address":"闸北区恒丰路500号浦西洲际酒店1楼(近上海火车站)"},{"poiid":"B2094750DA6AA6FF439C","title":"炫音KTV(恒汇店)","lon":"121.455757","lat":"31.245769","category":"170","category_name":"KTV","address":"闸北区天目西路477号恒汇国际1栋3楼(近恒丰北路)"},{"poiid":"B2094757D064A5FE409B","title":"上海火车站十号候车室","lon":"121.45545165","lat":"31.248189457","category":"22","category_name":"火车站","address":"上海火车站新客站"},{"poiid":"B2094757D468A4F8419E","title":"锅品面吧 梅园路店 Noodle Bar","lon":"121.457239","lat":"31.246789","category":"68","category_name":"快餐厅","address":"闸北区梅园路330号101-104(近天目路)"},{"poiid":"B2094757D064A4F54393","title":"康师傅面馆","lon":"121.45863","lat":"31.25163","category":"68","category_name":"快餐厅","address":"闸北区秣陵路303号火车站北广场候车厅(近长途汽车站)"},{"poiid":"B2094757D06FA5FF4193","title":"萨莉亚(站太店)","lon":"121.4568","lat":"31.24539","category":"94","category_name":"西餐厅","address":"闸北区天目西路218号太平洋百货B1楼(近民立路)"},{"poiid":"B2094757D064A3FD469D","title":"上岛咖啡 火车站店 UBC Coffee","lon":"121.45675167008","lat":"31.245740857119","category":"65","category_name":"咖啡厅","address":"闸北区天目西路235号2楼中亚饭店裙楼2楼(太平洋百货对面)"},{"poiid":"B2094757D06BA7FE429F","title":"包旺锅贴 梅园店","lon":"121.4572","lat":"31.24643","category":"68","category_name":"快餐厅","address":"闸北区天目西路245号(梅园路口)"},{"poiid":"B2094757D068A1F54498","title":"麦当劳(梅园路店)","lon":"121.456129","lat":"31.247289","category":"68","category_name":"快餐厅","address":"闸北区秣陵路182号(梅园路口)"},{"poiid":"B2094757D16EA2FE4893","title":"琥家拉面","lon":"121.454849738","lat":"31.2455570268","category":"95","category_name":"日本料理","address":"闸北区天目西路218号太平洋百货3楼(近民立路)"},{"poiid":"B2094750DA6AA0F4479F","title":"人才大廈","lon":"121.456268","lat":"31.243707","category":"252","category_name":"楼宇机构","address":"梅園路77號"},{"poiid":"B2094757D068A4FB439B","title":"老娘舅(火车站店)","lon":"121.45512","lat":"31.24783","category":"68","category_name":"快餐厅","address":"闸北区秣陵路186号环龙商场1-2楼(近大娘水饺)"},{"poiid":"B2094751D56EA1FA469A","title":"上海小南国(企业广场店)","lon":"121.45758","lat":"31.24401","category":"76","category_name":"上海菜","address":"闸北区梅园路228号企业广场2楼(近汉中路)"},{"poiid":"B2094757D165A3FD4399","title":"小南国","lon":"121.45711973","lat":"31.244511604","category":"500","category_name":"未知分类","address":"上海市闸北区恒丰路"},{"poiid":"B2094654DB6AA3FB489D","title":"广场长城假日酒店大堂吧","lon":"121.454153054","lat":"31.245983793","category":"67","category_name":"甜品店","address":"上海闸北区天目西路285号(近民立路)  "},{"poiid":"B2094757D068A3F54792","title":"嘉里不夜城第二座","lon":"121.45635793","lat":"31.245115617","category":"500","category_name":"未知分类","address":"上海天目西路218号"},{"poiid":"B2094654D564AAFA4599","title":"联合售票大楼","lon":"121.45791","lat":"31.24736","category":"46","category_name":"楼宇","address":"秣陵路100号"},{"poiid":"B2094757D76AA7F44993","title":"新梅华东大酒店","lon":"121.45780039382","lat":"31.246134784524","category":"76","category_name":"上海菜","address":"天目西路111号新梅华东大酒店"},{"poiid":"B2094757D069A7FF419B","title":"大娘水饺 新客站店","lon":"121.458071054","lat":"31.246187793","category":"68","category_name":"快餐厅","address":"闸北区梅园路360号环龙商厦内(近秣陵路)"},{"poiid":"B2094655D26DA3F44998","title":"天使咖啡厅","lon":"121.45415297938","lat":"31.245983719269","category":"268","category_name":"自助","address":"闸北区天目西路285号广场长城假日酒店3楼(近天目西路)"},{"poiid":"B2094757D06AA6FF409F","title":"永和大王(中亚店)","lon":"121.45838673","lat":"31.245650628","category":"68","category_name":"快餐厅","address":"上海市闸北区天目西路209号"},{"poiid":"B2094654D564AAF4439A","title":"上海不夜城休闲广场","lon":"121.45619","lat":"31.24725","category":"119","category_name":"商场","address":"梅园路360"},{"poiid":"B2094757D069A5F9499D","title":"中国建设银行(闸北支行营业室)","lon":"121.4555","lat":"31.24544","category":"150","category_name":"银行","address":"闸北区天目西路290号(民立路天目西路)"},{"poiid":"B2094750DB6FAAF8419D","title":"星歌主题时尚KTV","lon":"121.454399","lat":"31.245965","category":"248","category_name":"生活娱乐","address":"闸北区恒丰路638号苏河1号B栋1-3楼(近长安路)"}]