[{"poiid":"B2094757D06FA2FF499E","title":"小肥羊(江宁路店)","lon":"121.44811","lat":"31.23904","category":"86","category_name":"火锅店","address":"上海静安区江宁路777号(近海防路)  "},{"poiid":"B2094757D06FABFD449E","title":"大鱼林 江宁路店","lon":"121.44753803819","lat":"31.240059064684","category":"86","category_name":"火锅店","address":"静安区江宁路828号(近海防路)"},{"poiid":"B2094655D36CA0F94292","title":"江宁路海防路","lon":"121.44792","lat":"31.23959","category":"38","category_name":"公交车站","address":""},{"poiid":"B209475CD564A7F8439E","title":"上海滩中信泰富店","lon":"121.45602","lat":"31.22851","category":"119","category_name":"商场","address":"\"南京西路1168号中信泰富广场，店铺号221.\r\n\""},{"poiid":"B2094757D069A0F84099","title":"富容大厦","lon":"121.4479751","lat":"31.23988342","category":"46","category_name":"楼宇","address":"富容大厦位于静安江宁路838号"},{"poiid":"B2094757D06EAAFF4293","title":"老盛昌苏州汤包馆(江宁店)","lon":"121.447293","lat":"31.239954","category":"68","category_name":"快餐厅","address":"静安区江宁路855号(近海防路)"},{"poiid":"B2094757D06BA5F54792","title":"王家沙","lon":"121.44827858","lat":"31.239136605","category":"68","category_name":"快餐厅","address":"静安区江宁路807号(近海防路)"},{"poiid":"B2094757D569A2F8479A","title":"Benson s salon","lon":"121.4484325","lat":"31.2391925","category":"249","category_name":"购物服务","address":"江宁路778号"},{"poiid":"B2094757D06FA2FA4199","title":"Anken Green's Warehouse Cafe","lon":"121.451865","lat":"31.240447","category":"94","category_name":"西餐厅","address":"上海静安区淮安路668号1楼近西苏州路"},{"poiid":"B2094757D165A3F8439B","title":"地铁一号线上海火车站","lon":"121.448891886","lat":"31.2422573664","category":"36","category_name":"地铁站","address":"上海轨道交通一号线上海火车站"},{"poiid":"B2094757D16FA4FE4899","title":"Ruby's Club","lon":"121.447921","lat":"31.23686","category":"260","category_name":"其他","address":"静安区江宁路428号静安体育中心2楼(近武定路)"},{"poiid":"B2094654DA6CA5FA409F","title":"静安河滨花园","lon":"121.45119","lat":"31.241392","category":"47","category_name":"住宅区","address":"上海市闸北区汉中路333弄"},{"poiid":"B2094654DB6BA5FD4393","title":"福安大厦(江宁路)","lon":"121.44818","lat":"31.23961","category":"46","category_name":"楼宇","address":"定西路1310弄6号"},{"poiid":"B2094654DA6CA4F8489E","title":"静教院附校","lon":"121.44944","lat":"31.23785","category":"56","category_name":"小学","address":"江宁路688"},{"poiid":"B2094654DB6AA3F44892","title":"四海游龙 江宁路店 OVERSEAS DRAGON","lon":"121.447872054","lat":"31.238951793","category":"68","category_name":"快餐厅","address":"静安区江宁路777-1号(近海防路)"},{"poiid":"B2094757D06BA3FF499D","title":"句容小区","lon":"121.44979","lat":"31.240408","category":"47","category_name":"住宅区","address":"上海静安区海防路100弄"},{"poiid":"B2094757D465A3FD479D","title":"泰煌鸡 江宁路店","lon":"121.447578054","lat":"31.239846793","category":"68","category_name":"快餐厅","address":"静安区江宁路782弄(近海防路)"},{"poiid":"B2094757D06FA0F9409F","title":"一线烫捞(调频壹店)","lon":"121.44707143","lat":"31.240969894","category":"257","category_name":"中餐厅","address":"普陀区长寿路155号巴黎春天6楼(近陕西北路)"},{"poiid":"B2094757D764A5FC489C","title":"南京灌汤包 淮安路店","lon":"121.4494536","lat":"31.2389922","category":"68","category_name":"快餐厅","address":"静安区淮安路810号(近昌化路)"},{"poiid":"B2094654DA6CA5F9469D","title":"旺角商场","lon":"121.4495","lat":"31.23942","category":"119","category_name":"商场","address":"昌化路505"},{"poiid":"B2094757DB6FA1F94593","title":"新华书店北京西路店","lon":"121.449466","lat":"31.237495","category":"249","category_name":"购物服务","address":"静安区北京西路1829号申乐大厦内(近华山路)"},{"poiid":"B2094757D064A7F44893","title":"三国烤鱼","lon":"121.447906","lat":"31.239681","category":"68","category_name":"快餐厅","address":"静安区江宁路815号(海防路江宁路)"},{"poiid":"B2094655D265AAFF419C","title":"上海市静安实验小学","lon":"121.4493","lat":"31.23962","category":"56","category_name":"小学","address":"静安区陕西北路1168号(近安远路)"},{"poiid":"B2094654DA6CA4F8499F","title":"金祥饮食店","lon":"121.44917","lat":"31.2388","category":"68","category_name":"快餐厅","address":"静安区淮安路849号(近江宁路)"},{"poiid":"B2094655D265A7F4439E","title":"海洪小区(东门)","lon":"121.44937","lat":"31.23951","category":"47","category_name":"住宅区","address":"昌化路509弄4-6号"},{"poiid":"B2094654DA6CA5F9469E","title":"静安区新江宁小学(昌化路)","lon":"121.44932","lat":"31.23961","category":"56","category_name":"小学","address":"昌化路511"},{"poiid":"B2094757D06AA0F5429A","title":"ANS国际建筑设计与顾问有限公司","lon":"121.449385","lat":"31.239909","category":"46","category_name":"楼宇","address":"上海静安区西苏州河路71号6楼"},{"poiid":"B2094655D265ABF8469C","title":"静安凤凰苑","lon":"121.448","lat":"31.2396","category":"47","category_name":"住宅区","address":"上海市静安区昌平路777弄"},{"poiid":"B2094654DB69A7F94498","title":"红光商务楼","lon":"121.44891","lat":"31.23998","category":"46","category_name":"楼宇","address":"协和丽豪酒店式公寓位于静安南京西路2068号(镇宁路愚园路口)"},{"poiid":"B2094655D265A5FC409C","title":"海洪小区","lon":"121.44909","lat":"31.23946","category":"47","category_name":"住宅区","address":"昌化路509弄4-6号"},{"poiid":"B2094654DA6CA4F9449E","title":"上海富华医疗美容医院","lon":"121.44831","lat":"31.23947","category":"162","category_name":"医院","address":"静安区江宁路818号(海防路口)"},{"poiid":"B2094757D465A0FB4592","title":"友联生煎大王 江宁路店","lon":"121.448014054","lat":"31.239022793","category":"68","category_name":"快餐厅","address":"静安区江宁路888号"},{"poiid":"B2094757D665AAF4459C","title":"锅品面吧 江宁路店","lon":"121.448051054","lat":"31.238761793","category":"68","category_name":"快餐厅","address":"静安区江宁路777-2号(近海防路)"},{"poiid":"B2094654DA6CA4F94292","title":"可的(海防路)","lon":"121.44898","lat":"31.23982","category":"117","category_name":"便民商店/便利店","address":"静安区海防路421号(海防路人和街)"},{"poiid":"B2094757D66CA7F9449E","title":"向明饭店","lon":"121.44888958","lat":"31.239171606","category":"247","category_name":"餐饮美食","address":"上海市静安区淮安路837号"},{"poiid":"B2094757D069AAFA4093","title":"上海外服国际人才培训中心","lon":"121.447957","lat":"31.239765","category":"500","category_name":"未知分类","address":"静安区江宁路838号3楼(近海防路)"},{"poiid":"B2094654DA6CA4F84599","title":"三乐新村","lon":"121.45129","lat":"31.238897","category":"47","category_name":"住宅区","address":"昌化路400弄2-4号"},{"poiid":"B2094655D265A7FB4898","title":"洪庆坊(北门)","lon":"121.44858","lat":"31.23933","category":"47","category_name":"住宅区","address":"海防路223弄2-24号"},{"poiid":"B2094654DA6CA4F9419C","title":"尚沙龙","lon":"121.44843","lat":"31.23919","category":"148","category_name":"美容美发店","address":"江宁路778"},{"poiid":"B2094757D465ABF4409F","title":"香吧岛大龙虾 江宁路店","lon":"121.449505054","lat":"31.237320793","category":"247","category_name":"餐饮美食","address":"静安区江宁路648号(近昌平路)"},{"poiid":"B2094654DA6CA3FF4692","title":"昌平大厦","lon":"121.44889","lat":"31.23657","category":"46","category_name":"楼宇","address":"崇文区夕照寺大街"},{"poiid":"B2094757D16BA3F5489E","title":"河南拉面","lon":"121.44833","lat":"31.23943","category":"68","category_name":"快餐厅","address":"静安区海防路(近王家沙)"},{"poiid":"B2094757D66DA6FD419F","title":"海防路100弄句容小区","lon":"121.44981058","lat":"31.240706636","category":"500","category_name":"未知分类","address":"上海市静安区海防路"},{"poiid":"B2094753D06AA5F8459F","title":"青藤宠物医院","lon":"121.44858","lat":"31.24032","category":"162","category_name":"医院","address":"静安区昌化路567号(近海防路)"},{"poiid":"B2094654DA6CA5F94599","title":"上海捷讯传媒有限公司","lon":"121.45066","lat":"31.23936","category":"252","category_name":"楼宇机构","address":"淮安路735号"},{"poiid":"B2094750DA64A1F84693","title":"南京西路","lon":"121.450096","lat":"31.238979","category":"500","category_name":"未知分类","address":null},{"poiid":"B2094757D16AA3FF439B","title":"上海住房公积金静安区管理部","lon":"121.44932114","lat":"31.240222836","category":"500","category_name":"未知分类","address":"上海静安区江宁路631号5楼C座(近昌平路)"},{"poiid":"B2094655D36CA3FE4299","title":"TheHouseFood·Drinks","lon":"121.44714","lat":"31.23999","category":"65","category_name":"咖啡厅","address":"江宁路861号102室近海防路"},{"poiid":"B2094757D56CA1FB479B","title":"牛奶棚 江宁店","lon":"121.449718054","lat":"31.237378793","category":"67","category_name":"甜品店","address":"静安区昌平路305号(近江宁路)"},{"poiid":"B2094655D26DA4FE439B","title":"江宁街道社区卫生服务中心","lon":"121.44931","lat":"31.23805","category":"162","category_name":"医院","address":"江宁路702弄11"},{"poiid":"B2094757D06FA2FF499E","title":"小肥羊(江宁路店)","lon":"121.44811","lat":"31.23904","category":"86","category_name":"火锅店","address":"上海静安区江宁路777号(近海防路)  "},{"poiid":"B2094757D06FABFD449E","title":"大鱼林 江宁路店","lon":"121.44753803819","lat":"31.240059064684","category":"86","category_name":"火锅店","address":"静安区江宁路828号(近海防路)"},{"poiid":"B2094655D36CA0F94292","title":"江宁路海防路","lon":"121.44792","lat":"31.23959","category":"38","category_name":"公交车站","address":""},{"poiid":"B209475CD564A7F8439E","title":"上海滩中信泰富店","lon":"121.45602","lat":"31.22851","category":"119","category_name":"商场","address":"\"南京西路1168号中信泰富广场，店铺号221.\r\n\""},{"poiid":"B2094757D069A0F84099","title":"富容大厦","lon":"121.4479751","lat":"31.23988342","category":"46","category_name":"楼宇","address":"富容大厦位于静安江宁路838号"},{"poiid":"B2094757D06EAAFF4293","title":"老盛昌苏州汤包馆(江宁店)","lon":"121.447293","lat":"31.239954","category":"68","category_name":"快餐厅","address":"静安区江宁路855号(近海防路)"},{"poiid":"B2094757D06BA5F54792","title":"王家沙","lon":"121.44827858","lat":"31.239136605","category":"68","category_name":"快餐厅","address":"静安区江宁路807号(近海防路)"},{"poiid":"B2094757D569A2F8479A","title":"Benson s salon","lon":"121.4484325","lat":"31.2391925","category":"249","category_name":"购物服务","address":"江宁路778号"},{"poiid":"B2094757D06FA2FA4199","title":"Anken Green's Warehouse Cafe","lon":"121.451865","lat":"31.240447","category":"94","category_name":"西餐厅","address":"上海静安区淮安路668号1楼近西苏州路"},{"poiid":"B2094757D165A3F8439B","title":"地铁一号线上海火车站","lon":"121.448891886","lat":"31.2422573664","category":"36","category_name":"地铁站","address":"上海轨道交通一号线上海火车站"},{"poiid":"B2094757D16FA4FE4899","title":"Ruby's Club","lon":"121.447921","lat":"31.23686","category":"260","category_name":"其他","address":"静安区江宁路428号静安体育中心2楼(近武定路)"},{"poiid":"B2094654DA6CA5FA409F","title":"静安河滨花园","lon":"121.45119","lat":"31.241392","category":"47","category_name":"住宅区","address":"上海市闸北区汉中路333弄"},{"poiid":"B2094654DB6BA5FD4393","title":"福安大厦(江宁路)","lon":"121.44818","lat":"31.23961","category":"46","category_name":"楼宇","address":"定西路1310弄6号"},{"poiid":"B2094654DA6CA4F8489E","title":"静教院附校","lon":"121.44944","lat":"31.23785","category":"56","category_name":"小学","address":"江宁路688"},{"poiid":"B2094654DB6AA3F44892","title":"四海游龙 江宁路店 OVERSEAS DRAGON","lon":"121.447872054","lat":"31.238951793","category":"68","category_name":"快餐厅","address":"静安区江宁路777-1号(近海防路)"},{"poiid":"B2094757D06BA3FF499D","title":"句容小区","lon":"121.44979","lat":"31.240408","category":"47","category_name":"住宅区","address":"上海静安区海防路100弄"},{"poiid":"B2094757D465A3FD479D","title":"泰煌鸡 江宁路店","lon":"121.447578054","lat":"31.239846793","category":"68","category_name":"快餐厅","address":"静安区江宁路782弄(近海防路)"},{"poiid":"B2094757D06FA0F9409F","title":"一线烫捞(调频壹店)","lon":"121.44707143","lat":"31.240969894","category":"257","category_name":"中餐厅","address":"普陀区长寿路155号巴黎春天6楼(近陕西北路)"},{"poiid":"B2094757D764A5FC489C","title":"南京灌汤包 淮安路店","lon":"121.4494536","lat":"31.2389922","category":"68","category_name":"快餐厅","address":"静安区淮安路810号(近昌化路)"},{"poiid":"B2094654DA6CA5F9469D","title":"旺角商场","lon":"121.4495","lat":"31.23942","category":"119","category_name":"商场","address":"昌化路505"},{"poiid":"B2094757DB6FA1F94593","title":"新华书店北京西路店","lon":"121.449466","lat":"31.237495","category":"249","category_name":"购物服务","address":"静安区北京西路1829号申乐大厦内(近华山路)"},{"poiid":"B2094757D064A7F44893","title":"三国烤鱼","lon":"121.447906","lat":"31.239681","category":"68","category_name":"快餐厅","address":"静安区江宁路815号(海防路江宁路)"},{"poiid":"B2094655D265AAFF419C","title":"上海市静安实验小学","lon":"121.4493","lat":"31.23962","category":"56","category_name":"小学","address":"静安区陕西北路1168号(近安远路)"},{"poiid":"B2094654DA6CA4F8499F","title":"金祥饮食店","lon":"121.44917","lat":"31.2388","category":"68","category_name":"快餐厅","address":"静安区淮安路849号(近江宁路)"},{"poiid":"B2094655D265A7F4439E","title":"海洪小区(东门)","lon":"121.44937","lat":"31.23951","category":"47","category_name":"住宅区","address":"昌化路509弄4-6号"},{"poiid":"B2094654DA6CA5F9469E","title":"静安区新江宁小学(昌化路)","lon":"121.44932","lat":"31.23961","category":"56","category_name":"小学","address":"昌化路511"},{"poiid":"B2094757D06AA0F5429A","title":"ANS国际建筑设计与顾问有限公司","lon":"121.449385","lat":"31.239909","category":"46","category_name":"楼宇","address":"上海静安区西苏州河路71号6楼"},{"poiid":"B2094655D265ABF8469C","title":"静安凤凰苑","lon":"121.448","lat":"31.2396","category":"47","category_name":"住宅区","address":"上海市静安区昌平路777弄"},{"poiid":"B2094654DB69A7F94498","title":"红光商务楼","lon":"121.44891","lat":"31.23998","category":"46","category_name":"楼宇","address":"协和丽豪酒店式公寓位于静安南京西路2068号(镇宁路愚园路口)"},{"poiid":"B2094655D265A5FC409C","title":"海洪小区","lon":"121.44909","lat":"31.23946","category":"47","category_name":"住宅区","address":"昌化路509弄4-6号"},{"poiid":"B2094654DA6CA4F9449E","title":"上海富华医疗美容医院","lon":"121.44831","lat":"31.23947","category":"162","category_name":"医院","address":"静安区江宁路818号(海防路口)"},{"poiid":"B2094757D465A0FB4592","title":"友联生煎大王 江宁路店","lon":"121.448014054","lat":"31.239022793","category":"68","category_name":"快餐厅","address":"静安区江宁路888号"},{"poiid":"B2094757D665AAF4459C","title":"锅品面吧 江宁路店","lon":"121.448051054","lat":"31.238761793","category":"68","category_name":"快餐厅","address":"静安区江宁路777-2号(近海防路)"},{"poiid":"B2094654DA6CA4F94292","title":"可的(海防路)","lon":"121.44898","lat":"31.23982","category":"117","category_name":"便民商店/便利店","address":"静安区海防路421号(海防路人和街)"},{"poiid":"B2094757D66CA7F9449E","title":"向明饭店","lon":"121.44888958","lat":"31.239171606","category":"247","category_name":"餐饮美食","address":"上海市静安区淮安路837号"},{"poiid":"B2094757D069AAFA4093","title":"上海外服国际人才培训中心","lon":"121.447957","lat":"31.239765","category":"500","category_name":"未知分类","address":"静安区江宁路838号3楼(近海防路)"},{"poiid":"B2094654DA6CA4F84599","title":"三乐新村","lon":"121.45129","lat":"31.238897","category":"47","category_name":"住宅区","address":"昌化路400弄2-4号"},{"poiid":"B2094655D265A7FB4898","title":"洪庆坊(北门)","lon":"121.44858","lat":"31.23933","category":"47","category_name":"住宅区","address":"海防路223弄2-24号"},{"poiid":"B2094654DA6CA4F9419C","title":"尚沙龙","lon":"121.44843","lat":"31.23919","category":"148","category_name":"美容美发店","address":"江宁路778"},{"poiid":"B2094757D465ABF4409F","title":"香吧岛大龙虾 江宁路店","lon":"121.449505054","lat":"31.237320793","category":"247","category_name":"餐饮美食","address":"静安区江宁路648号(近昌平路)"},{"poiid":"B2094654DA6CA3FF4692","title":"昌平大厦","lon":"121.44889","lat":"31.23657","category":"46","category_name":"楼宇","address":"崇文区夕照寺大街"},{"poiid":"B2094757D16BA3F5489E","title":"河南拉面","lon":"121.44833","lat":"31.23943","category":"68","category_name":"快餐厅","address":"静安区海防路(近王家沙)"},{"poiid":"B2094757D66DA6FD419F","title":"海防路100弄句容小区","lon":"121.44981058","lat":"31.240706636","category":"500","category_name":"未知分类","address":"上海市静安区海防路"},{"poiid":"B2094753D06AA5F8459F","title":"青藤宠物医院","lon":"121.44858","lat":"31.24032","category":"162","category_name":"医院","address":"静安区昌化路567号(近海防路)"},{"poiid":"B2094654DA6CA5F94599","title":"上海捷讯传媒有限公司","lon":"121.45066","lat":"31.23936","category":"252","category_name":"楼宇机构","address":"淮安路735号"},{"poiid":"B2094750DA64A1F84693","title":"南京西路","lon":"121.450096","lat":"31.238979","category":"500","category_name":"未知分类","address":null},{"poiid":"B2094757D16AA3FF439B","title":"上海住房公积金静安区管理部","lon":"121.44932114","lat":"31.240222836","category":"500","category_name":"未知分类","address":"上海静安区江宁路631号5楼C座(近昌平路)"},{"poiid":"B2094655D36CA3FE4299","title":"TheHouseFood·Drinks","lon":"121.44714","lat":"31.23999","category":"65","category_name":"咖啡厅","address":"江宁路861号102室近海防路"},{"poiid":"B2094757D56CA1FB479B","title":"牛奶棚 江宁店","lon":"121.449718054","lat":"31.237378793","category":"67","category_name":"甜品店","address":"静安区昌平路305号(近江宁路)"},{"poiid":"B2094655D26DA4FE439B","title":"江宁街道社区卫生服务中心","lon":"121.44931","lat":"31.23805","category":"162","category_name":"医院","address":"江宁路702弄11"},{"poiid":"B2094757D06FA2FF499E","title":"小肥羊(江宁路店)","lon":"121.44811","lat":"31.23904","category":"86","category_name":"火锅店","address":"上海静安区江宁路777号(近海防路)  "},{"poiid":"B2094757D06FABFD449E","title":"大鱼林 江宁路店","lon":"121.44753803819","lat":"31.240059064684","category":"86","category_name":"火锅店","address":"静安区江宁路828号(近海防路)"},{"poiid":"B2094655D36CA0F94292","title":"江宁路海防路","lon":"121.44792","lat":"31.23959","category":"38","category_name":"公交车站","address":""},{"poiid":"B209475CD564A7F8439E","title":"上海滩中信泰富店","lon":"121.45602","lat":"31.22851","category":"119","category_name":"商场","address":"\"南京西路1168号中信泰富广场，店铺号221.\r\n\""},{"poiid":"B2094757D069A0F84099","title":"富容大厦","lon":"121.4479751","lat":"31.23988342","category":"46","category_name":"楼宇","address":"富容大厦位于静安江宁路838号"},{"poiid":"B2094757D06EAAFF4293","title":"老盛昌苏州汤包馆(江宁店)","lon":"121.447293","lat":"31.239954","category":"68","category_name":"快餐厅","address":"静安区江宁路855号(近海防路)"},{"poiid":"B2094757D06BA5F54792","title":"王家沙","lon":"121.44827858","lat":"31.239136605","category":"68","category_name":"快餐厅","address":"静安区江宁路807号(近海防路)"},{"poiid":"B2094757D569A2F8479A","title":"Benson s salon","lon":"121.4484325","lat":"31.2391925","category":"249","category_name":"购物服务","address":"江宁路778号"},{"poiid":"B2094757D06FA2FA4199","title":"Anken Green's Warehouse Cafe","lon":"121.451865","lat":"31.240447","category":"94","category_name":"西餐厅","address":"上海静安区淮安路668号1楼近西苏州路"},{"poiid":"B2094757D165A3F8439B","title":"地铁一号线上海火车站","lon":"121.448891886","lat":"31.2422573664","category":"36","category_name":"地铁站","address":"上海轨道交通一号线上海火车站"},{"poiid":"B2094757D16FA4FE4899","title":"Ruby's Club","lon":"121.447921","lat":"31.23686","category":"260","category_name":"其他","address":"静安区江宁路428号静安体育中心2楼(近武定路)"},{"poiid":"B2094654DA6CA5FA409F","title":"静安河滨花园","lon":"121.45119","lat":"31.241392","category":"47","category_name":"住宅区","address":"上海市闸北区汉中路333弄"},{"poiid":"B2094654DB6BA5FD4393","title":"福安大厦(江宁路)","lon":"121.44818","lat":"31.23961","category":"46","category_name":"楼宇","address":"定西路1310弄6号"},{"poiid":"B2094654DA6CA4F8489E","title":"静教院附校","lon":"121.44944","lat":"31.23785","category":"56","category_name":"小学","address":"江宁路688"},{"poiid":"B2094654DB6AA3F44892","title":"四海游龙 江宁路店 OVERSEAS DRAGON","lon":"121.447872054","lat":"31.238951793","category":"68","category_name":"快餐厅","address":"静安区江宁路777-1号(近海防路)"},{"poiid":"B2094757D06BA3FF499D","title":"句容小区","lon":"121.44979","lat":"31.240408","category":"47","category_name":"住宅区","address":"上海静安区海防路100弄"},{"poiid":"B2094757D465A3FD479D","title":"泰煌鸡 江宁路店","lon":"121.447578054","lat":"31.239846793","category":"68","category_name":"快餐厅","address":"静安区江宁路782弄(近海防路)"},{"poiid":"B2094757D06FA0F9409F","title":"一线烫捞(调频壹店)","lon":"121.44707143","lat":"31.240969894","category":"257","category_name":"中餐厅","address":"普陀区长寿路155号巴黎春天6楼(近陕西北路)"},{"poiid":"B2094757D764A5FC489C","title":"南京灌汤包 淮安路店","lon":"121.4494536","lat":"31.2389922","category":"68","category_name":"快餐厅","address":"静安区淮安路810号(近昌化路)"},{"poiid":"B2094654DA6CA5F9469D","title":"旺角商场","lon":"121.4495","lat":"31.23942","category":"119","category_name":"商场","address":"昌化路505"},{"poiid":"B2094757DB6FA1F94593","title":"新华书店北京西路店","lon":"121.449466","lat":"31.237495","category":"249","category_name":"购物服务","address":"静安区北京西路1829号申乐大厦内(近华山路)"},{"poiid":"B2094757D064A7F44893","title":"三国烤鱼","lon":"121.447906","lat":"31.239681","category":"68","category_name":"快餐厅","address":"静安区江宁路815号(海防路江宁路)"},{"poiid":"B2094655D265AAFF419C","title":"上海市静安实验小学","lon":"121.4493","lat":"31.23962","category":"56","category_name":"小学","address":"静安区陕西北路1168号(近安远路)"},{"poiid":"B2094654DA6CA4F8499F","title":"金祥饮食店","lon":"121.44917","lat":"31.2388","category":"68","category_name":"快餐厅","address":"静安区淮安路849号(近江宁路)"},{"poiid":"B2094655D265A7F4439E","title":"海洪小区(东门)","lon":"121.44937","lat":"31.23951","category":"47","category_name":"住宅区","address":"昌化路509弄4-6号"},{"poiid":"B2094654DA6CA5F9469E","title":"静安区新江宁小学(昌化路)","lon":"121.44932","lat":"31.23961","category":"56","category_name":"小学","address":"昌化路511"},{"poiid":"B2094757D06AA0F5429A","title":"ANS国际建筑设计与顾问有限公司","lon":"121.449385","lat":"31.239909","category":"46","category_name":"楼宇","address":"上海静安区西苏州河路71号6楼"},{"poiid":"B2094655D265ABF8469C","title":"静安凤凰苑","lon":"121.448","lat":"31.2396","category":"47","category_name":"住宅区","address":"上海市静安区昌平路777弄"},{"poiid":"B2094654DB69A7F94498","title":"红光商务楼","lon":"121.44891","lat":"31.23998","category":"46","category_name":"楼宇","address":"协和丽豪酒店式公寓位于静安南京西路2068号(镇宁路愚园路口)"},{"poiid":"B2094655D265A5FC409C","title":"海洪小区","lon":"121.44909","lat":"31.23946","category":"47","category_name":"住宅区","address":"昌化路509弄4-6号"},{"poiid":"B2094654DA6CA4F9449E","title":"上海富华医疗美容医院","lon":"121.44831","lat":"31.23947","category":"162","category_name":"医院","address":"静安区江宁路818号(海防路口)"},{"poiid":"B2094757D465A0FB4592","title":"友联生煎大王 江宁路店","lon":"121.448014054","lat":"31.239022793","category":"68","category_name":"快餐厅","address":"静安区江宁路888号"},{"poiid":"B2094757D665AAF4459C","title":"锅品面吧 江宁路店","lon":"121.448051054","lat":"31.238761793","category":"68","category_name":"快餐厅","address":"静安区江宁路777-2号(近海防路)"},{"poiid":"B2094654DA6CA4F94292","title":"可的(海防路)","lon":"121.44898","lat":"31.23982","category":"117","category_name":"便民商店/便利店","address":"静安区海防路421号(海防路人和街)"},{"poiid":"B2094757D66CA7F9449E","title":"向明饭店","lon":"121.44888958","lat":"31.239171606","category":"247","category_name":"餐饮美食","address":"上海市静安区淮安路837号"},{"poiid":"B2094757D069AAFA4093","title":"上海外服国际人才培训中心","lon":"121.447957","lat":"31.239765","category":"500","category_name":"未知分类","address":"静安区江宁路838号3楼(近海防路)"},{"poiid":"B2094654DA6CA4F84599","title":"三乐新村","lon":"121.45129","lat":"31.238897","category":"47","category_name":"住宅区","address":"昌化路400弄2-4号"},{"poiid":"B2094655D265A7FB4898","title":"洪庆坊(北门)","lon":"121.44858","lat":"31.23933","category":"47","category_name":"住宅区","address":"海防路223弄2-24号"},{"poiid":"B2094654DA6CA4F9419C","title":"尚沙龙","lon":"121.44843","lat":"31.23919","category":"148","category_name":"美容美发店","address":"江宁路778"},{"poiid":"B2094757D465ABF4409F","title":"香吧岛大龙虾 江宁路店","lon":"121.449505054","lat":"31.237320793","category":"247","category_name":"餐饮美食","address":"静安区江宁路648号(近昌平路)"},{"poiid":"B2094654DA6CA3FF4692","title":"昌平大厦","lon":"121.44889","lat":"31.23657","category":"46","category_name":"楼宇","address":"崇文区夕照寺大街"},{"poiid":"B2094757D16BA3F5489E","title":"河南拉面","lon":"121.44833","lat":"31.23943","category":"68","category_name":"快餐厅","address":"静安区海防路(近王家沙)"},{"poiid":"B2094757D66DA6FD419F","title":"海防路100弄句容小区","lon":"121.44981058","lat":"31.240706636","category":"500","category_name":"未知分类","address":"上海市静安区海防路"},{"poiid":"B2094753D06AA5F8459F","title":"青藤宠物医院","lon":"121.44858","lat":"31.24032","category":"162","category_name":"医院","address":"静安区昌化路567号(近海防路)"},{"poiid":"B2094654DA6CA5F94599","title":"上海捷讯传媒有限公司","lon":"121.45066","lat":"31.23936","category":"252","category_name":"楼宇机构","address":"淮安路735号"},{"poiid":"B2094750DA64A1F84693","title":"南京西路","lon":"121.450096","lat":"31.238979","category":"500","category_name":"未知分类","address":null},{"poiid":"B2094757D16AA3FF439B","title":"上海住房公积金静安区管理部","lon":"121.44932114","lat":"31.240222836","category":"500","category_name":"未知分类","address":"上海静安区江宁路631号5楼C座(近昌平路)"},{"poiid":"B2094655D36CA3FE4299","title":"TheHouseFood·Drinks","lon":"121.44714","lat":"31.23999","category":"65","category_name":"咖啡厅","address":"江宁路861号102室近海防路"},{"poiid":"B2094757D56CA1FB479B","title":"牛奶棚 江宁店","lon":"121.449718054","lat":"31.237378793","category":"67","category_name":"甜品店","address":"静安区昌平路305号(近江宁路)"},{"poiid":"B2094655D26DA4FE439B","title":"江宁街道社区卫生服务中心","lon":"121.44931","lat":"31.23805","category":"162","category_name":"医院","address":"江宁路702弄11"},{"poiid":"B2094757D06FA2FF499E","title":"小肥羊(江宁路店)","lon":"121.44811","lat":"31.23904","category":"86","category_name":"火锅店","address":"上海静安区江宁路777号(近海防路)  "},{"poiid":"B2094757D06FABFD449E","title":"大鱼林 江宁路店","lon":"121.44753803819","lat":"31.240059064684","category":"86","category_name":"火锅店","address":"静安区江宁路828号(近海防路)"},{"poiid":"B2094655D36CA0F94292","title":"江宁路海防路","lon":"121.44792","lat":"31.23959","category":"38","category_name":"公交车站","address":""},{"poiid":"B209475CD564A7F8439E","title":"上海滩中信泰富店","lon":"121.45602","lat":"31.22851","category":"119","category_name":"商场","address":"\"南京西路1168号中信泰富广场，店铺号221.\r\n\""},{"poiid":"B2094757D069A0F84099","title":"富容大厦","lon":"121.4479751","lat":"31.23988342","category":"46","category_name":"楼宇","address":"富容大厦位于静安江宁路838号"},{"poiid":"B2094757D06EAAFF4293","title":"老盛昌苏州汤包馆(江宁店)","lon":"121.447293","lat":"31.239954","category":"68","category_name":"快餐厅","address":"静安区江宁路855号(近海防路)"},{"poiid":"B2094757D06BA5F54792","title":"王家沙","lon":"121.44827858","lat":"31.239136605","category":"68","category_name":"快餐厅","address":"静安区江宁路807号(近海防路)"},{"poiid":"B2094757D569A2F8479A","title":"Benson s salon","lon":"121.4484325","lat":"31.2391925","category":"249","category_name":"购物服务","address":"江宁路778号"},{"poiid":"B2094757D06FA2FA4199","title":"Anken Green's Warehouse Cafe","lon":"121.451865","lat":"31.240447","category":"94","category_name":"西餐厅","address":"上海静安区淮安路668号1楼近西苏州路"},{"poiid":"B2094757D165A3F8439B","title":"地铁一号线上海火车站","lon":"121.448891886","lat":"31.2422573664","category":"36","category_name":"地铁站","address":"上海轨道交通一号线上海火车站"},{"poiid":"B2094757D16FA4FE4899","title":"Ruby's Club","lon":"121.447921","lat":"31.23686","category":"260","category_name":"其他","address":"静安区江宁路428号静安体育中心2楼(近武定路)"},{"poiid":"B2094654DA6CA5FA409F","title":"静安河滨花园","lon":"121.45119","lat":"31.241392","category":"47","category_name":"住宅区","address":"上海市闸北区汉中路333弄"},{"poiid":"B2094654DB6BA5FD4393","title":"福安大厦(江宁路)","lon":"121.44818","lat":"31.23961","category":"46","category_name":"楼宇","address":"定西路1310弄6号"},{"poiid":"B2094654DA6CA4F8489E","title":"静教院附校","lon":"121.44944","lat":"31.23785","category":"56","category_name":"小学","address":"江宁路688"},{"poiid":"B2094654DB6AA3F44892","title":"四海游龙 江宁路店 OVERSEAS DRAGON","lon":"121.447872054","lat":"31.238951793","category":"68","category_name":"快餐厅","address":"静安区江宁路777-1号(近海防路)"},{"poiid":"B2094757D06BA3FF499D","title":"句容小区","lon":"121.44979","lat":"31.240408","category":"47","category_name":"住宅区","address":"上海静安区海防路100弄"},{"poiid":"B2094757D465A3FD479D","title":"泰煌鸡 江宁路店","lon":"121.447578054","lat":"31.239846793","category":"68","category_name":"快餐厅","address":"静安区江宁路782弄(近海防路)"},{"poiid":"B2094757D06FA0F9409F","title":"一线烫捞(调频壹店)","lon":"121.44707143","lat":"31.240969894","category":"257","category_name":"中餐厅","address":"普陀区长寿路155号巴黎春天6楼(近陕西北路)"},{"poiid":"B2094757D764A5FC489C","title":"南京灌汤包 淮安路店","lon":"121.4494536","lat":"31.2389922","category":"68","category_name":"快餐厅","address":"静安区淮安路810号(近昌化路)"},{"poiid":"B2094654DA6CA5F9469D","title":"旺角商场","lon":"121.4495","lat":"31.23942","category":"119","category_name":"商场","address":"昌化路505"},{"poiid":"B2094757DB6FA1F94593","title":"新华书店北京西路店","lon":"121.449466","lat":"31.237495","category":"249","category_name":"购物服务","address":"静安区北京西路1829号申乐大厦内(近华山路)"},{"poiid":"B2094757D064A7F44893","title":"三国烤鱼","lon":"121.447906","lat":"31.239681","category":"68","category_name":"快餐厅","address":"静安区江宁路815号(海防路江宁路)"},{"poiid":"B2094655D265AAFF419C","title":"上海市静安实验小学","lon":"121.4493","lat":"31.23962","category":"56","category_name":"小学","address":"静安区陕西北路1168号(近安远路)"},{"poiid":"B2094654DA6CA4F8499F","title":"金祥饮食店","lon":"121.44917","lat":"31.2388","category":"68","category_name":"快餐厅","address":"静安区淮安路849号(近江宁路)"},{"poiid":"B2094655D265A7F4439E","title":"海洪小区(东门)","lon":"121.44937","lat":"31.23951","category":"47","category_name":"住宅区","address":"昌化路509弄4-6号"},{"poiid":"B2094654DA6CA5F9469E","title":"静安区新江宁小学(昌化路)","lon":"121.44932","lat":"31.23961","category":"56","category_name":"小学","address":"昌化路511"},{"poiid":"B2094757D06AA0F5429A","title":"ANS国际建筑设计与顾问有限公司","lon":"121.449385","lat":"31.239909","category":"46","category_name":"楼宇","address":"上海静安区西苏州河路71号6楼"},{"poiid":"B2094655D265ABF8469C","title":"静安凤凰苑","lon":"121.448","lat":"31.2396","category":"47","category_name":"住宅区","address":"上海市静安区昌平路777弄"},{"poiid":"B2094654DB69A7F94498","title":"红光商务楼","lon":"121.44891","lat":"31.23998","category":"46","category_name":"楼宇","address":"协和丽豪酒店式公寓位于静安南京西路2068号(镇宁路愚园路口)"},{"poiid":"B2094655D265A5FC409C","title":"海洪小区","lon":"121.44909","lat":"31.23946","category":"47","category_name":"住宅区","address":"昌化路509弄4-6号"},{"poiid":"B2094654DA6CA4F9449E","title":"上海富华医疗美容医院","lon":"121.44831","lat":"31.23947","category":"162","category_name":"医院","address":"静安区江宁路818号(海防路口)"},{"poiid":"B2094757D465A0FB4592","title":"友联生煎大王 江宁路店","lon":"121.448014054","lat":"31.239022793","category":"68","category_name":"快餐厅","address":"静安区江宁路888号"},{"poiid":"B2094757D665AAF4459C","title":"锅品面吧 江宁路店","lon":"121.448051054","lat":"31.238761793","category":"68","category_name":"快餐厅","address":"静安区江宁路777-2号(近海防路)"},{"poiid":"B2094654DA6CA4F94292","title":"可的(海防路)","lon":"121.44898","lat":"31.23982","category":"117","category_name":"便民商店/便利店","address":"静安区海防路421号(海防路人和街)"},{"poiid":"B2094757D66CA7F9449E","title":"向明饭店","lon":"121.44888958","lat":"31.239171606","category":"247","category_name":"餐饮美食","address":"上海市静安区淮安路837号"},{"poiid":"B2094757D069AAFA4093","title":"上海外服国际人才培训中心","lon":"121.447957","lat":"31.239765","category":"500","category_name":"未知分类","address":"静安区江宁路838号3楼(近海防路)"},{"poiid":"B2094654DA6CA4F84599","title":"三乐新村","lon":"121.45129","lat":"31.238897","category":"47","category_name":"住宅区","address":"昌化路400弄2-4号"},{"poiid":"B2094655D265A7FB4898","title":"洪庆坊(北门)","lon":"121.44858","lat":"31.23933","category":"47","category_name":"住宅区","address":"海防路223弄2-24号"},{"poiid":"B2094654DA6CA4F9419C","title":"尚沙龙","lon":"121.44843","lat":"31.23919","category":"148","category_name":"美容美发店","address":"江宁路778"},{"poiid":"B2094757D465ABF4409F","title":"香吧岛大龙虾 江宁路店","lon":"121.449505054","lat":"31.237320793","category":"247","category_name":"餐饮美食","address":"静安区江宁路648号(近昌平路)"},{"poiid":"B2094654DA6CA3FF4692","title":"昌平大厦","lon":"121.44889","lat":"31.23657","category":"46","category_name":"楼宇","address":"崇文区夕照寺大街"},{"poiid":"B2094757D16BA3F5489E","title":"河南拉面","lon":"121.44833","lat":"31.23943","category":"68","category_name":"快餐厅","address":"静安区海防路(近王家沙)"},{"poiid":"B2094757D66DA6FD419F","title":"海防路100弄句容小区","lon":"121.44981058","lat":"31.240706636","category":"500","category_name":"未知分类","address":"上海市静安区海防路"},{"poiid":"B2094753D06AA5F8459F","title":"青藤宠物医院","lon":"121.44858","lat":"31.24032","category":"162","category_name":"医院","address":"静安区昌化路567号(近海防路)"},{"poiid":"B2094654DA6CA5F94599","title":"上海捷讯传媒有限公司","lon":"121.45066","lat":"31.23936","category":"252","category_name":"楼宇机构","address":"淮安路735号"},{"poiid":"B2094750DA64A1F84693","title":"南京西路","lon":"121.450096","lat":"31.238979","category":"500","category_name":"未知分类","address":null},{"poiid":"B2094757D16AA3FF439B","title":"上海住房公积金静安区管理部","lon":"121.44932114","lat":"31.240222836","category":"500","category_name":"未知分类","address":"上海静安区江宁路631号5楼C座(近昌平路)"},{"poiid":"B2094655D36CA3FE4299","title":"TheHouseFood·Drinks","lon":"121.44714","lat":"31.23999","category":"65","category_name":"咖啡厅","address":"江宁路861号102室近海防路"},{"poiid":"B2094757D56CA1FB479B","title":"牛奶棚 江宁店","lon":"121.449718054","lat":"31.237378793","category":"67","category_name":"甜品店","address":"静安区昌平路305号(近江宁路)"},{"poiid":"B2094655D26DA4FE439B","title":"江宁街道社区卫生服务中心","lon":"121.44931","lat":"31.23805","category":"162","category_name":"医院","address":"江宁路702弄11"}]