[{"poiid":"B2094655D26DA5FF489D","title":"华东理工大学","lon":"121.425","lat":"31.14313","category":"671","category_name":"高校中心点","address":"徐汇区梅陇路130号"},{"poiid":"B2094757D068A7F94493","title":"上海地铁梅陇基地","lon":"121.42351945","lat":"31.149536729","category":"46","category_name":"楼宇","address":"上海市徐汇区老沪闵路1号(沪闵路口)"},{"poiid":"B2094757D06FAAF84398","title":"华东理工大学图书馆","lon":"121.42208612","lat":"31.142591023","category":"253","category_name":"校园生活","address":"徐汇区梅陇路130号华东理工大学内(近天等路)"},{"poiid":"B2094757D06FA6F4409F","title":"桂林路沪闵路","lon":"121.423251","lat":"31.153142","category":"260","category_name":"其他","address":"上海徐汇区桂林路沪闵路口"},{"poiid":"B2094757D06FA1F94898","title":"上海轨道交通梅陇基地","lon":"121.41984104","lat":"31.148421362","category":"260","category_name":"其他","address":"上海市徐汇区老沪闵路1号(沪闵路口)"},{"poiid":"B2094757D068ABF4459B","title":"华东理工大学大操场","lon":"121.424847","lat":"31.143529","category":"253","category_name":"校园生活","address":"上海徐汇区梅陇路130号华东理工大学内"},{"poiid":"B209475DD16EAAFC4499","title":"上海南站","lon":"121.422149","lat":"31.148414","category":"500","category_name":"未知分类","address":"上海市 上海南站"},{"poiid":"B2094750DA6AA4FB4998","title":"上海南站金山铁路达到出发处","lon":"121.428573","lat":"31.151111","category":"251","category_name":"出行住宿","address":null},{"poiid":"B2094654DB6CA1F4489D","title":"豪享来上海沪闵店","lon":"121.429","lat":"31.149","category":"247","category_name":"餐饮美食","address":"上海市徐汇区老沪闵路660号"},{"poiid":"B2094757D068A2FA4993","title":"上海世界外国语小学","lon":"121.41878","lat":"31.15098","category":"55","category_name":"中学","address":"上海徐汇区浦北路380号"},{"poiid":"B2094757D068A0FB4493","title":"华东理工大学第三食堂","lon":"121.422156618","lat":"31.1459460993","category":"253","category_name":"校园生活","address":"徐汇区梅陇路130号华东理工大学内(近天等路)"},{"poiid":"B2094757D06FA5FA409D","title":"华东理工大学四教","lon":"121.42423009","lat":"31.142512028","category":"253","category_name":"校园生活","address":"上海徐汇区梅陇路130号"},{"poiid":"B2094757D068A3FB4793","title":"华东理工大学八教","lon":"121.426987","lat":"31.142914","category":"253","category_name":"校园生活","address":"上海徐汇区梅陇路130号"},{"poiid":"B2094655D26FA5F84093","title":"金塘小区","lon":"121.4259","lat":"31.148438","category":"47","category_name":"住宅区","address":"老沪闵路333弄1-97号"},{"poiid":"B2094757D06AA6F8429F","title":"徐汇区科技幼儿园","lon":"121.428773586","lat":"31.1493918514","category":"57","category_name":"幼儿园","address":"徐汇区嘉陵路28号"},{"poiid":"B2094655D26FA5F8409D","title":"海上华庭","lon":"121.41753","lat":"31.14921","category":"47","category_name":"住宅区","address":"虹漕南路699弄"},{"poiid":"B2094751DA69A4FB439E","title":"东方明珠","lon":"121.418119","lat":"31.145922","category":"500","category_name":"未知分类","address":"上海市黄浦区外滩"},{"poiid":"B2094757D16DA2FA489C","title":"上海轨道交通梅陇基地信号楼","lon":"121.42378345","lat":"31.147411711","category":"36","category_name":"地铁站","address":"上海市徐汇区老沪闵路1号(沪闵路口)"},{"poiid":"B2094757D16FABF44993","title":"华东理工大学徐汇校区21舍","lon":"121.425744939","lat":"31.1469531584","category":"500","category_name":"未知分类","address":"上海徐汇区梅陇路130号华东理工大学徐汇校区"},{"poiid":"B2094655D26FA1F94593","title":"乐泰酒店","lon":"121.42649","lat":"31.14806","category":"214","category_name":"四星级宾馆","address":"老沪闵路385号"},{"poiid":"B2094655D26FA6F94899","title":"寿祥坊","lon":"121.41939","lat":"31.15107","category":"47","category_name":"住宅区","address":"桂林西街111弄1-46号"},{"poiid":"B2094751DA6BA5FC419C","title":"光启城时尚购物中心","lon":"121.425765","lat":"31.147734","category":"500","category_name":"未知分类","address":"中山西路宜山路"},{"poiid":"B2094757D06BA4FA479F","title":"上海地铁梅陇基地多功能厅","lon":"121.424393","lat":"31.151034","category":"46","category_name":"楼宇","address":"徐汇区老沪闵路1号(近桂林路)"},{"poiid":"B2094757D168A3F9499D","title":"华东理工大学八舍","lon":"121.423198798","lat":"31.1457553742","category":"500","category_name":"未知分类","address":"上海梅陇路130号"},{"poiid":"B2094757D664AAFB4393","title":"华东理工教工食堂","lon":"121.42533","lat":"31.14084","category":"68","category_name":"快餐厅","address":"徐汇区梅陇路130号华东理工大学西门(近天等路)"},{"poiid":"B2094655D26FA5FC4892","title":"华理苑","lon":"121.42076","lat":"31.144419","category":"47","category_name":"住宅区","address":"上海徐汇区梅陇路130弄"},{"poiid":"B2094757D069A2FA419F","title":"东荡小区","lon":"121.42815","lat":"31.149767","category":"47","category_name":"住宅区","address":"上海徐汇区老沪闵路150160弄"},{"poiid":"B2094757D06AA3F4439C","title":"华东理工大学14舍","lon":"121.42232985","lat":"31.145487273","category":"500","category_name":"未知分类","address":"上海徐汇区梅陇路130号华东理工大学徐汇校区"},{"poiid":"B209475CD165A6F8469F","title":"华东理工大学徐汇校区七舍","lon":"121.422943","lat":"31.146829","category":"500","category_name":"未知分类","address":"上海市 梅陇路130号"},{"poiid":"B2094757D16AAAFB429C","title":"华东理工大学健身房","lon":"121.421625","lat":"31.142972","category":"148","category_name":"美容美发店","address":"上海徐汇校区大操场旁"},{"poiid":"B2094757D06BA2F84899","title":"柳州路石龙路","lon":"121.42438846","lat":"31.147375741","category":"500","category_name":"未知分类","address":"上海柳州路石龙路"},{"poiid":"B2094655D264ABFB409D","title":"华东理工大学商学院","lon":"121.42257","lat":"31.14301","category":"52","category_name":"高等院校","address":"上海市徐汇区梅陇路130号"},{"poiid":"B2094654DA65A6FD479B","title":"麦克花园","lon":"121.42874","lat":"31.148399","category":"47","category_name":"住宅区","address":"石龙路980弄1-37号"},{"poiid":"B2094757D16FAAF54298","title":"华轻台球","lon":"121.42196485","lat":"31.146983303","category":"171","category_name":"台球厅","address":"上海华轻"},{"poiid":"B209475DD36FA3FD419D","title":"上海南站","lon":"121.421119","lat":"31.149084","category":"500","category_name":"未知分类","address":"上海市 上海南站"},{"poiid":"B2094757D16CA4FE4092","title":"华东理工大学梅陇校区4舍","lon":"121.424336183","lat":"31.1462741678","category":"500","category_name":"未知分类","address":"上海徐汇区梅陇路130号华东理工大学徐汇校区"},{"poiid":"B2094757D16DA4FC459B","title":"百叶J额革命根据地","lon":"121.42275385","lat":"31.147014303","category":"500","category_name":"未知分类","address":"上海市徐汇区老沪闵路"},{"poiid":"B2094757D168A0FD4893","title":"华东理工大学三舍","lon":"121.424509857","lat":"31.1460582847","category":"253","category_name":"校园生活","address":"上海徐汇区梅陇路130号"},{"poiid":"B2094757D16AABF44898","title":"国际妇幼保健医院产科","lon":"121.419334257","lat":"31.1462648889","category":"162","category_name":"医院","address":"上海市"},{"poiid":"B2094757D16FA1FB499A","title":"华东理工大学大草坪","lon":"121.424604447","lat":"31.1439000415","category":"500","category_name":"未知分类","address":"上海市徐汇区梅陇路130号"},{"poiid":"B2094757DB6EA7FA479B","title":"上海乐泰精品花庭酒店(原上海乐泰酒店)","lon":"121.428026","lat":"31.148108","category":"214","category_name":"四星级宾馆","address":"徐汇区老沪闵路385号(近上海南站)"},{"poiid":"B2094655D265A1F4439B","title":"华东理工大学第二学生食堂","lon":"121.42208","lat":"31.14438","category":"257","category_name":"中餐厅","address":""},{"poiid":"B2094655D264ABF5429F","title":"华东理工大学资源与环境专业实验教学中心","lon":"121.42497","lat":"31.14507","category":"52","category_name":"高等院校","address":""},{"poiid":"B2094757D568ABFC4093","title":"华东理工大学商学院MBA教育中心","lon":"121.423591","lat":"31.143171","category":"52","category_name":"高等院校","address":"中国上海市徐汇区"},{"poiid":"B2094757D169AAF94099","title":"i do(来福士店)","lon":"121.424921586","lat":"31.1485978359","category":"500","category_name":"未知分类","address":"上海西藏中路268号一楼"},{"poiid":"B2094753D76EABF84398","title":"华东理工大学","lon":"121.421951","lat":"31.14623","category":"500","category_name":"未知分类","address":"上海市 梅陇路130号"},{"poiid":"B2094654DA65AAFC469A","title":"乐宁药房","lon":"121.42612","lat":"31.14921","category":"162","category_name":"医院","address":"老沪闵路217"},{"poiid":"B209475CD46DA2FB4098","title":"华东理工大学","lon":"121.425003","lat":"31.150499","category":"500","category_name":"未知分类","address":"上海市 上海市徐汇区梅陇路130号"},{"poiid":"B2094655D265AAF9459E","title":"华东理工大学发酵工程实验教学中心","lon":"121.42497","lat":"31.14507","category":"52","category_name":"高等院校","address":""},{"poiid":"B2094757D069AAFE499B","title":"桂林西街","lon":"121.421304","lat":"31.152299","category":"500","category_name":"未知分类","address":"上海桂林西街151弄"},{"poiid":"B2094655D26DA5FF489D","title":"华东理工大学","lon":"121.425","lat":"31.14313","category":"671","category_name":"高校中心点","address":"徐汇区梅陇路130号"},{"poiid":"B2094757D068A7F94493","title":"上海地铁梅陇基地","lon":"121.42351945","lat":"31.149536729","category":"46","category_name":"楼宇","address":"上海市徐汇区老沪闵路1号(沪闵路口)"},{"poiid":"B2094757D06FAAF84398","title":"华东理工大学图书馆","lon":"121.42208612","lat":"31.142591023","category":"253","category_name":"校园生活","address":"徐汇区梅陇路130号华东理工大学内(近天等路)"},{"poiid":"B2094757D06FA6F4409F","title":"桂林路沪闵路","lon":"121.423251","lat":"31.153142","category":"260","category_name":"其他","address":"上海徐汇区桂林路沪闵路口"},{"poiid":"B2094757D06FA1F94898","title":"上海轨道交通梅陇基地","lon":"121.41984104","lat":"31.148421362","category":"260","category_name":"其他","address":"上海市徐汇区老沪闵路1号(沪闵路口)"},{"poiid":"B2094757D068ABF4459B","title":"华东理工大学大操场","lon":"121.424847","lat":"31.143529","category":"253","category_name":"校园生活","address":"上海徐汇区梅陇路130号华东理工大学内"},{"poiid":"B209475DD16EAAFC4499","title":"上海南站","lon":"121.422149","lat":"31.148414","category":"500","category_name":"未知分类","address":"上海市 上海南站"},{"poiid":"B2094750DA6AA4FB4998","title":"上海南站金山铁路达到出发处","lon":"121.428573","lat":"31.151111","category":"251","category_name":"出行住宿","address":null},{"poiid":"B2094654DB6CA1F4489D","title":"豪享来上海沪闵店","lon":"121.429","lat":"31.149","category":"247","category_name":"餐饮美食","address":"上海市徐汇区老沪闵路660号"},{"poiid":"B2094757D068A2FA4993","title":"上海世界外国语小学","lon":"121.41878","lat":"31.15098","category":"55","category_name":"中学","address":"上海徐汇区浦北路380号"},{"poiid":"B2094757D068A0FB4493","title":"华东理工大学第三食堂","lon":"121.422156618","lat":"31.1459460993","category":"253","category_name":"校园生活","address":"徐汇区梅陇路130号华东理工大学内(近天等路)"},{"poiid":"B2094757D06FA5FA409D","title":"华东理工大学四教","lon":"121.42423009","lat":"31.142512028","category":"253","category_name":"校园生活","address":"上海徐汇区梅陇路130号"},{"poiid":"B2094757D068A3FB4793","title":"华东理工大学八教","lon":"121.426987","lat":"31.142914","category":"253","category_name":"校园生活","address":"上海徐汇区梅陇路130号"},{"poiid":"B2094655D26FA5F84093","title":"金塘小区","lon":"121.4259","lat":"31.148438","category":"47","category_name":"住宅区","address":"老沪闵路333弄1-97号"},{"poiid":"B2094757D06AA6F8429F","title":"徐汇区科技幼儿园","lon":"121.428773586","lat":"31.1493918514","category":"57","category_name":"幼儿园","address":"徐汇区嘉陵路28号"},{"poiid":"B2094655D26FA5F8409D","title":"海上华庭","lon":"121.41753","lat":"31.14921","category":"47","category_name":"住宅区","address":"虹漕南路699弄"},{"poiid":"B2094751DA69A4FB439E","title":"东方明珠","lon":"121.418119","lat":"31.145922","category":"500","category_name":"未知分类","address":"上海市黄浦区外滩"},{"poiid":"B2094757D16DA2FA489C","title":"上海轨道交通梅陇基地信号楼","lon":"121.42378345","lat":"31.147411711","category":"36","category_name":"地铁站","address":"上海市徐汇区老沪闵路1号(沪闵路口)"},{"poiid":"B2094757D16FABF44993","title":"华东理工大学徐汇校区21舍","lon":"121.425744939","lat":"31.1469531584","category":"500","category_name":"未知分类","address":"上海徐汇区梅陇路130号华东理工大学徐汇校区"},{"poiid":"B2094655D26FA1F94593","title":"乐泰酒店","lon":"121.42649","lat":"31.14806","category":"214","category_name":"四星级宾馆","address":"老沪闵路385号"},{"poiid":"B2094655D26FA6F94899","title":"寿祥坊","lon":"121.41939","lat":"31.15107","category":"47","category_name":"住宅区","address":"桂林西街111弄1-46号"},{"poiid":"B2094751DA6BA5FC419C","title":"光启城时尚购物中心","lon":"121.425765","lat":"31.147734","category":"500","category_name":"未知分类","address":"中山西路宜山路"},{"poiid":"B2094757D06BA4FA479F","title":"上海地铁梅陇基地多功能厅","lon":"121.424393","lat":"31.151034","category":"46","category_name":"楼宇","address":"徐汇区老沪闵路1号(近桂林路)"},{"poiid":"B2094757D168A3F9499D","title":"华东理工大学八舍","lon":"121.423198798","lat":"31.1457553742","category":"500","category_name":"未知分类","address":"上海梅陇路130号"},{"poiid":"B2094757D664AAFB4393","title":"华东理工教工食堂","lon":"121.42533","lat":"31.14084","category":"68","category_name":"快餐厅","address":"徐汇区梅陇路130号华东理工大学西门(近天等路)"},{"poiid":"B2094655D26FA5FC4892","title":"华理苑","lon":"121.42076","lat":"31.144419","category":"47","category_name":"住宅区","address":"上海徐汇区梅陇路130弄"},{"poiid":"B2094757D069A2FA419F","title":"东荡小区","lon":"121.42815","lat":"31.149767","category":"47","category_name":"住宅区","address":"上海徐汇区老沪闵路150160弄"},{"poiid":"B2094757D06AA3F4439C","title":"华东理工大学14舍","lon":"121.42232985","lat":"31.145487273","category":"500","category_name":"未知分类","address":"上海徐汇区梅陇路130号华东理工大学徐汇校区"},{"poiid":"B209475CD165A6F8469F","title":"华东理工大学徐汇校区七舍","lon":"121.422943","lat":"31.146829","category":"500","category_name":"未知分类","address":"上海市 梅陇路130号"},{"poiid":"B2094757D16AAAFB429C","title":"华东理工大学健身房","lon":"121.421625","lat":"31.142972","category":"148","category_name":"美容美发店","address":"上海徐汇校区大操场旁"},{"poiid":"B2094757D06BA2F84899","title":"柳州路石龙路","lon":"121.42438846","lat":"31.147375741","category":"500","category_name":"未知分类","address":"上海柳州路石龙路"},{"poiid":"B2094655D264ABFB409D","title":"华东理工大学商学院","lon":"121.42257","lat":"31.14301","category":"52","category_name":"高等院校","address":"上海市徐汇区梅陇路130号"},{"poiid":"B2094654DA65A6FD479B","title":"麦克花园","lon":"121.42874","lat":"31.148399","category":"47","category_name":"住宅区","address":"石龙路980弄1-37号"},{"poiid":"B2094757D16FAAF54298","title":"华轻台球","lon":"121.42196485","lat":"31.146983303","category":"171","category_name":"台球厅","address":"上海华轻"},{"poiid":"B209475DD36FA3FD419D","title":"上海南站","lon":"121.421119","lat":"31.149084","category":"500","category_name":"未知分类","address":"上海市 上海南站"},{"poiid":"B2094757D16CA4FE4092","title":"华东理工大学梅陇校区4舍","lon":"121.424336183","lat":"31.1462741678","category":"500","category_name":"未知分类","address":"上海徐汇区梅陇路130号华东理工大学徐汇校区"},{"poiid":"B2094757D16DA4FC459B","title":"百叶J额革命根据地","lon":"121.42275385","lat":"31.147014303","category":"500","category_name":"未知分类","address":"上海市徐汇区老沪闵路"},{"poiid":"B2094757D168A0FD4893","title":"华东理工大学三舍","lon":"121.424509857","lat":"31.1460582847","category":"253","category_name":"校园生活","address":"上海徐汇区梅陇路130号"},{"poiid":"B2094757D16AABF44898","title":"国际妇幼保健医院产科","lon":"121.419334257","lat":"31.1462648889","category":"162","category_name":"医院","address":"上海市"},{"poiid":"B2094757D16FA1FB499A","title":"华东理工大学大草坪","lon":"121.424604447","lat":"31.1439000415","category":"500","category_name":"未知分类","address":"上海市徐汇区梅陇路130号"},{"poiid":"B2094757DB6EA7FA479B","title":"上海乐泰精品花庭酒店(原上海乐泰酒店)","lon":"121.428026","lat":"31.148108","category":"214","category_name":"四星级宾馆","address":"徐汇区老沪闵路385号(近上海南站)"},{"poiid":"B2094655D265A1F4439B","title":"华东理工大学第二学生食堂","lon":"121.42208","lat":"31.14438","category":"257","category_name":"中餐厅","address":""},{"poiid":"B2094655D264ABF5429F","title":"华东理工大学资源与环境专业实验教学中心","lon":"121.42497","lat":"31.14507","category":"52","category_name":"高等院校","address":""},{"poiid":"B2094757D568ABFC4093","title":"华东理工大学商学院MBA教育中心","lon":"121.423591","lat":"31.143171","category":"52","category_name":"高等院校","address":"中国上海市徐汇区"},{"poiid":"B2094757D169AAF94099","title":"i do(来福士店)","lon":"121.424921586","lat":"31.1485978359","category":"500","category_name":"未知分类","address":"上海西藏中路268号一楼"},{"poiid":"B2094753D76EABF84398","title":"华东理工大学","lon":"121.421951","lat":"31.14623","category":"500","category_name":"未知分类","address":"上海市 梅陇路130号"},{"poiid":"B2094654DA65AAFC469A","title":"乐宁药房","lon":"121.42612","lat":"31.14921","category":"162","category_name":"医院","address":"老沪闵路217"},{"poiid":"B209475CD46DA2FB4098","title":"华东理工大学","lon":"121.425003","lat":"31.150499","category":"500","category_name":"未知分类","address":"上海市 上海市徐汇区梅陇路130号"},{"poiid":"B2094655D265AAF9459E","title":"华东理工大学发酵工程实验教学中心","lon":"121.42497","lat":"31.14507","category":"52","category_name":"高等院校","address":""},{"poiid":"B2094757D069AAFE499B","title":"桂林西街","lon":"121.421304","lat":"31.152299","category":"500","category_name":"未知分类","address":"上海桂林西街151弄"},{"poiid":"B2094655D26DA5FF489D","title":"华东理工大学","lon":"121.425","lat":"31.14313","category":"671","category_name":"高校中心点","address":"徐汇区梅陇路130号"},{"poiid":"B2094757D068A7F94493","title":"上海地铁梅陇基地","lon":"121.42351945","lat":"31.149536729","category":"46","category_name":"楼宇","address":"上海市徐汇区老沪闵路1号(沪闵路口)"},{"poiid":"B2094757D06FAAF84398","title":"华东理工大学图书馆","lon":"121.42208612","lat":"31.142591023","category":"253","category_name":"校园生活","address":"徐汇区梅陇路130号华东理工大学内(近天等路)"},{"poiid":"B2094757D06FA6F4409F","title":"桂林路沪闵路","lon":"121.423251","lat":"31.153142","category":"260","category_name":"其他","address":"上海徐汇区桂林路沪闵路口"},{"poiid":"B2094757D06FA1F94898","title":"上海轨道交通梅陇基地","lon":"121.41984104","lat":"31.148421362","category":"260","category_name":"其他","address":"上海市徐汇区老沪闵路1号(沪闵路口)"},{"poiid":"B2094757D068ABF4459B","title":"华东理工大学大操场","lon":"121.424847","lat":"31.143529","category":"253","category_name":"校园生活","address":"上海徐汇区梅陇路130号华东理工大学内"},{"poiid":"B209475DD16EAAFC4499","title":"上海南站","lon":"121.422149","lat":"31.148414","category":"500","category_name":"未知分类","address":"上海市 上海南站"},{"poiid":"B2094750DA6AA4FB4998","title":"上海南站金山铁路达到出发处","lon":"121.428573","lat":"31.151111","category":"251","category_name":"出行住宿","address":null},{"poiid":"B2094654DB6CA1F4489D","title":"豪享来上海沪闵店","lon":"121.429","lat":"31.149","category":"247","category_name":"餐饮美食","address":"上海市徐汇区老沪闵路660号"},{"poiid":"B2094757D068A2FA4993","title":"上海世界外国语小学","lon":"121.41878","lat":"31.15098","category":"55","category_name":"中学","address":"上海徐汇区浦北路380号"},{"poiid":"B2094757D068A0FB4493","title":"华东理工大学第三食堂","lon":"121.422156618","lat":"31.1459460993","category":"253","category_name":"校园生活","address":"徐汇区梅陇路130号华东理工大学内(近天等路)"},{"poiid":"B2094757D06FA5FA409D","title":"华东理工大学四教","lon":"121.42423009","lat":"31.142512028","category":"253","category_name":"校园生活","address":"上海徐汇区梅陇路130号"},{"poiid":"B2094757D068A3FB4793","title":"华东理工大学八教","lon":"121.426987","lat":"31.142914","category":"253","category_name":"校园生活","address":"上海徐汇区梅陇路130号"},{"poiid":"B2094655D26FA5F84093","title":"金塘小区","lon":"121.4259","lat":"31.148438","category":"47","category_name":"住宅区","address":"老沪闵路333弄1-97号"},{"poiid":"B2094757D06AA6F8429F","title":"徐汇区科技幼儿园","lon":"121.428773586","lat":"31.1493918514","category":"57","category_name":"幼儿园","address":"徐汇区嘉陵路28号"},{"poiid":"B2094655D26FA5F8409D","title":"海上华庭","lon":"121.41753","lat":"31.14921","category":"47","category_name":"住宅区","address":"虹漕南路699弄"},{"poiid":"B2094751DA69A4FB439E","title":"东方明珠","lon":"121.418119","lat":"31.145922","category":"500","category_name":"未知分类","address":"上海市黄浦区外滩"},{"poiid":"B2094757D16DA2FA489C","title":"上海轨道交通梅陇基地信号楼","lon":"121.42378345","lat":"31.147411711","category":"36","category_name":"地铁站","address":"上海市徐汇区老沪闵路1号(沪闵路口)"},{"poiid":"B2094757D16FABF44993","title":"华东理工大学徐汇校区21舍","lon":"121.425744939","lat":"31.1469531584","category":"500","category_name":"未知分类","address":"上海徐汇区梅陇路130号华东理工大学徐汇校区"},{"poiid":"B2094655D26FA1F94593","title":"乐泰酒店","lon":"121.42649","lat":"31.14806","category":"214","category_name":"四星级宾馆","address":"老沪闵路385号"},{"poiid":"B2094655D26FA6F94899","title":"寿祥坊","lon":"121.41939","lat":"31.15107","category":"47","category_name":"住宅区","address":"桂林西街111弄1-46号"},{"poiid":"B2094751DA6BA5FC419C","title":"光启城时尚购物中心","lon":"121.425765","lat":"31.147734","category":"500","category_name":"未知分类","address":"中山西路宜山路"},{"poiid":"B2094757D06BA4FA479F","title":"上海地铁梅陇基地多功能厅","lon":"121.424393","lat":"31.151034","category":"46","category_name":"楼宇","address":"徐汇区老沪闵路1号(近桂林路)"},{"poiid":"B2094757D168A3F9499D","title":"华东理工大学八舍","lon":"121.423198798","lat":"31.1457553742","category":"500","category_name":"未知分类","address":"上海梅陇路130号"},{"poiid":"B2094757D664AAFB4393","title":"华东理工教工食堂","lon":"121.42533","lat":"31.14084","category":"68","category_name":"快餐厅","address":"徐汇区梅陇路130号华东理工大学西门(近天等路)"},{"poiid":"B2094655D26FA5FC4892","title":"华理苑","lon":"121.42076","lat":"31.144419","category":"47","category_name":"住宅区","address":"上海徐汇区梅陇路130弄"},{"poiid":"B2094757D069A2FA419F","title":"东荡小区","lon":"121.42815","lat":"31.149767","category":"47","category_name":"住宅区","address":"上海徐汇区老沪闵路150160弄"},{"poiid":"B2094757D06AA3F4439C","title":"华东理工大学14舍","lon":"121.42232985","lat":"31.145487273","category":"500","category_name":"未知分类","address":"上海徐汇区梅陇路130号华东理工大学徐汇校区"},{"poiid":"B209475CD165A6F8469F","title":"华东理工大学徐汇校区七舍","lon":"121.422943","lat":"31.146829","category":"500","category_name":"未知分类","address":"上海市 梅陇路130号"},{"poiid":"B2094757D16AAAFB429C","title":"华东理工大学健身房","lon":"121.421625","lat":"31.142972","category":"148","category_name":"美容美发店","address":"上海徐汇校区大操场旁"},{"poiid":"B2094757D06BA2F84899","title":"柳州路石龙路","lon":"121.42438846","lat":"31.147375741","category":"500","category_name":"未知分类","address":"上海柳州路石龙路"},{"poiid":"B2094655D264ABFB409D","title":"华东理工大学商学院","lon":"121.42257","lat":"31.14301","category":"52","category_name":"高等院校","address":"上海市徐汇区梅陇路130号"},{"poiid":"B2094654DA65A6FD479B","title":"麦克花园","lon":"121.42874","lat":"31.148399","category":"47","category_name":"住宅区","address":"石龙路980弄1-37号"},{"poiid":"B2094757D16FAAF54298","title":"华轻台球","lon":"121.42196485","lat":"31.146983303","category":"171","category_name":"台球厅","address":"上海华轻"},{"poiid":"B209475DD36FA3FD419D","title":"上海南站","lon":"121.421119","lat":"31.149084","category":"500","category_name":"未知分类","address":"上海市 上海南站"},{"poiid":"B2094757D16CA4FE4092","title":"华东理工大学梅陇校区4舍","lon":"121.424336183","lat":"31.1462741678","category":"500","category_name":"未知分类","address":"上海徐汇区梅陇路130号华东理工大学徐汇校区"},{"poiid":"B2094757D16DA4FC459B","title":"百叶J额革命根据地","lon":"121.42275385","lat":"31.147014303","category":"500","category_name":"未知分类","address":"上海市徐汇区老沪闵路"},{"poiid":"B2094757D168A0FD4893","title":"华东理工大学三舍","lon":"121.424509857","lat":"31.1460582847","category":"253","category_name":"校园生活","address":"上海徐汇区梅陇路130号"},{"poiid":"B2094757D16AABF44898","title":"国际妇幼保健医院产科","lon":"121.419334257","lat":"31.1462648889","category":"162","category_name":"医院","address":"上海市"},{"poiid":"B2094757D16FA1FB499A","title":"华东理工大学大草坪","lon":"121.424604447","lat":"31.1439000415","category":"500","category_name":"未知分类","address":"上海市徐汇区梅陇路130号"},{"poiid":"B2094757DB6EA7FA479B","title":"上海乐泰精品花庭酒店(原上海乐泰酒店)","lon":"121.428026","lat":"31.148108","category":"214","category_name":"四星级宾馆","address":"徐汇区老沪闵路385号(近上海南站)"},{"poiid":"B2094655D265A1F4439B","title":"华东理工大学第二学生食堂","lon":"121.42208","lat":"31.14438","category":"257","category_name":"中餐厅","address":""},{"poiid":"B2094655D264ABF5429F","title":"华东理工大学资源与环境专业实验教学中心","lon":"121.42497","lat":"31.14507","category":"52","category_name":"高等院校","address":""},{"poiid":"B2094757D568ABFC4093","title":"华东理工大学商学院MBA教育中心","lon":"121.423591","lat":"31.143171","category":"52","category_name":"高等院校","address":"中国上海市徐汇区"},{"poiid":"B2094757D169AAF94099","title":"i do(来福士店)","lon":"121.424921586","lat":"31.1485978359","category":"500","category_name":"未知分类","address":"上海西藏中路268号一楼"},{"poiid":"B2094753D76EABF84398","title":"华东理工大学","lon":"121.421951","lat":"31.14623","category":"500","category_name":"未知分类","address":"上海市 梅陇路130号"},{"poiid":"B2094654DA65AAFC469A","title":"乐宁药房","lon":"121.42612","lat":"31.14921","category":"162","category_name":"医院","address":"老沪闵路217"},{"poiid":"B209475CD46DA2FB4098","title":"华东理工大学","lon":"121.425003","lat":"31.150499","category":"500","category_name":"未知分类","address":"上海市 上海市徐汇区梅陇路130号"},{"poiid":"B2094655D265AAF9459E","title":"华东理工大学发酵工程实验教学中心","lon":"121.42497","lat":"31.14507","category":"52","category_name":"高等院校","address":""},{"poiid":"B2094757D069AAFE499B","title":"桂林西街","lon":"121.421304","lat":"31.152299","category":"500","category_name":"未知分类","address":"上海桂林西街151弄"},{"poiid":"B2094655D26DA5FF489D","title":"华东理工大学","lon":"121.425","lat":"31.14313","category":"671","category_name":"高校中心点","address":"徐汇区梅陇路130号"},{"poiid":"B2094757D068A7F94493","title":"上海地铁梅陇基地","lon":"121.42351945","lat":"31.149536729","category":"46","category_name":"楼宇","address":"上海市徐汇区老沪闵路1号(沪闵路口)"},{"poiid":"B2094757D06FAAF84398","title":"华东理工大学图书馆","lon":"121.42208612","lat":"31.142591023","category":"253","category_name":"校园生活","address":"徐汇区梅陇路130号华东理工大学内(近天等路)"},{"poiid":"B2094757D06FA6F4409F","title":"桂林路沪闵路","lon":"121.423251","lat":"31.153142","category":"260","category_name":"其他","address":"上海徐汇区桂林路沪闵路口"},{"poiid":"B2094757D06FA1F94898","title":"上海轨道交通梅陇基地","lon":"121.41984104","lat":"31.148421362","category":"260","category_name":"其他","address":"上海市徐汇区老沪闵路1号(沪闵路口)"},{"poiid":"B2094757D068ABF4459B","title":"华东理工大学大操场","lon":"121.424847","lat":"31.143529","category":"253","category_name":"校园生活","address":"上海徐汇区梅陇路130号华东理工大学内"},{"poiid":"B209475DD16EAAFC4499","title":"上海南站","lon":"121.422149","lat":"31.148414","category":"500","category_name":"未知分类","address":"上海市 上海南站"},{"poiid":"B2094750DA6AA4FB4998","title":"上海南站金山铁路达到出发处","lon":"121.428573","lat":"31.151111","category":"251","category_name":"出行住宿","address":null},{"poiid":"B2094654DB6CA1F4489D","title":"豪享来上海沪闵店","lon":"121.429","lat":"31.149","category":"247","category_name":"餐饮美食","address":"上海市徐汇区老沪闵路660号"},{"poiid":"B2094757D068A2FA4993","title":"上海世界外国语小学","lon":"121.41878","lat":"31.15098","category":"55","category_name":"中学","address":"上海徐汇区浦北路380号"},{"poiid":"B2094757D068A0FB4493","title":"华东理工大学第三食堂","lon":"121.422156618","lat":"31.1459460993","category":"253","category_name":"校园生活","address":"徐汇区梅陇路130号华东理工大学内(近天等路)"},{"poiid":"B2094757D06FA5FA409D","title":"华东理工大学四教","lon":"121.42423009","lat":"31.142512028","category":"253","category_name":"校园生活","address":"上海徐汇区梅陇路130号"},{"poiid":"B2094757D068A3FB4793","title":"华东理工大学八教","lon":"121.426987","lat":"31.142914","category":"253","category_name":"校园生活","address":"上海徐汇区梅陇路130号"},{"poiid":"B2094655D26FA5F84093","title":"金塘小区","lon":"121.4259","lat":"31.148438","category":"47","category_name":"住宅区","address":"老沪闵路333弄1-97号"},{"poiid":"B2094757D06AA6F8429F","title":"徐汇区科技幼儿园","lon":"121.428773586","lat":"31.1493918514","category":"57","category_name":"幼儿园","address":"徐汇区嘉陵路28号"},{"poiid":"B2094655D26FA5F8409D","title":"海上华庭","lon":"121.41753","lat":"31.14921","category":"47","category_name":"住宅区","address":"虹漕南路699弄"},{"poiid":"B2094751DA69A4FB439E","title":"东方明珠","lon":"121.418119","lat":"31.145922","category":"500","category_name":"未知分类","address":"上海市黄浦区外滩"},{"poiid":"B2094757D16DA2FA489C","title":"上海轨道交通梅陇基地信号楼","lon":"121.42378345","lat":"31.147411711","category":"36","category_name":"地铁站","address":"上海市徐汇区老沪闵路1号(沪闵路口)"},{"poiid":"B2094757D16FABF44993","title":"华东理工大学徐汇校区21舍","lon":"121.425744939","lat":"31.1469531584","category":"500","category_name":"未知分类","address":"上海徐汇区梅陇路130号华东理工大学徐汇校区"},{"poiid":"B2094655D26FA1F94593","title":"乐泰酒店","lon":"121.42649","lat":"31.14806","category":"214","category_name":"四星级宾馆","address":"老沪闵路385号"},{"poiid":"B2094655D26FA6F94899","title":"寿祥坊","lon":"121.41939","lat":"31.15107","category":"47","category_name":"住宅区","address":"桂林西街111弄1-46号"},{"poiid":"B2094751DA6BA5FC419C","title":"光启城时尚购物中心","lon":"121.425765","lat":"31.147734","category":"500","category_name":"未知分类","address":"中山西路宜山路"},{"poiid":"B2094757D06BA4FA479F","title":"上海地铁梅陇基地多功能厅","lon":"121.424393","lat":"31.151034","category":"46","category_name":"楼宇","address":"徐汇区老沪闵路1号(近桂林路)"},{"poiid":"B2094757D168A3F9499D","title":"华东理工大学八舍","lon":"121.423198798","lat":"31.1457553742","category":"500","category_name":"未知分类","address":"上海梅陇路130号"},{"poiid":"B2094757D664AAFB4393","title":"华东理工教工食堂","lon":"121.42533","lat":"31.14084","category":"68","category_name":"快餐厅","address":"徐汇区梅陇路130号华东理工大学西门(近天等路)"},{"poiid":"B2094655D26FA5FC4892","title":"华理苑","lon":"121.42076","lat":"31.144419","category":"47","category_name":"住宅区","address":"上海徐汇区梅陇路130弄"},{"poiid":"B2094757D069A2FA419F","title":"东荡小区","lon":"121.42815","lat":"31.149767","category":"47","category_name":"住宅区","address":"上海徐汇区老沪闵路150160弄"},{"poiid":"B2094757D06AA3F4439C","title":"华东理工大学14舍","lon":"121.42232985","lat":"31.145487273","category":"500","category_name":"未知分类","address":"上海徐汇区梅陇路130号华东理工大学徐汇校区"},{"poiid":"B209475CD165A6F8469F","title":"华东理工大学徐汇校区七舍","lon":"121.422943","lat":"31.146829","category":"500","category_name":"未知分类","address":"上海市 梅陇路130号"},{"poiid":"B2094757D16AAAFB429C","title":"华东理工大学健身房","lon":"121.421625","lat":"31.142972","category":"148","category_name":"美容美发店","address":"上海徐汇校区大操场旁"},{"poiid":"B2094757D06BA2F84899","title":"柳州路石龙路","lon":"121.42438846","lat":"31.147375741","category":"500","category_name":"未知分类","address":"上海柳州路石龙路"},{"poiid":"B2094655D264ABFB409D","title":"华东理工大学商学院","lon":"121.42257","lat":"31.14301","category":"52","category_name":"高等院校","address":"上海市徐汇区梅陇路130号"},{"poiid":"B2094654DA65A6FD479B","title":"麦克花园","lon":"121.42874","lat":"31.148399","category":"47","category_name":"住宅区","address":"石龙路980弄1-37号"},{"poiid":"B2094757D16FAAF54298","title":"华轻台球","lon":"121.42196485","lat":"31.146983303","category":"171","category_name":"台球厅","address":"上海华轻"},{"poiid":"B209475DD36FA3FD419D","title":"上海南站","lon":"121.421119","lat":"31.149084","category":"500","category_name":"未知分类","address":"上海市 上海南站"},{"poiid":"B2094757D16CA4FE4092","title":"华东理工大学梅陇校区4舍","lon":"121.424336183","lat":"31.1462741678","category":"500","category_name":"未知分类","address":"上海徐汇区梅陇路130号华东理工大学徐汇校区"},{"poiid":"B2094757D16DA4FC459B","title":"百叶J额革命根据地","lon":"121.42275385","lat":"31.147014303","category":"500","category_name":"未知分类","address":"上海市徐汇区老沪闵路"},{"poiid":"B2094757D168A0FD4893","title":"华东理工大学三舍","lon":"121.424509857","lat":"31.1460582847","category":"253","category_name":"校园生活","address":"上海徐汇区梅陇路130号"},{"poiid":"B2094757D16AABF44898","title":"国际妇幼保健医院产科","lon":"121.419334257","lat":"31.1462648889","category":"162","category_name":"医院","address":"上海市"},{"poiid":"B2094757D16FA1FB499A","title":"华东理工大学大草坪","lon":"121.424604447","lat":"31.1439000415","category":"500","category_name":"未知分类","address":"上海市徐汇区梅陇路130号"},{"poiid":"B2094757DB6EA7FA479B","title":"上海乐泰精品花庭酒店(原上海乐泰酒店)","lon":"121.428026","lat":"31.148108","category":"214","category_name":"四星级宾馆","address":"徐汇区老沪闵路385号(近上海南站)"},{"poiid":"B2094655D265A1F4439B","title":"华东理工大学第二学生食堂","lon":"121.42208","lat":"31.14438","category":"257","category_name":"中餐厅","address":""},{"poiid":"B2094655D264ABF5429F","title":"华东理工大学资源与环境专业实验教学中心","lon":"121.42497","lat":"31.14507","category":"52","category_name":"高等院校","address":""},{"poiid":"B2094757D568ABFC4093","title":"华东理工大学商学院MBA教育中心","lon":"121.423591","lat":"31.143171","category":"52","category_name":"高等院校","address":"中国上海市徐汇区"},{"poiid":"B2094757D169AAF94099","title":"i do(来福士店)","lon":"121.424921586","lat":"31.1485978359","category":"500","category_name":"未知分类","address":"上海西藏中路268号一楼"},{"poiid":"B2094753D76EABF84398","title":"华东理工大学","lon":"121.421951","lat":"31.14623","category":"500","category_name":"未知分类","address":"上海市 梅陇路130号"},{"poiid":"B2094654DA65AAFC469A","title":"乐宁药房","lon":"121.42612","lat":"31.14921","category":"162","category_name":"医院","address":"老沪闵路217"},{"poiid":"B209475CD46DA2FB4098","title":"华东理工大学","lon":"121.425003","lat":"31.150499","category":"500","category_name":"未知分类","address":"上海市 上海市徐汇区梅陇路130号"},{"poiid":"B2094655D265AAF9459E","title":"华东理工大学发酵工程实验教学中心","lon":"121.42497","lat":"31.14507","category":"52","category_name":"高等院校","address":""},{"poiid":"B2094757D069AAFE499B","title":"桂林西街","lon":"121.421304","lat":"31.152299","category":"500","category_name":"未知分类","address":"上海桂林西街151弄"}]