[{"poiid":"B2094757D06BA7FE489E","title":"金领国际","lon":"121.680493","lat":"31.253423","category":"252","category_name":"楼宇机构","address":"浦东新区川沙路1666号"},{"poiid":"B2094757DA64A3FF4192","title":"恒生商业广场","lon":"121.680043","lat":"31.241123","category":"252","category_name":"楼宇机构","address":"浦东新区上丰路(近金枫公园)"},{"poiid":"B2094655D36CA6F54999","title":"大湾","lon":"121.68476","lat":"31.24371","category":"38","category_name":"公交车站","address":""},{"poiid":"B2094654DA6AAAFE489C","title":"金盛佳苑","lon":"121.68645","lat":"31.242142","category":"47","category_name":"住宅区","address":"胜利路30弄"},{"poiid":"B2094655D26BA2FE439A","title":"王港","lon":"121.68574","lat":"31.23727","category":"38","category_name":"公交车站","address":""},{"poiid":"B2094757D16CA1F9499F","title":"阳光喜悦大酒店","lon":"121.698734054","lat":"31.246485793","category":"76","category_name":"上海菜","address":"浦东新区胜利路836号26栋(顾江路口)"},{"poiid":"B2094757D064A6FB469D","title":"同馨苑","lon":"121.684","lat":"31.2496","category":"252","category_name":"楼宇机构","address":"云雅路337号等单号"},{"poiid":"B2094654DA6AAAFE4798","title":"鑫港苑","lon":"121.68105","lat":"31.241295","category":"47","category_name":"住宅区","address":"上海浦东新区虹盛路250弄"},{"poiid":"B2094757D16BA0FE479E","title":"张江现代医疗器械园区","lon":"121.704831085","lat":"31.2421823455","category":"500","category_name":"未知分类","address":"上海市浦东新区瑞庆路528号"},{"poiid":"B2094655D36CA1F84593","title":"龙东大道东升路","lon":"121.69485","lat":"31.2361","category":"38","category_name":"公交车站","address":""},{"poiid":"B2094655D36CA1FC479B","title":"胜利路顾江路","lon":"121.70025","lat":"31.24675","category":"38","category_name":"公交车站","address":""},{"poiid":"B2094757D06BA7F4439F","title":"中国太平共享服务中心","lon":"121.67594917","lat":"31.232002288","category":"500","category_name":"未知分类","address":"上海张江卡园三路"},{"poiid":"B2094654DA6AAAFE479B","title":"金枫公寓","lon":"121.68266","lat":"31.238955","category":"47","category_name":"住宅区","address":"虹盛东路39弄"},{"poiid":"B2094654DA6AAAFF4292","title":"上海新发创运工业园(东胜路)","lon":"121.69203","lat":"31.24213","category":"45","category_name":"产业园区","address":"东胜路38号"},{"poiid":"B2094654DA6BA1FF4492","title":"同景苑","lon":"121.67756","lat":"31.24457","category":"47","category_name":"住宅区","address":"上海云雅路400弄"},{"poiid":"B2094750DB65A2F5429E","title":"肯德基(恒生广场店)","lon":"121.680969","lat":"31.239988","category":"68","category_name":"快餐厅","address":"浦东新区上丰路1772-1784号1楼恒生商业广场内(近王港路)"},{"poiid":"B2094655D36CA2F8479D","title":"庆达路永达路","lon":"121.69808","lat":"31.23989","category":"38","category_name":"公交车站","address":""},{"poiid":"B2094757D16EA4F9479D","title":"上海期货交易所","lon":"121.679198747","lat":"31.2485499627","category":"263","category_name":"公司","address":"上海来安路996号"},{"poiid":"B2094757D06FAAFF449D","title":"张江现代医疗器械园","lon":"121.70703125","lat":"31.242294311","category":"46","category_name":"楼宇","address":"上海张江东区仁庆路"},{"poiid":"B2094654DA6AAAFF4398","title":"高和精工(上海)有限公司","lon":"121.69283","lat":"31.24005","category":"263","category_name":"公司","address":""},{"poiid":"B2094655D36CA7F5469D","title":"顾江路凯庆路","lon":"121.70135","lat":"31.24393","category":"38","category_name":"公交车站","address":""},{"poiid":"B2094757D068ABF54798","title":"上海天马微电子有限公司","lon":"121.71168333","lat":"31.238829021","category":"263","category_name":"公司","address":"上海浦东新区汇庆路888号"},{"poiid":"B2094655D36CA1FC479E","title":"胜利路庆达路","lon":"121.69657","lat":"31.24504","category":"38","category_name":"公交车站","address":""},{"poiid":"B2094654DA6AAAFE4999","title":"兰州正宗牛肉拉面(胜利路)","lon":"121.69078","lat":"31.24442","category":"90","category_name":"清真餐馆","address":""},{"poiid":"B2094654DB64A3F4469F","title":"如家酒店","lon":"121.68334","lat":"31.23436","category":"216","category_name":"经济型连锁酒店","address":"浦东新区龙东大道5385号"},{"poiid":"B2094757D66DA2FB469E","title":"Marquardt","lon":"121.69787008","lat":"31.238926273","category":"500","category_name":"未知分类","address":"上海张江"},{"poiid":"B2094757D568AAF8479F","title":"金杨高层区项目","lon":"121.694014","lat":"31.245544","category":"47","category_name":"住宅区","address":"龙东大道胜利路836号"},{"poiid":"B2094654DA6AAAFE489F","title":"环庆新苑","lon":"121.68788","lat":"31.245167","category":"47","category_name":"住宅区","address":"胜利路169弄"},{"poiid":"B2094655D36DA2FA499A","title":"浦东运河大桥","lon":"121.69107","lat":"31.23545","category":"250","category_name":"公园户外","address":""},{"poiid":"B2094654DA6AAAFF449E","title":"马夸特开关(上海)有限公司","lon":"121.69817","lat":"31.23864","category":"263","category_name":"公司","address":""},{"poiid":"B2094654DA6AAAFE4893","title":"园区之家","lon":"121.68945","lat":"31.24339","category":"248","category_name":"生活娱乐","address":""},{"poiid":"B2094750D26AA6FC449C","title":"明宫江景苑","lon":"121.704299","lat":"31.244337","category":"47","category_name":"住宅区","address":"浦东新区凯庆路299号(近顾江路)"},{"poiid":"B2094750D76DAAFC489E","title":"蜀膳传火锅传奇(恒生广场店)","lon":"121.683","lat":"31.2368","category":"86","category_name":"火锅店","address":"浦东新区虹盛路253号恒生商业广场2楼(近上丰路)"},{"poiid":"B2094757D064A5FF4892","title":"牡丹江路","lon":"121.68923808","lat":"31.235939208","category":"500","category_name":"未知分类","address":"上海市宝山区牡丹江路"},{"poiid":"B2094654DA6BA3FC4499","title":"华昌小区","lon":"121.68414","lat":"31.238461","category":"47","category_name":"住宅区","address":"上海市浦东新区川沙路2278弄"},{"poiid":"B2094654DA6AAAFF419C","title":"胜利餐厅(胜利路)","lon":"121.69926","lat":"31.24617","category":"257","category_name":"中餐厅","address":""},{"poiid":"B2094654DA6AA5F5469C","title":"宁林汽车销售公司","lon":"121.69886","lat":"31.23865","category":"158","category_name":"汽车销售","address":"合庆镇红星村"},{"poiid":"B2094655D36CA2FA449E","title":"瑞庆路顾江路","lon":"121.70344","lat":"31.24063","category":"38","category_name":"公交车站","address":""},{"poiid":"B2094757D065ABF44192","title":"悌埃保温制品(上海)有限公司","lon":"121.68988308","lat":"31.243742379","category":"249","category_name":"购物服务","address":"上海浦东新区东胜路38号A6"},{"poiid":"B2094655D36CA6FA479E","title":"东胜路小白路","lon":"121.69666","lat":"31.23113","category":"38","category_name":"公交车站","address":""},{"poiid":"B2094757D66FA6FF419D","title":"东胜路229号","lon":"121.689662185","lat":"31.2352718935","category":"500","category_name":"未知分类","address":"上海YFPOPD"},{"poiid":"B2094655D36DA1F5449C","title":"小湾","lon":"121.68753","lat":"31.22754","category":"38","category_name":"公交车站","address":""},{"poiid":"B2094757D16CABF9409C","title":"凇宝路潮州海鲜粥 众所粥滋","lon":"121.689238085","lat":"31.2359392081","category":"500","category_name":"未知分类","address":"上海凇宝路"},{"poiid":"B2094654DA6BA1F8499C","title":"世纪华联(川沙路)","lon":"121.68627","lat":"31.2363","category":"118","category_name":"超级市场","address":"川沙路2459"},{"poiid":"B2094757D169A3FE459E","title":"星星之火农家乐","lon":"121.69819945","lat":"31.2484827588","category":"260","category_name":"其他","address":"上海浦东星火"},{"poiid":"B2094757D465A4FD439D","title":"吉祥馄饨 王港店 Gll Wonton","lon":"121.684522054","lat":"31.243890793","category":"247","category_name":"餐饮美食","address":"浦东新区上丰路1961号(近川沙路)"},{"poiid":"B2094757D16FA7FF409A","title":"金枫公园","lon":"121.68068","lat":"31.24207","category":"196","category_name":"公园","address":"浦东新区虹盛路(近彩雅路)"},{"poiid":"B2094654DA6AAAFE4593","title":"王港镇卫生院","lon":"121.68304","lat":"31.23668","category":"162","category_name":"医院","address":"浦东新区虹盛路25"},{"poiid":"B2094655D36CA6FD4699","title":"龚华路龚丰路","lon":"121.68848","lat":"31.25777","category":"38","category_name":"公交车站","address":""},{"poiid":"B2094654DA6BA1FF469D","title":"金枫豪苑","lon":"121.68059","lat":"31.238508","category":"47","category_name":"住宅区","address":"金枫豪苑位于浦东虹盛路160弄"},{"poiid":"B2094757D06BA7FE489E","title":"金领国际","lon":"121.680493","lat":"31.253423","category":"252","category_name":"楼宇机构","address":"浦东新区川沙路1666号"},{"poiid":"B2094757DA64A3FF4192","title":"恒生商业广场","lon":"121.680043","lat":"31.241123","category":"252","category_name":"楼宇机构","address":"浦东新区上丰路(近金枫公园)"},{"poiid":"B2094655D36CA6F54999","title":"大湾","lon":"121.68476","lat":"31.24371","category":"38","category_name":"公交车站","address":""},{"poiid":"B2094654DA6AAAFE489C","title":"金盛佳苑","lon":"121.68645","lat":"31.242142","category":"47","category_name":"住宅区","address":"胜利路30弄"},{"poiid":"B2094655D26BA2FE439A","title":"王港","lon":"121.68574","lat":"31.23727","category":"38","category_name":"公交车站","address":""},{"poiid":"B2094757D16CA1F9499F","title":"阳光喜悦大酒店","lon":"121.698734054","lat":"31.246485793","category":"76","category_name":"上海菜","address":"浦东新区胜利路836号26栋(顾江路口)"},{"poiid":"B2094757D064A6FB469D","title":"同馨苑","lon":"121.684","lat":"31.2496","category":"252","category_name":"楼宇机构","address":"云雅路337号等单号"},{"poiid":"B2094654DA6AAAFE4798","title":"鑫港苑","lon":"121.68105","lat":"31.241295","category":"47","category_name":"住宅区","address":"上海浦东新区虹盛路250弄"},{"poiid":"B2094757D16BA0FE479E","title":"张江现代医疗器械园区","lon":"121.704831085","lat":"31.2421823455","category":"500","category_name":"未知分类","address":"上海市浦东新区瑞庆路528号"},{"poiid":"B2094655D36CA1F84593","title":"龙东大道东升路","lon":"121.69485","lat":"31.2361","category":"38","category_name":"公交车站","address":""},{"poiid":"B2094655D36CA1FC479B","title":"胜利路顾江路","lon":"121.70025","lat":"31.24675","category":"38","category_name":"公交车站","address":""},{"poiid":"B2094757D06BA7F4439F","title":"中国太平共享服务中心","lon":"121.67594917","lat":"31.232002288","category":"500","category_name":"未知分类","address":"上海张江卡园三路"},{"poiid":"B2094654DA6AAAFE479B","title":"金枫公寓","lon":"121.68266","lat":"31.238955","category":"47","category_name":"住宅区","address":"虹盛东路39弄"},{"poiid":"B2094654DA6AAAFF4292","title":"上海新发创运工业园(东胜路)","lon":"121.69203","lat":"31.24213","category":"45","category_name":"产业园区","address":"东胜路38号"},{"poiid":"B2094654DA6BA1FF4492","title":"同景苑","lon":"121.67756","lat":"31.24457","category":"47","category_name":"住宅区","address":"上海云雅路400弄"},{"poiid":"B2094750DB65A2F5429E","title":"肯德基(恒生广场店)","lon":"121.680969","lat":"31.239988","category":"68","category_name":"快餐厅","address":"浦东新区上丰路1772-1784号1楼恒生商业广场内(近王港路)"},{"poiid":"B2094655D36CA2F8479D","title":"庆达路永达路","lon":"121.69808","lat":"31.23989","category":"38","category_name":"公交车站","address":""},{"poiid":"B2094757D16EA4F9479D","title":"上海期货交易所","lon":"121.679198747","lat":"31.2485499627","category":"263","category_name":"公司","address":"上海来安路996号"},{"poiid":"B2094757D06FAAFF449D","title":"张江现代医疗器械园","lon":"121.70703125","lat":"31.242294311","category":"46","category_name":"楼宇","address":"上海张江东区仁庆路"},{"poiid":"B2094654DA6AAAFF4398","title":"高和精工(上海)有限公司","lon":"121.69283","lat":"31.24005","category":"263","category_name":"公司","address":""},{"poiid":"B2094655D36CA7F5469D","title":"顾江路凯庆路","lon":"121.70135","lat":"31.24393","category":"38","category_name":"公交车站","address":""},{"poiid":"B2094757D068ABF54798","title":"上海天马微电子有限公司","lon":"121.71168333","lat":"31.238829021","category":"263","category_name":"公司","address":"上海浦东新区汇庆路888号"},{"poiid":"B2094655D36CA1FC479E","title":"胜利路庆达路","lon":"121.69657","lat":"31.24504","category":"38","category_name":"公交车站","address":""},{"poiid":"B2094654DA6AAAFE4999","title":"兰州正宗牛肉拉面(胜利路)","lon":"121.69078","lat":"31.24442","category":"90","category_name":"清真餐馆","address":""},{"poiid":"B2094654DB64A3F4469F","title":"如家酒店","lon":"121.68334","lat":"31.23436","category":"216","category_name":"经济型连锁酒店","address":"浦东新区龙东大道5385号"},{"poiid":"B2094757D66DA2FB469E","title":"Marquardt","lon":"121.69787008","lat":"31.238926273","category":"500","category_name":"未知分类","address":"上海张江"},{"poiid":"B2094757D568AAF8479F","title":"金杨高层区项目","lon":"121.694014","lat":"31.245544","category":"47","category_name":"住宅区","address":"龙东大道胜利路836号"},{"poiid":"B2094654DA6AAAFE489F","title":"环庆新苑","lon":"121.68788","lat":"31.245167","category":"47","category_name":"住宅区","address":"胜利路169弄"},{"poiid":"B2094655D36DA2FA499A","title":"浦东运河大桥","lon":"121.69107","lat":"31.23545","category":"250","category_name":"公园户外","address":""},{"poiid":"B2094654DA6AAAFF449E","title":"马夸特开关(上海)有限公司","lon":"121.69817","lat":"31.23864","category":"263","category_name":"公司","address":""},{"poiid":"B2094654DA6AAAFE4893","title":"园区之家","lon":"121.68945","lat":"31.24339","category":"248","category_name":"生活娱乐","address":""},{"poiid":"B2094750D26AA6FC449C","title":"明宫江景苑","lon":"121.704299","lat":"31.244337","category":"47","category_name":"住宅区","address":"浦东新区凯庆路299号(近顾江路)"},{"poiid":"B2094750D76DAAFC489E","title":"蜀膳传火锅传奇(恒生广场店)","lon":"121.683","lat":"31.2368","category":"86","category_name":"火锅店","address":"浦东新区虹盛路253号恒生商业广场2楼(近上丰路)"},{"poiid":"B2094757D064A5FF4892","title":"牡丹江路","lon":"121.68923808","lat":"31.235939208","category":"500","category_name":"未知分类","address":"上海市宝山区牡丹江路"},{"poiid":"B2094654DA6BA3FC4499","title":"华昌小区","lon":"121.68414","lat":"31.238461","category":"47","category_name":"住宅区","address":"上海市浦东新区川沙路2278弄"},{"poiid":"B2094654DA6AAAFF419C","title":"胜利餐厅(胜利路)","lon":"121.69926","lat":"31.24617","category":"257","category_name":"中餐厅","address":""},{"poiid":"B2094654DA6AA5F5469C","title":"宁林汽车销售公司","lon":"121.69886","lat":"31.23865","category":"158","category_name":"汽车销售","address":"合庆镇红星村"},{"poiid":"B2094655D36CA2FA449E","title":"瑞庆路顾江路","lon":"121.70344","lat":"31.24063","category":"38","category_name":"公交车站","address":""},{"poiid":"B2094757D065ABF44192","title":"悌埃保温制品(上海)有限公司","lon":"121.68988308","lat":"31.243742379","category":"249","category_name":"购物服务","address":"上海浦东新区东胜路38号A6"},{"poiid":"B2094655D36CA6FA479E","title":"东胜路小白路","lon":"121.69666","lat":"31.23113","category":"38","category_name":"公交车站","address":""},{"poiid":"B2094757D66FA6FF419D","title":"东胜路229号","lon":"121.689662185","lat":"31.2352718935","category":"500","category_name":"未知分类","address":"上海YFPOPD"},{"poiid":"B2094655D36DA1F5449C","title":"小湾","lon":"121.68753","lat":"31.22754","category":"38","category_name":"公交车站","address":""},{"poiid":"B2094757D16CABF9409C","title":"凇宝路潮州海鲜粥 众所粥滋","lon":"121.689238085","lat":"31.2359392081","category":"500","category_name":"未知分类","address":"上海凇宝路"},{"poiid":"B2094654DA6BA1F8499C","title":"世纪华联(川沙路)","lon":"121.68627","lat":"31.2363","category":"118","category_name":"超级市场","address":"川沙路2459"},{"poiid":"B2094757D169A3FE459E","title":"星星之火农家乐","lon":"121.69819945","lat":"31.2484827588","category":"260","category_name":"其他","address":"上海浦东星火"},{"poiid":"B2094757D465A4FD439D","title":"吉祥馄饨 王港店 Gll Wonton","lon":"121.684522054","lat":"31.243890793","category":"247","category_name":"餐饮美食","address":"浦东新区上丰路1961号(近川沙路)"},{"poiid":"B2094757D16FA7FF409A","title":"金枫公园","lon":"121.68068","lat":"31.24207","category":"196","category_name":"公园","address":"浦东新区虹盛路(近彩雅路)"},{"poiid":"B2094654DA6AAAFE4593","title":"王港镇卫生院","lon":"121.68304","lat":"31.23668","category":"162","category_name":"医院","address":"浦东新区虹盛路25"},{"poiid":"B2094655D36CA6FD4699","title":"龚华路龚丰路","lon":"121.68848","lat":"31.25777","category":"38","category_name":"公交车站","address":""},{"poiid":"B2094654DA6BA1FF469D","title":"金枫豪苑","lon":"121.68059","lat":"31.238508","category":"47","category_name":"住宅区","address":"金枫豪苑位于浦东虹盛路160弄"},{"poiid":"B2094757D06BA7FE489E","title":"金领国际","lon":"121.680493","lat":"31.253423","category":"252","category_name":"楼宇机构","address":"浦东新区川沙路1666号"},{"poiid":"B2094757DA64A3FF4192","title":"恒生商业广场","lon":"121.680043","lat":"31.241123","category":"252","category_name":"楼宇机构","address":"浦东新区上丰路(近金枫公园)"},{"poiid":"B2094655D36CA6F54999","title":"大湾","lon":"121.68476","lat":"31.24371","category":"38","category_name":"公交车站","address":""},{"poiid":"B2094654DA6AAAFE489C","title":"金盛佳苑","lon":"121.68645","lat":"31.242142","category":"47","category_name":"住宅区","address":"胜利路30弄"},{"poiid":"B2094655D26BA2FE439A","title":"王港","lon":"121.68574","lat":"31.23727","category":"38","category_name":"公交车站","address":""},{"poiid":"B2094757D16CA1F9499F","title":"阳光喜悦大酒店","lon":"121.698734054","lat":"31.246485793","category":"76","category_name":"上海菜","address":"浦东新区胜利路836号26栋(顾江路口)"},{"poiid":"B2094757D064A6FB469D","title":"同馨苑","lon":"121.684","lat":"31.2496","category":"252","category_name":"楼宇机构","address":"云雅路337号等单号"},{"poiid":"B2094654DA6AAAFE4798","title":"鑫港苑","lon":"121.68105","lat":"31.241295","category":"47","category_name":"住宅区","address":"上海浦东新区虹盛路250弄"},{"poiid":"B2094757D16BA0FE479E","title":"张江现代医疗器械园区","lon":"121.704831085","lat":"31.2421823455","category":"500","category_name":"未知分类","address":"上海市浦东新区瑞庆路528号"},{"poiid":"B2094655D36CA1F84593","title":"龙东大道东升路","lon":"121.69485","lat":"31.2361","category":"38","category_name":"公交车站","address":""},{"poiid":"B2094655D36CA1FC479B","title":"胜利路顾江路","lon":"121.70025","lat":"31.24675","category":"38","category_name":"公交车站","address":""},{"poiid":"B2094757D06BA7F4439F","title":"中国太平共享服务中心","lon":"121.67594917","lat":"31.232002288","category":"500","category_name":"未知分类","address":"上海张江卡园三路"},{"poiid":"B2094654DA6AAAFE479B","title":"金枫公寓","lon":"121.68266","lat":"31.238955","category":"47","category_name":"住宅区","address":"虹盛东路39弄"},{"poiid":"B2094654DA6AAAFF4292","title":"上海新发创运工业园(东胜路)","lon":"121.69203","lat":"31.24213","category":"45","category_name":"产业园区","address":"东胜路38号"},{"poiid":"B2094654DA6BA1FF4492","title":"同景苑","lon":"121.67756","lat":"31.24457","category":"47","category_name":"住宅区","address":"上海云雅路400弄"},{"poiid":"B2094750DB65A2F5429E","title":"肯德基(恒生广场店)","lon":"121.680969","lat":"31.239988","category":"68","category_name":"快餐厅","address":"浦东新区上丰路1772-1784号1楼恒生商业广场内(近王港路)"},{"poiid":"B2094655D36CA2F8479D","title":"庆达路永达路","lon":"121.69808","lat":"31.23989","category":"38","category_name":"公交车站","address":""},{"poiid":"B2094757D16EA4F9479D","title":"上海期货交易所","lon":"121.679198747","lat":"31.2485499627","category":"263","category_name":"公司","address":"上海来安路996号"},{"poiid":"B2094757D06FAAFF449D","title":"张江现代医疗器械园","lon":"121.70703125","lat":"31.242294311","category":"46","category_name":"楼宇","address":"上海张江东区仁庆路"},{"poiid":"B2094654DA6AAAFF4398","title":"高和精工(上海)有限公司","lon":"121.69283","lat":"31.24005","category":"263","category_name":"公司","address":""},{"poiid":"B2094655D36CA7F5469D","title":"顾江路凯庆路","lon":"121.70135","lat":"31.24393","category":"38","category_name":"公交车站","address":""},{"poiid":"B2094757D068ABF54798","title":"上海天马微电子有限公司","lon":"121.71168333","lat":"31.238829021","category":"263","category_name":"公司","address":"上海浦东新区汇庆路888号"},{"poiid":"B2094655D36CA1FC479E","title":"胜利路庆达路","lon":"121.69657","lat":"31.24504","category":"38","category_name":"公交车站","address":""},{"poiid":"B2094654DA6AAAFE4999","title":"兰州正宗牛肉拉面(胜利路)","lon":"121.69078","lat":"31.24442","category":"90","category_name":"清真餐馆","address":""},{"poiid":"B2094654DB64A3F4469F","title":"如家酒店","lon":"121.68334","lat":"31.23436","category":"216","category_name":"经济型连锁酒店","address":"浦东新区龙东大道5385号"},{"poiid":"B2094757D66DA2FB469E","title":"Marquardt","lon":"121.69787008","lat":"31.238926273","category":"500","category_name":"未知分类","address":"上海张江"},{"poiid":"B2094757D568AAF8479F","title":"金杨高层区项目","lon":"121.694014","lat":"31.245544","category":"47","category_name":"住宅区","address":"龙东大道胜利路836号"},{"poiid":"B2094654DA6AAAFE489F","title":"环庆新苑","lon":"121.68788","lat":"31.245167","category":"47","category_name":"住宅区","address":"胜利路169弄"},{"poiid":"B2094655D36DA2FA499A","title":"浦东运河大桥","lon":"121.69107","lat":"31.23545","category":"250","category_name":"公园户外","address":""},{"poiid":"B2094654DA6AAAFF449E","title":"马夸特开关(上海)有限公司","lon":"121.69817","lat":"31.23864","category":"263","category_name":"公司","address":""},{"poiid":"B2094654DA6AAAFE4893","title":"园区之家","lon":"121.68945","lat":"31.24339","category":"248","category_name":"生活娱乐","address":""},{"poiid":"B2094750D26AA6FC449C","title":"明宫江景苑","lon":"121.704299","lat":"31.244337","category":"47","category_name":"住宅区","address":"浦东新区凯庆路299号(近顾江路)"},{"poiid":"B2094750D76DAAFC489E","title":"蜀膳传火锅传奇(恒生广场店)","lon":"121.683","lat":"31.2368","category":"86","category_name":"火锅店","address":"浦东新区虹盛路253号恒生商业广场2楼(近上丰路)"},{"poiid":"B2094757D064A5FF4892","title":"牡丹江路","lon":"121.68923808","lat":"31.235939208","category":"500","category_name":"未知分类","address":"上海市宝山区牡丹江路"},{"poiid":"B2094654DA6BA3FC4499","title":"华昌小区","lon":"121.68414","lat":"31.238461","category":"47","category_name":"住宅区","address":"上海市浦东新区川沙路2278弄"},{"poiid":"B2094654DA6AAAFF419C","title":"胜利餐厅(胜利路)","lon":"121.69926","lat":"31.24617","category":"257","category_name":"中餐厅","address":""},{"poiid":"B2094654DA6AA5F5469C","title":"宁林汽车销售公司","lon":"121.69886","lat":"31.23865","category":"158","category_name":"汽车销售","address":"合庆镇红星村"},{"poiid":"B2094655D36CA2FA449E","title":"瑞庆路顾江路","lon":"121.70344","lat":"31.24063","category":"38","category_name":"公交车站","address":""},{"poiid":"B2094757D065ABF44192","title":"悌埃保温制品(上海)有限公司","lon":"121.68988308","lat":"31.243742379","category":"249","category_name":"购物服务","address":"上海浦东新区东胜路38号A6"},{"poiid":"B2094655D36CA6FA479E","title":"东胜路小白路","lon":"121.69666","lat":"31.23113","category":"38","category_name":"公交车站","address":""},{"poiid":"B2094757D66FA6FF419D","title":"东胜路229号","lon":"121.689662185","lat":"31.2352718935","category":"500","category_name":"未知分类","address":"上海YFPOPD"},{"poiid":"B2094655D36DA1F5449C","title":"小湾","lon":"121.68753","lat":"31.22754","category":"38","category_name":"公交车站","address":""},{"poiid":"B2094757D16CABF9409C","title":"凇宝路潮州海鲜粥 众所粥滋","lon":"121.689238085","lat":"31.2359392081","category":"500","category_name":"未知分类","address":"上海凇宝路"},{"poiid":"B2094654DA6BA1F8499C","title":"世纪华联(川沙路)","lon":"121.68627","lat":"31.2363","category":"118","category_name":"超级市场","address":"川沙路2459"},{"poiid":"B2094757D169A3FE459E","title":"星星之火农家乐","lon":"121.69819945","lat":"31.2484827588","category":"260","category_name":"其他","address":"上海浦东星火"},{"poiid":"B2094757D465A4FD439D","title":"吉祥馄饨 王港店 Gll Wonton","lon":"121.684522054","lat":"31.243890793","category":"247","category_name":"餐饮美食","address":"浦东新区上丰路1961号(近川沙路)"},{"poiid":"B2094757D16FA7FF409A","title":"金枫公园","lon":"121.68068","lat":"31.24207","category":"196","category_name":"公园","address":"浦东新区虹盛路(近彩雅路)"},{"poiid":"B2094654DA6AAAFE4593","title":"王港镇卫生院","lon":"121.68304","lat":"31.23668","category":"162","category_name":"医院","address":"浦东新区虹盛路25"},{"poiid":"B2094655D36CA6FD4699","title":"龚华路龚丰路","lon":"121.68848","lat":"31.25777","category":"38","category_name":"公交车站","address":""},{"poiid":"B2094654DA6BA1FF469D","title":"金枫豪苑","lon":"121.68059","lat":"31.238508","category":"47","category_name":"住宅区","address":"金枫豪苑位于浦东虹盛路160弄"}]