[{"poiid":"B2094654DA6DA4F44792","title":"复旦大学附属眼耳鼻喉科医院(汾阳路总院)","lon":"121.45335","lat":"31.20955","category":"191","category_name":"科研机构","address":"上海徐汇区汾阳路83号(太原路口)"},{"poiid":"B2094655D26EA4FD419B","title":"宝莱纳餐厅(徐汇店)","lon":"121.45233","lat":"31.20984","category":"260","category_name":"其他","address":"徐汇区汾阳路150号(近桃江路)"},{"poiid":"B2094757D06FA7FF479A","title":"仙炙轩(汾阳路店)","lon":"121.452714142","lat":"31.2095961951","category":"269","category_name":"烧烤","address":"徐汇区汾阳路150号(近桃江路)"},{"poiid":"B2094753D76FAAFA449C","title":"上海滩国泰旗舰店","lon":"121.466011","lat":"31.216125","category":"249","category_name":"购物服务","address":"淮海中路868号"},{"poiid":"B209475CD564A7F84292","title":"上海滩新天地店","lon":"121.47463","lat":"31.22164","category":"119","category_name":"商场","address":"\"太仓路181弄新天地北里15号\r\n\""},{"poiid":"B209475CD564A7F8439E","title":"上海滩中信泰富店","lon":"121.45602","lat":"31.22851","category":"119","category_name":"商场","address":"\"南京西路1168号中信泰富广场，店铺号221.\r\n\""},{"poiid":"B2094757D06FA2FA4999","title":"Colabo(衡山店)","lon":"121.451678867","lat":"31.2094187393","category":"94","category_name":"西餐厅","address":"徐汇区汾阳路156号(近桃江路)"},{"poiid":"B2094757D06FA4FD499F","title":"La Creperie","lon":"121.4518","lat":"31.20849","category":"94","category_name":"西餐厅","address":"徐汇区桃江路1号(近东平路)"},{"poiid":"B2094757D664A4FA469F","title":"The Camel Bar","lon":"121.451739","lat":"31.20861","category":"172","category_name":"酒吧","address":"徐汇区岳阳路1号(近东平路)"},{"poiid":"B2094757D06EAAFB4593","title":"老麦咖啡馆","lon":"121.450176054","lat":"31.209116793","category":"260","category_name":"其他","address":"徐汇区桃江路25号甲(桃江路宝庆路路口,近衡山路)"},{"poiid":"B2094757D06BA7F54593","title":"五官科医院特约耳鼻喉科门诊","lon":"121.453332","lat":"31.20965","category":"162","category_name":"医院","address":"上海徐汇区汾阳路83号3楼(太原路口)"},{"poiid":"B2094654DB69A5F9449A","title":"星巴克(汾阳路店)","lon":"121.4530533","lat":"31.2097278","category":"65","category_name":"咖啡厅","address":"徐汇区汾阳路138号1楼03单元(太原路)"},{"poiid":"B2094655D26EA5FA4999","title":"上海教育会堂","lon":"121.45212","lat":"31.20841","category":"68","category_name":"快餐厅","address":"徐汇区岳阳路1号(近东平路)"},{"poiid":"B2094757D16DA7FF479A","title":"宝莱纳","lon":"121.45173458","lat":"31.208893013","category":"249","category_name":"购物服务","address":"上海汾阳路138号"},{"poiid":"B2094757D06FA0FD449C","title":"Abbey Road","lon":"121.45199149","lat":"31.208174879","category":"94","category_name":"西餐厅","address":"徐汇区岳阳路45号(近永嘉路)"},{"poiid":"B2094757D06FA6F54293","title":"斗牛士(岳阳店)","lon":"121.45247","lat":"31.20854","category":"94","category_name":"西餐厅","address":"徐汇区岳阳路1号(近东平路)"},{"poiid":"B2094757D06FA5F44792","title":"Voce Cafe","lon":"121.45129679","lat":"31.206693725","category":"260","category_name":"其他","address":"上海徐汇区永嘉路566号(近岳阳路)"},{"poiid":"B2094750DA6AA2FD4798","title":"Green & Safe","lon":"121.450263","lat":"31.208555","category":"94","category_name":"西餐厅","address":"徐汇区东平路6号(近衡山路)"},{"poiid":"B2094757D069A3F54799","title":"El Patio","lon":"121.45368458","lat":"31.210532045","category":"94","category_name":"西餐厅","address":"徐汇区汾阳路110号(近太原路)"},{"poiid":"B2094654DB69A7FD439B","title":"席家花园(徐汇总店)","lon":"121.45147","lat":"31.20833","category":"47","category_name":"住宅区","address":"徐汇区东平路1号(近衡山路)"},{"poiid":"B2094757D06FA6FC439D","title":"宝莱纳贝可利面包","lon":"121.45267563","lat":"31.209468642","category":"67","category_name":"甜品店","address":"徐汇区汾阳路150号(近桃江路)"},{"poiid":"B2094757DB68AAFE4898","title":"洋房火锅 Hot Pot Sun","lon":"121.45186","lat":"31.2083","category":"88","category_name":"海鲜酒楼","address":"徐汇区岳阳路1号(近汾阳路)"},{"poiid":"B2094757D06AAAF84399","title":"Greek Taverna","lon":"121.451924586","lat":"31.2083350028","category":"500","category_name":"未知分类","address":"上海市徐汇区岳阳路1号近东平路"},{"poiid":"B2094757D06AA2F5409D","title":"鲜芋仙(岳阳店)","lon":"121.451889586","lat":"31.2088120122","category":"67","category_name":"甜品店","address":"徐汇区岳阳路1号(近桃江路东平路)"},{"poiid":"B2094654DA6DA4FB419E","title":"和平官邸","lon":"121.45141","lat":"31.20936","category":"76","category_name":"上海菜","address":"徐汇区汾阳路158号(近桃江路)"},{"poiid":"B2094654DA6DA4FB439A","title":"滴水洞湘菜馆(东平路)","lon":"121.45098","lat":"31.20836","category":"77","category_name":"湖南菜","address":"徐汇区东平路5号B座(近岳阳路)"},{"poiid":"B2094757D069A1F54799","title":"南蛮亭","lon":"121.45185","lat":"31.20829","category":"95","category_name":"日本料理","address":"徐汇区岳阳路1号(近汾阳路)"},{"poiid":"B2094757D06AA3FB4292","title":"上海工艺美术博物馆","lon":"121.45460284","lat":"31.210373083","category":"182","category_name":"博物馆","address":"徐汇区汾阳路79号(永康路与太原路之间)"},{"poiid":"B2094757D068A3FC4398","title":"轻科大厦","lon":"121.452919","lat":"31.209844589","category":"46","category_name":"楼宇","address":"西城区金融街A区3号地南部"},{"poiid":"B2094757D66BABF9479C","title":"Goga","lon":"121.45167517625","lat":"31.208671976401","category":"94","category_name":"西餐厅","address":"徐汇区岳阳路1号(近东平路)"},{"poiid":"B2094757D06BAAF44598","title":"尔苑咖啡厅 Anna Maya Vegetarian Cafe","lon":"121.450652054","lat":"31.208991793","category":"89","category_name":"中式素餐馆","address":"徐汇区桃江路3号(近宝庆路)"},{"poiid":"B2094654DA6DA4F44899","title":"上海市红十字眼耳鼻喉科医院","lon":"121.45334","lat":"31.20954","category":"162","category_name":"医院","address":"汾阳路83"},{"poiid":"B2094757D068AAFA4999","title":"猫咖啡 Cat cafe bliss","lon":"121.45400997","lat":"31.209424931","category":"260","category_name":"其他","address":"徐汇区太原路8弄1号2楼(近汾阳路)"},{"poiid":"B2094750D66CA0FE449A","title":"hollywood","lon":"121.451583","lat":"31.207653","category":"260","category_name":"其他","address":"徐汇区岳阳路46号(近东平路)"},{"poiid":"B2094757D16DA2FD469E","title":"金福轩","lon":"121.45212","lat":"31.20842","category":"76","category_name":"上海菜","address":"徐汇区岳阳路1号教育会堂5楼(近五官科医院)"},{"poiid":"B2094757D06AA5F9419C","title":"公安部第三研究所","lon":"121.45197862","lat":"31.206925644","category":"500","category_name":"未知分类","address":"上海市徐汇区岳阳路76号"},{"poiid":"B2094654DA6DA4F4429C","title":"上海教育会堂宾馆","lon":"121.45212","lat":"31.20841","category":"250","category_name":"公园户外","address":"上海市徐汇区岳阳路1号（近东平路）"},{"poiid":"B2094750D76DA1FB4293","title":"斗牛士台湾牛肉面(岳阳路店)","lon":"121.452","lat":"31.2083","category":"68","category_name":"快餐厅","address":"徐汇区岳阳路1号(近东平路)"},{"poiid":"B2094654DA6DA4FB4498","title":"MAO","lon":"121.4519","lat":"31.20749","category":"172","category_name":"酒吧","address":"岳阳路46号近永嘉路"},{"poiid":"B2094655D26CA1FE439D","title":"Deli & Bakery","lon":"121.45269","lat":"31.20957","category":"112","category_name":"糕饼店","address":""},{"poiid":"B2094751D56CABF44799","title":"Hai By Goga","lon":"121.45205","lat":"31.20891","category":"94","category_name":"西餐厅","address":"徐汇区岳阳路1号7楼"},{"poiid":"B2094654DA6DA4FB4199","title":"宝轻大厦","lon":"121.45123","lat":"31.20942","category":"46","category_name":"楼宇","address":"宣武区南横街东口"},{"poiid":"B2094757D06EAAFD4392","title":"磨咕咖啡馆 mogoo cafe","lon":"121.454309054","lat":"31.211203793","category":"260","category_name":"其他","address":"徐汇区汾阳路77号(近音乐学院)"},{"poiid":"B2094757D569A3F8409A","title":"六本木南蛮亭(上海店)","lon":"121.45202745","lat":"31.20863553","category":"95","category_name":"日本料理","address":"中国上海市徐汇区岳阳路"},{"poiid":"B2094655D26BA2FA439C","title":"太原路永嘉路","lon":"121.45407","lat":"31.20982","category":"38","category_name":"公交车站","address":""},{"poiid":"B2094655D26AA7FD4193","title":"教育会堂宾馆","lon":"121.45212","lat":"31.20842","category":"247","category_name":"餐饮美食","address":"徐汇区岳阳路1号(近东平路)"},{"poiid":"B2094757D165A6FC489E","title":"普希金铜像 三角花园","lon":"121.451652956","lat":"31.2089741553","category":"250","category_name":"公园户外","address":"上海岳阳路桃江路东平路汾阳路口"},{"poiid":"B2094757D165A0FC479B","title":"庆余别墅","lon":"121.45207540812","lat":"31.210259460525","category":"47","category_name":"住宅区","address":"徐汇区衡山路58弄3号(近高安路)"},{"poiid":"B2094655D265A5FD4199","title":"上海文广影视职业培训学校","lon":"121.45188","lat":"31.20771","category":"54","category_name":"职业技术学校","address":"岳阳路44"},{"poiid":"B2094752D464A0F84999","title":"上海音乐学院附中","lon":"121.452172","lat":"31.209574","category":"253","category_name":"校园生活","address":"东平路9号"},{"poiid":"B2094654DA6DA4F44792","title":"复旦大学附属眼耳鼻喉科医院(汾阳路总院)","lon":"121.45335","lat":"31.20955","category":"191","category_name":"科研机构","address":"上海徐汇区汾阳路83号(太原路口)"},{"poiid":"B2094655D26EA4FD419B","title":"宝莱纳餐厅(徐汇店)","lon":"121.45233","lat":"31.20984","category":"260","category_name":"其他","address":"徐汇区汾阳路150号(近桃江路)"},{"poiid":"B2094757D06FA7FF479A","title":"仙炙轩(汾阳路店)","lon":"121.452714142","lat":"31.2095961951","category":"269","category_name":"烧烤","address":"徐汇区汾阳路150号(近桃江路)"},{"poiid":"B2094753D76FAAFA449C","title":"上海滩国泰旗舰店","lon":"121.466011","lat":"31.216125","category":"249","category_name":"购物服务","address":"淮海中路868号"},{"poiid":"B209475CD564A7F84292","title":"上海滩新天地店","lon":"121.47463","lat":"31.22164","category":"119","category_name":"商场","address":"\"太仓路181弄新天地北里15号\r\n\""},{"poiid":"B209475CD564A7F8439E","title":"上海滩中信泰富店","lon":"121.45602","lat":"31.22851","category":"119","category_name":"商场","address":"\"南京西路1168号中信泰富广场，店铺号221.\r\n\""},{"poiid":"B2094757D06FA2FA4999","title":"Colabo(衡山店)","lon":"121.451678867","lat":"31.2094187393","category":"94","category_name":"西餐厅","address":"徐汇区汾阳路156号(近桃江路)"},{"poiid":"B2094757D06FA4FD499F","title":"La Creperie","lon":"121.4518","lat":"31.20849","category":"94","category_name":"西餐厅","address":"徐汇区桃江路1号(近东平路)"},{"poiid":"B2094757D664A4FA469F","title":"The Camel Bar","lon":"121.451739","lat":"31.20861","category":"172","category_name":"酒吧","address":"徐汇区岳阳路1号(近东平路)"},{"poiid":"B2094757D06EAAFB4593","title":"老麦咖啡馆","lon":"121.450176054","lat":"31.209116793","category":"260","category_name":"其他","address":"徐汇区桃江路25号甲(桃江路宝庆路路口,近衡山路)"},{"poiid":"B2094757D06BA7F54593","title":"五官科医院特约耳鼻喉科门诊","lon":"121.453332","lat":"31.20965","category":"162","category_name":"医院","address":"上海徐汇区汾阳路83号3楼(太原路口)"},{"poiid":"B2094654DB69A5F9449A","title":"星巴克(汾阳路店)","lon":"121.4530533","lat":"31.2097278","category":"65","category_name":"咖啡厅","address":"徐汇区汾阳路138号1楼03单元(太原路)"},{"poiid":"B2094655D26EA5FA4999","title":"上海教育会堂","lon":"121.45212","lat":"31.20841","category":"68","category_name":"快餐厅","address":"徐汇区岳阳路1号(近东平路)"},{"poiid":"B2094757D16DA7FF479A","title":"宝莱纳","lon":"121.45173458","lat":"31.208893013","category":"249","category_name":"购物服务","address":"上海汾阳路138号"},{"poiid":"B2094757D06FA0FD449C","title":"Abbey Road","lon":"121.45199149","lat":"31.208174879","category":"94","category_name":"西餐厅","address":"徐汇区岳阳路45号(近永嘉路)"},{"poiid":"B2094757D06FA6F54293","title":"斗牛士(岳阳店)","lon":"121.45247","lat":"31.20854","category":"94","category_name":"西餐厅","address":"徐汇区岳阳路1号(近东平路)"},{"poiid":"B2094757D06FA5F44792","title":"Voce Cafe","lon":"121.45129679","lat":"31.206693725","category":"260","category_name":"其他","address":"上海徐汇区永嘉路566号(近岳阳路)"},{"poiid":"B2094750DA6AA2FD4798","title":"Green & Safe","lon":"121.450263","lat":"31.208555","category":"94","category_name":"西餐厅","address":"徐汇区东平路6号(近衡山路)"},{"poiid":"B2094757D069A3F54799","title":"El Patio","lon":"121.45368458","lat":"31.210532045","category":"94","category_name":"西餐厅","address":"徐汇区汾阳路110号(近太原路)"},{"poiid":"B2094654DB69A7FD439B","title":"席家花园(徐汇总店)","lon":"121.45147","lat":"31.20833","category":"47","category_name":"住宅区","address":"徐汇区东平路1号(近衡山路)"},{"poiid":"B2094757D06FA6FC439D","title":"宝莱纳贝可利面包","lon":"121.45267563","lat":"31.209468642","category":"67","category_name":"甜品店","address":"徐汇区汾阳路150号(近桃江路)"},{"poiid":"B2094757DB68AAFE4898","title":"洋房火锅 Hot Pot Sun","lon":"121.45186","lat":"31.2083","category":"88","category_name":"海鲜酒楼","address":"徐汇区岳阳路1号(近汾阳路)"},{"poiid":"B2094757D06AAAF84399","title":"Greek Taverna","lon":"121.451924586","lat":"31.2083350028","category":"500","category_name":"未知分类","address":"上海市徐汇区岳阳路1号近东平路"},{"poiid":"B2094757D06AA2F5409D","title":"鲜芋仙(岳阳店)","lon":"121.451889586","lat":"31.2088120122","category":"67","category_name":"甜品店","address":"徐汇区岳阳路1号(近桃江路东平路)"},{"poiid":"B2094654DA6DA4FB419E","title":"和平官邸","lon":"121.45141","lat":"31.20936","category":"76","category_name":"上海菜","address":"徐汇区汾阳路158号(近桃江路)"},{"poiid":"B2094654DA6DA4FB439A","title":"滴水洞湘菜馆(东平路)","lon":"121.45098","lat":"31.20836","category":"77","category_name":"湖南菜","address":"徐汇区东平路5号B座(近岳阳路)"},{"poiid":"B2094757D069A1F54799","title":"南蛮亭","lon":"121.45185","lat":"31.20829","category":"95","category_name":"日本料理","address":"徐汇区岳阳路1号(近汾阳路)"},{"poiid":"B2094757D06AA3FB4292","title":"上海工艺美术博物馆","lon":"121.45460284","lat":"31.210373083","category":"182","category_name":"博物馆","address":"徐汇区汾阳路79号(永康路与太原路之间)"},{"poiid":"B2094757D068A3FC4398","title":"轻科大厦","lon":"121.452919","lat":"31.209844589","category":"46","category_name":"楼宇","address":"西城区金融街A区3号地南部"},{"poiid":"B2094757D66BABF9479C","title":"Goga","lon":"121.45167517625","lat":"31.208671976401","category":"94","category_name":"西餐厅","address":"徐汇区岳阳路1号(近东平路)"},{"poiid":"B2094757D06BAAF44598","title":"尔苑咖啡厅 Anna Maya Vegetarian Cafe","lon":"121.450652054","lat":"31.208991793","category":"89","category_name":"中式素餐馆","address":"徐汇区桃江路3号(近宝庆路)"},{"poiid":"B2094654DA6DA4F44899","title":"上海市红十字眼耳鼻喉科医院","lon":"121.45334","lat":"31.20954","category":"162","category_name":"医院","address":"汾阳路83"},{"poiid":"B2094757D068AAFA4999","title":"猫咖啡 Cat cafe bliss","lon":"121.45400997","lat":"31.209424931","category":"260","category_name":"其他","address":"徐汇区太原路8弄1号2楼(近汾阳路)"},{"poiid":"B2094750D66CA0FE449A","title":"hollywood","lon":"121.451583","lat":"31.207653","category":"260","category_name":"其他","address":"徐汇区岳阳路46号(近东平路)"},{"poiid":"B2094757D16DA2FD469E","title":"金福轩","lon":"121.45212","lat":"31.20842","category":"76","category_name":"上海菜","address":"徐汇区岳阳路1号教育会堂5楼(近五官科医院)"},{"poiid":"B2094757D06AA5F9419C","title":"公安部第三研究所","lon":"121.45197862","lat":"31.206925644","category":"500","category_name":"未知分类","address":"上海市徐汇区岳阳路76号"},{"poiid":"B2094654DA6DA4F4429C","title":"上海教育会堂宾馆","lon":"121.45212","lat":"31.20841","category":"250","category_name":"公园户外","address":"上海市徐汇区岳阳路1号（近东平路）"},{"poiid":"B2094750D76DA1FB4293","title":"斗牛士台湾牛肉面(岳阳路店)","lon":"121.452","lat":"31.2083","category":"68","category_name":"快餐厅","address":"徐汇区岳阳路1号(近东平路)"},{"poiid":"B2094654DA6DA4FB4498","title":"MAO","lon":"121.4519","lat":"31.20749","category":"172","category_name":"酒吧","address":"岳阳路46号近永嘉路"},{"poiid":"B2094655D26CA1FE439D","title":"Deli & Bakery","lon":"121.45269","lat":"31.20957","category":"112","category_name":"糕饼店","address":""},{"poiid":"B2094751D56CABF44799","title":"Hai By Goga","lon":"121.45205","lat":"31.20891","category":"94","category_name":"西餐厅","address":"徐汇区岳阳路1号7楼"},{"poiid":"B2094654DA6DA4FB4199","title":"宝轻大厦","lon":"121.45123","lat":"31.20942","category":"46","category_name":"楼宇","address":"宣武区南横街东口"},{"poiid":"B2094757D06EAAFD4392","title":"磨咕咖啡馆 mogoo cafe","lon":"121.454309054","lat":"31.211203793","category":"260","category_name":"其他","address":"徐汇区汾阳路77号(近音乐学院)"},{"poiid":"B2094757D569A3F8409A","title":"六本木南蛮亭(上海店)","lon":"121.45202745","lat":"31.20863553","category":"95","category_name":"日本料理","address":"中国上海市徐汇区岳阳路"},{"poiid":"B2094655D26BA2FA439C","title":"太原路永嘉路","lon":"121.45407","lat":"31.20982","category":"38","category_name":"公交车站","address":""},{"poiid":"B2094655D26AA7FD4193","title":"教育会堂宾馆","lon":"121.45212","lat":"31.20842","category":"247","category_name":"餐饮美食","address":"徐汇区岳阳路1号(近东平路)"},{"poiid":"B2094757D165A6FC489E","title":"普希金铜像 三角花园","lon":"121.451652956","lat":"31.2089741553","category":"250","category_name":"公园户外","address":"上海岳阳路桃江路东平路汾阳路口"},{"poiid":"B2094757D165A0FC479B","title":"庆余别墅","lon":"121.45207540812","lat":"31.210259460525","category":"47","category_name":"住宅区","address":"徐汇区衡山路58弄3号(近高安路)"},{"poiid":"B2094655D265A5FD4199","title":"上海文广影视职业培训学校","lon":"121.45188","lat":"31.20771","category":"54","category_name":"职业技术学校","address":"岳阳路44"},{"poiid":"B2094752D464A0F84999","title":"上海音乐学院附中","lon":"121.452172","lat":"31.209574","category":"253","category_name":"校园生活","address":"东平路9号"},{"poiid":"B2094654DA6DA4F44792","title":"复旦大学附属眼耳鼻喉科医院(汾阳路总院)","lon":"121.45335","lat":"31.20955","category":"191","category_name":"科研机构","address":"上海徐汇区汾阳路83号(太原路口)"},{"poiid":"B2094655D26EA4FD419B","title":"宝莱纳餐厅(徐汇店)","lon":"121.45233","lat":"31.20984","category":"260","category_name":"其他","address":"徐汇区汾阳路150号(近桃江路)"},{"poiid":"B2094757D06FA7FF479A","title":"仙炙轩(汾阳路店)","lon":"121.452714142","lat":"31.2095961951","category":"269","category_name":"烧烤","address":"徐汇区汾阳路150号(近桃江路)"},{"poiid":"B2094753D76FAAFA449C","title":"上海滩国泰旗舰店","lon":"121.466011","lat":"31.216125","category":"249","category_name":"购物服务","address":"淮海中路868号"},{"poiid":"B209475CD564A7F84292","title":"上海滩新天地店","lon":"121.47463","lat":"31.22164","category":"119","category_name":"商场","address":"\"太仓路181弄新天地北里15号\r\n\""},{"poiid":"B209475CD564A7F8439E","title":"上海滩中信泰富店","lon":"121.45602","lat":"31.22851","category":"119","category_name":"商场","address":"\"南京西路1168号中信泰富广场，店铺号221.\r\n\""},{"poiid":"B2094757D06FA2FA4999","title":"Colabo(衡山店)","lon":"121.451678867","lat":"31.2094187393","category":"94","category_name":"西餐厅","address":"徐汇区汾阳路156号(近桃江路)"},{"poiid":"B2094757D06FA4FD499F","title":"La Creperie","lon":"121.4518","lat":"31.20849","category":"94","category_name":"西餐厅","address":"徐汇区桃江路1号(近东平路)"},{"poiid":"B2094757D664A4FA469F","title":"The Camel Bar","lon":"121.451739","lat":"31.20861","category":"172","category_name":"酒吧","address":"徐汇区岳阳路1号(近东平路)"},{"poiid":"B2094757D06EAAFB4593","title":"老麦咖啡馆","lon":"121.450176054","lat":"31.209116793","category":"260","category_name":"其他","address":"徐汇区桃江路25号甲(桃江路宝庆路路口,近衡山路)"},{"poiid":"B2094757D06BA7F54593","title":"五官科医院特约耳鼻喉科门诊","lon":"121.453332","lat":"31.20965","category":"162","category_name":"医院","address":"上海徐汇区汾阳路83号3楼(太原路口)"},{"poiid":"B2094654DB69A5F9449A","title":"星巴克(汾阳路店)","lon":"121.4530533","lat":"31.2097278","category":"65","category_name":"咖啡厅","address":"徐汇区汾阳路138号1楼03单元(太原路)"},{"poiid":"B2094655D26EA5FA4999","title":"上海教育会堂","lon":"121.45212","lat":"31.20841","category":"68","category_name":"快餐厅","address":"徐汇区岳阳路1号(近东平路)"},{"poiid":"B2094757D16DA7FF479A","title":"宝莱纳","lon":"121.45173458","lat":"31.208893013","category":"249","category_name":"购物服务","address":"上海汾阳路138号"},{"poiid":"B2094757D06FA0FD449C","title":"Abbey Road","lon":"121.45199149","lat":"31.208174879","category":"94","category_name":"西餐厅","address":"徐汇区岳阳路45号(近永嘉路)"},{"poiid":"B2094757D06FA6F54293","title":"斗牛士(岳阳店)","lon":"121.45247","lat":"31.20854","category":"94","category_name":"西餐厅","address":"徐汇区岳阳路1号(近东平路)"},{"poiid":"B2094757D06FA5F44792","title":"Voce Cafe","lon":"121.45129679","lat":"31.206693725","category":"260","category_name":"其他","address":"上海徐汇区永嘉路566号(近岳阳路)"},{"poiid":"B2094750DA6AA2FD4798","title":"Green & Safe","lon":"121.450263","lat":"31.208555","category":"94","category_name":"西餐厅","address":"徐汇区东平路6号(近衡山路)"},{"poiid":"B2094757D069A3F54799","title":"El Patio","lon":"121.45368458","lat":"31.210532045","category":"94","category_name":"西餐厅","address":"徐汇区汾阳路110号(近太原路)"},{"poiid":"B2094654DB69A7FD439B","title":"席家花园(徐汇总店)","lon":"121.45147","lat":"31.20833","category":"47","category_name":"住宅区","address":"徐汇区东平路1号(近衡山路)"},{"poiid":"B2094757D06FA6FC439D","title":"宝莱纳贝可利面包","lon":"121.45267563","lat":"31.209468642","category":"67","category_name":"甜品店","address":"徐汇区汾阳路150号(近桃江路)"},{"poiid":"B2094757DB68AAFE4898","title":"洋房火锅 Hot Pot Sun","lon":"121.45186","lat":"31.2083","category":"88","category_name":"海鲜酒楼","address":"徐汇区岳阳路1号(近汾阳路)"},{"poiid":"B2094757D06AAAF84399","title":"Greek Taverna","lon":"121.451924586","lat":"31.2083350028","category":"500","category_name":"未知分类","address":"上海市徐汇区岳阳路1号近东平路"},{"poiid":"B2094757D06AA2F5409D","title":"鲜芋仙(岳阳店)","lon":"121.451889586","lat":"31.2088120122","category":"67","category_name":"甜品店","address":"徐汇区岳阳路1号(近桃江路东平路)"},{"poiid":"B2094654DA6DA4FB419E","title":"和平官邸","lon":"121.45141","lat":"31.20936","category":"76","category_name":"上海菜","address":"徐汇区汾阳路158号(近桃江路)"},{"poiid":"B2094654DA6DA4FB439A","title":"滴水洞湘菜馆(东平路)","lon":"121.45098","lat":"31.20836","category":"77","category_name":"湖南菜","address":"徐汇区东平路5号B座(近岳阳路)"},{"poiid":"B2094757D069A1F54799","title":"南蛮亭","lon":"121.45185","lat":"31.20829","category":"95","category_name":"日本料理","address":"徐汇区岳阳路1号(近汾阳路)"},{"poiid":"B2094757D06AA3FB4292","title":"上海工艺美术博物馆","lon":"121.45460284","lat":"31.210373083","category":"182","category_name":"博物馆","address":"徐汇区汾阳路79号(永康路与太原路之间)"},{"poiid":"B2094757D068A3FC4398","title":"轻科大厦","lon":"121.452919","lat":"31.209844589","category":"46","category_name":"楼宇","address":"西城区金融街A区3号地南部"},{"poiid":"B2094757D66BABF9479C","title":"Goga","lon":"121.45167517625","lat":"31.208671976401","category":"94","category_name":"西餐厅","address":"徐汇区岳阳路1号(近东平路)"},{"poiid":"B2094757D06BAAF44598","title":"尔苑咖啡厅 Anna Maya Vegetarian Cafe","lon":"121.450652054","lat":"31.208991793","category":"89","category_name":"中式素餐馆","address":"徐汇区桃江路3号(近宝庆路)"},{"poiid":"B2094654DA6DA4F44899","title":"上海市红十字眼耳鼻喉科医院","lon":"121.45334","lat":"31.20954","category":"162","category_name":"医院","address":"汾阳路83"},{"poiid":"B2094757D068AAFA4999","title":"猫咖啡 Cat cafe bliss","lon":"121.45400997","lat":"31.209424931","category":"260","category_name":"其他","address":"徐汇区太原路8弄1号2楼(近汾阳路)"},{"poiid":"B2094750D66CA0FE449A","title":"hollywood","lon":"121.451583","lat":"31.207653","category":"260","category_name":"其他","address":"徐汇区岳阳路46号(近东平路)"},{"poiid":"B2094757D16DA2FD469E","title":"金福轩","lon":"121.45212","lat":"31.20842","category":"76","category_name":"上海菜","address":"徐汇区岳阳路1号教育会堂5楼(近五官科医院)"},{"poiid":"B2094757D06AA5F9419C","title":"公安部第三研究所","lon":"121.45197862","lat":"31.206925644","category":"500","category_name":"未知分类","address":"上海市徐汇区岳阳路76号"},{"poiid":"B2094654DA6DA4F4429C","title":"上海教育会堂宾馆","lon":"121.45212","lat":"31.20841","category":"250","category_name":"公园户外","address":"上海市徐汇区岳阳路1号（近东平路）"},{"poiid":"B2094750D76DA1FB4293","title":"斗牛士台湾牛肉面(岳阳路店)","lon":"121.452","lat":"31.2083","category":"68","category_name":"快餐厅","address":"徐汇区岳阳路1号(近东平路)"},{"poiid":"B2094654DA6DA4FB4498","title":"MAO","lon":"121.4519","lat":"31.20749","category":"172","category_name":"酒吧","address":"岳阳路46号近永嘉路"},{"poiid":"B2094655D26CA1FE439D","title":"Deli & Bakery","lon":"121.45269","lat":"31.20957","category":"112","category_name":"糕饼店","address":""},{"poiid":"B2094751D56CABF44799","title":"Hai By Goga","lon":"121.45205","lat":"31.20891","category":"94","category_name":"西餐厅","address":"徐汇区岳阳路1号7楼"},{"poiid":"B2094654DA6DA4FB4199","title":"宝轻大厦","lon":"121.45123","lat":"31.20942","category":"46","category_name":"楼宇","address":"宣武区南横街东口"},{"poiid":"B2094757D06EAAFD4392","title":"磨咕咖啡馆 mogoo cafe","lon":"121.454309054","lat":"31.211203793","category":"260","category_name":"其他","address":"徐汇区汾阳路77号(近音乐学院)"},{"poiid":"B2094757D569A3F8409A","title":"六本木南蛮亭(上海店)","lon":"121.45202745","lat":"31.20863553","category":"95","category_name":"日本料理","address":"中国上海市徐汇区岳阳路"},{"poiid":"B2094655D26BA2FA439C","title":"太原路永嘉路","lon":"121.45407","lat":"31.20982","category":"38","category_name":"公交车站","address":""},{"poiid":"B2094655D26AA7FD4193","title":"教育会堂宾馆","lon":"121.45212","lat":"31.20842","category":"247","category_name":"餐饮美食","address":"徐汇区岳阳路1号(近东平路)"},{"poiid":"B2094757D165A6FC489E","title":"普希金铜像 三角花园","lon":"121.451652956","lat":"31.2089741553","category":"250","category_name":"公园户外","address":"上海岳阳路桃江路东平路汾阳路口"},{"poiid":"B2094757D165A0FC479B","title":"庆余别墅","lon":"121.45207540812","lat":"31.210259460525","category":"47","category_name":"住宅区","address":"徐汇区衡山路58弄3号(近高安路)"},{"poiid":"B2094655D265A5FD4199","title":"上海文广影视职业培训学校","lon":"121.45188","lat":"31.20771","category":"54","category_name":"职业技术学校","address":"岳阳路44"},{"poiid":"B2094752D464A0F84999","title":"上海音乐学院附中","lon":"121.452172","lat":"31.209574","category":"253","category_name":"校园生活","address":"东平路9号"},{"poiid":"B2094654DA6DA4F44792","title":"复旦大学附属眼耳鼻喉科医院(汾阳路总院)","lon":"121.45335","lat":"31.20955","category":"191","category_name":"科研机构","address":"上海徐汇区汾阳路83号(太原路口)"},{"poiid":"B2094655D26EA4FD419B","title":"宝莱纳餐厅(徐汇店)","lon":"121.45233","lat":"31.20984","category":"260","category_name":"其他","address":"徐汇区汾阳路150号(近桃江路)"},{"poiid":"B2094757D06FA7FF479A","title":"仙炙轩(汾阳路店)","lon":"121.452714142","lat":"31.2095961951","category":"269","category_name":"烧烤","address":"徐汇区汾阳路150号(近桃江路)"},{"poiid":"B2094753D76FAAFA449C","title":"上海滩国泰旗舰店","lon":"121.466011","lat":"31.216125","category":"249","category_name":"购物服务","address":"淮海中路868号"},{"poiid":"B209475CD564A7F84292","title":"上海滩新天地店","lon":"121.47463","lat":"31.22164","category":"119","category_name":"商场","address":"\"太仓路181弄新天地北里15号\r\n\""},{"poiid":"B209475CD564A7F8439E","title":"上海滩中信泰富店","lon":"121.45602","lat":"31.22851","category":"119","category_name":"商场","address":"\"南京西路1168号中信泰富广场，店铺号221.\r\n\""},{"poiid":"B2094757D06FA2FA4999","title":"Colabo(衡山店)","lon":"121.451678867","lat":"31.2094187393","category":"94","category_name":"西餐厅","address":"徐汇区汾阳路156号(近桃江路)"},{"poiid":"B2094757D06FA4FD499F","title":"La Creperie","lon":"121.4518","lat":"31.20849","category":"94","category_name":"西餐厅","address":"徐汇区桃江路1号(近东平路)"},{"poiid":"B2094757D664A4FA469F","title":"The Camel Bar","lon":"121.451739","lat":"31.20861","category":"172","category_name":"酒吧","address":"徐汇区岳阳路1号(近东平路)"},{"poiid":"B2094757D06EAAFB4593","title":"老麦咖啡馆","lon":"121.450176054","lat":"31.209116793","category":"260","category_name":"其他","address":"徐汇区桃江路25号甲(桃江路宝庆路路口,近衡山路)"},{"poiid":"B2094757D06BA7F54593","title":"五官科医院特约耳鼻喉科门诊","lon":"121.453332","lat":"31.20965","category":"162","category_name":"医院","address":"上海徐汇区汾阳路83号3楼(太原路口)"},{"poiid":"B2094654DB69A5F9449A","title":"星巴克(汾阳路店)","lon":"121.4530533","lat":"31.2097278","category":"65","category_name":"咖啡厅","address":"徐汇区汾阳路138号1楼03单元(太原路)"},{"poiid":"B2094655D26EA5FA4999","title":"上海教育会堂","lon":"121.45212","lat":"31.20841","category":"68","category_name":"快餐厅","address":"徐汇区岳阳路1号(近东平路)"},{"poiid":"B2094757D16DA7FF479A","title":"宝莱纳","lon":"121.45173458","lat":"31.208893013","category":"249","category_name":"购物服务","address":"上海汾阳路138号"},{"poiid":"B2094757D06FA0FD449C","title":"Abbey Road","lon":"121.45199149","lat":"31.208174879","category":"94","category_name":"西餐厅","address":"徐汇区岳阳路45号(近永嘉路)"},{"poiid":"B2094757D06FA6F54293","title":"斗牛士(岳阳店)","lon":"121.45247","lat":"31.20854","category":"94","category_name":"西餐厅","address":"徐汇区岳阳路1号(近东平路)"},{"poiid":"B2094757D06FA5F44792","title":"Voce Cafe","lon":"121.45129679","lat":"31.206693725","category":"260","category_name":"其他","address":"上海徐汇区永嘉路566号(近岳阳路)"},{"poiid":"B2094750DA6AA2FD4798","title":"Green & Safe","lon":"121.450263","lat":"31.208555","category":"94","category_name":"西餐厅","address":"徐汇区东平路6号(近衡山路)"},{"poiid":"B2094757D069A3F54799","title":"El Patio","lon":"121.45368458","lat":"31.210532045","category":"94","category_name":"西餐厅","address":"徐汇区汾阳路110号(近太原路)"},{"poiid":"B2094654DB69A7FD439B","title":"席家花园(徐汇总店)","lon":"121.45147","lat":"31.20833","category":"47","category_name":"住宅区","address":"徐汇区东平路1号(近衡山路)"},{"poiid":"B2094757D06FA6FC439D","title":"宝莱纳贝可利面包","lon":"121.45267563","lat":"31.209468642","category":"67","category_name":"甜品店","address":"徐汇区汾阳路150号(近桃江路)"},{"poiid":"B2094757DB68AAFE4898","title":"洋房火锅 Hot Pot Sun","lon":"121.45186","lat":"31.2083","category":"88","category_name":"海鲜酒楼","address":"徐汇区岳阳路1号(近汾阳路)"},{"poiid":"B2094757D06AAAF84399","title":"Greek Taverna","lon":"121.451924586","lat":"31.2083350028","category":"500","category_name":"未知分类","address":"上海市徐汇区岳阳路1号近东平路"},{"poiid":"B2094757D06AA2F5409D","title":"鲜芋仙(岳阳店)","lon":"121.451889586","lat":"31.2088120122","category":"67","category_name":"甜品店","address":"徐汇区岳阳路1号(近桃江路东平路)"},{"poiid":"B2094654DA6DA4FB419E","title":"和平官邸","lon":"121.45141","lat":"31.20936","category":"76","category_name":"上海菜","address":"徐汇区汾阳路158号(近桃江路)"},{"poiid":"B2094654DA6DA4FB439A","title":"滴水洞湘菜馆(东平路)","lon":"121.45098","lat":"31.20836","category":"77","category_name":"湖南菜","address":"徐汇区东平路5号B座(近岳阳路)"},{"poiid":"B2094757D069A1F54799","title":"南蛮亭","lon":"121.45185","lat":"31.20829","category":"95","category_name":"日本料理","address":"徐汇区岳阳路1号(近汾阳路)"},{"poiid":"B2094757D06AA3FB4292","title":"上海工艺美术博物馆","lon":"121.45460284","lat":"31.210373083","category":"182","category_name":"博物馆","address":"徐汇区汾阳路79号(永康路与太原路之间)"},{"poiid":"B2094757D068A3FC4398","title":"轻科大厦","lon":"121.452919","lat":"31.209844589","category":"46","category_name":"楼宇","address":"西城区金融街A区3号地南部"},{"poiid":"B2094757D66BABF9479C","title":"Goga","lon":"121.45167517625","lat":"31.208671976401","category":"94","category_name":"西餐厅","address":"徐汇区岳阳路1号(近东平路)"},{"poiid":"B2094757D06BAAF44598","title":"尔苑咖啡厅 Anna Maya Vegetarian Cafe","lon":"121.450652054","lat":"31.208991793","category":"89","category_name":"中式素餐馆","address":"徐汇区桃江路3号(近宝庆路)"},{"poiid":"B2094654DA6DA4F44899","title":"上海市红十字眼耳鼻喉科医院","lon":"121.45334","lat":"31.20954","category":"162","category_name":"医院","address":"汾阳路83"},{"poiid":"B2094757D068AAFA4999","title":"猫咖啡 Cat cafe bliss","lon":"121.45400997","lat":"31.209424931","category":"260","category_name":"其他","address":"徐汇区太原路8弄1号2楼(近汾阳路)"},{"poiid":"B2094750D66CA0FE449A","title":"hollywood","lon":"121.451583","lat":"31.207653","category":"260","category_name":"其他","address":"徐汇区岳阳路46号(近东平路)"},{"poiid":"B2094757D16DA2FD469E","title":"金福轩","lon":"121.45212","lat":"31.20842","category":"76","category_name":"上海菜","address":"徐汇区岳阳路1号教育会堂5楼(近五官科医院)"},{"poiid":"B2094757D06AA5F9419C","title":"公安部第三研究所","lon":"121.45197862","lat":"31.206925644","category":"500","category_name":"未知分类","address":"上海市徐汇区岳阳路76号"},{"poiid":"B2094654DA6DA4F4429C","title":"上海教育会堂宾馆","lon":"121.45212","lat":"31.20841","category":"250","category_name":"公园户外","address":"上海市徐汇区岳阳路1号（近东平路）"},{"poiid":"B2094750D76DA1FB4293","title":"斗牛士台湾牛肉面(岳阳路店)","lon":"121.452","lat":"31.2083","category":"68","category_name":"快餐厅","address":"徐汇区岳阳路1号(近东平路)"},{"poiid":"B2094654DA6DA4FB4498","title":"MAO","lon":"121.4519","lat":"31.20749","category":"172","category_name":"酒吧","address":"岳阳路46号近永嘉路"},{"poiid":"B2094655D26CA1FE439D","title":"Deli & Bakery","lon":"121.45269","lat":"31.20957","category":"112","category_name":"糕饼店","address":""},{"poiid":"B2094751D56CABF44799","title":"Hai By Goga","lon":"121.45205","lat":"31.20891","category":"94","category_name":"西餐厅","address":"徐汇区岳阳路1号7楼"},{"poiid":"B2094654DA6DA4FB4199","title":"宝轻大厦","lon":"121.45123","lat":"31.20942","category":"46","category_name":"楼宇","address":"宣武区南横街东口"},{"poiid":"B2094757D06EAAFD4392","title":"磨咕咖啡馆 mogoo cafe","lon":"121.454309054","lat":"31.211203793","category":"260","category_name":"其他","address":"徐汇区汾阳路77号(近音乐学院)"},{"poiid":"B2094757D569A3F8409A","title":"六本木南蛮亭(上海店)","lon":"121.45202745","lat":"31.20863553","category":"95","category_name":"日本料理","address":"中国上海市徐汇区岳阳路"},{"poiid":"B2094655D26BA2FA439C","title":"太原路永嘉路","lon":"121.45407","lat":"31.20982","category":"38","category_name":"公交车站","address":""},{"poiid":"B2094655D26AA7FD4193","title":"教育会堂宾馆","lon":"121.45212","lat":"31.20842","category":"247","category_name":"餐饮美食","address":"徐汇区岳阳路1号(近东平路)"},{"poiid":"B2094757D165A6FC489E","title":"普希金铜像 三角花园","lon":"121.451652956","lat":"31.2089741553","category":"250","category_name":"公园户外","address":"上海岳阳路桃江路东平路汾阳路口"},{"poiid":"B2094757D165A0FC479B","title":"庆余别墅","lon":"121.45207540812","lat":"31.210259460525","category":"47","category_name":"住宅区","address":"徐汇区衡山路58弄3号(近高安路)"},{"poiid":"B2094655D265A5FD4199","title":"上海文广影视职业培训学校","lon":"121.45188","lat":"31.20771","category":"54","category_name":"职业技术学校","address":"岳阳路44"},{"poiid":"B2094752D464A0F84999","title":"上海音乐学院附中","lon":"121.452172","lat":"31.209574","category":"253","category_name":"校园生活","address":"东平路9号"}]