[{"poiid":"B2094655D36DA6FE429A","title":"浦东大道","lon":"121.51984","lat":"31.24032","category":"38","category_name":"公交车站","address":""},{"poiid":"B2094757D06FA7F44199","title":"光头烧烤吧(南泉北路店)","lon":"121.51594","lat":"31.23765","category":"68","category_name":"快餐厅","address":"浦东新区南泉北路47号(近东方医院)"},{"poiid":"B2094655D26AA0F9409A","title":"地铁浦东大道站","lon":"121.51984","lat":"31.24032","category":"36","category_name":"地铁站","address":""},{"poiid":"B209475CD564A7F84392","title":"上海滩浦东香格里拉店","lon":"121.50058","lat":"31.23634","category":"119","category_name":"商场","address":"浦东富成路33号香格里拉酒店内大堂层"},{"poiid":"B2094757D069A7F4429B","title":"浦东新舞台","lon":"121.51503","lat":"31.23892","category":"179","category_name":"音乐厅","address":"浦东新区浦东大道143号(南泉北路浦东大道)"},{"poiid":"B2094757D06FA1FE489C","title":"上海市房地产交易中心","lon":"121.515980363","lat":"31.2356323484","category":"46","category_name":"楼宇","address":"上海浦东新区南泉北路201号(栖霞路口)"},{"poiid":"B2094655D26DA7F84399","title":"房地大厦","lon":"121.51593","lat":"31.23556","category":"46","category_name":"楼宇","address":"昌平区回龙观镇国际信息产业基地高新二街"},{"poiid":"B2094757D068A1FA4999","title":"西安5号米皮","lon":"121.51563","lat":"31.23721","category":"68","category_name":"快餐厅","address":"浦东新区南泉北路51号-4(近招远路)"},{"poiid":"B2094757D06AA3FC409B","title":"浦东大道钱仓路","lon":"121.520092738","lat":"31.2396905017","category":"500","category_name":"未知分类","address":"上海浦东大道"},{"poiid":"B2094757D16CA6F84393","title":"龙门鱼府","lon":"121.517858738","lat":"31.234588393","category":"86","category_name":"火锅店","address":"浦东新区崂山路300号(近乳山路)"},{"poiid":"B2094757D068A5F8459B","title":"月亮生煎大王","lon":"121.51692","lat":"31.23806","category":"68","category_name":"快餐厅","address":"浦东新区崂山路80号101室(近浦东大道)"},{"poiid":"B2094757D56CAAFB469F","title":"二子龙虾 东昌店","lon":"121.514945054","lat":"31.237452793","category":"68","category_name":"快餐厅","address":"浦东新区南泉北路51号(近招远路)"},{"poiid":"B2094757D068A2FC419F","title":"崂山二村","lon":"121.52024","lat":"31.236893","category":"252","category_name":"楼宇机构","address":"上海市浦东新区栖霞路"},{"poiid":"B2094654DA69A7FD479B","title":"东昌中学东校","lon":"121.51871","lat":"31.23801","category":"55","category_name":"中学","address":"崂山路200"},{"poiid":"B2094654DA69A7FC439A","title":"京世国际发型美容连锁机构","lon":"121.519","lat":"31.237","category":"148","category_name":"美容美发店","address":"崂山东路"},{"poiid":"B2094654DA69A7FE459A","title":"崂山五村","lon":"121.51745","lat":"31.23745","category":"47","category_name":"住宅区","address":"崂山五村502-562号"},{"poiid":"B2094757D06EAAFF4993","title":"浦电路地铁站(四号线)","lon":"121.519854","lat":"31.240301","category":"36","category_name":"地铁站","address":"上海轨道交通 四号线 轨交浦东大道站 轻轨 4"},{"poiid":"B2094757D164A2F9429C","title":"光头烧烤","lon":"121.51228","lat":"31.24018","category":"68","category_name":"快餐厅","address":"浦东新区崂山路47号(东昌电影院)"},{"poiid":"B2094757D465A0F4489A","title":"溢香小苑湘菜馆","lon":"121.518042054","lat":"31.237157793","category":"77","category_name":"湖南菜","address":"浦东新区栖霞路99号(近崂山路)"},{"poiid":"B2094654DA69A1F5439D","title":"申金大厦","lon":"121.517","lat":"31.2352","category":"46","category_name":"楼宇","address":"商城路297-305"},{"poiid":"B2094757D66BA6F8409E","title":"小四川鱼庄","lon":"121.5204","lat":"31.23341","category":"71","category_name":"四川菜","address":"浦东新区崂山东路310号(近乳山路)"},{"poiid":"B2094654DA69A7FC4598","title":"崂山新村","lon":"121.51923","lat":"31.238258","category":"47","category_name":"住宅区","address":"栖霞路190弄"},{"poiid":"B2094757D064A5F54393","title":"吉祥馄饨 栖霞店 Gll Wonton","lon":"121.51706","lat":"31.23627","category":"68","category_name":"快餐厅","address":"浦东新区栖霞路66号(近南泉北路)"},{"poiid":"B2094757D068A1FC429F","title":"东昌电影院","lon":"121.516061","lat":"31.237536","category":"178","category_name":"电影院","address":"南泉北路150"},{"poiid":"B2094757D568A4FE499F","title":"猫记冷饮批发","lon":"121.517903","lat":"31.237831","category":"113","category_name":"冷饮店","address":"浦东新区崂山路253号(近栖霞路)"},{"poiid":"B2094757D065A2FD479B","title":"老姚烧烤","lon":"121.51579","lat":"31.23748","category":"68","category_name":"快餐厅","address":"浦东新区南泉北路51号(近招远路)"},{"poiid":"B2094757D06AA7F8429A","title":"德兴面馆(浦东店)","lon":"121.5153","lat":"31.2387","category":"68","category_name":"快餐厅","address":"浦东新区南泉北路1号(浦东大道口)"},{"poiid":"B2094757D46BA4F8499F","title":"河南拉面 崂山路店","lon":"121.518826","lat":"31.236869","category":"68","category_name":"快餐厅","address":"浦东新区崂山路253号(近栖霞路)"},{"poiid":"B2094757D66BA4FF449E","title":"巴蜀川菜馆","lon":"121.518747054","lat":"31.236747793","category":"71","category_name":"四川菜","address":"浦东新区崂山路218号(近栖霞路)"},{"poiid":"B2094757D66DABFB479E","title":"名盛串城","lon":"121.515641738","lat":"31.2376644585","category":"96","category_name":"韩国料理","address":"浦东新区南泉北路53号(近浦东大道)"},{"poiid":"B2094655D264ABF94793","title":"富橙投资","lon":"121.51634","lat":"31.23925","category":"46","category_name":"楼宇","address":"浦东区浦东大道288号"},{"poiid":"B2094654DA69A7FB4092","title":"三和辣欢天川菜馆","lon":"121.51757","lat":"31.23647","category":"71","category_name":"四川菜","address":"浦东新区栖霞路82号(崂山路南泉北路间)"},{"poiid":"B2094757D569A2F8429D","title":"R&B珍奶会所(栖霞店)","lon":"121.51728163","lat":"31.23635878","category":"113","category_name":"冷饮店","address":"浦东新区栖霞路72号(近南泉北路)"},{"poiid":"B2094757D46EA2FE4099","title":"食食客客","lon":"121.51642","lat":"31.23625","category":"68","category_name":"快餐厅","address":"浦东新区栖霞路53号(近南泉北路)"},{"poiid":"B2094654DA69A7F8459B","title":"上海电视大学黄经贸分校","lon":"121.51627","lat":"31.23714","category":"52","category_name":"高等院校","address":"南泉北路168-170"},{"poiid":"B2094654DA69A7FB4192","title":"名角女士生活馆(崂山三村)","lon":"121.51851","lat":"31.23676","category":"148","category_name":"美容美发店","address":"崂山三村37"},{"poiid":"B2094655D265A1FE4899","title":"可的超市(崂栖店)","lon":"121.51893","lat":"31.23698","category":"117","category_name":"便民商店/便利店","address":"栖霞路100号"},{"poiid":"B2094655D36CA6FB489E","title":"东方路栖霞路","lon":"121.52062","lat":"31.23821","category":"38","category_name":"公交车站","address":""},{"poiid":"B2094654DA69A7FE459C","title":"246深度造型","lon":"121.51723","lat":"31.23658","category":"148","category_name":"美容美发店","address":"浦东新区栖霞路85号(地铁2号线东昌路站2号出口)"},{"poiid":"B2094654DA69A7FB419B","title":"崂山三、四村(北门)","lon":"121.51763","lat":"31.23648","category":"47","category_name":"住宅区","address":"梅园新村"},{"poiid":"B2094654DA69A6FD439B","title":"东昌大楼","lon":"121.52","lat":"31.2386","category":"46","category_name":"楼宇","address":"上海东昌路600号"},{"poiid":"B2094757D66CA6F9499C","title":"砂锅麻辣烫","lon":"121.519568738","lat":"31.237543456","category":"247","category_name":"餐饮美食","address":"上海市浦东新区浦东大道"},{"poiid":"B2094655D26DA7FB499B","title":"家家乐(栖霞路)","lon":"121.51918","lat":"31.23731","category":"118","category_name":"超级市场","address":"栖霞路117临"},{"poiid":"B2094757D16BA1FE439B","title":"陆家嘴司法所","lon":"121.517449","lat":"31.23745","category":"500","category_name":"未知分类","address":"上海崂山五村555号"},{"poiid":"B2094654DA69A7FC459B","title":"崂山新村(南门)","lon":"121.51943","lat":"31.23742","category":"47","category_name":"住宅区","address":""},{"poiid":"B2094654DA69A7FD419D","title":"崂六小区","lon":"121.5174","lat":"31.239016","category":"47","category_name":"住宅区","address":"浦东大道290弄1-29号"},{"poiid":"B2094757DA64A5FA429C","title":"中国人民银行","lon":"121.51715609","lat":"31.236211355","category":"500","category_name":"未知分类","address":"浦东陆家嘴"},{"poiid":"B2094757D66DA1FC419A","title":"长生源粥店","lon":"121.52458","lat":"31.2362","category":"68","category_name":"快餐厅","address":"浦东新区乳山路152号"},{"poiid":"B2094750D76CABFF429C","title":"长安客(招远路店)","lon":"121.515","lat":"31.2371","category":"68","category_name":"快餐厅","address":"浦东新区招远路19弄25号(近东方医院)"},{"poiid":"B2094655D26BA2F44298","title":"栖霞路崂山路","lon":"121.51674","lat":"31.23631","category":"38","category_name":"公交车站","address":""},{"poiid":"B2094655D36DA6FE429A","title":"浦东大道","lon":"121.51984","lat":"31.24032","category":"38","category_name":"公交车站","address":""},{"poiid":"B2094757D06FA7F44199","title":"光头烧烤吧(南泉北路店)","lon":"121.51594","lat":"31.23765","category":"68","category_name":"快餐厅","address":"浦东新区南泉北路47号(近东方医院)"},{"poiid":"B2094655D26AA0F9409A","title":"地铁浦东大道站","lon":"121.51984","lat":"31.24032","category":"36","category_name":"地铁站","address":""},{"poiid":"B209475CD564A7F84392","title":"上海滩浦东香格里拉店","lon":"121.50058","lat":"31.23634","category":"119","category_name":"商场","address":"浦东富成路33号香格里拉酒店内大堂层"},{"poiid":"B2094757D069A7F4429B","title":"浦东新舞台","lon":"121.51503","lat":"31.23892","category":"179","category_name":"音乐厅","address":"浦东新区浦东大道143号(南泉北路浦东大道)"},{"poiid":"B2094757D06FA1FE489C","title":"上海市房地产交易中心","lon":"121.515980363","lat":"31.2356323484","category":"46","category_name":"楼宇","address":"上海浦东新区南泉北路201号(栖霞路口)"},{"poiid":"B2094655D26DA7F84399","title":"房地大厦","lon":"121.51593","lat":"31.23556","category":"46","category_name":"楼宇","address":"昌平区回龙观镇国际信息产业基地高新二街"},{"poiid":"B2094757D068A1FA4999","title":"西安5号米皮","lon":"121.51563","lat":"31.23721","category":"68","category_name":"快餐厅","address":"浦东新区南泉北路51号-4(近招远路)"},{"poiid":"B2094757D06AA3FC409B","title":"浦东大道钱仓路","lon":"121.520092738","lat":"31.2396905017","category":"500","category_name":"未知分类","address":"上海浦东大道"},{"poiid":"B2094757D16CA6F84393","title":"龙门鱼府","lon":"121.517858738","lat":"31.234588393","category":"86","category_name":"火锅店","address":"浦东新区崂山路300号(近乳山路)"},{"poiid":"B2094757D068A5F8459B","title":"月亮生煎大王","lon":"121.51692","lat":"31.23806","category":"68","category_name":"快餐厅","address":"浦东新区崂山路80号101室(近浦东大道)"},{"poiid":"B2094757D56CAAFB469F","title":"二子龙虾 东昌店","lon":"121.514945054","lat":"31.237452793","category":"68","category_name":"快餐厅","address":"浦东新区南泉北路51号(近招远路)"},{"poiid":"B2094757D068A2FC419F","title":"崂山二村","lon":"121.52024","lat":"31.236893","category":"252","category_name":"楼宇机构","address":"上海市浦东新区栖霞路"},{"poiid":"B2094654DA69A7FD479B","title":"东昌中学东校","lon":"121.51871","lat":"31.23801","category":"55","category_name":"中学","address":"崂山路200"},{"poiid":"B2094654DA69A7FC439A","title":"京世国际发型美容连锁机构","lon":"121.519","lat":"31.237","category":"148","category_name":"美容美发店","address":"崂山东路"},{"poiid":"B2094654DA69A7FE459A","title":"崂山五村","lon":"121.51745","lat":"31.23745","category":"47","category_name":"住宅区","address":"崂山五村502-562号"},{"poiid":"B2094757D06EAAFF4993","title":"浦电路地铁站(四号线)","lon":"121.519854","lat":"31.240301","category":"36","category_name":"地铁站","address":"上海轨道交通 四号线 轨交浦东大道站 轻轨 4"},{"poiid":"B2094757D164A2F9429C","title":"光头烧烤","lon":"121.51228","lat":"31.24018","category":"68","category_name":"快餐厅","address":"浦东新区崂山路47号(东昌电影院)"},{"poiid":"B2094757D465A0F4489A","title":"溢香小苑湘菜馆","lon":"121.518042054","lat":"31.237157793","category":"77","category_name":"湖南菜","address":"浦东新区栖霞路99号(近崂山路)"},{"poiid":"B2094654DA69A1F5439D","title":"申金大厦","lon":"121.517","lat":"31.2352","category":"46","category_name":"楼宇","address":"商城路297-305"},{"poiid":"B2094757D66BA6F8409E","title":"小四川鱼庄","lon":"121.5204","lat":"31.23341","category":"71","category_name":"四川菜","address":"浦东新区崂山东路310号(近乳山路)"},{"poiid":"B2094654DA69A7FC4598","title":"崂山新村","lon":"121.51923","lat":"31.238258","category":"47","category_name":"住宅区","address":"栖霞路190弄"},{"poiid":"B2094757D064A5F54393","title":"吉祥馄饨 栖霞店 Gll Wonton","lon":"121.51706","lat":"31.23627","category":"68","category_name":"快餐厅","address":"浦东新区栖霞路66号(近南泉北路)"},{"poiid":"B2094757D068A1FC429F","title":"东昌电影院","lon":"121.516061","lat":"31.237536","category":"178","category_name":"电影院","address":"南泉北路150"},{"poiid":"B2094757D568A4FE499F","title":"猫记冷饮批发","lon":"121.517903","lat":"31.237831","category":"113","category_name":"冷饮店","address":"浦东新区崂山路253号(近栖霞路)"},{"poiid":"B2094757D065A2FD479B","title":"老姚烧烤","lon":"121.51579","lat":"31.23748","category":"68","category_name":"快餐厅","address":"浦东新区南泉北路51号(近招远路)"},{"poiid":"B2094757D06AA7F8429A","title":"德兴面馆(浦东店)","lon":"121.5153","lat":"31.2387","category":"68","category_name":"快餐厅","address":"浦东新区南泉北路1号(浦东大道口)"},{"poiid":"B2094757D46BA4F8499F","title":"河南拉面 崂山路店","lon":"121.518826","lat":"31.236869","category":"68","category_name":"快餐厅","address":"浦东新区崂山路253号(近栖霞路)"},{"poiid":"B2094757D66BA4FF449E","title":"巴蜀川菜馆","lon":"121.518747054","lat":"31.236747793","category":"71","category_name":"四川菜","address":"浦东新区崂山路218号(近栖霞路)"},{"poiid":"B2094757D66DABFB479E","title":"名盛串城","lon":"121.515641738","lat":"31.2376644585","category":"96","category_name":"韩国料理","address":"浦东新区南泉北路53号(近浦东大道)"},{"poiid":"B2094655D264ABF94793","title":"富橙投资","lon":"121.51634","lat":"31.23925","category":"46","category_name":"楼宇","address":"浦东区浦东大道288号"},{"poiid":"B2094654DA69A7FB4092","title":"三和辣欢天川菜馆","lon":"121.51757","lat":"31.23647","category":"71","category_name":"四川菜","address":"浦东新区栖霞路82号(崂山路南泉北路间)"},{"poiid":"B2094757D569A2F8429D","title":"R&B珍奶会所(栖霞店)","lon":"121.51728163","lat":"31.23635878","category":"113","category_name":"冷饮店","address":"浦东新区栖霞路72号(近南泉北路)"},{"poiid":"B2094757D46EA2FE4099","title":"食食客客","lon":"121.51642","lat":"31.23625","category":"68","category_name":"快餐厅","address":"浦东新区栖霞路53号(近南泉北路)"},{"poiid":"B2094654DA69A7F8459B","title":"上海电视大学黄经贸分校","lon":"121.51627","lat":"31.23714","category":"52","category_name":"高等院校","address":"南泉北路168-170"},{"poiid":"B2094654DA69A7FB4192","title":"名角女士生活馆(崂山三村)","lon":"121.51851","lat":"31.23676","category":"148","category_name":"美容美发店","address":"崂山三村37"},{"poiid":"B2094655D265A1FE4899","title":"可的超市(崂栖店)","lon":"121.51893","lat":"31.23698","category":"117","category_name":"便民商店/便利店","address":"栖霞路100号"},{"poiid":"B2094655D36CA6FB489E","title":"东方路栖霞路","lon":"121.52062","lat":"31.23821","category":"38","category_name":"公交车站","address":""},{"poiid":"B2094654DA69A7FE459C","title":"246深度造型","lon":"121.51723","lat":"31.23658","category":"148","category_name":"美容美发店","address":"浦东新区栖霞路85号(地铁2号线东昌路站2号出口)"},{"poiid":"B2094654DA69A7FB419B","title":"崂山三、四村(北门)","lon":"121.51763","lat":"31.23648","category":"47","category_name":"住宅区","address":"梅园新村"},{"poiid":"B2094654DA69A6FD439B","title":"东昌大楼","lon":"121.52","lat":"31.2386","category":"46","category_name":"楼宇","address":"上海东昌路600号"},{"poiid":"B2094757D66CA6F9499C","title":"砂锅麻辣烫","lon":"121.519568738","lat":"31.237543456","category":"247","category_name":"餐饮美食","address":"上海市浦东新区浦东大道"},{"poiid":"B2094655D26DA7FB499B","title":"家家乐(栖霞路)","lon":"121.51918","lat":"31.23731","category":"118","category_name":"超级市场","address":"栖霞路117临"},{"poiid":"B2094757D16BA1FE439B","title":"陆家嘴司法所","lon":"121.517449","lat":"31.23745","category":"500","category_name":"未知分类","address":"上海崂山五村555号"},{"poiid":"B2094654DA69A7FC459B","title":"崂山新村(南门)","lon":"121.51943","lat":"31.23742","category":"47","category_name":"住宅区","address":""},{"poiid":"B2094654DA69A7FD419D","title":"崂六小区","lon":"121.5174","lat":"31.239016","category":"47","category_name":"住宅区","address":"浦东大道290弄1-29号"},{"poiid":"B2094757DA64A5FA429C","title":"中国人民银行","lon":"121.51715609","lat":"31.236211355","category":"500","category_name":"未知分类","address":"浦东陆家嘴"},{"poiid":"B2094757D66DA1FC419A","title":"长生源粥店","lon":"121.52458","lat":"31.2362","category":"68","category_name":"快餐厅","address":"浦东新区乳山路152号"},{"poiid":"B2094750D76CABFF429C","title":"长安客(招远路店)","lon":"121.515","lat":"31.2371","category":"68","category_name":"快餐厅","address":"浦东新区招远路19弄25号(近东方医院)"},{"poiid":"B2094655D26BA2F44298","title":"栖霞路崂山路","lon":"121.51674","lat":"31.23631","category":"38","category_name":"公交车站","address":""},{"poiid":"B2094655D36DA6FE429A","title":"浦东大道","lon":"121.51984","lat":"31.24032","category":"38","category_name":"公交车站","address":""},{"poiid":"B2094757D06FA7F44199","title":"光头烧烤吧(南泉北路店)","lon":"121.51594","lat":"31.23765","category":"68","category_name":"快餐厅","address":"浦东新区南泉北路47号(近东方医院)"},{"poiid":"B2094655D26AA0F9409A","title":"地铁浦东大道站","lon":"121.51984","lat":"31.24032","category":"36","category_name":"地铁站","address":""},{"poiid":"B209475CD564A7F84392","title":"上海滩浦东香格里拉店","lon":"121.50058","lat":"31.23634","category":"119","category_name":"商场","address":"浦东富成路33号香格里拉酒店内大堂层"},{"poiid":"B2094757D069A7F4429B","title":"浦东新舞台","lon":"121.51503","lat":"31.23892","category":"179","category_name":"音乐厅","address":"浦东新区浦东大道143号(南泉北路浦东大道)"},{"poiid":"B2094757D06FA1FE489C","title":"上海市房地产交易中心","lon":"121.515980363","lat":"31.2356323484","category":"46","category_name":"楼宇","address":"上海浦东新区南泉北路201号(栖霞路口)"},{"poiid":"B2094655D26DA7F84399","title":"房地大厦","lon":"121.51593","lat":"31.23556","category":"46","category_name":"楼宇","address":"昌平区回龙观镇国际信息产业基地高新二街"},{"poiid":"B2094757D068A1FA4999","title":"西安5号米皮","lon":"121.51563","lat":"31.23721","category":"68","category_name":"快餐厅","address":"浦东新区南泉北路51号-4(近招远路)"},{"poiid":"B2094757D06AA3FC409B","title":"浦东大道钱仓路","lon":"121.520092738","lat":"31.2396905017","category":"500","category_name":"未知分类","address":"上海浦东大道"},{"poiid":"B2094757D16CA6F84393","title":"龙门鱼府","lon":"121.517858738","lat":"31.234588393","category":"86","category_name":"火锅店","address":"浦东新区崂山路300号(近乳山路)"},{"poiid":"B2094757D068A5F8459B","title":"月亮生煎大王","lon":"121.51692","lat":"31.23806","category":"68","category_name":"快餐厅","address":"浦东新区崂山路80号101室(近浦东大道)"},{"poiid":"B2094757D56CAAFB469F","title":"二子龙虾 东昌店","lon":"121.514945054","lat":"31.237452793","category":"68","category_name":"快餐厅","address":"浦东新区南泉北路51号(近招远路)"},{"poiid":"B2094757D068A2FC419F","title":"崂山二村","lon":"121.52024","lat":"31.236893","category":"252","category_name":"楼宇机构","address":"上海市浦东新区栖霞路"},{"poiid":"B2094654DA69A7FD479B","title":"东昌中学东校","lon":"121.51871","lat":"31.23801","category":"55","category_name":"中学","address":"崂山路200"},{"poiid":"B2094654DA69A7FC439A","title":"京世国际发型美容连锁机构","lon":"121.519","lat":"31.237","category":"148","category_name":"美容美发店","address":"崂山东路"},{"poiid":"B2094654DA69A7FE459A","title":"崂山五村","lon":"121.51745","lat":"31.23745","category":"47","category_name":"住宅区","address":"崂山五村502-562号"},{"poiid":"B2094757D06EAAFF4993","title":"浦电路地铁站(四号线)","lon":"121.519854","lat":"31.240301","category":"36","category_name":"地铁站","address":"上海轨道交通 四号线 轨交浦东大道站 轻轨 4"},{"poiid":"B2094757D164A2F9429C","title":"光头烧烤","lon":"121.51228","lat":"31.24018","category":"68","category_name":"快餐厅","address":"浦东新区崂山路47号(东昌电影院)"},{"poiid":"B2094757D465A0F4489A","title":"溢香小苑湘菜馆","lon":"121.518042054","lat":"31.237157793","category":"77","category_name":"湖南菜","address":"浦东新区栖霞路99号(近崂山路)"},{"poiid":"B2094654DA69A1F5439D","title":"申金大厦","lon":"121.517","lat":"31.2352","category":"46","category_name":"楼宇","address":"商城路297-305"},{"poiid":"B2094757D66BA6F8409E","title":"小四川鱼庄","lon":"121.5204","lat":"31.23341","category":"71","category_name":"四川菜","address":"浦东新区崂山东路310号(近乳山路)"},{"poiid":"B2094654DA69A7FC4598","title":"崂山新村","lon":"121.51923","lat":"31.238258","category":"47","category_name":"住宅区","address":"栖霞路190弄"},{"poiid":"B2094757D064A5F54393","title":"吉祥馄饨 栖霞店 Gll Wonton","lon":"121.51706","lat":"31.23627","category":"68","category_name":"快餐厅","address":"浦东新区栖霞路66号(近南泉北路)"},{"poiid":"B2094757D068A1FC429F","title":"东昌电影院","lon":"121.516061","lat":"31.237536","category":"178","category_name":"电影院","address":"南泉北路150"},{"poiid":"B2094757D568A4FE499F","title":"猫记冷饮批发","lon":"121.517903","lat":"31.237831","category":"113","category_name":"冷饮店","address":"浦东新区崂山路253号(近栖霞路)"},{"poiid":"B2094757D065A2FD479B","title":"老姚烧烤","lon":"121.51579","lat":"31.23748","category":"68","category_name":"快餐厅","address":"浦东新区南泉北路51号(近招远路)"},{"poiid":"B2094757D06AA7F8429A","title":"德兴面馆(浦东店)","lon":"121.5153","lat":"31.2387","category":"68","category_name":"快餐厅","address":"浦东新区南泉北路1号(浦东大道口)"},{"poiid":"B2094757D46BA4F8499F","title":"河南拉面 崂山路店","lon":"121.518826","lat":"31.236869","category":"68","category_name":"快餐厅","address":"浦东新区崂山路253号(近栖霞路)"},{"poiid":"B2094757D66BA4FF449E","title":"巴蜀川菜馆","lon":"121.518747054","lat":"31.236747793","category":"71","category_name":"四川菜","address":"浦东新区崂山路218号(近栖霞路)"},{"poiid":"B2094757D66DABFB479E","title":"名盛串城","lon":"121.515641738","lat":"31.2376644585","category":"96","category_name":"韩国料理","address":"浦东新区南泉北路53号(近浦东大道)"},{"poiid":"B2094655D264ABF94793","title":"富橙投资","lon":"121.51634","lat":"31.23925","category":"46","category_name":"楼宇","address":"浦东区浦东大道288号"},{"poiid":"B2094654DA69A7FB4092","title":"三和辣欢天川菜馆","lon":"121.51757","lat":"31.23647","category":"71","category_name":"四川菜","address":"浦东新区栖霞路82号(崂山路南泉北路间)"},{"poiid":"B2094757D569A2F8429D","title":"R&B珍奶会所(栖霞店)","lon":"121.51728163","lat":"31.23635878","category":"113","category_name":"冷饮店","address":"浦东新区栖霞路72号(近南泉北路)"},{"poiid":"B2094757D46EA2FE4099","title":"食食客客","lon":"121.51642","lat":"31.23625","category":"68","category_name":"快餐厅","address":"浦东新区栖霞路53号(近南泉北路)"},{"poiid":"B2094654DA69A7F8459B","title":"上海电视大学黄经贸分校","lon":"121.51627","lat":"31.23714","category":"52","category_name":"高等院校","address":"南泉北路168-170"},{"poiid":"B2094654DA69A7FB4192","title":"名角女士生活馆(崂山三村)","lon":"121.51851","lat":"31.23676","category":"148","category_name":"美容美发店","address":"崂山三村37"},{"poiid":"B2094655D265A1FE4899","title":"可的超市(崂栖店)","lon":"121.51893","lat":"31.23698","category":"117","category_name":"便民商店/便利店","address":"栖霞路100号"},{"poiid":"B2094655D36CA6FB489E","title":"东方路栖霞路","lon":"121.52062","lat":"31.23821","category":"38","category_name":"公交车站","address":""},{"poiid":"B2094654DA69A7FE459C","title":"246深度造型","lon":"121.51723","lat":"31.23658","category":"148","category_name":"美容美发店","address":"浦东新区栖霞路85号(地铁2号线东昌路站2号出口)"},{"poiid":"B2094654DA69A7FB419B","title":"崂山三、四村(北门)","lon":"121.51763","lat":"31.23648","category":"47","category_name":"住宅区","address":"梅园新村"},{"poiid":"B2094654DA69A6FD439B","title":"东昌大楼","lon":"121.52","lat":"31.2386","category":"46","category_name":"楼宇","address":"上海东昌路600号"},{"poiid":"B2094757D66CA6F9499C","title":"砂锅麻辣烫","lon":"121.519568738","lat":"31.237543456","category":"247","category_name":"餐饮美食","address":"上海市浦东新区浦东大道"},{"poiid":"B2094655D26DA7FB499B","title":"家家乐(栖霞路)","lon":"121.51918","lat":"31.23731","category":"118","category_name":"超级市场","address":"栖霞路117临"},{"poiid":"B2094757D16BA1FE439B","title":"陆家嘴司法所","lon":"121.517449","lat":"31.23745","category":"500","category_name":"未知分类","address":"上海崂山五村555号"},{"poiid":"B2094654DA69A7FC459B","title":"崂山新村(南门)","lon":"121.51943","lat":"31.23742","category":"47","category_name":"住宅区","address":""},{"poiid":"B2094654DA69A7FD419D","title":"崂六小区","lon":"121.5174","lat":"31.239016","category":"47","category_name":"住宅区","address":"浦东大道290弄1-29号"},{"poiid":"B2094757DA64A5FA429C","title":"中国人民银行","lon":"121.51715609","lat":"31.236211355","category":"500","category_name":"未知分类","address":"浦东陆家嘴"},{"poiid":"B2094757D66DA1FC419A","title":"长生源粥店","lon":"121.52458","lat":"31.2362","category":"68","category_name":"快餐厅","address":"浦东新区乳山路152号"},{"poiid":"B2094750D76CABFF429C","title":"长安客(招远路店)","lon":"121.515","lat":"31.2371","category":"68","category_name":"快餐厅","address":"浦东新区招远路19弄25号(近东方医院)"},{"poiid":"B2094655D26BA2F44298","title":"栖霞路崂山路","lon":"121.51674","lat":"31.23631","category":"38","category_name":"公交车站","address":""},{"poiid":"B2094655D36DA6FE429A","title":"浦东大道","lon":"121.51984","lat":"31.24032","category":"38","category_name":"公交车站","address":""},{"poiid":"B2094757D06FA7F44199","title":"光头烧烤吧(南泉北路店)","lon":"121.51594","lat":"31.23765","category":"68","category_name":"快餐厅","address":"浦东新区南泉北路47号(近东方医院)"},{"poiid":"B2094655D26AA0F9409A","title":"地铁浦东大道站","lon":"121.51984","lat":"31.24032","category":"36","category_name":"地铁站","address":""},{"poiid":"B209475CD564A7F84392","title":"上海滩浦东香格里拉店","lon":"121.50058","lat":"31.23634","category":"119","category_name":"商场","address":"浦东富成路33号香格里拉酒店内大堂层"},{"poiid":"B2094757D069A7F4429B","title":"浦东新舞台","lon":"121.51503","lat":"31.23892","category":"179","category_name":"音乐厅","address":"浦东新区浦东大道143号(南泉北路浦东大道)"},{"poiid":"B2094757D06FA1FE489C","title":"上海市房地产交易中心","lon":"121.515980363","lat":"31.2356323484","category":"46","category_name":"楼宇","address":"上海浦东新区南泉北路201号(栖霞路口)"},{"poiid":"B2094655D26DA7F84399","title":"房地大厦","lon":"121.51593","lat":"31.23556","category":"46","category_name":"楼宇","address":"昌平区回龙观镇国际信息产业基地高新二街"},{"poiid":"B2094757D068A1FA4999","title":"西安5号米皮","lon":"121.51563","lat":"31.23721","category":"68","category_name":"快餐厅","address":"浦东新区南泉北路51号-4(近招远路)"},{"poiid":"B2094757D06AA3FC409B","title":"浦东大道钱仓路","lon":"121.520092738","lat":"31.2396905017","category":"500","category_name":"未知分类","address":"上海浦东大道"},{"poiid":"B2094757D16CA6F84393","title":"龙门鱼府","lon":"121.517858738","lat":"31.234588393","category":"86","category_name":"火锅店","address":"浦东新区崂山路300号(近乳山路)"},{"poiid":"B2094757D068A5F8459B","title":"月亮生煎大王","lon":"121.51692","lat":"31.23806","category":"68","category_name":"快餐厅","address":"浦东新区崂山路80号101室(近浦东大道)"},{"poiid":"B2094757D56CAAFB469F","title":"二子龙虾 东昌店","lon":"121.514945054","lat":"31.237452793","category":"68","category_name":"快餐厅","address":"浦东新区南泉北路51号(近招远路)"},{"poiid":"B2094757D068A2FC419F","title":"崂山二村","lon":"121.52024","lat":"31.236893","category":"252","category_name":"楼宇机构","address":"上海市浦东新区栖霞路"},{"poiid":"B2094654DA69A7FD479B","title":"东昌中学东校","lon":"121.51871","lat":"31.23801","category":"55","category_name":"中学","address":"崂山路200"},{"poiid":"B2094654DA69A7FC439A","title":"京世国际发型美容连锁机构","lon":"121.519","lat":"31.237","category":"148","category_name":"美容美发店","address":"崂山东路"},{"poiid":"B2094654DA69A7FE459A","title":"崂山五村","lon":"121.51745","lat":"31.23745","category":"47","category_name":"住宅区","address":"崂山五村502-562号"},{"poiid":"B2094757D06EAAFF4993","title":"浦电路地铁站(四号线)","lon":"121.519854","lat":"31.240301","category":"36","category_name":"地铁站","address":"上海轨道交通 四号线 轨交浦东大道站 轻轨 4"},{"poiid":"B2094757D164A2F9429C","title":"光头烧烤","lon":"121.51228","lat":"31.24018","category":"68","category_name":"快餐厅","address":"浦东新区崂山路47号(东昌电影院)"},{"poiid":"B2094757D465A0F4489A","title":"溢香小苑湘菜馆","lon":"121.518042054","lat":"31.237157793","category":"77","category_name":"湖南菜","address":"浦东新区栖霞路99号(近崂山路)"},{"poiid":"B2094654DA69A1F5439D","title":"申金大厦","lon":"121.517","lat":"31.2352","category":"46","category_name":"楼宇","address":"商城路297-305"},{"poiid":"B2094757D66BA6F8409E","title":"小四川鱼庄","lon":"121.5204","lat":"31.23341","category":"71","category_name":"四川菜","address":"浦东新区崂山东路310号(近乳山路)"},{"poiid":"B2094654DA69A7FC4598","title":"崂山新村","lon":"121.51923","lat":"31.238258","category":"47","category_name":"住宅区","address":"栖霞路190弄"},{"poiid":"B2094757D064A5F54393","title":"吉祥馄饨 栖霞店 Gll Wonton","lon":"121.51706","lat":"31.23627","category":"68","category_name":"快餐厅","address":"浦东新区栖霞路66号(近南泉北路)"},{"poiid":"B2094757D068A1FC429F","title":"东昌电影院","lon":"121.516061","lat":"31.237536","category":"178","category_name":"电影院","address":"南泉北路150"},{"poiid":"B2094757D568A4FE499F","title":"猫记冷饮批发","lon":"121.517903","lat":"31.237831","category":"113","category_name":"冷饮店","address":"浦东新区崂山路253号(近栖霞路)"},{"poiid":"B2094757D065A2FD479B","title":"老姚烧烤","lon":"121.51579","lat":"31.23748","category":"68","category_name":"快餐厅","address":"浦东新区南泉北路51号(近招远路)"},{"poiid":"B2094757D06AA7F8429A","title":"德兴面馆(浦东店)","lon":"121.5153","lat":"31.2387","category":"68","category_name":"快餐厅","address":"浦东新区南泉北路1号(浦东大道口)"},{"poiid":"B2094757D46BA4F8499F","title":"河南拉面 崂山路店","lon":"121.518826","lat":"31.236869","category":"68","category_name":"快餐厅","address":"浦东新区崂山路253号(近栖霞路)"},{"poiid":"B2094757D66BA4FF449E","title":"巴蜀川菜馆","lon":"121.518747054","lat":"31.236747793","category":"71","category_name":"四川菜","address":"浦东新区崂山路218号(近栖霞路)"},{"poiid":"B2094757D66DABFB479E","title":"名盛串城","lon":"121.515641738","lat":"31.2376644585","category":"96","category_name":"韩国料理","address":"浦东新区南泉北路53号(近浦东大道)"},{"poiid":"B2094655D264ABF94793","title":"富橙投资","lon":"121.51634","lat":"31.23925","category":"46","category_name":"楼宇","address":"浦东区浦东大道288号"},{"poiid":"B2094654DA69A7FB4092","title":"三和辣欢天川菜馆","lon":"121.51757","lat":"31.23647","category":"71","category_name":"四川菜","address":"浦东新区栖霞路82号(崂山路南泉北路间)"},{"poiid":"B2094757D569A2F8429D","title":"R&B珍奶会所(栖霞店)","lon":"121.51728163","lat":"31.23635878","category":"113","category_name":"冷饮店","address":"浦东新区栖霞路72号(近南泉北路)"},{"poiid":"B2094757D46EA2FE4099","title":"食食客客","lon":"121.51642","lat":"31.23625","category":"68","category_name":"快餐厅","address":"浦东新区栖霞路53号(近南泉北路)"},{"poiid":"B2094654DA69A7F8459B","title":"上海电视大学黄经贸分校","lon":"121.51627","lat":"31.23714","category":"52","category_name":"高等院校","address":"南泉北路168-170"},{"poiid":"B2094654DA69A7FB4192","title":"名角女士生活馆(崂山三村)","lon":"121.51851","lat":"31.23676","category":"148","category_name":"美容美发店","address":"崂山三村37"},{"poiid":"B2094655D265A1FE4899","title":"可的超市(崂栖店)","lon":"121.51893","lat":"31.23698","category":"117","category_name":"便民商店/便利店","address":"栖霞路100号"},{"poiid":"B2094655D36CA6FB489E","title":"东方路栖霞路","lon":"121.52062","lat":"31.23821","category":"38","category_name":"公交车站","address":""},{"poiid":"B2094654DA69A7FE459C","title":"246深度造型","lon":"121.51723","lat":"31.23658","category":"148","category_name":"美容美发店","address":"浦东新区栖霞路85号(地铁2号线东昌路站2号出口)"},{"poiid":"B2094654DA69A7FB419B","title":"崂山三、四村(北门)","lon":"121.51763","lat":"31.23648","category":"47","category_name":"住宅区","address":"梅园新村"},{"poiid":"B2094654DA69A6FD439B","title":"东昌大楼","lon":"121.52","lat":"31.2386","category":"46","category_name":"楼宇","address":"上海东昌路600号"},{"poiid":"B2094757D66CA6F9499C","title":"砂锅麻辣烫","lon":"121.519568738","lat":"31.237543456","category":"247","category_name":"餐饮美食","address":"上海市浦东新区浦东大道"},{"poiid":"B2094655D26DA7FB499B","title":"家家乐(栖霞路)","lon":"121.51918","lat":"31.23731","category":"118","category_name":"超级市场","address":"栖霞路117临"},{"poiid":"B2094757D16BA1FE439B","title":"陆家嘴司法所","lon":"121.517449","lat":"31.23745","category":"500","category_name":"未知分类","address":"上海崂山五村555号"},{"poiid":"B2094654DA69A7FC459B","title":"崂山新村(南门)","lon":"121.51943","lat":"31.23742","category":"47","category_name":"住宅区","address":""},{"poiid":"B2094654DA69A7FD419D","title":"崂六小区","lon":"121.5174","lat":"31.239016","category":"47","category_name":"住宅区","address":"浦东大道290弄1-29号"},{"poiid":"B2094757DA64A5FA429C","title":"中国人民银行","lon":"121.51715609","lat":"31.236211355","category":"500","category_name":"未知分类","address":"浦东陆家嘴"},{"poiid":"B2094757D66DA1FC419A","title":"长生源粥店","lon":"121.52458","lat":"31.2362","category":"68","category_name":"快餐厅","address":"浦东新区乳山路152号"},{"poiid":"B2094750D76CABFF429C","title":"长安客(招远路店)","lon":"121.515","lat":"31.2371","category":"68","category_name":"快餐厅","address":"浦东新区招远路19弄25号(近东方医院)"},{"poiid":"B2094655D26BA2F44298","title":"栖霞路崂山路","lon":"121.51674","lat":"31.23631","category":"38","category_name":"公交车站","address":""}]