[{"poiid":"B2094757D06FA1FE469B","title":"淞南公园","lon":"121.486744987","lat":"31.3410313325","category":"196","category_name":"公园","address":"上海宝山区淞良路300号(近淞发路)"},{"poiid":"B2094655D36DA7F5489E","title":"淞南镇","lon":"121.4843","lat":"31.34131","category":"38","category_name":"公交车站","address":"上海宝山区淞南镇"},{"poiid":"B2094757D069A7F4429F","title":"祥腾生活广场","lon":"121.480338543","lat":"31.3400640394","category":"47","category_name":"住宅区","address":"宝山区淞发路901弄祥腾生活广场内(近长江南路)"},{"poiid":"B2094757D465A3FE4699","title":"宏亮海鲜大酒楼 淞发路店","lon":"121.483641054","lat":"31.341974793","category":"88","category_name":"海鲜酒楼","address":"宝山区淞发路918号世纪联华3楼(近长江南路)"},{"poiid":"B2094757D069A6FB4793","title":"新城尚景","lon":"121.4817034","lat":"31.343563222","category":"47","category_name":"住宅区","address":"上海宝山区淞肇路333弄"},{"poiid":"B2094757D06FA6FC439E","title":"华浜新村","lon":"121.49277","lat":"31.350016","category":"47","category_name":"住宅区","address":"上海长江路军工路"},{"poiid":"B2094757D66EA6FB459F","title":"♥HÖmЁ♥","lon":"121.490882603","lat":"31.339821674","category":"500","category_name":"未知分类","address":null},{"poiid":"B2094757D06FAAFF4493","title":"肯德基 KFC (淞南店)","lon":"121.4793813","lat":"31.336847878","category":"68","category_name":"快餐厅","address":"宝山区长江南路553号(近长逸路)"},{"poiid":"B2094757D06FABF8499E","title":"西塘桥","lon":"121.481008","lat":"31.337035","category":"260","category_name":"其他","address":"上海西塘桥淞南八村"},{"poiid":"B2094655D36CA5F9459A","title":"长江路长江南路","lon":"121.48303","lat":"31.34703","category":"38","category_name":"公交车站","address":""},{"poiid":"B2094757D069A0FE4292","title":"国际节能环保园","lon":"121.48101","lat":"31.34614","category":"179","category_name":"音乐厅","address":"上海宝山区长江西路101号(近钢三路)  "},{"poiid":"B2094757D064A6FE459F","title":"淞南七村","lon":"121.4885992726","lat":"31.339706632077","category":"500","category_name":"未知分类","address":"长逸路50弄"},{"poiid":"B2094757D06BA3FE499C","title":"淞南八村","lon":"121.487","lat":"31.3413","category":"252","category_name":"楼宇机构","address":"长江南路143号"},{"poiid":"B2094757D064A1F8429C","title":"长江路","lon":"121.48506004","lat":"31.346489545","category":"500","category_name":"未知分类","address":"上海市宝山区长江路848弄"},{"poiid":"B2094757D66AABFD429E","title":"品宴轩","lon":"121.481266054","lat":"31.343886793","category":"72","category_name":"广东菜","address":"宝山区长江南路717号(近淞发路)"},{"poiid":"B2094757D569A6FF4098","title":"万临家园","lon":"121.48648","lat":"31.342659","category":"47","category_name":"住宅区","address":"淞发路500弄"},{"poiid":"B2094757D068A6F94399","title":"上钢一厂","lon":"121.485162","lat":"31.34774","category":"263","category_name":"公司","address":"上海上钢一厂"},{"poiid":"B2094757D068A4FA429D","title":"宝钢集团一钢文体中心","lon":"121.48373","lat":"31.3468","category":"260","category_name":"其他","address":"宝山区长江路868号(近卫生科路)"},{"poiid":"B2094757D165A2FB499D","title":"湘沪风情","lon":"121.4847026","lat":"31.347030175","category":"77","category_name":"湖南菜","address":"宝山区淞良路534号(长江路淞良路)"},{"poiid":"B2094757D06AA2FF449D","title":"乐翻天KTV(淞南店)","lon":"121.483616","lat":"31.341068","category":"170","category_name":"KTV","address":"上海长江南路淞发路(祥腾生活广场)"},{"poiid":"B2094654D469AAFC459E","title":"上海市宝山区一钢医院","lon":"121.48574","lat":"31.34455","category":"162","category_name":"医院","address":"宝山区卫生科路111号"},{"poiid":"B2094757D069A6FD499E","title":"上海东昌英菲尼迪旗舰店","lon":"121.474134803","lat":"31.3437922572","category":"500","category_name":"未知分类","address":"宝山区长江西路600号"},{"poiid":"B2094654D46AA1FF4792","title":"贵金羊肉面馆","lon":"121.4859","lat":"31.34733","category":"68","category_name":"快餐厅","address":"宝山区淞良路532号(长江路口)"},{"poiid":"B2094750D76DAAF8429F","title":"家香饭店","lon":"121.486","lat":"31.3465","category":"68","category_name":"快餐厅","address":"宝山区淞良路539号(近长江路)"},{"poiid":"B2094655D36CA5F9449C","title":"长江南路","lon":"121.48514","lat":"31.34772","category":"38","category_name":"公交车站","address":""},{"poiid":"B2094655D36CA5F94398","title":"长江西路长江南路","lon":"121.48142","lat":"31.34642","category":"38","category_name":"公交车站","address":""},{"poiid":"B2094654D46AA1FA429D","title":"花园快餐厅","lon":"121.48226","lat":"31.34588","category":"257","category_name":"中餐厅","address":"长江南路1043号"},{"poiid":"B2094654DB65A6FB4292","title":"淞南世纪联华超市","lon":"121.4797","lat":"31.33801","category":"118","category_name":"超级市场","address":"宝山区长江南路651号世纪联华内(近淞发路)"},{"poiid":"B2094757D069ABFE409A","title":"宝钢指挥中心","lon":"121.48238372","lat":"31.346900939","category":"500","category_name":"未知分类","address":"上海宝山区富锦路宝钢3号门(近克东路)"},{"poiid":"B2094757D568A0FA4492","title":"上海三湘海尚","lon":"121.480765","lat":"31.34374056","category":"47","category_name":"住宅区","address":"宝山区长江南路888号(近淞肇路)"},{"poiid":"B2094654D46AA1FF4799","title":"家乡饭店(淞良路)","lon":"121.48613","lat":"31.34745","category":"257","category_name":"中餐厅","address":"淞南镇"},{"poiid":"B2094654D46AA1FF479F","title":"快客(淞良路)","lon":"121.48582","lat":"31.34757","category":"117","category_name":"便民商店/便利店","address":""},{"poiid":"B2094654D469AAFC459A","title":"上海市吴淞第二中学","lon":"121.48379","lat":"31.34525","category":"55","category_name":"中学","address":"宝山区长江路860弄1号(长江路卫生科路)"},{"poiid":"B2094757D76AA6F8489C","title":"来伊份 淞良路店","lon":"121.485926","lat":"31.347291","category":"68","category_name":"快餐厅","address":"宝山区淞良路525号外房21号"},{"poiid":"B2094654D46AA1FF489A","title":"银利百货商场","lon":"121.48604","lat":"31.34714","category":"119","category_name":"商场","address":"长江路780弄29号"},{"poiid":"B2094757D069AAF4479A","title":"淞南镇社区卫生服务中心","lon":"121.48908448","lat":"31.342121041","category":"162","category_name":"医院","address":"宝山区淞良路301号(近淞南公园)"},{"poiid":"B2094654D469AAFC4592","title":"凇南三村","lon":"121.49083","lat":"31.34357","category":"47","category_name":"住宅区","address":"淞南镇"},{"poiid":"B2094654D46AA1FF4692","title":"宏达百货","lon":"121.48625","lat":"31.34721","category":"119","category_name":"商场","address":""},{"poiid":"B2094757D065A0F9439A","title":"淞南五村(老)","lon":"121.484233103","lat":"31.3368458117","category":"252","category_name":"楼宇机构","address":"上海市宝山区长逸路淞肇路"},{"poiid":"B2094757D66BA7F5499A","title":"老北京热气涮羊肉","lon":"121.48841","lat":"31.3422","category":"86","category_name":"火锅店","address":"杨浦区国和路971号"},{"poiid":"B2094757D16AA5FD4092","title":"宝钢股份不锈钢事业部","lon":"121.48281083","lat":"31.351003175","category":"500","category_name":"未知分类","address":"上海市宝山区钢四路"},{"poiid":"B2094654D46AA0F8429D","title":"上海一钢企业开发有限公司工程技术分公司(业务)","lon":"121.48468","lat":"31.34719","category":"263","category_name":"公司","address":""},{"poiid":"B2094757D168A4FB499C","title":"中国工商银行上海市长江支行","lon":"121.485825103","lat":"31.3477720405","category":"500","category_name":"未知分类","address":"上海长江路832号"},{"poiid":"B2094750D665A3F9489F","title":"鼎中鼎澳门豆捞(淞南店)","lon":"121.48","lat":"31.3395","category":"86","category_name":"火锅店","address":"宝山区长江南路651号世纪联华1搂(近通南路)"},{"poiid":"B2094751D26BA2F8409E","title":"虹口龙之梦","lon":"121.487635","lat":"31.345108","category":"247","category_name":"餐饮美食","address":null},{"poiid":"B2094654D469AAFC4798","title":"长宏新苑","lon":"121.49244","lat":"31.342192","category":"47","category_name":"住宅区","address":"上海市普陀区武宁路492号"},{"poiid":"B2094654D46AA1FF4599","title":"便民百货大卖场","lon":"121.48686","lat":"31.346","category":"119","category_name":"商场","address":""},{"poiid":"B2094654D469AAFC459B","title":"凇宏苑","lon":"121.4847","lat":"31.34379","category":"47","category_name":"住宅区","address":"凇宏苑位于宝山卫生科路100弄(52路长江南路下)"},{"poiid":"B2094654D46AA1FF459B","title":"良友金伴(淞良路)","lon":"121.48689","lat":"31.34591","category":"117","category_name":"便民商店/便利店","address":""},{"poiid":"B2094654D46AA1F84093","title":"馄饨粉丝王","lon":"121.48683","lat":"31.34518","category":"68","category_name":"快餐厅","address":"宝山区淞良路"},{"poiid":"B2094654D46AA1FF4492","title":"华联家维(淞良路)","lon":"121.48693","lat":"31.34583","category":"117","category_name":"便民商店/便利店","address":"淞良路495"},{"poiid":"B2094654D46AA1F8499D","title":"一钢医院中医专家特色门诊","lon":"121.48551","lat":"31.34449","category":"162","category_name":"医院","address":""},{"poiid":"B2094757D16EAAFD4593","title":"宝山区第一钢铁医院","lon":"121.486023","lat":"31.344229","category":"162","category_name":"医院","address":"上海长江路卫生科路"},{"poiid":"B2094757D068A3FF469C","title":"味千拉面 长江南路店","lon":"121.481348054","lat":"31.336897793","category":"95","category_name":"日本料理","address":"宝山区长江南路651号世纪联华1搂D-1单元(近淞发路)"},{"poiid":"B2094654D46AA1F84192","title":"良友金伴NO.361","lon":"121.48691","lat":"31.34499","category":"117","category_name":"便民商店/便利店","address":"淞良路432"},{"poiid":"B2094757D06BA6FB429D","title":"淞南新村","lon":"121.4848241","lat":"31.343239945","category":"500","category_name":"未知分类","address":"上海市宝山区长江西路"},{"poiid":"B2094654D46AA1FA4299","title":"鑫兴棋牌室","lon":"121.48207","lat":"31.34576","category":"175","category_name":"棋牌室","address":"长江南路1037号"},{"poiid":"B2094757D169AAFD409A","title":"混沌粉丝王","lon":"121.48614265","lat":"31.342688584","category":"68","category_name":"快餐厅","address":"宝山区淞良路(近淞发路)"},{"poiid":"B2094654D46AA1F9409F","title":"卫生科路水果店","lon":"121.48545","lat":"31.34376","category":"117","category_name":"便民商店/便利店","address":""},{"poiid":"B2094757D16AA3FB459B","title":"永顺和苏州汤包馆","lon":"121.490074103","lat":"31.345169986","category":"68","category_name":"快餐厅","address":"宝山区淞南路338号(近淞南三村门口)"},{"poiid":"B2094654D46AA1F9409D","title":"光明便利NO.368","lon":"121.4858","lat":"31.34302","category":"117","category_name":"便民商店/便利店","address":"长江路八六0弄68"},{"poiid":"B2094655D26BA2FC4593","title":"吴淞煤气厂","lon":"121.48918","lat":"31.34916","category":"38","category_name":"公交车站","address":""},{"poiid":"B2094757D66EA6FF499C","title":"私の家","lon":"121.482206","lat":"31.343573","category":"500","category_name":"未知分类","address":null},{"poiid":"B2094757D168AAF44499","title":"本山大酒店","lon":"121.49062","lat":"31.34702","category":"76","category_name":"上海菜","address":"宝山区淞南路360号(近三号线淞发路站)"},{"poiid":"B2094757D66CA0FF449E","title":"淞南医院儿保科","lon":"121.484505103","lat":"31.3425469311","category":"162","category_name":"医院","address":"上海淞南街道医院"},{"poiid":"B2094655D36DA7F54899","title":"淞南医院","lon":"121.48751","lat":"31.34235","category":"162","category_name":"医院","address":""},{"poiid":"B2094757D064A7FF479F","title":"我爱我家","lon":"121.485628103","lat":"31.3437469562","category":"500","category_name":"未知分类","address":"上海市宝山区长江南路"},{"poiid":"B2094757D069A7FF4392","title":"吾额窝里","lon":"121.487766039","lat":"31.345998537","category":"500","category_name":"未知分类","address":null},{"poiid":"B2094654D469ABF5429D","title":"宝山职校(总部校区)","lon":"121.48113","lat":"31.34184","category":"54","category_name":"职业技术学校","address":"宝山区淞发路885号(近世纪联华)"},{"poiid":"B2094757D069ABFB4792","title":"宝景苑","lon":"121.47723","lat":"31.338472","category":"252","category_name":"楼宇机构","address":"上海宝山区通南路55弄"},{"poiid":"B2094750D565A1FB419F","title":"蔡阿姨面馆","lon":"121.48883","lat":"31.34501","category":"68","category_name":"快餐厅","address":"宝山区淞南路427号"},{"poiid":"B2094655D36DA7F5469A","title":"淞发路淞肇路","lon":"121.4834","lat":"31.34098","category":"38","category_name":"公交车站","address":""},{"poiid":"B2094654D46AA0F8449D","title":"宝山钢铁股份有限公司不锈钢分公司","lon":"121.48834","lat":"31.34847","category":"263","category_name":"公司","address":""},{"poiid":"B2094655D36CA3F9479A","title":"祥腾菁英公馆","lon":"121.48724","lat":"31.342728","category":"47","category_name":"住宅区","address":"长江南路955弄"},{"poiid":"B2094757D16EA1FF4799","title":"长江二中","lon":"121.47696114","lat":"31.343212313","category":"55","category_name":"中学","address":"上海通南路新二路"},{"poiid":"B2094750DA65A0FB4492","title":"虹桥火车站","lon":"121.483062","lat":"31.341083","category":"247","category_name":"餐饮美食","address":null},{"poiid":"B2094655D36DA0FD4792","title":"新新五村","lon":"121.48773","lat":"31.33809","category":"38","category_name":"公交车站","address":""},{"poiid":"B2094757D068A5FC429C","title":"Leungの屋企","lon":"121.48834548","lat":"31.343200584","category":"247","category_name":"餐饮美食","address":null},{"poiid":"B2094655D26BA6FB459F","title":"淞宏苑","lon":"121.49118934705","lat":"31.349218369986","category":"47","category_name":"住宅区","address":"上海市宝山区卫生科路100弄"},{"poiid":"B2094757D068A2FE4499","title":"淞南一村","lon":"121.492","lat":"31.3489","category":"252","category_name":"楼宇机构","address":"上海卫生科路"},{"poiid":"B2094750D76CA4FA489F","title":"古竹园(古竹里)","lon":"121.48","lat":"31.3395","category":"87","category_name":"特色／地方风味餐厅","address":"宝山区淞南镇长江南路651号(近淞发路)"},{"poiid":"B2094654D469ABF5489C","title":"凇南地段医院","lon":"121.48909","lat":"31.34213","category":"162","category_name":"医院","address":"宝山区淞良路301号"},{"poiid":"B2094757D064A4FB499C","title":"寶山職業技術學院","lon":"121.48113","lat":"31.34184","category":"253","category_name":"校园生活","address":"上海寶山區淞發路885號"},{"poiid":"B2094757D769A4FB479E","title":"苹果花园 长逸路店","lon":"121.482709","lat":"31.336862","category":"47","category_name":"住宅区","address":"宝山区长逸路725号"},{"poiid":"B2094757D16DA5F94299","title":"三湘海尚","lon":"121.4767795","lat":"31.340800894","category":"47","category_name":"住宅区","address":"上海长江南路888号"},{"poiid":"B2094757D56EA6FC4799","title":"达芙妮-淞南店","lon":"121.488909","lat":"31.348683","category":"249","category_name":"购物服务","address":"宝山区长江南路651号世纪联华1搂(近淞发路)"},{"poiid":"B2094757D064A1FE489A","title":"淞南六村","lon":"121.491","lat":"31.3424","category":"500","category_name":"未知分类","address":"上海市宝山区长逸路"},{"poiid":"B2094654DB6AA5FA459F","title":"鸡不可失 长江南路店","lon":"121.48031","lat":"31.33935","category":"68","category_name":"快餐厅","address":"宝山区长江南路651号世纪联华内(近淞发路)"},{"poiid":"B2094654D46AA1FE489E","title":"宝山公安分局交通警察支队二中队","lon":"121.49044","lat":"31.34745","category":"250","category_name":"公园户外","address":"淞南路400"},{"poiid":"B2094757D06AA1FB499E","title":"永琪美容美发(淞南店)","lon":"121.49165","lat":"31.34391","category":"148","category_name":"美容美发店","address":"上海宝山区淞南路(近淞发路)"},{"poiid":"B2094757D469A2F8499A","title":"新招鲜本地鸡窝 宝山店","lon":"121.480587","lat":"31.336929","category":"86","category_name":"火锅店","address":"宝山区长江南路725号(近长逸路)"},{"poiid":"B2094655D26FA4FC499E","title":"好德","lon":"121.49105","lat":"31.34551","category":"117","category_name":"便民商店/便利店","address":""},{"poiid":"B2094654D46AA1FE4799","title":"美琴美发厅","lon":"121.49082","lat":"31.34709","category":"148","category_name":"美容美发店","address":""},{"poiid":"B2094654D46AA1FF409D","title":"良友金伴NO.151","lon":"121.49109","lat":"31.34523","category":"117","category_name":"便民商店/便利店","address":"淞南镇"},{"poiid":"B2094757D16DA0FF489D","title":"宝钢工业检测公司宝山分公司","lon":"121.47887013","lat":"31.3521926","category":"500","category_name":"未知分类","address":"上海不锈钢事业部/不锈钢大道/检测小白楼/品检部"},{"poiid":"B2094654D46AA4FB4799","title":"味干拉面","lon":"121.4803","lat":"31.33934","category":"257","category_name":"中餐厅","address":""},{"poiid":"B2094757D065A5F94999","title":"上海移动通信（长江南路营业厅）","lon":"121.48207092","lat":"31.341516494","category":"249","category_name":"购物服务","address":"上海长江南路559号"},{"poiid":"B2094752D16CABF84493","title":"盛世宝坻","lon":"121.487533","lat":"31.34345","category":"253","category_name":"校园生活","address":"宝山区淞塘路98弄"},{"poiid":"B2094757D16EA1F9419F","title":"中国农业银行上海淞南支行","lon":"121.490959","lat":"31.345765","category":"150","category_name":"银行","address":"宝山区淞南路350号"},{"poiid":"B2094654D46AA0F8419F","title":"上海钢运物资供销有限公司","lon":"121.47669","lat":"31.34436","category":"263","category_name":"公司","address":"长江西路360号"},{"poiid":"B2094654D46AA1FE429E","title":"上海仕迪百货","lon":"121.49149","lat":"31.34444","category":"119","category_name":"商场","address":""},{"poiid":"B2094757D16CA3F44098","title":"713终点站","lon":"121.489205103","lat":"31.3424659294","category":"500","category_name":"未知分类","address":"上海淞南新村"},{"poiid":"B2094654D46AA1FE469A","title":"冰魄酷吧","lon":"121.49092","lat":"31.34679","category":"172","category_name":"酒吧","address":""},{"poiid":"B2094757DA64A0FF4192","title":"淞南商城(巴黎时光)","lon":"121.49142","lat":"31.346474","category":"252","category_name":"楼宇机构","address":"宝山区淞南路459号"},{"poiid":"B2094757D469A7FD409A","title":"尚乐饮咖吧","lon":"121.482382","lat":"31.336152","category":"111","category_name":"休闲餐饮场所","address":"宝山区长江南路510号(近长逸路)"},{"poiid":"B2094655D264A4FA429A","title":"淞南电影院","lon":"121.490667","lat":"31.347517","category":"178","category_name":"电影院","address":"长江路440弄23号"},{"poiid":"B2094757D06BA1F54493","title":"Yury's 小屋","lon":"121.490309103","lat":"31.3447799779","category":"500","category_name":"未知分类","address":null},{"poiid":"B2094750D26FA5F8459A","title":"凯德龙之梦（虹口）","lon":"121.490447","lat":"31.352376","category":"248","category_name":"生活娱乐","address":null},{"poiid":"B2094757D16CA3FA4498","title":"小尾羊淞南店","lon":"121.484126503","lat":"31.3359824936","category":"86","category_name":"火锅店","address":"宝山区长逸路738号(长江南路口)"},{"poiid":"B2094757D165A1FA489A","title":"淞南新新五村","lon":"121.4878031","lat":"31.339134859","category":"500","category_name":"未知分类","address":"上海淞良路淞发路"},{"poiid":"B2094757D16DAAFD4398","title":"鑫灵创意产业园","lon":"121.491073608","lat":"31.3463554382","category":"500","category_name":"未知分类","address":"上海峨山路613号"},{"poiid":"B2094757D168A2F54892","title":"复兴中路","lon":"121.4801101","lat":"31.340518888","category":"500","category_name":"未知分类","address":"上海复兴中路瑞金二路"},{"poiid":"B2094654D46AA4FB4798","title":"松南小五角广场","lon":"121.47893","lat":"31.33869","category":"46","category_name":"楼宇","address":""},{"poiid":"B2094757D66FA0FE459E","title":"太平洋保险","lon":"121.4832116","lat":"31.340372918","category":"500","category_name":"未知分类","address":"上海吴淞路400号"},{"poiid":"B2094654D46AA4FB489E","title":"松南购物中心","lon":"121.48046","lat":"31.33843","category":"119","category_name":"商场","address":""},{"poiid":"B2094654DB6AA5F8419F","title":"克莉丝汀 长江南路店 Christine","lon":"121.481415054","lat":"31.336347793","category":"112","category_name":"糕饼店","address":"宝山区长江南路518号(近长逸路)"},{"poiid":"B2094654D46AA1FE4298","title":"宝山社区协作网淞南镇图书馆","lon":"121.49168","lat":"31.34395","category":"181","category_name":"图书馆","address":"淞南路345"},{"poiid":"B2094654D469AAFC479F","title":"上海农村商业银行淞南支行","lon":"121.4914","lat":"31.34533","category":"150","category_name":"银行","address":"淞南路399号"},{"poiid":"B2094655D36CA2FB449F","title":"三转炉","lon":"121.47314","lat":"31.34368","category":"38","category_name":"公交车站","address":""},{"poiid":"B2094757D164ABF8459F","title":"麦动歌城","lon":"121.489813103","lat":"31.3411849026","category":"170","category_name":"KTV","address":"上海三门路497号三楼"},{"poiid":"B2094757DA6EA5FE4899","title":"嘉怡宠物诊所","lon":"121.482951100002","lat":"31.3406250000001","category":"668","category_name":"诊所","address":"宝山区淞南淞肇路325-13号(近长江南路)"},{"poiid":"B2094654D46AA1FE449D","title":"TWO兔精品饰界","lon":"121.4913","lat":"31.34566","category":"130","category_name":"礼品饰品店","address":""},{"poiid":"B2094654D469AAFC469D","title":"凇南六村","lon":"121.4846","lat":"31.33694","category":"47","category_name":"住宅区","address":"长逸路61-114号"},{"poiid":"B2094757D164AAFE469C","title":"东方剑桥幼儿园","lon":"121.486638522","lat":"31.3382048902","category":"57","category_name":"幼儿园","address":"上海长逸路"},{"poiid":"B2094655D264A5F94899","title":"宝楼馆","lon":"121.48164","lat":"31.3365","category":"68","category_name":"快餐厅","address":"宝山区长江南路530弄199号(近西塘桥)"},{"poiid":"B2094654D46AA0F84599","title":"良友金伴NO.365","lon":"121.49279","lat":"31.35004","category":"117","category_name":"便民商店/便利店","address":"华浜新村57-2"},{"poiid":"B2094757D06BA2F4469C","title":"淞良路淞发路","lon":"121.48891523","lat":"31.341042269","category":"500","category_name":"未知分类","address":"上海淞良路淞发路"},{"poiid":"B2094757D065A6FF479E","title":"沪香悦","lon":"121.4840091","lat":"31.336908813","category":"500","category_name":"未知分类","address":"宝山区长江南路589号(近长逸路)"},{"poiid":"B2094757D66DA4FD429B","title":"上海申通二部","lon":"121.4719001","lat":"31.346243008","category":"500","category_name":"未知分类","address":"上海上钢一长"},{"poiid":"B2094654D46AA1FE409C","title":"可的(淞南路)","lon":"121.49173","lat":"31.34245","category":"117","category_name":"便民商店/便利店","address":""},{"poiid":"B2094757D665ABF94093","title":"豪味道大大鸡排 长江南路店","lon":"121.48065","lat":"31.33767","category":"68","category_name":"快餐厅","address":"宝山区长江南路651号世纪联华w31(近淞发路)"},{"poiid":"B2094654D46AA1F94493","title":"羊鸭狗火锅家常菜","lon":"121.484373054","lat":"31.337497793","category":"71","category_name":"四川菜","address":"宝山区长逸路719号(淞肇路口)"},{"poiid":"B2094757D064ABF44293","title":"淞南二村","lon":"121.49427845566","lat":"31.349363439088","category":"252","category_name":"楼宇机构","address":"淞良路201弄"},{"poiid":"B2094655D26AA5F4459B","title":"通联驾校宝山分部","lon":"121.4799","lat":"31.33725","category":"247","category_name":"餐饮美食","address":"宝山区长江南路688号(近通南路)"},{"poiid":"B2094654D46AA1F9429E","title":"重庆鸡公煲长逸店","lon":"121.48416","lat":"31.33738","category":"71","category_name":"四川菜","address":"宝山区长逸路松南五村附近(近淞肇路)"},{"poiid":"B2094655D264A0F84293","title":"都市花苑","lon":"121.47701","lat":"31.337891","category":"47","category_name":"住宅区","address":"上海市长宁区延安西路1235弄"},{"poiid":"B2094757D165ABFC4299","title":"水产西路富联路777号","lon":"121.47919083","lat":"31.354393245","category":"500","category_name":"未知分类","address":"上海我家"},{"poiid":"B2094654D46AA0F8459D","title":"快客NO.563","lon":"121.49341","lat":"31.35025","category":"117","category_name":"便民商店/便利店","address":"华浜新村41-3"},{"poiid":"B2094757D164A0F84492","title":"kfc马当路店","lon":"121.47436083","lat":"31.350230159","category":"500","category_name":"未知分类","address":"上海九号线马当路地铁站"},{"poiid":"B2094752D26DA2F94998","title":"蚝庄骨头锅","lon":"121.47883","lat":"31.33869","category":"86","category_name":"火锅店","address":"宝山区长江南路719号"},{"poiid":"B2094757D46DAAFD489C","title":"华必和 长江店","lon":"121.481967054","lat":"31.336110793","category":"68","category_name":"快餐厅","address":"宝山区长江南路563号(近西塘桥)"},{"poiid":"B2094654D46AA1FF419B","title":"宝山区人民法院淞南人民法庭","lon":"121.49127","lat":"31.34358","category":"252","category_name":"楼宇机构","address":"淞南路302"},{"poiid":"B2094655D265ABF4489D","title":"四季绿城二期","lon":"121.48327367365","lat":"31.336504843017","category":"47","category_name":"住宅区","address":"上海市宝山区新二路998号"},{"poiid":"B2094654D469AAFC4799","title":"凇南镇文化中心","lon":"121.49168","lat":"31.34392","category":"248","category_name":"生活娱乐","address":"淞南路345"},{"poiid":"B2094654D46AA1F9419E","title":"好德(长逸路)","lon":"121.48448","lat":"31.33753","category":"117","category_name":"便民商店/便利店","address":"长逸路617"},{"poiid":"B2094757D464A6F84592","title":"久久丫鸭颈王 长江南路店","lon":"121.482566054","lat":"31.336188793","category":"68","category_name":"快餐厅","address":"宝山区长江南路518号(近长逸路)"},{"poiid":"B2094655D26BA6FC4392","title":"苏北土菜馆","lon":"121.49168","lat":"31.34393","category":"260","category_name":"其他","address":"宝山区淞南路345号(近淞南四村)"},{"poiid":"B2094654D46AA2F4459B","title":"上海轻玻都市型工业园区","lon":"121.47255","lat":"31.34364","category":"45","category_name":"产业园区","address":"长江西路685号"},{"poiid":"B2094655D36CA5F9449E","title":"长江南路长逸路","lon":"121.48242","lat":"31.33606","category":"38","category_name":"公交车站","address":""},{"poiid":"B2094655D26FA1FE459C","title":"中国移动淞南营业厅","lon":"121.48183","lat":"31.33671","category":"151","category_name":"电讯营业厅","address":"长江南路559号"},{"poiid":"B2094757D16CA0FD469E","title":"淞南五村vivian的小屋","lon":"121.483761","lat":"31.338874","category":"500","category_name":"未知分类","address":"宁波淞南五村505号"},{"poiid":"B2094654D46AA1F9419D","title":"可的(长逸路)","lon":"121.48439","lat":"31.33749","category":"117","category_name":"便民商店/便利店","address":""},{"poiid":"B2094655D265A5FF4193","title":"幸福春天","lon":"121.48379","lat":"31.33695","category":"47","category_name":"住宅区","address":"上海市宝山区长逸路388弄"},{"poiid":"B2094751D468A4F44098","title":"长江南路大桶大","lon":"121.481811","lat":"31.336371","category":"500","category_name":"未知分类","address":null},{"poiid":"B2094750D664A0F84193","title":"玻璃博物馆咖啡厅","lon":"121.473","lat":"31.3437","category":"260","category_name":"其他","address":"宝山区长江西路685号玻璃博物馆2楼(近钢四路)"},{"poiid":"B2094654D46AA4FB479F","title":"招商银行24小时自助银行(松南购物中心北)","lon":"121.48052","lat":"31.33945","category":"152","category_name":"ATM","address":""},{"poiid":"B2094757D16DA4F44698","title":"宝钢体育中心游泳池","lon":"121.488444103","lat":"31.3398438745","category":"500","category_name":"未知分类","address":"上海漠河路"},{"poiid":"B2094654D46AA1F84599","title":"快客NO.6570","lon":"121.48835","lat":"31.33821","category":"117","category_name":"便民商店/便利店","address":"长逸路387"},{"poiid":"B2094655D36CA5F8459C","title":"长逸路淞良路","lon":"121.48957","lat":"31.338","category":"38","category_name":"公交车站","address":""},{"poiid":"B2094654D46AA1FD489E","title":"上海宝山区东方剑桥幼儿园","lon":"121.48696","lat":"31.33789","category":"57","category_name":"幼儿园","address":""},{"poiid":"B2094654D46AA1F9439B","title":"良友金伴NO.595","lon":"121.48378","lat":"31.33721","category":"117","category_name":"便民商店/便利店","address":"长逸路681号"},{"poiid":"B2094757D16EA5FF4293","title":"萬臨家苑","lon":"121.4924321","lat":"31.341369906","category":"47","category_name":"住宅区","address":"上海市宝山区淞發生路"},{"poiid":"B2094757D06BA1FC449B","title":"永琪美容美发(长江南路店)","lon":"121.48246","lat":"31.33626","category":"148","category_name":"美容美发店","address":"宝山区长江南路571号(近长逸路)"},{"poiid":"B2094654D46AA1FC4899","title":"上海淞南经济发展区","lon":"121.48031","lat":"31.33698","category":"45","category_name":"产业园区","address":""},{"poiid":"B2094654D46AA1F9449B","title":"利宝商场","lon":"121.48317","lat":"31.33699","category":"119","category_name":"商场","address":""},{"poiid":"B2094654D46AA1FD4699","title":"徐鹏百货特卖场","lon":"121.48252","lat":"31.33643","category":"119","category_name":"商场","address":""},{"poiid":"B2094654D46AA1F8459F","title":"客皇美容美发连锁机构长逸店","lon":"121.48822","lat":"31.33822","category":"148","category_name":"美容美发店","address":"宝山区长逸路389号(近建设银行)"},{"poiid":"B2094654D46AA1FD4493","title":"光明新鲜屋(长江南路邮政所东)","lon":"121.48326","lat":"31.33584","category":"117","category_name":"便民商店/便利店","address":""},{"poiid":"B2094757D66EA7F44798","title":"云峰钢材交易市场","lon":"121.4751991","lat":"31.340677892","category":"500","category_name":"未知分类","address":"上海市宝山区长江西路778号"},{"poiid":"B2094752D46AA2F44399","title":"上海申银本业汽车销售有限公司","lon":"121.473435","lat":"31.343292","category":"158","category_name":"汽车销售","address":"宝山区江杨南路1645号"},{"poiid":"B2094757D76DA1FD459F","title":"来伊份 长逸路店","lon":"121.483283","lat":"31.336915","category":"648","category_name":"零食","address":"宝山区长江南路653号1楼(近通南路)"},{"poiid":"B2094654D46AA1F8449F","title":"康乾大药房淞南店","lon":"121.48879","lat":"31.33817","category":"162","category_name":"医院","address":"淞南镇"},{"poiid":"B2094654D46AA1FC4898","title":"通联驾驶员培训有限公司","lon":"121.4799","lat":"31.33726","category":"192","category_name":"驾校","address":"长江南路688号"},{"poiid":"B2094757D568A2F5429F","title":"世茂蝶湖湾","lon":"121.4816642","lat":"31.33648472","category":"47","category_name":"住宅区","address":"长江南路188号"},{"poiid":"B2094654D46AA1F94598","title":"仁和形象设计中心","lon":"121.48262","lat":"31.33675","category":"148","category_name":"美容美发店","address":""},{"poiid":"B2094654DB65A7F5459D","title":"家得利(淞南店)","lon":"121.48077","lat":"31.33722","category":"118","category_name":"超级市场","address":"上海市宝山区长江南路589号"},{"poiid":"B2094654D46AA1FD4993","title":"益德网络上海NO.0215","lon":"121.49188","lat":"31.34174","category":"176","category_name":"网吧","address":""},{"poiid":"B2094757D16CAAFB489E","title":"上海银行淞南支行","lon":"121.4876029","lat":"31.338590673","category":"150","category_name":"银行","address":"宝山区长逸路371号(长逸路淞良路)"},{"poiid":"B2094757D165A6FF4192","title":"海岸城","lon":"121.49413183","lat":"31.34978815","category":"500","category_name":"未知分类","address":"深圳海岸城"},{"poiid":"B2094750D66FABFF499C","title":"田子坊","lon":"121.482704","lat":"31.336355","category":"500","category_name":"未知分类","address":null},{"poiid":"B2094757D16AAAFA4298","title":"嘉怡宠物诊所","lon":"121.477064703","lat":"31.3394558664","category":"668","category_name":"诊所","address":"上海宝山区凇肇路333弄15号102"},{"poiid":"B2094752D764A7FB4199","title":"复旦大学新江湾生活园区","lon":"121.4889695","lat":"31.3386814","category":"253","category_name":"校园生活","address":"上海市国权北路1380弄"},{"poiid":"B2094654D46AA1FA4092","title":"宝江宾馆","lon":"121.48188","lat":"31.33669","category":"250","category_name":"公园户外","address":"宝山区长江南路557号(近长逸路)"},{"poiid":"B2094757D66DAAFC4698","title":"林林's 小窩","lon":"121.494140831","lat":"31.3497731505","category":"500","category_name":"未知分类","address":null},{"poiid":"B2094757D065A3FF479E","title":"长逸路","lon":"121.485372","lat":"31.337681","category":"500","category_name":"未知分类","address":"上海新新五村"},{"poiid":"B2094757D16FA5F4489C","title":"客皇","lon":"121.488285103","lat":"31.3379958358","category":"500","category_name":"未知分类","address":"上海长逸路389号"},{"poiid":"B2094654D469AAFC4699","title":"中国建设银行上海市长逸路支行","lon":"121.48953","lat":"31.33813","category":"150","category_name":"银行","address":"宝山区长逸路373-375号(长逸路淞良路)"},{"poiid":"B2094752D26BAAF4489D","title":"复旦大学江湾生活园区","lon":"121.486532","lat":"31.336953","category":"500","category_name":"未知分类","address":"上海市国权北路1380弄"},{"poiid":"B2094654D469ABF5479C","title":"中国建设银行上海市凇南支行","lon":"121.48148","lat":"31.33629","category":"150","category_name":"银行","address":"长江南路538"},{"poiid":"B2094757D16BA0F5459E","title":"味之都淞南店","lon":"121.4774462","lat":"31.338328242","category":"500","category_name":"未知分类","address":"上海长江南路651号"},{"poiid":"B2094654D469ABF5479E","title":"中国工商银行凇南分理处","lon":"121.48188","lat":"31.33613","category":"150","category_name":"银行","address":"宝山区长江南路528号(近长逸路)"},{"poiid":"B2094757D66EABFD4598","title":"挚爱宠物店","lon":"121.479472003","lat":"31.3374108235","category":"249","category_name":"购物服务","address":"宝山区淞肇路321号103室(近长江西路)"},{"poiid":"B2094654D46AA1FC489F","title":"雅芳淞南专卖店","lon":"121.48063","lat":"31.3368","category":"255","category_name":"专卖店","address":""},{"poiid":"B2094751DA6BAAFD469A","title":"上海嘉定迎园饭店","lon":"121.485","lat":"31.337501","category":"251","category_name":"出行住宿","address":"清河路150号"}]