[{"poiid":"B2094757D06FA3F84799","title":"上海城市剧院","lon":"121.390057582","lat":"31.1040728635","category":"646","category_name":"文化体育类公司","address":"上海市闵行区都市路4889号"},{"poiid":"B2094757D06FA3F9409F","title":"闵行区图书馆","lon":"121.38941192","lat":"31.105575561","category":"181","category_name":"图书馆","address":"闵行区名都路85号(近都市路)"},{"poiid":"B2094757D06BA3F4449A","title":"COSTA COFFEE(解放大厦店)","lon":"121.390016314","lat":"31.1043268302","category":"65","category_name":"咖啡厅","address":"闵行区都市路4855号解放日报大厦1座1楼02单元(近莘庄地铁站南广场)"},{"poiid":"B2094757D068A2FC4393","title":"解放大厦","lon":"121.389969363","lat":"31.1050183781","category":"46","category_name":"楼宇","address":"上海闵行区都市路4855号(近富都路)"},{"poiid":"B2094655D36CA6FA429B","title":"都市路春申路","lon":"121.39171","lat":"31.10171","category":"38","category_name":"公交车站","address":""},{"poiid":"B2094753DA65A1FD4893","title":"maan coffee漫咖啡","lon":"121.388099","lat":"31.104551","category":"500","category_name":"未知分类","address":"上海市 珠城路150号1楼"},{"poiid":"B2094757D068A1FF439D","title":"柏林春天","lon":"121.39527","lat":"31.10091","category":"500","category_name":"未知分类","address":"上海市闵行区都市路春申路"},{"poiid":"B2094757D165A2FE459A","title":"必胜客仲盛店","lon":"121.387271657","lat":"31.1013350887","category":"68","category_name":"快餐厅","address":"上海都市路5001号B1"},{"poiid":"B2094757D068A4F44893","title":"莘城苑","lon":"121.393653","lat":"31.106697","category":"47","category_name":"住宅区","address":"上海市浦东新区上南路3345号"},{"poiid":"B2094757D069AAFB499A","title":"奥塞花园","lon":"121.39630686356","lat":"31.103186829537","category":"47","category_name":"住宅区","address":"上海普洱路88弄"},{"poiid":"B2094757D06AA2F4469F","title":"莘城学校","lon":"121.39005211","lat":"31.100028758","category":"253","category_name":"校园生活","address":"闵行区普洱路158号"},{"poiid":"B2094757D16BA0FD4092","title":"华丽家园","lon":"121.39364885","lat":"31.102200406","category":"47","category_name":"住宅区","address":"上海春申路3455号"},{"poiid":"B2094655D269AAFA4592","title":"魔锅坊麻辣香锅 都市路店","lon":"121.391747054","lat":"31.101721793","category":"71","category_name":"四川菜","address":"闵行区都市路4664号(近春申路)"},{"poiid":"B2094655D26AA3F94099","title":"味煊烧烤","lon":"121.391887054","lat":"31.101793793","category":"68","category_name":"快餐厅","address":"闵行区都市路4664号(近春申路)"},{"poiid":"B2094752D369A0FE4592","title":"杏花楼","lon":"121.388274","lat":"31.103704","category":"247","category_name":"餐饮美食","address":"上海市闵行区都市路4855号解放日报大厦3座"},{"poiid":"B2094654DB6CABFE479F","title":"伊时代形象设计","lon":"121.39218","lat":"31.10145","category":"148","category_name":"美容美发店","address":"都市路4664号"},{"poiid":"B2094750DA65A3FB419F","title":"丸龟制面","lon":"121.393058","lat":"31.105533","category":"247","category_name":"餐饮美食","address":null},{"poiid":"B2094752DB6CAAFE429F","title":"The MET 麦汀","lon":"121.38812184","lat":"31.10400551","category":"247","category_name":"餐饮美食","address":"上海市闵行区珠城路158号"},{"poiid":"B2094655D36CA6FA429A","title":"都市路","lon":"121.39221","lat":"31.10276","category":"38","category_name":"公交车站","address":""},{"poiid":"B2094751DA6CA7FA409E","title":"加贺屋","lon":"121.39241","lat":"31.1013","category":"95","category_name":"日本料理","address":"闵行区都市路4654号2楼(近春申路)"},{"poiid":"B2094750D46AA7FE499C","title":"徐家汇","lon":"121.39447","lat":"31.100862","category":"247","category_name":"餐饮美食","address":null},{"poiid":"B2094655D269AAFA469A","title":"九州拉面 都市店","lon":"121.391865054","lat":"31.101320793","category":"247","category_name":"餐饮美食","address":"都市路4654号2楼近春申路"},{"poiid":"B2094757D069A2FB409D","title":"名都新城","lon":"121.38982247","lat":"31.104657365","category":"47","category_name":"住宅区","address":"上海宝城路155弄"},{"poiid":"B2094757D064A7FD429E","title":"春申四季苑","lon":"121.39245","lat":"31.102919","category":"252","category_name":"楼宇机构","address":"上海都市路春申路"},{"poiid":"B2094654DB6CABFE4598","title":"上海花开富贵娱乐有限公司","lon":"121.39204","lat":"31.10251","category":"170","category_name":"KTV","address":"莘庄镇"},{"poiid":"B2094655D26AA6F5429A","title":"牛奶棚 都市路店","lon":"121.391641054","lat":"31.101202793","category":"67","category_name":"甜品店","address":"闵行区都市路4606号(近春申路)"},{"poiid":"B2094654DB6CABFE4592","title":"春申城华丽家园","lon":"121.39366","lat":"31.10214","category":"47","category_name":"住宅区","address":"春申路3455弄"},{"poiid":"B2094757D569A7FA4692","title":"联华超市(春申大厦东北)","lon":"121.39180962","lat":"31.1023839","category":"118","category_name":"超级市场","address":"都市路4690号"},{"poiid":"B2094654DB6CABFE499D","title":"好德NO.857","lon":"121.3933","lat":"31.10127","category":"117","category_name":"便民商店/便利店","address":"腾冲路372-374"},{"poiid":"B2094655D26FA3F5409B","title":"都市星城","lon":"121.38947","lat":"31.10233","category":"47","category_name":"住宅区","address":"富都路111弄3"},{"poiid":"B2094757D568AAFC4199","title":"春申复地城二期","lon":"121.3948128","lat":"31.10072083","category":"47","category_name":"住宅区","address":"上海市闵行区都市路4580弄"},{"poiid":"B2094757D568ABFA429D","title":"韩国超市(春申复地城西北)","lon":"121.39266602","lat":"31.10111952","category":"118","category_name":"超级市场","address":"腾冲路404"},{"poiid":"B2094757D568A7F94299","title":"闵行区青少年活动中心","lon":"121.38914225","lat":"31.10465983","category":"188","category_name":"文化宫","address":"珠城路168、188号闵行春申文化广场"},{"poiid":"B2094751DA6BA2F4409A","title":"上海虹桥机场","lon":"121.390547","lat":"31.101899","category":"500","category_name":"未知分类","address":null},{"poiid":"B2094757D465A1F8419E","title":"汤不辣老鸭汤 都市路店","lon":"121.393317054","lat":"31.099295793","category":"71","category_name":"四川菜","address":"闵行区都市路4428号(近金铭大厦)"},{"poiid":"B2094655D268A1FA499C","title":"好宴世家 都市路店","lon":"121.3939951505","lat":"31.097372718732","category":"76","category_name":"上海菜","address":"闵行区都市路4420号(近腾冲路)"},{"poiid":"B2094753D46BAAFC4592","title":"Maan coffee","lon":"121.392959","lat":"31.102346","category":"500","category_name":"未知分类","address":"上海市 莘庄都市路"},{"poiid":"B2094655D268A5F5409A","title":"春申复地城","lon":"121.3934","lat":"31.10022","category":"47","category_name":"住宅区","address":"腾冲路258"},{"poiid":"B2094750DB6BA1FE4592","title":"仲盛商城","lon":"121.391624","lat":"31.104312","category":"247","category_name":"餐饮美食","address":null},{"poiid":"B2094757D665A3FF409D","title":"香啡缤 名都路店 The Coffee Bean&Tea Leaf","lon":"121.38912","lat":"31.10565","category":"260","category_name":"其他","address":"闵行区名都路85号(近都市路)"},{"poiid":"B2094757D568A5F9469F","title":"都市星城一期","lon":"121.3903878","lat":"31.10302278","category":"47","category_name":"住宅区","address":"上海市闵行区天河路8弄"},{"poiid":"B2094757D569A1FA4099","title":"大福足浴(春申大厦东)","lon":"121.39193983","lat":"31.10243327","category":"149","category_name":"洗浴推拿场所","address":"中国上海市闵行区春申路"},{"poiid":"B209475CD46BA2F44792","title":"maancoffee上海莘庄店","lon":"121.392234","lat":"31.103382","category":"500","category_name":"未知分类","address":"上海市 上海市闵行区珠城路158号解放大厦3座1楼漫咖啡"},{"poiid":"B2094757D568A7FC469F","title":"春申便利店","lon":"121.39067681","lat":"31.10193441","category":"117","category_name":"便民商店/便利店","address":"中国上海市闵行区春申路"},{"poiid":"B2094654DB6CABFD4799","title":"上海球皇桌球俱乐部","lon":"121.39048","lat":"31.10182","category":"171","category_name":"台球厅","address":"闵行区春申路3555号春申大厦西侧5楼(近都市路)"},{"poiid":"B2094654DB6CABFE4593","title":"春申城华丽家园(边门)","lon":"121.39422","lat":"31.10321","category":"47","category_name":"住宅区","address":"春申路3455弄"},{"poiid":"B2094757D569A7FA479D","title":"来伊份(春申复地城西北)","lon":"121.39273817","lat":"31.10114068","category":"249","category_name":"购物服务","address":"中国上海市闵行区"},{"poiid":"B2094654DB6CABF5489A","title":"莘城公寓(1号门)","lon":"121.39373","lat":"31.10488","category":"47","category_name":"住宅区","address":"宝城路158弄"},{"poiid":"B2094757D16AA0F4469F","title":"上海闵行自来水公司","lon":"121.39211335","lat":"31.100566473","category":"500","category_name":"未知分类","address":"上海春申路3755号"},{"poiid":"B2094655D268A5FC469C","title":"小东北(都市路)","lon":"121.39321","lat":"31.0978","category":"82","category_name":"东北菜","address":"闵行区都市路4461号(春申路与银都路之间)"},{"poiid":"B2094757D06FA3F84799","title":"上海城市剧院","lon":"121.390057582","lat":"31.1040728635","category":"646","category_name":"文化体育类公司","address":"上海市闵行区都市路4889号"},{"poiid":"B2094757D06FA3F9409F","title":"闵行区图书馆","lon":"121.38941192","lat":"31.105575561","category":"181","category_name":"图书馆","address":"闵行区名都路85号(近都市路)"},{"poiid":"B2094757D06BA3F4449A","title":"COSTA COFFEE(解放大厦店)","lon":"121.390016314","lat":"31.1043268302","category":"65","category_name":"咖啡厅","address":"闵行区都市路4855号解放日报大厦1座1楼02单元(近莘庄地铁站南广场)"},{"poiid":"B2094757D068A2FC4393","title":"解放大厦","lon":"121.389969363","lat":"31.1050183781","category":"46","category_name":"楼宇","address":"上海闵行区都市路4855号(近富都路)"},{"poiid":"B2094655D36CA6FA429B","title":"都市路春申路","lon":"121.39171","lat":"31.10171","category":"38","category_name":"公交车站","address":""},{"poiid":"B2094753DA65A1FD4893","title":"maan coffee漫咖啡","lon":"121.388099","lat":"31.104551","category":"500","category_name":"未知分类","address":"上海市 珠城路150号1楼"},{"poiid":"B2094757D068A1FF439D","title":"柏林春天","lon":"121.39527","lat":"31.10091","category":"500","category_name":"未知分类","address":"上海市闵行区都市路春申路"},{"poiid":"B2094757D165A2FE459A","title":"必胜客仲盛店","lon":"121.387271657","lat":"31.1013350887","category":"68","category_name":"快餐厅","address":"上海都市路5001号B1"},{"poiid":"B2094757D068A4F44893","title":"莘城苑","lon":"121.393653","lat":"31.106697","category":"47","category_name":"住宅区","address":"上海市浦东新区上南路3345号"},{"poiid":"B2094757D069AAFB499A","title":"奥塞花园","lon":"121.39630686356","lat":"31.103186829537","category":"47","category_name":"住宅区","address":"上海普洱路88弄"},{"poiid":"B2094757D06AA2F4469F","title":"莘城学校","lon":"121.39005211","lat":"31.100028758","category":"253","category_name":"校园生活","address":"闵行区普洱路158号"},{"poiid":"B2094757D16BA0FD4092","title":"华丽家园","lon":"121.39364885","lat":"31.102200406","category":"47","category_name":"住宅区","address":"上海春申路3455号"},{"poiid":"B2094655D269AAFA4592","title":"魔锅坊麻辣香锅 都市路店","lon":"121.391747054","lat":"31.101721793","category":"71","category_name":"四川菜","address":"闵行区都市路4664号(近春申路)"},{"poiid":"B2094655D26AA3F94099","title":"味煊烧烤","lon":"121.391887054","lat":"31.101793793","category":"68","category_name":"快餐厅","address":"闵行区都市路4664号(近春申路)"},{"poiid":"B2094752D369A0FE4592","title":"杏花楼","lon":"121.388274","lat":"31.103704","category":"247","category_name":"餐饮美食","address":"上海市闵行区都市路4855号解放日报大厦3座"},{"poiid":"B2094654DB6CABFE479F","title":"伊时代形象设计","lon":"121.39218","lat":"31.10145","category":"148","category_name":"美容美发店","address":"都市路4664号"},{"poiid":"B2094750DA65A3FB419F","title":"丸龟制面","lon":"121.393058","lat":"31.105533","category":"247","category_name":"餐饮美食","address":null},{"poiid":"B2094752DB6CAAFE429F","title":"The MET 麦汀","lon":"121.38812184","lat":"31.10400551","category":"247","category_name":"餐饮美食","address":"上海市闵行区珠城路158号"},{"poiid":"B2094655D36CA6FA429A","title":"都市路","lon":"121.39221","lat":"31.10276","category":"38","category_name":"公交车站","address":""},{"poiid":"B2094751DA6CA7FA409E","title":"加贺屋","lon":"121.39241","lat":"31.1013","category":"95","category_name":"日本料理","address":"闵行区都市路4654号2楼(近春申路)"},{"poiid":"B2094750D46AA7FE499C","title":"徐家汇","lon":"121.39447","lat":"31.100862","category":"247","category_name":"餐饮美食","address":null},{"poiid":"B2094655D269AAFA469A","title":"九州拉面 都市店","lon":"121.391865054","lat":"31.101320793","category":"247","category_name":"餐饮美食","address":"都市路4654号2楼近春申路"},{"poiid":"B2094757D069A2FB409D","title":"名都新城","lon":"121.38982247","lat":"31.104657365","category":"47","category_name":"住宅区","address":"上海宝城路155弄"},{"poiid":"B2094757D064A7FD429E","title":"春申四季苑","lon":"121.39245","lat":"31.102919","category":"252","category_name":"楼宇机构","address":"上海都市路春申路"},{"poiid":"B2094654DB6CABFE4598","title":"上海花开富贵娱乐有限公司","lon":"121.39204","lat":"31.10251","category":"170","category_name":"KTV","address":"莘庄镇"},{"poiid":"B2094655D26AA6F5429A","title":"牛奶棚 都市路店","lon":"121.391641054","lat":"31.101202793","category":"67","category_name":"甜品店","address":"闵行区都市路4606号(近春申路)"},{"poiid":"B2094654DB6CABFE4592","title":"春申城华丽家园","lon":"121.39366","lat":"31.10214","category":"47","category_name":"住宅区","address":"春申路3455弄"},{"poiid":"B2094757D569A7FA4692","title":"联华超市(春申大厦东北)","lon":"121.39180962","lat":"31.1023839","category":"118","category_name":"超级市场","address":"都市路4690号"},{"poiid":"B2094654DB6CABFE499D","title":"好德NO.857","lon":"121.3933","lat":"31.10127","category":"117","category_name":"便民商店/便利店","address":"腾冲路372-374"},{"poiid":"B2094655D26FA3F5409B","title":"都市星城","lon":"121.38947","lat":"31.10233","category":"47","category_name":"住宅区","address":"富都路111弄3"},{"poiid":"B2094757D568AAFC4199","title":"春申复地城二期","lon":"121.3948128","lat":"31.10072083","category":"47","category_name":"住宅区","address":"上海市闵行区都市路4580弄"},{"poiid":"B2094757D568ABFA429D","title":"韩国超市(春申复地城西北)","lon":"121.39266602","lat":"31.10111952","category":"118","category_name":"超级市场","address":"腾冲路404"},{"poiid":"B2094757D568A7F94299","title":"闵行区青少年活动中心","lon":"121.38914225","lat":"31.10465983","category":"188","category_name":"文化宫","address":"珠城路168、188号闵行春申文化广场"},{"poiid":"B2094751DA6BA2F4409A","title":"上海虹桥机场","lon":"121.390547","lat":"31.101899","category":"500","category_name":"未知分类","address":null},{"poiid":"B2094757D465A1F8419E","title":"汤不辣老鸭汤 都市路店","lon":"121.393317054","lat":"31.099295793","category":"71","category_name":"四川菜","address":"闵行区都市路4428号(近金铭大厦)"},{"poiid":"B2094655D268A1FA499C","title":"好宴世家 都市路店","lon":"121.3939951505","lat":"31.097372718732","category":"76","category_name":"上海菜","address":"闵行区都市路4420号(近腾冲路)"},{"poiid":"B2094753D46BAAFC4592","title":"Maan coffee","lon":"121.392959","lat":"31.102346","category":"500","category_name":"未知分类","address":"上海市 莘庄都市路"},{"poiid":"B2094655D268A5F5409A","title":"春申复地城","lon":"121.3934","lat":"31.10022","category":"47","category_name":"住宅区","address":"腾冲路258"},{"poiid":"B2094750DB6BA1FE4592","title":"仲盛商城","lon":"121.391624","lat":"31.104312","category":"247","category_name":"餐饮美食","address":null},{"poiid":"B2094757D665A3FF409D","title":"香啡缤 名都路店 The Coffee Bean&Tea Leaf","lon":"121.38912","lat":"31.10565","category":"260","category_name":"其他","address":"闵行区名都路85号(近都市路)"},{"poiid":"B2094757D568A5F9469F","title":"都市星城一期","lon":"121.3903878","lat":"31.10302278","category":"47","category_name":"住宅区","address":"上海市闵行区天河路8弄"},{"poiid":"B2094757D569A1FA4099","title":"大福足浴(春申大厦东)","lon":"121.39193983","lat":"31.10243327","category":"149","category_name":"洗浴推拿场所","address":"中国上海市闵行区春申路"},{"poiid":"B209475CD46BA2F44792","title":"maancoffee上海莘庄店","lon":"121.392234","lat":"31.103382","category":"500","category_name":"未知分类","address":"上海市 上海市闵行区珠城路158号解放大厦3座1楼漫咖啡"},{"poiid":"B2094757D568A7FC469F","title":"春申便利店","lon":"121.39067681","lat":"31.10193441","category":"117","category_name":"便民商店/便利店","address":"中国上海市闵行区春申路"},{"poiid":"B2094654DB6CABFD4799","title":"上海球皇桌球俱乐部","lon":"121.39048","lat":"31.10182","category":"171","category_name":"台球厅","address":"闵行区春申路3555号春申大厦西侧5楼(近都市路)"},{"poiid":"B2094654DB6CABFE4593","title":"春申城华丽家园(边门)","lon":"121.39422","lat":"31.10321","category":"47","category_name":"住宅区","address":"春申路3455弄"},{"poiid":"B2094757D569A7FA479D","title":"来伊份(春申复地城西北)","lon":"121.39273817","lat":"31.10114068","category":"249","category_name":"购物服务","address":"中国上海市闵行区"},{"poiid":"B2094654DB6CABF5489A","title":"莘城公寓(1号门)","lon":"121.39373","lat":"31.10488","category":"47","category_name":"住宅区","address":"宝城路158弄"},{"poiid":"B2094757D16AA0F4469F","title":"上海闵行自来水公司","lon":"121.39211335","lat":"31.100566473","category":"500","category_name":"未知分类","address":"上海春申路3755号"},{"poiid":"B2094655D268A5FC469C","title":"小东北(都市路)","lon":"121.39321","lat":"31.0978","category":"82","category_name":"东北菜","address":"闵行区都市路4461号(春申路与银都路之间)"},{"poiid":"B2094757D06FA3F84799","title":"上海城市剧院","lon":"121.390057582","lat":"31.1040728635","category":"646","category_name":"文化体育类公司","address":"上海市闵行区都市路4889号"},{"poiid":"B2094757D06FA3F9409F","title":"闵行区图书馆","lon":"121.38941192","lat":"31.105575561","category":"181","category_name":"图书馆","address":"闵行区名都路85号(近都市路)"},{"poiid":"B2094757D06BA3F4449A","title":"COSTA COFFEE(解放大厦店)","lon":"121.390016314","lat":"31.1043268302","category":"65","category_name":"咖啡厅","address":"闵行区都市路4855号解放日报大厦1座1楼02单元(近莘庄地铁站南广场)"},{"poiid":"B2094757D068A2FC4393","title":"解放大厦","lon":"121.389969363","lat":"31.1050183781","category":"46","category_name":"楼宇","address":"上海闵行区都市路4855号(近富都路)"},{"poiid":"B2094655D36CA6FA429B","title":"都市路春申路","lon":"121.39171","lat":"31.10171","category":"38","category_name":"公交车站","address":""},{"poiid":"B2094753DA65A1FD4893","title":"maan coffee漫咖啡","lon":"121.388099","lat":"31.104551","category":"500","category_name":"未知分类","address":"上海市 珠城路150号1楼"},{"poiid":"B2094757D068A1FF439D","title":"柏林春天","lon":"121.39527","lat":"31.10091","category":"500","category_name":"未知分类","address":"上海市闵行区都市路春申路"},{"poiid":"B2094757D165A2FE459A","title":"必胜客仲盛店","lon":"121.387271657","lat":"31.1013350887","category":"68","category_name":"快餐厅","address":"上海都市路5001号B1"},{"poiid":"B2094757D068A4F44893","title":"莘城苑","lon":"121.393653","lat":"31.106697","category":"47","category_name":"住宅区","address":"上海市浦东新区上南路3345号"},{"poiid":"B2094757D069AAFB499A","title":"奥塞花园","lon":"121.39630686356","lat":"31.103186829537","category":"47","category_name":"住宅区","address":"上海普洱路88弄"},{"poiid":"B2094757D06AA2F4469F","title":"莘城学校","lon":"121.39005211","lat":"31.100028758","category":"253","category_name":"校园生活","address":"闵行区普洱路158号"},{"poiid":"B2094757D16BA0FD4092","title":"华丽家园","lon":"121.39364885","lat":"31.102200406","category":"47","category_name":"住宅区","address":"上海春申路3455号"},{"poiid":"B2094655D269AAFA4592","title":"魔锅坊麻辣香锅 都市路店","lon":"121.391747054","lat":"31.101721793","category":"71","category_name":"四川菜","address":"闵行区都市路4664号(近春申路)"},{"poiid":"B2094655D26AA3F94099","title":"味煊烧烤","lon":"121.391887054","lat":"31.101793793","category":"68","category_name":"快餐厅","address":"闵行区都市路4664号(近春申路)"},{"poiid":"B2094752D369A0FE4592","title":"杏花楼","lon":"121.388274","lat":"31.103704","category":"247","category_name":"餐饮美食","address":"上海市闵行区都市路4855号解放日报大厦3座"},{"poiid":"B2094654DB6CABFE479F","title":"伊时代形象设计","lon":"121.39218","lat":"31.10145","category":"148","category_name":"美容美发店","address":"都市路4664号"},{"poiid":"B2094750DA65A3FB419F","title":"丸龟制面","lon":"121.393058","lat":"31.105533","category":"247","category_name":"餐饮美食","address":null},{"poiid":"B2094752DB6CAAFE429F","title":"The MET 麦汀","lon":"121.38812184","lat":"31.10400551","category":"247","category_name":"餐饮美食","address":"上海市闵行区珠城路158号"},{"poiid":"B2094655D36CA6FA429A","title":"都市路","lon":"121.39221","lat":"31.10276","category":"38","category_name":"公交车站","address":""},{"poiid":"B2094751DA6CA7FA409E","title":"加贺屋","lon":"121.39241","lat":"31.1013","category":"95","category_name":"日本料理","address":"闵行区都市路4654号2楼(近春申路)"},{"poiid":"B2094750D46AA7FE499C","title":"徐家汇","lon":"121.39447","lat":"31.100862","category":"247","category_name":"餐饮美食","address":null},{"poiid":"B2094655D269AAFA469A","title":"九州拉面 都市店","lon":"121.391865054","lat":"31.101320793","category":"247","category_name":"餐饮美食","address":"都市路4654号2楼近春申路"},{"poiid":"B2094757D069A2FB409D","title":"名都新城","lon":"121.38982247","lat":"31.104657365","category":"47","category_name":"住宅区","address":"上海宝城路155弄"},{"poiid":"B2094757D064A7FD429E","title":"春申四季苑","lon":"121.39245","lat":"31.102919","category":"252","category_name":"楼宇机构","address":"上海都市路春申路"},{"poiid":"B2094654DB6CABFE4598","title":"上海花开富贵娱乐有限公司","lon":"121.39204","lat":"31.10251","category":"170","category_name":"KTV","address":"莘庄镇"},{"poiid":"B2094655D26AA6F5429A","title":"牛奶棚 都市路店","lon":"121.391641054","lat":"31.101202793","category":"67","category_name":"甜品店","address":"闵行区都市路4606号(近春申路)"},{"poiid":"B2094654DB6CABFE4592","title":"春申城华丽家园","lon":"121.39366","lat":"31.10214","category":"47","category_name":"住宅区","address":"春申路3455弄"},{"poiid":"B2094757D569A7FA4692","title":"联华超市(春申大厦东北)","lon":"121.39180962","lat":"31.1023839","category":"118","category_name":"超级市场","address":"都市路4690号"},{"poiid":"B2094654DB6CABFE499D","title":"好德NO.857","lon":"121.3933","lat":"31.10127","category":"117","category_name":"便民商店/便利店","address":"腾冲路372-374"},{"poiid":"B2094655D26FA3F5409B","title":"都市星城","lon":"121.38947","lat":"31.10233","category":"47","category_name":"住宅区","address":"富都路111弄3"},{"poiid":"B2094757D568AAFC4199","title":"春申复地城二期","lon":"121.3948128","lat":"31.10072083","category":"47","category_name":"住宅区","address":"上海市闵行区都市路4580弄"},{"poiid":"B2094757D568ABFA429D","title":"韩国超市(春申复地城西北)","lon":"121.39266602","lat":"31.10111952","category":"118","category_name":"超级市场","address":"腾冲路404"},{"poiid":"B2094757D568A7F94299","title":"闵行区青少年活动中心","lon":"121.38914225","lat":"31.10465983","category":"188","category_name":"文化宫","address":"珠城路168、188号闵行春申文化广场"},{"poiid":"B2094751DA6BA2F4409A","title":"上海虹桥机场","lon":"121.390547","lat":"31.101899","category":"500","category_name":"未知分类","address":null},{"poiid":"B2094757D465A1F8419E","title":"汤不辣老鸭汤 都市路店","lon":"121.393317054","lat":"31.099295793","category":"71","category_name":"四川菜","address":"闵行区都市路4428号(近金铭大厦)"},{"poiid":"B2094655D268A1FA499C","title":"好宴世家 都市路店","lon":"121.3939951505","lat":"31.097372718732","category":"76","category_name":"上海菜","address":"闵行区都市路4420号(近腾冲路)"},{"poiid":"B2094753D46BAAFC4592","title":"Maan coffee","lon":"121.392959","lat":"31.102346","category":"500","category_name":"未知分类","address":"上海市 莘庄都市路"},{"poiid":"B2094655D268A5F5409A","title":"春申复地城","lon":"121.3934","lat":"31.10022","category":"47","category_name":"住宅区","address":"腾冲路258"},{"poiid":"B2094750DB6BA1FE4592","title":"仲盛商城","lon":"121.391624","lat":"31.104312","category":"247","category_name":"餐饮美食","address":null},{"poiid":"B2094757D665A3FF409D","title":"香啡缤 名都路店 The Coffee Bean&Tea Leaf","lon":"121.38912","lat":"31.10565","category":"260","category_name":"其他","address":"闵行区名都路85号(近都市路)"},{"poiid":"B2094757D568A5F9469F","title":"都市星城一期","lon":"121.3903878","lat":"31.10302278","category":"47","category_name":"住宅区","address":"上海市闵行区天河路8弄"},{"poiid":"B2094757D569A1FA4099","title":"大福足浴(春申大厦东)","lon":"121.39193983","lat":"31.10243327","category":"149","category_name":"洗浴推拿场所","address":"中国上海市闵行区春申路"},{"poiid":"B209475CD46BA2F44792","title":"maancoffee上海莘庄店","lon":"121.392234","lat":"31.103382","category":"500","category_name":"未知分类","address":"上海市 上海市闵行区珠城路158号解放大厦3座1楼漫咖啡"},{"poiid":"B2094757D568A7FC469F","title":"春申便利店","lon":"121.39067681","lat":"31.10193441","category":"117","category_name":"便民商店/便利店","address":"中国上海市闵行区春申路"},{"poiid":"B2094654DB6CABFD4799","title":"上海球皇桌球俱乐部","lon":"121.39048","lat":"31.10182","category":"171","category_name":"台球厅","address":"闵行区春申路3555号春申大厦西侧5楼(近都市路)"},{"poiid":"B2094654DB6CABFE4593","title":"春申城华丽家园(边门)","lon":"121.39422","lat":"31.10321","category":"47","category_name":"住宅区","address":"春申路3455弄"},{"poiid":"B2094757D569A7FA479D","title":"来伊份(春申复地城西北)","lon":"121.39273817","lat":"31.10114068","category":"249","category_name":"购物服务","address":"中国上海市闵行区"},{"poiid":"B2094654DB6CABF5489A","title":"莘城公寓(1号门)","lon":"121.39373","lat":"31.10488","category":"47","category_name":"住宅区","address":"宝城路158弄"},{"poiid":"B2094757D16AA0F4469F","title":"上海闵行自来水公司","lon":"121.39211335","lat":"31.100566473","category":"500","category_name":"未知分类","address":"上海春申路3755号"},{"poiid":"B2094655D268A5FC469C","title":"小东北(都市路)","lon":"121.39321","lat":"31.0978","category":"82","category_name":"东北菜","address":"闵行区都市路4461号(春申路与银都路之间)"},{"poiid":"B2094757D06FA3F84799","title":"上海城市剧院","lon":"121.390057582","lat":"31.1040728635","category":"646","category_name":"文化体育类公司","address":"上海市闵行区都市路4889号"},{"poiid":"B2094757D06FA3F9409F","title":"闵行区图书馆","lon":"121.38941192","lat":"31.105575561","category":"181","category_name":"图书馆","address":"闵行区名都路85号(近都市路)"},{"poiid":"B2094757D06BA3F4449A","title":"COSTA COFFEE(解放大厦店)","lon":"121.390016314","lat":"31.1043268302","category":"65","category_name":"咖啡厅","address":"闵行区都市路4855号解放日报大厦1座1楼02单元(近莘庄地铁站南广场)"},{"poiid":"B2094757D068A2FC4393","title":"解放大厦","lon":"121.389969363","lat":"31.1050183781","category":"46","category_name":"楼宇","address":"上海闵行区都市路4855号(近富都路)"},{"poiid":"B2094655D36CA6FA429B","title":"都市路春申路","lon":"121.39171","lat":"31.10171","category":"38","category_name":"公交车站","address":""},{"poiid":"B2094753DA65A1FD4893","title":"maan coffee漫咖啡","lon":"121.388099","lat":"31.104551","category":"500","category_name":"未知分类","address":"上海市 珠城路150号1楼"},{"poiid":"B2094757D068A1FF439D","title":"柏林春天","lon":"121.39527","lat":"31.10091","category":"500","category_name":"未知分类","address":"上海市闵行区都市路春申路"},{"poiid":"B2094757D165A2FE459A","title":"必胜客仲盛店","lon":"121.387271657","lat":"31.1013350887","category":"68","category_name":"快餐厅","address":"上海都市路5001号B1"},{"poiid":"B2094757D068A4F44893","title":"莘城苑","lon":"121.393653","lat":"31.106697","category":"47","category_name":"住宅区","address":"上海市浦东新区上南路3345号"},{"poiid":"B2094757D069AAFB499A","title":"奥塞花园","lon":"121.39630686356","lat":"31.103186829537","category":"47","category_name":"住宅区","address":"上海普洱路88弄"},{"poiid":"B2094757D06AA2F4469F","title":"莘城学校","lon":"121.39005211","lat":"31.100028758","category":"253","category_name":"校园生活","address":"闵行区普洱路158号"},{"poiid":"B2094757D16BA0FD4092","title":"华丽家园","lon":"121.39364885","lat":"31.102200406","category":"47","category_name":"住宅区","address":"上海春申路3455号"},{"poiid":"B2094655D269AAFA4592","title":"魔锅坊麻辣香锅 都市路店","lon":"121.391747054","lat":"31.101721793","category":"71","category_name":"四川菜","address":"闵行区都市路4664号(近春申路)"},{"poiid":"B2094655D26AA3F94099","title":"味煊烧烤","lon":"121.391887054","lat":"31.101793793","category":"68","category_name":"快餐厅","address":"闵行区都市路4664号(近春申路)"},{"poiid":"B2094752D369A0FE4592","title":"杏花楼","lon":"121.388274","lat":"31.103704","category":"247","category_name":"餐饮美食","address":"上海市闵行区都市路4855号解放日报大厦3座"},{"poiid":"B2094654DB6CABFE479F","title":"伊时代形象设计","lon":"121.39218","lat":"31.10145","category":"148","category_name":"美容美发店","address":"都市路4664号"},{"poiid":"B2094750DA65A3FB419F","title":"丸龟制面","lon":"121.393058","lat":"31.105533","category":"247","category_name":"餐饮美食","address":null},{"poiid":"B2094752DB6CAAFE429F","title":"The MET 麦汀","lon":"121.38812184","lat":"31.10400551","category":"247","category_name":"餐饮美食","address":"上海市闵行区珠城路158号"},{"poiid":"B2094655D36CA6FA429A","title":"都市路","lon":"121.39221","lat":"31.10276","category":"38","category_name":"公交车站","address":""},{"poiid":"B2094751DA6CA7FA409E","title":"加贺屋","lon":"121.39241","lat":"31.1013","category":"95","category_name":"日本料理","address":"闵行区都市路4654号2楼(近春申路)"},{"poiid":"B2094750D46AA7FE499C","title":"徐家汇","lon":"121.39447","lat":"31.100862","category":"247","category_name":"餐饮美食","address":null},{"poiid":"B2094655D269AAFA469A","title":"九州拉面 都市店","lon":"121.391865054","lat":"31.101320793","category":"247","category_name":"餐饮美食","address":"都市路4654号2楼近春申路"},{"poiid":"B2094757D069A2FB409D","title":"名都新城","lon":"121.38982247","lat":"31.104657365","category":"47","category_name":"住宅区","address":"上海宝城路155弄"},{"poiid":"B2094757D064A7FD429E","title":"春申四季苑","lon":"121.39245","lat":"31.102919","category":"252","category_name":"楼宇机构","address":"上海都市路春申路"},{"poiid":"B2094654DB6CABFE4598","title":"上海花开富贵娱乐有限公司","lon":"121.39204","lat":"31.10251","category":"170","category_name":"KTV","address":"莘庄镇"},{"poiid":"B2094655D26AA6F5429A","title":"牛奶棚 都市路店","lon":"121.391641054","lat":"31.101202793","category":"67","category_name":"甜品店","address":"闵行区都市路4606号(近春申路)"},{"poiid":"B2094654DB6CABFE4592","title":"春申城华丽家园","lon":"121.39366","lat":"31.10214","category":"47","category_name":"住宅区","address":"春申路3455弄"},{"poiid":"B2094757D569A7FA4692","title":"联华超市(春申大厦东北)","lon":"121.39180962","lat":"31.1023839","category":"118","category_name":"超级市场","address":"都市路4690号"},{"poiid":"B2094654DB6CABFE499D","title":"好德NO.857","lon":"121.3933","lat":"31.10127","category":"117","category_name":"便民商店/便利店","address":"腾冲路372-374"},{"poiid":"B2094655D26FA3F5409B","title":"都市星城","lon":"121.38947","lat":"31.10233","category":"47","category_name":"住宅区","address":"富都路111弄3"},{"poiid":"B2094757D568AAFC4199","title":"春申复地城二期","lon":"121.3948128","lat":"31.10072083","category":"47","category_name":"住宅区","address":"上海市闵行区都市路4580弄"},{"poiid":"B2094757D568ABFA429D","title":"韩国超市(春申复地城西北)","lon":"121.39266602","lat":"31.10111952","category":"118","category_name":"超级市场","address":"腾冲路404"},{"poiid":"B2094757D568A7F94299","title":"闵行区青少年活动中心","lon":"121.38914225","lat":"31.10465983","category":"188","category_name":"文化宫","address":"珠城路168、188号闵行春申文化广场"},{"poiid":"B2094751DA6BA2F4409A","title":"上海虹桥机场","lon":"121.390547","lat":"31.101899","category":"500","category_name":"未知分类","address":null},{"poiid":"B2094757D465A1F8419E","title":"汤不辣老鸭汤 都市路店","lon":"121.393317054","lat":"31.099295793","category":"71","category_name":"四川菜","address":"闵行区都市路4428号(近金铭大厦)"},{"poiid":"B2094655D268A1FA499C","title":"好宴世家 都市路店","lon":"121.3939951505","lat":"31.097372718732","category":"76","category_name":"上海菜","address":"闵行区都市路4420号(近腾冲路)"},{"poiid":"B2094753D46BAAFC4592","title":"Maan coffee","lon":"121.392959","lat":"31.102346","category":"500","category_name":"未知分类","address":"上海市 莘庄都市路"},{"poiid":"B2094655D268A5F5409A","title":"春申复地城","lon":"121.3934","lat":"31.10022","category":"47","category_name":"住宅区","address":"腾冲路258"},{"poiid":"B2094750DB6BA1FE4592","title":"仲盛商城","lon":"121.391624","lat":"31.104312","category":"247","category_name":"餐饮美食","address":null},{"poiid":"B2094757D665A3FF409D","title":"香啡缤 名都路店 The Coffee Bean&Tea Leaf","lon":"121.38912","lat":"31.10565","category":"260","category_name":"其他","address":"闵行区名都路85号(近都市路)"},{"poiid":"B2094757D568A5F9469F","title":"都市星城一期","lon":"121.3903878","lat":"31.10302278","category":"47","category_name":"住宅区","address":"上海市闵行区天河路8弄"},{"poiid":"B2094757D569A1FA4099","title":"大福足浴(春申大厦东)","lon":"121.39193983","lat":"31.10243327","category":"149","category_name":"洗浴推拿场所","address":"中国上海市闵行区春申路"},{"poiid":"B209475CD46BA2F44792","title":"maancoffee上海莘庄店","lon":"121.392234","lat":"31.103382","category":"500","category_name":"未知分类","address":"上海市 上海市闵行区珠城路158号解放大厦3座1楼漫咖啡"},{"poiid":"B2094757D568A7FC469F","title":"春申便利店","lon":"121.39067681","lat":"31.10193441","category":"117","category_name":"便民商店/便利店","address":"中国上海市闵行区春申路"},{"poiid":"B2094654DB6CABFD4799","title":"上海球皇桌球俱乐部","lon":"121.39048","lat":"31.10182","category":"171","category_name":"台球厅","address":"闵行区春申路3555号春申大厦西侧5楼(近都市路)"},{"poiid":"B2094654DB6CABFE4593","title":"春申城华丽家园(边门)","lon":"121.39422","lat":"31.10321","category":"47","category_name":"住宅区","address":"春申路3455弄"},{"poiid":"B2094757D569A7FA479D","title":"来伊份(春申复地城西北)","lon":"121.39273817","lat":"31.10114068","category":"249","category_name":"购物服务","address":"中国上海市闵行区"},{"poiid":"B2094654DB6CABF5489A","title":"莘城公寓(1号门)","lon":"121.39373","lat":"31.10488","category":"47","category_name":"住宅区","address":"宝城路158弄"},{"poiid":"B2094757D16AA0F4469F","title":"上海闵行自来水公司","lon":"121.39211335","lat":"31.100566473","category":"500","category_name":"未知分类","address":"上海春申路3755号"},{"poiid":"B2094655D268A5FC469C","title":"小东北(都市路)","lon":"121.39321","lat":"31.0978","category":"82","category_name":"东北菜","address":"闵行区都市路4461号(春申路与银都路之间)"}]