[{"poiid":"B2094757D069ABF9499D","title":"小肥羊(陆家浜店)","lon":"121.48257546","lat":"31.211537301","category":"86","category_name":"火锅店","address":"黄浦区陆家浜路1390号(近制造局路)"},{"poiid":"B2094757D66FA7FA4499","title":"阿婆粢饭糕","lon":"121.482015738","lat":"31.2140172676","category":"247","category_name":"餐饮美食","address":"上海市卢湾区肇周路近合肥路"},{"poiid":"B2094654DB65A3F84599","title":"上海市红房子妇产科医院门诊部","lon":"121.48278","lat":"31.21204","category":"162","category_name":"医院","address":"方斜路566号"},{"poiid":"B2094753D76FAAFA449C","title":"上海滩国泰旗舰店","lon":"121.466011","lat":"31.216125","category":"249","category_name":"购物服务","address":"淮海中路868号"},{"poiid":"B209475CD564A7F84292","title":"上海滩新天地店","lon":"121.47463","lat":"31.22164","category":"119","category_name":"商场","address":"\"太仓路181弄新天地北里15号\r\n\""},{"poiid":"B2094757D16CA7F84792","title":"肇周路","lon":"121.480401738","lat":"31.2139469532","category":"500","category_name":"未知分类","address":"上海市卢湾区"},{"poiid":"B2094757D06FA1FF4392","title":"麟笼坊特色小笼包(建国东路店)","lon":"121.48073","lat":"31.21366","category":"68","category_name":"快餐厅","address":"卢湾区建国东路10号(近肇周路口)"},{"poiid":"B2094757D16CABFB409C","title":"红房子医院","lon":"121.482140338","lat":"31.2112135949","category":"162","category_name":"医院","address":"上海大林路358号"},{"poiid":"B2094757D068A1FD409A","title":"盛兴点心店","lon":"121.479443054","lat":"31.212018793","category":"87","category_name":"特色／地方风味餐厅","address":"卢湾区顺昌路528号(近永年路)"},{"poiid":"B2094757D06FAAF4419B","title":"沪南体育活动中心","lon":"121.48268","lat":"31.21256","category":"220","category_name":"运动场所","address":"黄浦区方斜路515号(近大吉路)"},{"poiid":"B2094654DA68A0FB4492","title":"万事利大厦","lon":"121.483038","lat":"31.211425","category":"46","category_name":"楼宇","address":"上海陆家浜路1378号"},{"poiid":"B2094654DA6EAAF54793","title":"上海社会科学院研究生部","lon":"121.47963","lat":"31.21081","category":"52","category_name":"高等院校","address":"顺昌路622"},{"poiid":"B2094655D26FA3FF4399","title":"莫泰168连锁旅店(徐家汇路店)","lon":"121.48146","lat":"31.21081","category":"216","category_name":"经济型连锁酒店","address":"上海市黄浦区徐家汇路3-7号（近制造局路）"},{"poiid":"B2094757D069A7FC409A","title":"一品居热气羊肉馆(顺昌店)","lon":"121.47938","lat":"31.21213","category":"86","category_name":"火锅店","address":"卢湾区顺昌路512号(近永年路)"},{"poiid":"B2094654DB64A5F5439E","title":"如家快捷酒店(上海陆家浜路店)","lon":"121.48309","lat":"31.21245","category":"216","category_name":"经济型连锁酒店","address":"上海市黄浦区大林路265号(近方斜路红房子医院)"},{"poiid":"B2094654DA6EA7FB439D","title":"上海市李惠利中学","lon":"121.48121","lat":"31.21181","category":"55","category_name":"中学","address":"卢湾区肇周路420号(陆家浜路徐家汇路)"},{"poiid":"B2094654DB6BA4FF489D","title":"上海市基督教惠中堂(肇周路)","lon":"121.48094","lat":"31.21129","category":"245","category_name":"教堂","address":"卢湾区徐家汇路40-2号(肇周路口)"},{"poiid":"B2094753D76AA7F8459F","title":"韵色","lon":"121.482657","lat":"31.213799","category":"76","category_name":"上海菜","address":"上海市黄浦区方斜路446号(近建国新路)"},{"poiid":"B2094654DA6EA7F44398","title":"上海市红房子妇产科医院","lon":"121.48354","lat":"31.21214","category":"162","category_name":"医院","address":"大林路358"},{"poiid":"B2094757D069A1F8479C","title":"斜桥游泳馆","lon":"121.48246373","lat":"31.211333897","category":"220","category_name":"运动场所","address":"黄浦区大吉路218号(近西藏南路)"},{"poiid":"B2094757D568AAFC4999","title":"京世造型","lon":"121.48242459","lat":"31.21159939","category":"148","category_name":"美容美发店","address":"陆家浜路1527"},{"poiid":"B2094757D064A6F9489F","title":"卢浦大桥(徐家汇路口)","lon":"121.480679","lat":"31.210989","category":"500","category_name":"未知分类","address":"上海徐家汇路重庆南路"},{"poiid":"B2094654DB69A5F4409A","title":"重庆鸡公煲 顺昌路店","lon":"121.479501054","lat":"31.212284793","category":"71","category_name":"四川菜","address":"卢湾区顺昌路530号(近永年路)"},{"poiid":"B2094757D16EAAFE4498","title":"迈阿密汉堡(肇周路店)","lon":"121.4816","lat":"31.21211","category":"68","category_name":"快餐厅","address":"黄浦区肇周路400号(近永年路)"},{"poiid":"B2094655D265A7FF4499","title":"梦奇屋","lon":"121.47967","lat":"31.21183","category":"68","category_name":"快餐厅","address":"卢湾区顺昌路563号(近徐家汇路)"},{"poiid":"B2094654DA6EA7F5489C","title":"复旦大学上海市红房子妇产科医院","lon":"121.48274","lat":"31.21366","category":"162","category_name":"医院","address":"方斜路419"},{"poiid":"B2094654DA6EA7F4439A","title":"王中王(陆家浜路)","lon":"121.48323","lat":"31.21169","category":"257","category_name":"中餐厅","address":"黄浦区陆家浜路1339号(近制造局路)"},{"poiid":"B2094757D66AA4F44198","title":"鼎乐酒家","lon":"121.48018955369","lat":"31.212505124381","category":"76","category_name":"上海菜","address":"卢湾区永年路54号(永年路肇周路)"},{"poiid":"B2094757D06BABFF439B","title":"恒升大厦","lon":"121.4824","lat":"31.21172","category":"252","category_name":"楼宇机构","address":"上海市黄浦区陆家浜路1396-1398号"},{"poiid":"B2094757D464ABF54098","title":"巴弟鸡排 顺昌路店","lon":"121.479773054","lat":"31.211614793","category":"68","category_name":"快餐厅","address":"卢湾区顺昌路563号(近徐家汇路)"},{"poiid":"B2094654DB6BA4FF4898","title":"老北京涮锅(顺昌路)","lon":"121.47952","lat":"31.2125","category":"86","category_name":"火锅店","address":"卢湾区顺昌路531号(近永年路)"},{"poiid":"B2094750D768A0F5439D","title":"老刘烧烤","lon":"121.482","lat":"31.2135","category":"68","category_name":"快餐厅","address":"黄浦区大吉路华联超市门口(方斜路口)"},{"poiid":"B2094655D36DA0FF4193","title":"徐家汇路重庆南路","lon":"121.48067","lat":"31.21098","category":"38","category_name":"公交车站","address":""},{"poiid":"B2094757D068A7F84092","title":"广东小厨粤菜馆","lon":"121.48101692673","lat":"31.212828028012","category":"72","category_name":"广东菜","address":"黄浦区肇周路368号(近徐家汇路)"},{"poiid":"B2094655D36DA1F54693","title":"斜桥(制造局路陆家浜路)","lon":"121.4815","lat":"31.21258","category":"38","category_name":"公交车站","address":""},{"poiid":"B2094655D36DA7F94599","title":"重庆南路","lon":"121.48058","lat":"31.21079","category":"38","category_name":"公交车站","address":""},{"poiid":"B2094655D268A6F8429B","title":"肇周大楼","lon":"121.48229","lat":"31.21171","category":"46","category_name":"楼宇","address":"肇周路421弄"},{"poiid":"B2094654DA6EA7F44192","title":"品客小站","lon":"121.4816","lat":"31.21273","category":"68","category_name":"快餐厅","address":"黄浦区肇周路395号(近徐家汇路)"},{"poiid":"B2094757D164A5FC429F","title":"小车扦脚","lon":"121.480633","lat":"31.212189","category":"148","category_name":"美容美发店","address":"卢湾区永年路55号(近顺昌路)"},{"poiid":"B2094655D268A2FE4098","title":"锦江之星(陆家浜路店)","lon":"121.48332","lat":"31.21172","category":"216","category_name":"经济型连锁酒店","address":"黄浦区陆家浜路1331号(近红房子妇产科医院)"},{"poiid":"B2094654DB6BA4FF489B","title":"森绿温馨小吃(顺昌路)","lon":"121.47945","lat":"31.21288","category":"76","category_name":"上海菜","address":"卢湾区顺昌路503号(近建国东路)"},{"poiid":"B2094752DB6FA1FE409A","title":"新天地","lon":"121.482559","lat":"31.212128","category":"500","category_name":"未知分类","address":"上海市 复兴中路"},{"poiid":"B2094757D065A3FA419E","title":"黄浦学校","lon":"121.48299705","lat":"31.212104623","category":"253","category_name":"校园生活","address":"黄浦区大吉路208号(近西藏南路)"},{"poiid":"B2094655D268A2FD499C","title":"永理第三小区南门(永年路)","lon":"121.4811","lat":"31.21235","category":"47","category_name":"住宅区","address":"永年路24弄2-10号"},{"poiid":"B2094654DB6BA4FF4893","title":"快客(肇周路)","lon":"121.4813","lat":"31.2126","category":"117","category_name":"便民商店/便利店","address":"肇周路386"},{"poiid":"B2094655D36CA1FF4198","title":"顺昌路徐家汇路","lon":"121.47971","lat":"31.21123","category":"38","category_name":"公交车站","address":""},{"poiid":"B2094654DA6EA7F44299","title":"上海医学院妇产科学系","lon":"121.48178","lat":"31.21224","category":"52","category_name":"高等院校","address":"肇周路413"},{"poiid":"B2094750D768A0F4439D","title":"川香阁鱼庄","lon":"121.481","lat":"31.2131","category":"71","category_name":"四川菜","address":"卢湾区肇周路348号(建国东路建国新路)"},{"poiid":"B2094752D66FAAFC4993","title":"必胜客","lon":"121.479057","lat":"31.211943","category":"500","category_name":"未知分类","address":"徐家汇路618号日月光中心广场B2楼(近瑞金二路)"},{"poiid":"B2094757D66BA5F4489E","title":"亦熠餐厅","lon":"121.481064054","lat":"31.213391793","category":"76","category_name":"上海菜","address":"黄浦区肇周路340号(近建国中路)"},{"poiid":"B2094757D069ABF9499D","title":"小肥羊(陆家浜店)","lon":"121.48257546","lat":"31.211537301","category":"86","category_name":"火锅店","address":"黄浦区陆家浜路1390号(近制造局路)"},{"poiid":"B2094757D66FA7FA4499","title":"阿婆粢饭糕","lon":"121.482015738","lat":"31.2140172676","category":"247","category_name":"餐饮美食","address":"上海市卢湾区肇周路近合肥路"},{"poiid":"B2094654DB65A3F84599","title":"上海市红房子妇产科医院门诊部","lon":"121.48278","lat":"31.21204","category":"162","category_name":"医院","address":"方斜路566号"},{"poiid":"B2094753D76FAAFA449C","title":"上海滩国泰旗舰店","lon":"121.466011","lat":"31.216125","category":"249","category_name":"购物服务","address":"淮海中路868号"},{"poiid":"B209475CD564A7F84292","title":"上海滩新天地店","lon":"121.47463","lat":"31.22164","category":"119","category_name":"商场","address":"\"太仓路181弄新天地北里15号\r\n\""},{"poiid":"B2094757D16CA7F84792","title":"肇周路","lon":"121.480401738","lat":"31.2139469532","category":"500","category_name":"未知分类","address":"上海市卢湾区"},{"poiid":"B2094757D06FA1FF4392","title":"麟笼坊特色小笼包(建国东路店)","lon":"121.48073","lat":"31.21366","category":"68","category_name":"快餐厅","address":"卢湾区建国东路10号(近肇周路口)"},{"poiid":"B2094757D16CABFB409C","title":"红房子医院","lon":"121.482140338","lat":"31.2112135949","category":"162","category_name":"医院","address":"上海大林路358号"},{"poiid":"B2094757D068A1FD409A","title":"盛兴点心店","lon":"121.479443054","lat":"31.212018793","category":"87","category_name":"特色／地方风味餐厅","address":"卢湾区顺昌路528号(近永年路)"},{"poiid":"B2094757D06FAAF4419B","title":"沪南体育活动中心","lon":"121.48268","lat":"31.21256","category":"220","category_name":"运动场所","address":"黄浦区方斜路515号(近大吉路)"},{"poiid":"B2094654DA68A0FB4492","title":"万事利大厦","lon":"121.483038","lat":"31.211425","category":"46","category_name":"楼宇","address":"上海陆家浜路1378号"},{"poiid":"B2094654DA6EAAF54793","title":"上海社会科学院研究生部","lon":"121.47963","lat":"31.21081","category":"52","category_name":"高等院校","address":"顺昌路622"},{"poiid":"B2094655D26FA3FF4399","title":"莫泰168连锁旅店(徐家汇路店)","lon":"121.48146","lat":"31.21081","category":"216","category_name":"经济型连锁酒店","address":"上海市黄浦区徐家汇路3-7号（近制造局路）"},{"poiid":"B2094757D069A7FC409A","title":"一品居热气羊肉馆(顺昌店)","lon":"121.47938","lat":"31.21213","category":"86","category_name":"火锅店","address":"卢湾区顺昌路512号(近永年路)"},{"poiid":"B2094654DB64A5F5439E","title":"如家快捷酒店(上海陆家浜路店)","lon":"121.48309","lat":"31.21245","category":"216","category_name":"经济型连锁酒店","address":"上海市黄浦区大林路265号(近方斜路红房子医院)"},{"poiid":"B2094654DA6EA7FB439D","title":"上海市李惠利中学","lon":"121.48121","lat":"31.21181","category":"55","category_name":"中学","address":"卢湾区肇周路420号(陆家浜路徐家汇路)"},{"poiid":"B2094654DB6BA4FF489D","title":"上海市基督教惠中堂(肇周路)","lon":"121.48094","lat":"31.21129","category":"245","category_name":"教堂","address":"卢湾区徐家汇路40-2号(肇周路口)"},{"poiid":"B2094753D76AA7F8459F","title":"韵色","lon":"121.482657","lat":"31.213799","category":"76","category_name":"上海菜","address":"上海市黄浦区方斜路446号(近建国新路)"},{"poiid":"B2094654DA6EA7F44398","title":"上海市红房子妇产科医院","lon":"121.48354","lat":"31.21214","category":"162","category_name":"医院","address":"大林路358"},{"poiid":"B2094757D069A1F8479C","title":"斜桥游泳馆","lon":"121.48246373","lat":"31.211333897","category":"220","category_name":"运动场所","address":"黄浦区大吉路218号(近西藏南路)"},{"poiid":"B2094757D568AAFC4999","title":"京世造型","lon":"121.48242459","lat":"31.21159939","category":"148","category_name":"美容美发店","address":"陆家浜路1527"},{"poiid":"B2094757D064A6F9489F","title":"卢浦大桥(徐家汇路口)","lon":"121.480679","lat":"31.210989","category":"500","category_name":"未知分类","address":"上海徐家汇路重庆南路"},{"poiid":"B2094654DB69A5F4409A","title":"重庆鸡公煲 顺昌路店","lon":"121.479501054","lat":"31.212284793","category":"71","category_name":"四川菜","address":"卢湾区顺昌路530号(近永年路)"},{"poiid":"B2094757D16EAAFE4498","title":"迈阿密汉堡(肇周路店)","lon":"121.4816","lat":"31.21211","category":"68","category_name":"快餐厅","address":"黄浦区肇周路400号(近永年路)"},{"poiid":"B2094655D265A7FF4499","title":"梦奇屋","lon":"121.47967","lat":"31.21183","category":"68","category_name":"快餐厅","address":"卢湾区顺昌路563号(近徐家汇路)"},{"poiid":"B2094654DA6EA7F5489C","title":"复旦大学上海市红房子妇产科医院","lon":"121.48274","lat":"31.21366","category":"162","category_name":"医院","address":"方斜路419"},{"poiid":"B2094654DA6EA7F4439A","title":"王中王(陆家浜路)","lon":"121.48323","lat":"31.21169","category":"257","category_name":"中餐厅","address":"黄浦区陆家浜路1339号(近制造局路)"},{"poiid":"B2094757D66AA4F44198","title":"鼎乐酒家","lon":"121.48018955369","lat":"31.212505124381","category":"76","category_name":"上海菜","address":"卢湾区永年路54号(永年路肇周路)"},{"poiid":"B2094757D06BABFF439B","title":"恒升大厦","lon":"121.4824","lat":"31.21172","category":"252","category_name":"楼宇机构","address":"上海市黄浦区陆家浜路1396-1398号"},{"poiid":"B2094757D464ABF54098","title":"巴弟鸡排 顺昌路店","lon":"121.479773054","lat":"31.211614793","category":"68","category_name":"快餐厅","address":"卢湾区顺昌路563号(近徐家汇路)"},{"poiid":"B2094654DB6BA4FF4898","title":"老北京涮锅(顺昌路)","lon":"121.47952","lat":"31.2125","category":"86","category_name":"火锅店","address":"卢湾区顺昌路531号(近永年路)"},{"poiid":"B2094750D768A0F5439D","title":"老刘烧烤","lon":"121.482","lat":"31.2135","category":"68","category_name":"快餐厅","address":"黄浦区大吉路华联超市门口(方斜路口)"},{"poiid":"B2094655D36DA0FF4193","title":"徐家汇路重庆南路","lon":"121.48067","lat":"31.21098","category":"38","category_name":"公交车站","address":""},{"poiid":"B2094757D068A7F84092","title":"广东小厨粤菜馆","lon":"121.48101692673","lat":"31.212828028012","category":"72","category_name":"广东菜","address":"黄浦区肇周路368号(近徐家汇路)"},{"poiid":"B2094655D36DA1F54693","title":"斜桥(制造局路陆家浜路)","lon":"121.4815","lat":"31.21258","category":"38","category_name":"公交车站","address":""},{"poiid":"B2094655D36DA7F94599","title":"重庆南路","lon":"121.48058","lat":"31.21079","category":"38","category_name":"公交车站","address":""},{"poiid":"B2094655D268A6F8429B","title":"肇周大楼","lon":"121.48229","lat":"31.21171","category":"46","category_name":"楼宇","address":"肇周路421弄"},{"poiid":"B2094654DA6EA7F44192","title":"品客小站","lon":"121.4816","lat":"31.21273","category":"68","category_name":"快餐厅","address":"黄浦区肇周路395号(近徐家汇路)"},{"poiid":"B2094757D164A5FC429F","title":"小车扦脚","lon":"121.480633","lat":"31.212189","category":"148","category_name":"美容美发店","address":"卢湾区永年路55号(近顺昌路)"},{"poiid":"B2094655D268A2FE4098","title":"锦江之星(陆家浜路店)","lon":"121.48332","lat":"31.21172","category":"216","category_name":"经济型连锁酒店","address":"黄浦区陆家浜路1331号(近红房子妇产科医院)"},{"poiid":"B2094654DB6BA4FF489B","title":"森绿温馨小吃(顺昌路)","lon":"121.47945","lat":"31.21288","category":"76","category_name":"上海菜","address":"卢湾区顺昌路503号(近建国东路)"},{"poiid":"B2094752DB6FA1FE409A","title":"新天地","lon":"121.482559","lat":"31.212128","category":"500","category_name":"未知分类","address":"上海市 复兴中路"},{"poiid":"B2094757D065A3FA419E","title":"黄浦学校","lon":"121.48299705","lat":"31.212104623","category":"253","category_name":"校园生活","address":"黄浦区大吉路208号(近西藏南路)"},{"poiid":"B2094655D268A2FD499C","title":"永理第三小区南门(永年路)","lon":"121.4811","lat":"31.21235","category":"47","category_name":"住宅区","address":"永年路24弄2-10号"},{"poiid":"B2094654DB6BA4FF4893","title":"快客(肇周路)","lon":"121.4813","lat":"31.2126","category":"117","category_name":"便民商店/便利店","address":"肇周路386"},{"poiid":"B2094655D36CA1FF4198","title":"顺昌路徐家汇路","lon":"121.47971","lat":"31.21123","category":"38","category_name":"公交车站","address":""},{"poiid":"B2094654DA6EA7F44299","title":"上海医学院妇产科学系","lon":"121.48178","lat":"31.21224","category":"52","category_name":"高等院校","address":"肇周路413"},{"poiid":"B2094750D768A0F4439D","title":"川香阁鱼庄","lon":"121.481","lat":"31.2131","category":"71","category_name":"四川菜","address":"卢湾区肇周路348号(建国东路建国新路)"},{"poiid":"B2094752D66FAAFC4993","title":"必胜客","lon":"121.479057","lat":"31.211943","category":"500","category_name":"未知分类","address":"徐家汇路618号日月光中心广场B2楼(近瑞金二路)"},{"poiid":"B2094757D66BA5F4489E","title":"亦熠餐厅","lon":"121.481064054","lat":"31.213391793","category":"76","category_name":"上海菜","address":"黄浦区肇周路340号(近建国中路)"},{"poiid":"B2094757D069ABF9499D","title":"小肥羊(陆家浜店)","lon":"121.48257546","lat":"31.211537301","category":"86","category_name":"火锅店","address":"黄浦区陆家浜路1390号(近制造局路)"},{"poiid":"B2094757D66FA7FA4499","title":"阿婆粢饭糕","lon":"121.482015738","lat":"31.2140172676","category":"247","category_name":"餐饮美食","address":"上海市卢湾区肇周路近合肥路"},{"poiid":"B2094654DB65A3F84599","title":"上海市红房子妇产科医院门诊部","lon":"121.48278","lat":"31.21204","category":"162","category_name":"医院","address":"方斜路566号"},{"poiid":"B2094753D76FAAFA449C","title":"上海滩国泰旗舰店","lon":"121.466011","lat":"31.216125","category":"249","category_name":"购物服务","address":"淮海中路868号"},{"poiid":"B209475CD564A7F84292","title":"上海滩新天地店","lon":"121.47463","lat":"31.22164","category":"119","category_name":"商场","address":"\"太仓路181弄新天地北里15号\r\n\""},{"poiid":"B2094757D16CA7F84792","title":"肇周路","lon":"121.480401738","lat":"31.2139469532","category":"500","category_name":"未知分类","address":"上海市卢湾区"},{"poiid":"B2094757D06FA1FF4392","title":"麟笼坊特色小笼包(建国东路店)","lon":"121.48073","lat":"31.21366","category":"68","category_name":"快餐厅","address":"卢湾区建国东路10号(近肇周路口)"},{"poiid":"B2094757D16CABFB409C","title":"红房子医院","lon":"121.482140338","lat":"31.2112135949","category":"162","category_name":"医院","address":"上海大林路358号"},{"poiid":"B2094757D068A1FD409A","title":"盛兴点心店","lon":"121.479443054","lat":"31.212018793","category":"87","category_name":"特色／地方风味餐厅","address":"卢湾区顺昌路528号(近永年路)"},{"poiid":"B2094757D06FAAF4419B","title":"沪南体育活动中心","lon":"121.48268","lat":"31.21256","category":"220","category_name":"运动场所","address":"黄浦区方斜路515号(近大吉路)"},{"poiid":"B2094654DA68A0FB4492","title":"万事利大厦","lon":"121.483038","lat":"31.211425","category":"46","category_name":"楼宇","address":"上海陆家浜路1378号"},{"poiid":"B2094654DA6EAAF54793","title":"上海社会科学院研究生部","lon":"121.47963","lat":"31.21081","category":"52","category_name":"高等院校","address":"顺昌路622"},{"poiid":"B2094655D26FA3FF4399","title":"莫泰168连锁旅店(徐家汇路店)","lon":"121.48146","lat":"31.21081","category":"216","category_name":"经济型连锁酒店","address":"上海市黄浦区徐家汇路3-7号（近制造局路）"},{"poiid":"B2094757D069A7FC409A","title":"一品居热气羊肉馆(顺昌店)","lon":"121.47938","lat":"31.21213","category":"86","category_name":"火锅店","address":"卢湾区顺昌路512号(近永年路)"},{"poiid":"B2094654DB64A5F5439E","title":"如家快捷酒店(上海陆家浜路店)","lon":"121.48309","lat":"31.21245","category":"216","category_name":"经济型连锁酒店","address":"上海市黄浦区大林路265号(近方斜路红房子医院)"},{"poiid":"B2094654DA6EA7FB439D","title":"上海市李惠利中学","lon":"121.48121","lat":"31.21181","category":"55","category_name":"中学","address":"卢湾区肇周路420号(陆家浜路徐家汇路)"},{"poiid":"B2094654DB6BA4FF489D","title":"上海市基督教惠中堂(肇周路)","lon":"121.48094","lat":"31.21129","category":"245","category_name":"教堂","address":"卢湾区徐家汇路40-2号(肇周路口)"},{"poiid":"B2094753D76AA7F8459F","title":"韵色","lon":"121.482657","lat":"31.213799","category":"76","category_name":"上海菜","address":"上海市黄浦区方斜路446号(近建国新路)"},{"poiid":"B2094654DA6EA7F44398","title":"上海市红房子妇产科医院","lon":"121.48354","lat":"31.21214","category":"162","category_name":"医院","address":"大林路358"},{"poiid":"B2094757D069A1F8479C","title":"斜桥游泳馆","lon":"121.48246373","lat":"31.211333897","category":"220","category_name":"运动场所","address":"黄浦区大吉路218号(近西藏南路)"},{"poiid":"B2094757D568AAFC4999","title":"京世造型","lon":"121.48242459","lat":"31.21159939","category":"148","category_name":"美容美发店","address":"陆家浜路1527"},{"poiid":"B2094757D064A6F9489F","title":"卢浦大桥(徐家汇路口)","lon":"121.480679","lat":"31.210989","category":"500","category_name":"未知分类","address":"上海徐家汇路重庆南路"},{"poiid":"B2094654DB69A5F4409A","title":"重庆鸡公煲 顺昌路店","lon":"121.479501054","lat":"31.212284793","category":"71","category_name":"四川菜","address":"卢湾区顺昌路530号(近永年路)"},{"poiid":"B2094757D16EAAFE4498","title":"迈阿密汉堡(肇周路店)","lon":"121.4816","lat":"31.21211","category":"68","category_name":"快餐厅","address":"黄浦区肇周路400号(近永年路)"},{"poiid":"B2094655D265A7FF4499","title":"梦奇屋","lon":"121.47967","lat":"31.21183","category":"68","category_name":"快餐厅","address":"卢湾区顺昌路563号(近徐家汇路)"},{"poiid":"B2094654DA6EA7F5489C","title":"复旦大学上海市红房子妇产科医院","lon":"121.48274","lat":"31.21366","category":"162","category_name":"医院","address":"方斜路419"},{"poiid":"B2094654DA6EA7F4439A","title":"王中王(陆家浜路)","lon":"121.48323","lat":"31.21169","category":"257","category_name":"中餐厅","address":"黄浦区陆家浜路1339号(近制造局路)"},{"poiid":"B2094757D66AA4F44198","title":"鼎乐酒家","lon":"121.48018955369","lat":"31.212505124381","category":"76","category_name":"上海菜","address":"卢湾区永年路54号(永年路肇周路)"},{"poiid":"B2094757D06BABFF439B","title":"恒升大厦","lon":"121.4824","lat":"31.21172","category":"252","category_name":"楼宇机构","address":"上海市黄浦区陆家浜路1396-1398号"},{"poiid":"B2094757D464ABF54098","title":"巴弟鸡排 顺昌路店","lon":"121.479773054","lat":"31.211614793","category":"68","category_name":"快餐厅","address":"卢湾区顺昌路563号(近徐家汇路)"},{"poiid":"B2094654DB6BA4FF4898","title":"老北京涮锅(顺昌路)","lon":"121.47952","lat":"31.2125","category":"86","category_name":"火锅店","address":"卢湾区顺昌路531号(近永年路)"},{"poiid":"B2094750D768A0F5439D","title":"老刘烧烤","lon":"121.482","lat":"31.2135","category":"68","category_name":"快餐厅","address":"黄浦区大吉路华联超市门口(方斜路口)"},{"poiid":"B2094655D36DA0FF4193","title":"徐家汇路重庆南路","lon":"121.48067","lat":"31.21098","category":"38","category_name":"公交车站","address":""},{"poiid":"B2094757D068A7F84092","title":"广东小厨粤菜馆","lon":"121.48101692673","lat":"31.212828028012","category":"72","category_name":"广东菜","address":"黄浦区肇周路368号(近徐家汇路)"},{"poiid":"B2094655D36DA1F54693","title":"斜桥(制造局路陆家浜路)","lon":"121.4815","lat":"31.21258","category":"38","category_name":"公交车站","address":""},{"poiid":"B2094655D36DA7F94599","title":"重庆南路","lon":"121.48058","lat":"31.21079","category":"38","category_name":"公交车站","address":""},{"poiid":"B2094655D268A6F8429B","title":"肇周大楼","lon":"121.48229","lat":"31.21171","category":"46","category_name":"楼宇","address":"肇周路421弄"},{"poiid":"B2094654DA6EA7F44192","title":"品客小站","lon":"121.4816","lat":"31.21273","category":"68","category_name":"快餐厅","address":"黄浦区肇周路395号(近徐家汇路)"},{"poiid":"B2094757D164A5FC429F","title":"小车扦脚","lon":"121.480633","lat":"31.212189","category":"148","category_name":"美容美发店","address":"卢湾区永年路55号(近顺昌路)"},{"poiid":"B2094655D268A2FE4098","title":"锦江之星(陆家浜路店)","lon":"121.48332","lat":"31.21172","category":"216","category_name":"经济型连锁酒店","address":"黄浦区陆家浜路1331号(近红房子妇产科医院)"},{"poiid":"B2094654DB6BA4FF489B","title":"森绿温馨小吃(顺昌路)","lon":"121.47945","lat":"31.21288","category":"76","category_name":"上海菜","address":"卢湾区顺昌路503号(近建国东路)"},{"poiid":"B2094752DB6FA1FE409A","title":"新天地","lon":"121.482559","lat":"31.212128","category":"500","category_name":"未知分类","address":"上海市 复兴中路"},{"poiid":"B2094757D065A3FA419E","title":"黄浦学校","lon":"121.48299705","lat":"31.212104623","category":"253","category_name":"校园生活","address":"黄浦区大吉路208号(近西藏南路)"},{"poiid":"B2094655D268A2FD499C","title":"永理第三小区南门(永年路)","lon":"121.4811","lat":"31.21235","category":"47","category_name":"住宅区","address":"永年路24弄2-10号"},{"poiid":"B2094654DB6BA4FF4893","title":"快客(肇周路)","lon":"121.4813","lat":"31.2126","category":"117","category_name":"便民商店/便利店","address":"肇周路386"},{"poiid":"B2094655D36CA1FF4198","title":"顺昌路徐家汇路","lon":"121.47971","lat":"31.21123","category":"38","category_name":"公交车站","address":""},{"poiid":"B2094654DA6EA7F44299","title":"上海医学院妇产科学系","lon":"121.48178","lat":"31.21224","category":"52","category_name":"高等院校","address":"肇周路413"},{"poiid":"B2094750D768A0F4439D","title":"川香阁鱼庄","lon":"121.481","lat":"31.2131","category":"71","category_name":"四川菜","address":"卢湾区肇周路348号(建国东路建国新路)"},{"poiid":"B2094752D66FAAFC4993","title":"必胜客","lon":"121.479057","lat":"31.211943","category":"500","category_name":"未知分类","address":"徐家汇路618号日月光中心广场B2楼(近瑞金二路)"},{"poiid":"B2094757D66BA5F4489E","title":"亦熠餐厅","lon":"121.481064054","lat":"31.213391793","category":"76","category_name":"上海菜","address":"黄浦区肇周路340号(近建国中路)"},{"poiid":"B2094757D069ABF9499D","title":"小肥羊(陆家浜店)","lon":"121.48257546","lat":"31.211537301","category":"86","category_name":"火锅店","address":"黄浦区陆家浜路1390号(近制造局路)"},{"poiid":"B2094757D66FA7FA4499","title":"阿婆粢饭糕","lon":"121.482015738","lat":"31.2140172676","category":"247","category_name":"餐饮美食","address":"上海市卢湾区肇周路近合肥路"},{"poiid":"B2094654DB65A3F84599","title":"上海市红房子妇产科医院门诊部","lon":"121.48278","lat":"31.21204","category":"162","category_name":"医院","address":"方斜路566号"},{"poiid":"B2094753D76FAAFA449C","title":"上海滩国泰旗舰店","lon":"121.466011","lat":"31.216125","category":"249","category_name":"购物服务","address":"淮海中路868号"},{"poiid":"B209475CD564A7F84292","title":"上海滩新天地店","lon":"121.47463","lat":"31.22164","category":"119","category_name":"商场","address":"\"太仓路181弄新天地北里15号\r\n\""},{"poiid":"B2094757D16CA7F84792","title":"肇周路","lon":"121.480401738","lat":"31.2139469532","category":"500","category_name":"未知分类","address":"上海市卢湾区"},{"poiid":"B2094757D06FA1FF4392","title":"麟笼坊特色小笼包(建国东路店)","lon":"121.48073","lat":"31.21366","category":"68","category_name":"快餐厅","address":"卢湾区建国东路10号(近肇周路口)"},{"poiid":"B2094757D16CABFB409C","title":"红房子医院","lon":"121.482140338","lat":"31.2112135949","category":"162","category_name":"医院","address":"上海大林路358号"},{"poiid":"B2094757D068A1FD409A","title":"盛兴点心店","lon":"121.479443054","lat":"31.212018793","category":"87","category_name":"特色／地方风味餐厅","address":"卢湾区顺昌路528号(近永年路)"},{"poiid":"B2094757D06FAAF4419B","title":"沪南体育活动中心","lon":"121.48268","lat":"31.21256","category":"220","category_name":"运动场所","address":"黄浦区方斜路515号(近大吉路)"},{"poiid":"B2094654DA68A0FB4492","title":"万事利大厦","lon":"121.483038","lat":"31.211425","category":"46","category_name":"楼宇","address":"上海陆家浜路1378号"},{"poiid":"B2094654DA6EAAF54793","title":"上海社会科学院研究生部","lon":"121.47963","lat":"31.21081","category":"52","category_name":"高等院校","address":"顺昌路622"},{"poiid":"B2094655D26FA3FF4399","title":"莫泰168连锁旅店(徐家汇路店)","lon":"121.48146","lat":"31.21081","category":"216","category_name":"经济型连锁酒店","address":"上海市黄浦区徐家汇路3-7号（近制造局路）"},{"poiid":"B2094757D069A7FC409A","title":"一品居热气羊肉馆(顺昌店)","lon":"121.47938","lat":"31.21213","category":"86","category_name":"火锅店","address":"卢湾区顺昌路512号(近永年路)"},{"poiid":"B2094654DB64A5F5439E","title":"如家快捷酒店(上海陆家浜路店)","lon":"121.48309","lat":"31.21245","category":"216","category_name":"经济型连锁酒店","address":"上海市黄浦区大林路265号(近方斜路红房子医院)"},{"poiid":"B2094654DA6EA7FB439D","title":"上海市李惠利中学","lon":"121.48121","lat":"31.21181","category":"55","category_name":"中学","address":"卢湾区肇周路420号(陆家浜路徐家汇路)"},{"poiid":"B2094654DB6BA4FF489D","title":"上海市基督教惠中堂(肇周路)","lon":"121.48094","lat":"31.21129","category":"245","category_name":"教堂","address":"卢湾区徐家汇路40-2号(肇周路口)"},{"poiid":"B2094753D76AA7F8459F","title":"韵色","lon":"121.482657","lat":"31.213799","category":"76","category_name":"上海菜","address":"上海市黄浦区方斜路446号(近建国新路)"},{"poiid":"B2094654DA6EA7F44398","title":"上海市红房子妇产科医院","lon":"121.48354","lat":"31.21214","category":"162","category_name":"医院","address":"大林路358"},{"poiid":"B2094757D069A1F8479C","title":"斜桥游泳馆","lon":"121.48246373","lat":"31.211333897","category":"220","category_name":"运动场所","address":"黄浦区大吉路218号(近西藏南路)"},{"poiid":"B2094757D568AAFC4999","title":"京世造型","lon":"121.48242459","lat":"31.21159939","category":"148","category_name":"美容美发店","address":"陆家浜路1527"},{"poiid":"B2094757D064A6F9489F","title":"卢浦大桥(徐家汇路口)","lon":"121.480679","lat":"31.210989","category":"500","category_name":"未知分类","address":"上海徐家汇路重庆南路"},{"poiid":"B2094654DB69A5F4409A","title":"重庆鸡公煲 顺昌路店","lon":"121.479501054","lat":"31.212284793","category":"71","category_name":"四川菜","address":"卢湾区顺昌路530号(近永年路)"},{"poiid":"B2094757D16EAAFE4498","title":"迈阿密汉堡(肇周路店)","lon":"121.4816","lat":"31.21211","category":"68","category_name":"快餐厅","address":"黄浦区肇周路400号(近永年路)"},{"poiid":"B2094655D265A7FF4499","title":"梦奇屋","lon":"121.47967","lat":"31.21183","category":"68","category_name":"快餐厅","address":"卢湾区顺昌路563号(近徐家汇路)"},{"poiid":"B2094654DA6EA7F5489C","title":"复旦大学上海市红房子妇产科医院","lon":"121.48274","lat":"31.21366","category":"162","category_name":"医院","address":"方斜路419"},{"poiid":"B2094654DA6EA7F4439A","title":"王中王(陆家浜路)","lon":"121.48323","lat":"31.21169","category":"257","category_name":"中餐厅","address":"黄浦区陆家浜路1339号(近制造局路)"},{"poiid":"B2094757D66AA4F44198","title":"鼎乐酒家","lon":"121.48018955369","lat":"31.212505124381","category":"76","category_name":"上海菜","address":"卢湾区永年路54号(永年路肇周路)"},{"poiid":"B2094757D06BABFF439B","title":"恒升大厦","lon":"121.4824","lat":"31.21172","category":"252","category_name":"楼宇机构","address":"上海市黄浦区陆家浜路1396-1398号"},{"poiid":"B2094757D464ABF54098","title":"巴弟鸡排 顺昌路店","lon":"121.479773054","lat":"31.211614793","category":"68","category_name":"快餐厅","address":"卢湾区顺昌路563号(近徐家汇路)"},{"poiid":"B2094654DB6BA4FF4898","title":"老北京涮锅(顺昌路)","lon":"121.47952","lat":"31.2125","category":"86","category_name":"火锅店","address":"卢湾区顺昌路531号(近永年路)"},{"poiid":"B2094750D768A0F5439D","title":"老刘烧烤","lon":"121.482","lat":"31.2135","category":"68","category_name":"快餐厅","address":"黄浦区大吉路华联超市门口(方斜路口)"},{"poiid":"B2094655D36DA0FF4193","title":"徐家汇路重庆南路","lon":"121.48067","lat":"31.21098","category":"38","category_name":"公交车站","address":""},{"poiid":"B2094757D068A7F84092","title":"广东小厨粤菜馆","lon":"121.48101692673","lat":"31.212828028012","category":"72","category_name":"广东菜","address":"黄浦区肇周路368号(近徐家汇路)"},{"poiid":"B2094655D36DA1F54693","title":"斜桥(制造局路陆家浜路)","lon":"121.4815","lat":"31.21258","category":"38","category_name":"公交车站","address":""},{"poiid":"B2094655D36DA7F94599","title":"重庆南路","lon":"121.48058","lat":"31.21079","category":"38","category_name":"公交车站","address":""},{"poiid":"B2094655D268A6F8429B","title":"肇周大楼","lon":"121.48229","lat":"31.21171","category":"46","category_name":"楼宇","address":"肇周路421弄"},{"poiid":"B2094654DA6EA7F44192","title":"品客小站","lon":"121.4816","lat":"31.21273","category":"68","category_name":"快餐厅","address":"黄浦区肇周路395号(近徐家汇路)"},{"poiid":"B2094757D164A5FC429F","title":"小车扦脚","lon":"121.480633","lat":"31.212189","category":"148","category_name":"美容美发店","address":"卢湾区永年路55号(近顺昌路)"},{"poiid":"B2094655D268A2FE4098","title":"锦江之星(陆家浜路店)","lon":"121.48332","lat":"31.21172","category":"216","category_name":"经济型连锁酒店","address":"黄浦区陆家浜路1331号(近红房子妇产科医院)"},{"poiid":"B2094654DB6BA4FF489B","title":"森绿温馨小吃(顺昌路)","lon":"121.47945","lat":"31.21288","category":"76","category_name":"上海菜","address":"卢湾区顺昌路503号(近建国东路)"},{"poiid":"B2094752DB6FA1FE409A","title":"新天地","lon":"121.482559","lat":"31.212128","category":"500","category_name":"未知分类","address":"上海市 复兴中路"},{"poiid":"B2094757D065A3FA419E","title":"黄浦学校","lon":"121.48299705","lat":"31.212104623","category":"253","category_name":"校园生活","address":"黄浦区大吉路208号(近西藏南路)"},{"poiid":"B2094655D268A2FD499C","title":"永理第三小区南门(永年路)","lon":"121.4811","lat":"31.21235","category":"47","category_name":"住宅区","address":"永年路24弄2-10号"},{"poiid":"B2094654DB6BA4FF4893","title":"快客(肇周路)","lon":"121.4813","lat":"31.2126","category":"117","category_name":"便民商店/便利店","address":"肇周路386"},{"poiid":"B2094655D36CA1FF4198","title":"顺昌路徐家汇路","lon":"121.47971","lat":"31.21123","category":"38","category_name":"公交车站","address":""},{"poiid":"B2094654DA6EA7F44299","title":"上海医学院妇产科学系","lon":"121.48178","lat":"31.21224","category":"52","category_name":"高等院校","address":"肇周路413"},{"poiid":"B2094750D768A0F4439D","title":"川香阁鱼庄","lon":"121.481","lat":"31.2131","category":"71","category_name":"四川菜","address":"卢湾区肇周路348号(建国东路建国新路)"},{"poiid":"B2094752D66FAAFC4993","title":"必胜客","lon":"121.479057","lat":"31.211943","category":"500","category_name":"未知分类","address":"徐家汇路618号日月光中心广场B2楼(近瑞金二路)"},{"poiid":"B2094757D66BA5F4489E","title":"亦熠餐厅","lon":"121.481064054","lat":"31.213391793","category":"76","category_name":"上海菜","address":"黄浦区肇周路340号(近建国中路)"}]