[{"poiid":"B2094757D068A5F8459E","title":"星河湾","lon":"121.408479","lat":"31.088122","category":"47","category_name":"住宅区","address":"上海闵行区都会路3799号(近金都路)"},{"poiid":"B2094757D06FABFA439C","title":"宝燕海鲜(莘庄店)","lon":"121.39846","lat":"31.08808","category":"75","category_name":"浙江菜","address":"闵行区都市路3825弄好爱广场1楼(近金都路)"},{"poiid":"B2094757D068ABFE4293","title":"自由港量贩式KTV(都市路店)","lon":"121.40448","lat":"31.07799","category":"170","category_name":"KTV","address":"闵行区都市路3366号4楼(近贵都路)"},{"poiid":"B2094757D06FA5FA4998","title":"乐购(都市店)","lon":"121.403425","lat":"31.080080257","category":"118","category_name":"超级市场","address":"闵行区都市路3366号(近贵都路)"},{"poiid":"B2094655D264A0F84498","title":"招商雍华府","lon":"121.40441","lat":"31.075537","category":"47","category_name":"住宅区","address":"闵行都市路2988号(靠近贵都路乐购)"},{"poiid":"B2094757D66BABF9459A","title":"品悦酒店 闵行店","lon":"121.40218774005","lat":"31.08005945754","category":"76","category_name":"上海菜","address":"闵行区都市路3377号(近贵都路)"},{"poiid":"B2094757D069A3F9479B","title":"南美水疗(莘庄店)","lon":"121.3986","lat":"31.08809","category":"149","category_name":"洗浴推拿场所","address":"闵行区都市路"},{"poiid":"B2094757D06AA2FD4993","title":"S4金都路上匝道 (沪闵高架路方向)","lon":"121.40286185","lat":"31.085065063","category":"500","category_name":"未知分类","address":"上海闵行区金都路"},{"poiid":"B2094757D068A5FF439B","title":"贵峰苑小区","lon":"121.39724333","lat":"31.081609039","category":"47","category_name":"住宅区","address":"上海闵行区金都路3019弄"},{"poiid":"B2094654DB6CA4F84692","title":"樱园","lon":"121.40267","lat":"31.083956","category":"47","category_name":"住宅区","address":"上海市闵行区都市路2566弄"},{"poiid":"B2094757D469A0F54299","title":"肯德基 贵都路店 KFC","lon":"121.402282054","lat":"31.079764793","category":"68","category_name":"快餐厅","address":"闵行区都市路3366号(贵都路)"},{"poiid":"B2094654DB6EABF54199","title":"上海市莘庄工业区","lon":"121.39472","lat":"31.07947","category":"45","category_name":"产业园区","address":"上海市闵行区中春路1988号(近颛兴路)"},{"poiid":"B2094654DB6EABFD4393","title":"广巢轩酒家","lon":"121.40201","lat":"31.08127","category":"76","category_name":"上海菜","address":"闵行区都市路3523号(近丰顺路)"},{"poiid":"B2094757D06AA6FB4192","title":"虾满堂(都市路店)","lon":"121.39806366","lat":"31.0883331299","category":"500","category_name":"未知分类","address":"上海都市路3825弄7号"},{"poiid":"B2094655D36CA6FA419E","title":"都市路贵都路","lon":"121.40331","lat":"31.07925","category":"38","category_name":"公交车站","address":""},{"poiid":"B2094757D06AA5FF439F","title":"兴银花园","lon":"121.40198","lat":"31.08066","category":"252","category_name":"楼宇机构","address":"上海市闵行区都市路3509弄"},{"poiid":"B2094757D16FA2FD409F","title":"田园外语实验小学","lon":"121.404283857","lat":"31.07792092","category":"253","category_name":"校园生活","address":"上海都市路3000号"},{"poiid":"B2094757D16CA3F4439E","title":"君莲新城","lon":"121.40904557","lat":"31.08370188","category":"252","category_name":"楼宇机构","address":"上海都会路3199弄"},{"poiid":"B2094654DB6EABFA489B","title":"今天花园","lon":"121.40287","lat":"31.07743","category":"47","category_name":"住宅区","address":"贵都路209弄"},{"poiid":"B2094757D16CABFC4399","title":"味之都 贵都路店","lon":"121.403660054","lat":"31.078210793","category":"68","category_name":"快餐厅","address":"闵行区都市路3366号(近贵都路)"},{"poiid":"B2094757D568AAF5489B","title":"复美大药房(都市路)","lon":"121.4021894","lat":"31.08097114","category":"162","category_name":"医院","address":"中国上海市闵行区都市路"},{"poiid":"B2094655D36CA6FA4299","title":"都市路丰顺路","lon":"121.40166","lat":"31.08243","category":"38","category_name":"公交车站","address":""},{"poiid":"B2094654DB6EABFD449E","title":"颛桥镇瑛瑛杂货店","lon":"121.40219","lat":"31.08093","category":"117","category_name":"便民商店/便利店","address":"闵行区都市路3517号"},{"poiid":"B2094654DB6CA4FF4898","title":"重庆鸡公煲(上海金都综合医院东南)","lon":"121.40153","lat":"31.08213","category":"71","category_name":"四川菜","address":""},{"poiid":"B2094655D36CA7F94993","title":"好世樱缘","lon":"121.40116","lat":"31.08336","category":"38","category_name":"公交车站","address":""},{"poiid":"B2094655D26EA5FC479B","title":"黑三娘 好爱店","lon":"121.398469054","lat":"31.087303793","category":"71","category_name":"四川菜","address":"闵行区都市路3825弄好爱广场149-151号(近金都路)"},{"poiid":"B2094655D26FA4F94692","title":"名门世家","lon":"121.40634","lat":"31.0798","category":"47","category_name":"住宅区","address":"老沪闵路2788弄"},{"poiid":"B2094654DB6CAAFA439C","title":"海燕精菜馆","lon":"121.398469054","lat":"31.087303793","category":"72","category_name":"广东菜","address":"闵行区都市路3825弄好爱广场1楼(近金都路)"},{"poiid":"B2094757D064A6F44493","title":"申良花园","lon":"121.39976","lat":"31.07633","category":"47","category_name":"住宅区","address":"上海市闵行区贵都路345弄"},{"poiid":"B2094757D16CA5F8489D","title":"圣特丽墅","lon":"121.408","lat":"31.0834","category":"148","category_name":"美容美发店","address":"航头沪南路5588号"},{"poiid":"B2094757D568A7FC449D","title":"克丽缇娜(齐盛世纪花园北)","lon":"121.40329102","lat":"31.07885254","category":"148","category_name":"美容美发店","address":"中国上海市闵行区"},{"poiid":"B2094757D068A5FA4098","title":"德尚世嘉","lon":"121.402925","lat":"31.073551","category":"47","category_name":"住宅区","address":"上海都市路2899弄"},{"poiid":"B2094654DB6CA4FF479F","title":"上海金都综合医院","lon":"121.40118","lat":"31.0828","category":"162","category_name":"医院","address":"闵行区都市路3649号"},{"poiid":"B2094655D36CA2FE4898","title":"齐盛世纪花园","lon":"121.40347","lat":"31.077948","category":"38","category_name":"公交车站","address":"齐盛世纪花园位于闵行颛桥镇,贵都路"},{"poiid":"B2094757D069A4FC459E","title":"櫻園南區","lon":"121.403245207","lat":"31.0834322703","category":"252","category_name":"楼宇机构","address":"上海都市路3566弄"},{"poiid":"B2094757D06BABFE499D","title":"S4","lon":"121.40632","lat":"31.083226","category":"253","category_name":"校园生活","address":"上海金都路出口"},{"poiid":"B2094654DB6CA4F8469A","title":"快客No.6387","lon":"121.40086","lat":"31.08252","category":"117","category_name":"便民商店/便利店","address":""},{"poiid":"B2094654DB6CA4F8459B","title":"嘟嘟幼儿园","lon":"121.39964","lat":"31.08208","category":"57","category_name":"幼儿园","address":" 都市路3635弄35号"},{"poiid":"B2094757D56EA6FC489C","title":"达芙妮-都市乐购店","lon":"121.4031418","lat":"31.0797357","category":"249","category_name":"购物服务","address":"闵行区都市路3366号"},{"poiid":"B2094757D165AAFB439E","title":"卡雨诗都市路店","lon":"121.403310257","lat":"31.0835010317","category":"500","category_name":"未知分类","address":"上海都市路3593号"},{"poiid":"B2094654DB6FA1F9429E","title":"花墅","lon":"121.40549","lat":"31.07826","category":"47","category_name":"住宅区","address":""},{"poiid":"B2094757D06AA6FF489E","title":"花语墅","lon":"121.40443185","lat":"31.077159904","category":"500","category_name":"未知分类","address":"上海市宝山区环镇北路152号"},{"poiid":"B2094654DB6EABFA489E","title":"颛桥芬芬商店","lon":"121.40319","lat":"31.07801","category":"117","category_name":"便民商店/便利店","address":"闵行区贵都路199号"},{"poiid":"B2094757D06BA0F54692","title":"贵都新村","lon":"121.400224857","lat":"31.0812989876","category":"252","category_name":"楼宇机构","address":"上海闵行区都市路3635弄"},{"poiid":"B2094655D26EA2F54498","title":"樱园(西门)","lon":"121.40229","lat":"31.08175","category":"656","category_name":"大门","address":"都市路3566弄"},{"poiid":"B2094654DB6CAAFA429E","title":"黑三娘","lon":"121.39765","lat":"31.0886","category":"71","category_name":"四川菜","address":"闵行区都市路3825弄好爱广场149-151号(近金都路)"},{"poiid":"B2094757D66AA4F5419E","title":"虾满堂手抓龙虾 都市路店","lon":"121.398613","lat":"31.087572","category":"68","category_name":"快餐厅","address":"闵行区都市路3825弄好爱广场内(近金都路)"},{"poiid":"B2094757D06AAAF8409E","title":"金都花好悦园","lon":"121.39911","lat":"31.091726","category":"500","category_name":"未知分类","address":"上海银都路3151弄"},{"poiid":"B2094654DB6CA4F8469D","title":"田园新村派出所","lon":"121.39953","lat":"31.08407","category":"609","category_name":"警察局","address":"金都路2889"},{"poiid":"B2094757D56EA5FB469C","title":"来伊份","lon":"121.404545999999","lat":"31.078136","category":"263","category_name":"公司","address":"都市路3366号"},{"poiid":"B2094757D068A5F8459E","title":"星河湾","lon":"121.408479","lat":"31.088122","category":"47","category_name":"住宅区","address":"上海闵行区都会路3799号(近金都路)"},{"poiid":"B2094757D06FABFA439C","title":"宝燕海鲜(莘庄店)","lon":"121.39846","lat":"31.08808","category":"75","category_name":"浙江菜","address":"闵行区都市路3825弄好爱广场1楼(近金都路)"},{"poiid":"B2094757D068ABFE4293","title":"自由港量贩式KTV(都市路店)","lon":"121.40448","lat":"31.07799","category":"170","category_name":"KTV","address":"闵行区都市路3366号4楼(近贵都路)"},{"poiid":"B2094757D06FA5FA4998","title":"乐购(都市店)","lon":"121.403425","lat":"31.080080257","category":"118","category_name":"超级市场","address":"闵行区都市路3366号(近贵都路)"},{"poiid":"B2094655D264A0F84498","title":"招商雍华府","lon":"121.40441","lat":"31.075537","category":"47","category_name":"住宅区","address":"闵行都市路2988号(靠近贵都路乐购)"},{"poiid":"B2094757D66BABF9459A","title":"品悦酒店 闵行店","lon":"121.40218774005","lat":"31.08005945754","category":"76","category_name":"上海菜","address":"闵行区都市路3377号(近贵都路)"},{"poiid":"B2094757D069A3F9479B","title":"南美水疗(莘庄店)","lon":"121.3986","lat":"31.08809","category":"149","category_name":"洗浴推拿场所","address":"闵行区都市路"},{"poiid":"B2094757D06AA2FD4993","title":"S4金都路上匝道 (沪闵高架路方向)","lon":"121.40286185","lat":"31.085065063","category":"500","category_name":"未知分类","address":"上海闵行区金都路"},{"poiid":"B2094757D068A5FF439B","title":"贵峰苑小区","lon":"121.39724333","lat":"31.081609039","category":"47","category_name":"住宅区","address":"上海闵行区金都路3019弄"},{"poiid":"B2094654DB6CA4F84692","title":"樱园","lon":"121.40267","lat":"31.083956","category":"47","category_name":"住宅区","address":"上海市闵行区都市路2566弄"},{"poiid":"B2094757D469A0F54299","title":"肯德基 贵都路店 KFC","lon":"121.402282054","lat":"31.079764793","category":"68","category_name":"快餐厅","address":"闵行区都市路3366号(贵都路)"},{"poiid":"B2094654DB6EABF54199","title":"上海市莘庄工业区","lon":"121.39472","lat":"31.07947","category":"45","category_name":"产业园区","address":"上海市闵行区中春路1988号(近颛兴路)"},{"poiid":"B2094654DB6EABFD4393","title":"广巢轩酒家","lon":"121.40201","lat":"31.08127","category":"76","category_name":"上海菜","address":"闵行区都市路3523号(近丰顺路)"},{"poiid":"B2094757D06AA6FB4192","title":"虾满堂(都市路店)","lon":"121.39806366","lat":"31.0883331299","category":"500","category_name":"未知分类","address":"上海都市路3825弄7号"},{"poiid":"B2094655D36CA6FA419E","title":"都市路贵都路","lon":"121.40331","lat":"31.07925","category":"38","category_name":"公交车站","address":""},{"poiid":"B2094757D06AA5FF439F","title":"兴银花园","lon":"121.40198","lat":"31.08066","category":"252","category_name":"楼宇机构","address":"上海市闵行区都市路3509弄"},{"poiid":"B2094757D16FA2FD409F","title":"田园外语实验小学","lon":"121.404283857","lat":"31.07792092","category":"253","category_name":"校园生活","address":"上海都市路3000号"},{"poiid":"B2094757D16CA3F4439E","title":"君莲新城","lon":"121.40904557","lat":"31.08370188","category":"252","category_name":"楼宇机构","address":"上海都会路3199弄"},{"poiid":"B2094654DB6EABFA489B","title":"今天花园","lon":"121.40287","lat":"31.07743","category":"47","category_name":"住宅区","address":"贵都路209弄"},{"poiid":"B2094757D16CABFC4399","title":"味之都 贵都路店","lon":"121.403660054","lat":"31.078210793","category":"68","category_name":"快餐厅","address":"闵行区都市路3366号(近贵都路)"},{"poiid":"B2094757D568AAF5489B","title":"复美大药房(都市路)","lon":"121.4021894","lat":"31.08097114","category":"162","category_name":"医院","address":"中国上海市闵行区都市路"},{"poiid":"B2094655D36CA6FA4299","title":"都市路丰顺路","lon":"121.40166","lat":"31.08243","category":"38","category_name":"公交车站","address":""},{"poiid":"B2094654DB6EABFD449E","title":"颛桥镇瑛瑛杂货店","lon":"121.40219","lat":"31.08093","category":"117","category_name":"便民商店/便利店","address":"闵行区都市路3517号"},{"poiid":"B2094654DB6CA4FF4898","title":"重庆鸡公煲(上海金都综合医院东南)","lon":"121.40153","lat":"31.08213","category":"71","category_name":"四川菜","address":""},{"poiid":"B2094655D36CA7F94993","title":"好世樱缘","lon":"121.40116","lat":"31.08336","category":"38","category_name":"公交车站","address":""},{"poiid":"B2094655D26EA5FC479B","title":"黑三娘 好爱店","lon":"121.398469054","lat":"31.087303793","category":"71","category_name":"四川菜","address":"闵行区都市路3825弄好爱广场149-151号(近金都路)"},{"poiid":"B2094655D26FA4F94692","title":"名门世家","lon":"121.40634","lat":"31.0798","category":"47","category_name":"住宅区","address":"老沪闵路2788弄"},{"poiid":"B2094654DB6CAAFA439C","title":"海燕精菜馆","lon":"121.398469054","lat":"31.087303793","category":"72","category_name":"广东菜","address":"闵行区都市路3825弄好爱广场1楼(近金都路)"},{"poiid":"B2094757D064A6F44493","title":"申良花园","lon":"121.39976","lat":"31.07633","category":"47","category_name":"住宅区","address":"上海市闵行区贵都路345弄"},{"poiid":"B2094757D16CA5F8489D","title":"圣特丽墅","lon":"121.408","lat":"31.0834","category":"148","category_name":"美容美发店","address":"航头沪南路5588号"},{"poiid":"B2094757D568A7FC449D","title":"克丽缇娜(齐盛世纪花园北)","lon":"121.40329102","lat":"31.07885254","category":"148","category_name":"美容美发店","address":"中国上海市闵行区"},{"poiid":"B2094757D068A5FA4098","title":"德尚世嘉","lon":"121.402925","lat":"31.073551","category":"47","category_name":"住宅区","address":"上海都市路2899弄"},{"poiid":"B2094654DB6CA4FF479F","title":"上海金都综合医院","lon":"121.40118","lat":"31.0828","category":"162","category_name":"医院","address":"闵行区都市路3649号"},{"poiid":"B2094655D36CA2FE4898","title":"齐盛世纪花园","lon":"121.40347","lat":"31.077948","category":"38","category_name":"公交车站","address":"齐盛世纪花园位于闵行颛桥镇,贵都路"},{"poiid":"B2094757D069A4FC459E","title":"櫻園南區","lon":"121.403245207","lat":"31.0834322703","category":"252","category_name":"楼宇机构","address":"上海都市路3566弄"},{"poiid":"B2094757D06BABFE499D","title":"S4","lon":"121.40632","lat":"31.083226","category":"253","category_name":"校园生活","address":"上海金都路出口"},{"poiid":"B2094654DB6CA4F8469A","title":"快客No.6387","lon":"121.40086","lat":"31.08252","category":"117","category_name":"便民商店/便利店","address":""},{"poiid":"B2094654DB6CA4F8459B","title":"嘟嘟幼儿园","lon":"121.39964","lat":"31.08208","category":"57","category_name":"幼儿园","address":" 都市路3635弄35号"},{"poiid":"B2094757D56EA6FC489C","title":"达芙妮-都市乐购店","lon":"121.4031418","lat":"31.0797357","category":"249","category_name":"购物服务","address":"闵行区都市路3366号"},{"poiid":"B2094757D165AAFB439E","title":"卡雨诗都市路店","lon":"121.403310257","lat":"31.0835010317","category":"500","category_name":"未知分类","address":"上海都市路3593号"},{"poiid":"B2094654DB6FA1F9429E","title":"花墅","lon":"121.40549","lat":"31.07826","category":"47","category_name":"住宅区","address":""},{"poiid":"B2094757D06AA6FF489E","title":"花语墅","lon":"121.40443185","lat":"31.077159904","category":"500","category_name":"未知分类","address":"上海市宝山区环镇北路152号"},{"poiid":"B2094654DB6EABFA489E","title":"颛桥芬芬商店","lon":"121.40319","lat":"31.07801","category":"117","category_name":"便民商店/便利店","address":"闵行区贵都路199号"},{"poiid":"B2094757D06BA0F54692","title":"贵都新村","lon":"121.400224857","lat":"31.0812989876","category":"252","category_name":"楼宇机构","address":"上海闵行区都市路3635弄"},{"poiid":"B2094655D26EA2F54498","title":"樱园(西门)","lon":"121.40229","lat":"31.08175","category":"656","category_name":"大门","address":"都市路3566弄"},{"poiid":"B2094654DB6CAAFA429E","title":"黑三娘","lon":"121.39765","lat":"31.0886","category":"71","category_name":"四川菜","address":"闵行区都市路3825弄好爱广场149-151号(近金都路)"},{"poiid":"B2094757D66AA4F5419E","title":"虾满堂手抓龙虾 都市路店","lon":"121.398613","lat":"31.087572","category":"68","category_name":"快餐厅","address":"闵行区都市路3825弄好爱广场内(近金都路)"},{"poiid":"B2094757D06AAAF8409E","title":"金都花好悦园","lon":"121.39911","lat":"31.091726","category":"500","category_name":"未知分类","address":"上海银都路3151弄"},{"poiid":"B2094654DB6CA4F8469D","title":"田园新村派出所","lon":"121.39953","lat":"31.08407","category":"609","category_name":"警察局","address":"金都路2889"},{"poiid":"B2094757D56EA5FB469C","title":"来伊份","lon":"121.404545999999","lat":"31.078136","category":"263","category_name":"公司","address":"都市路3366号"},{"poiid":"B2094757D068A5F8459E","title":"星河湾","lon":"121.408479","lat":"31.088122","category":"47","category_name":"住宅区","address":"上海闵行区都会路3799号(近金都路)"},{"poiid":"B2094757D06FABFA439C","title":"宝燕海鲜(莘庄店)","lon":"121.39846","lat":"31.08808","category":"75","category_name":"浙江菜","address":"闵行区都市路3825弄好爱广场1楼(近金都路)"},{"poiid":"B2094757D068ABFE4293","title":"自由港量贩式KTV(都市路店)","lon":"121.40448","lat":"31.07799","category":"170","category_name":"KTV","address":"闵行区都市路3366号4楼(近贵都路)"},{"poiid":"B2094757D06FA5FA4998","title":"乐购(都市店)","lon":"121.403425","lat":"31.080080257","category":"118","category_name":"超级市场","address":"闵行区都市路3366号(近贵都路)"},{"poiid":"B2094655D264A0F84498","title":"招商雍华府","lon":"121.40441","lat":"31.075537","category":"47","category_name":"住宅区","address":"闵行都市路2988号(靠近贵都路乐购)"},{"poiid":"B2094757D66BABF9459A","title":"品悦酒店 闵行店","lon":"121.40218774005","lat":"31.08005945754","category":"76","category_name":"上海菜","address":"闵行区都市路3377号(近贵都路)"},{"poiid":"B2094757D069A3F9479B","title":"南美水疗(莘庄店)","lon":"121.3986","lat":"31.08809","category":"149","category_name":"洗浴推拿场所","address":"闵行区都市路"},{"poiid":"B2094757D06AA2FD4993","title":"S4金都路上匝道 (沪闵高架路方向)","lon":"121.40286185","lat":"31.085065063","category":"500","category_name":"未知分类","address":"上海闵行区金都路"},{"poiid":"B2094757D068A5FF439B","title":"贵峰苑小区","lon":"121.39724333","lat":"31.081609039","category":"47","category_name":"住宅区","address":"上海闵行区金都路3019弄"},{"poiid":"B2094654DB6CA4F84692","title":"樱园","lon":"121.40267","lat":"31.083956","category":"47","category_name":"住宅区","address":"上海市闵行区都市路2566弄"},{"poiid":"B2094757D469A0F54299","title":"肯德基 贵都路店 KFC","lon":"121.402282054","lat":"31.079764793","category":"68","category_name":"快餐厅","address":"闵行区都市路3366号(贵都路)"},{"poiid":"B2094654DB6EABF54199","title":"上海市莘庄工业区","lon":"121.39472","lat":"31.07947","category":"45","category_name":"产业园区","address":"上海市闵行区中春路1988号(近颛兴路)"},{"poiid":"B2094654DB6EABFD4393","title":"广巢轩酒家","lon":"121.40201","lat":"31.08127","category":"76","category_name":"上海菜","address":"闵行区都市路3523号(近丰顺路)"},{"poiid":"B2094757D06AA6FB4192","title":"虾满堂(都市路店)","lon":"121.39806366","lat":"31.0883331299","category":"500","category_name":"未知分类","address":"上海都市路3825弄7号"},{"poiid":"B2094655D36CA6FA419E","title":"都市路贵都路","lon":"121.40331","lat":"31.07925","category":"38","category_name":"公交车站","address":""},{"poiid":"B2094757D06AA5FF439F","title":"兴银花园","lon":"121.40198","lat":"31.08066","category":"252","category_name":"楼宇机构","address":"上海市闵行区都市路3509弄"},{"poiid":"B2094757D16FA2FD409F","title":"田园外语实验小学","lon":"121.404283857","lat":"31.07792092","category":"253","category_name":"校园生活","address":"上海都市路3000号"},{"poiid":"B2094757D16CA3F4439E","title":"君莲新城","lon":"121.40904557","lat":"31.08370188","category":"252","category_name":"楼宇机构","address":"上海都会路3199弄"},{"poiid":"B2094654DB6EABFA489B","title":"今天花园","lon":"121.40287","lat":"31.07743","category":"47","category_name":"住宅区","address":"贵都路209弄"},{"poiid":"B2094757D16CABFC4399","title":"味之都 贵都路店","lon":"121.403660054","lat":"31.078210793","category":"68","category_name":"快餐厅","address":"闵行区都市路3366号(近贵都路)"},{"poiid":"B2094757D568AAF5489B","title":"复美大药房(都市路)","lon":"121.4021894","lat":"31.08097114","category":"162","category_name":"医院","address":"中国上海市闵行区都市路"},{"poiid":"B2094655D36CA6FA4299","title":"都市路丰顺路","lon":"121.40166","lat":"31.08243","category":"38","category_name":"公交车站","address":""},{"poiid":"B2094654DB6EABFD449E","title":"颛桥镇瑛瑛杂货店","lon":"121.40219","lat":"31.08093","category":"117","category_name":"便民商店/便利店","address":"闵行区都市路3517号"},{"poiid":"B2094654DB6CA4FF4898","title":"重庆鸡公煲(上海金都综合医院东南)","lon":"121.40153","lat":"31.08213","category":"71","category_name":"四川菜","address":""},{"poiid":"B2094655D36CA7F94993","title":"好世樱缘","lon":"121.40116","lat":"31.08336","category":"38","category_name":"公交车站","address":""},{"poiid":"B2094655D26EA5FC479B","title":"黑三娘 好爱店","lon":"121.398469054","lat":"31.087303793","category":"71","category_name":"四川菜","address":"闵行区都市路3825弄好爱广场149-151号(近金都路)"},{"poiid":"B2094655D26FA4F94692","title":"名门世家","lon":"121.40634","lat":"31.0798","category":"47","category_name":"住宅区","address":"老沪闵路2788弄"},{"poiid":"B2094654DB6CAAFA439C","title":"海燕精菜馆","lon":"121.398469054","lat":"31.087303793","category":"72","category_name":"广东菜","address":"闵行区都市路3825弄好爱广场1楼(近金都路)"},{"poiid":"B2094757D064A6F44493","title":"申良花园","lon":"121.39976","lat":"31.07633","category":"47","category_name":"住宅区","address":"上海市闵行区贵都路345弄"},{"poiid":"B2094757D16CA5F8489D","title":"圣特丽墅","lon":"121.408","lat":"31.0834","category":"148","category_name":"美容美发店","address":"航头沪南路5588号"},{"poiid":"B2094757D568A7FC449D","title":"克丽缇娜(齐盛世纪花园北)","lon":"121.40329102","lat":"31.07885254","category":"148","category_name":"美容美发店","address":"中国上海市闵行区"},{"poiid":"B2094757D068A5FA4098","title":"德尚世嘉","lon":"121.402925","lat":"31.073551","category":"47","category_name":"住宅区","address":"上海都市路2899弄"},{"poiid":"B2094654DB6CA4FF479F","title":"上海金都综合医院","lon":"121.40118","lat":"31.0828","category":"162","category_name":"医院","address":"闵行区都市路3649号"},{"poiid":"B2094655D36CA2FE4898","title":"齐盛世纪花园","lon":"121.40347","lat":"31.077948","category":"38","category_name":"公交车站","address":"齐盛世纪花园位于闵行颛桥镇,贵都路"},{"poiid":"B2094757D069A4FC459E","title":"櫻園南區","lon":"121.403245207","lat":"31.0834322703","category":"252","category_name":"楼宇机构","address":"上海都市路3566弄"},{"poiid":"B2094757D06BABFE499D","title":"S4","lon":"121.40632","lat":"31.083226","category":"253","category_name":"校园生活","address":"上海金都路出口"},{"poiid":"B2094654DB6CA4F8469A","title":"快客No.6387","lon":"121.40086","lat":"31.08252","category":"117","category_name":"便民商店/便利店","address":""},{"poiid":"B2094654DB6CA4F8459B","title":"嘟嘟幼儿园","lon":"121.39964","lat":"31.08208","category":"57","category_name":"幼儿园","address":" 都市路3635弄35号"},{"poiid":"B2094757D56EA6FC489C","title":"达芙妮-都市乐购店","lon":"121.4031418","lat":"31.0797357","category":"249","category_name":"购物服务","address":"闵行区都市路3366号"},{"poiid":"B2094757D165AAFB439E","title":"卡雨诗都市路店","lon":"121.403310257","lat":"31.0835010317","category":"500","category_name":"未知分类","address":"上海都市路3593号"},{"poiid":"B2094654DB6FA1F9429E","title":"花墅","lon":"121.40549","lat":"31.07826","category":"47","category_name":"住宅区","address":""},{"poiid":"B2094757D06AA6FF489E","title":"花语墅","lon":"121.40443185","lat":"31.077159904","category":"500","category_name":"未知分类","address":"上海市宝山区环镇北路152号"},{"poiid":"B2094654DB6EABFA489E","title":"颛桥芬芬商店","lon":"121.40319","lat":"31.07801","category":"117","category_name":"便民商店/便利店","address":"闵行区贵都路199号"},{"poiid":"B2094757D06BA0F54692","title":"贵都新村","lon":"121.400224857","lat":"31.0812989876","category":"252","category_name":"楼宇机构","address":"上海闵行区都市路3635弄"},{"poiid":"B2094655D26EA2F54498","title":"樱园(西门)","lon":"121.40229","lat":"31.08175","category":"656","category_name":"大门","address":"都市路3566弄"},{"poiid":"B2094654DB6CAAFA429E","title":"黑三娘","lon":"121.39765","lat":"31.0886","category":"71","category_name":"四川菜","address":"闵行区都市路3825弄好爱广场149-151号(近金都路)"},{"poiid":"B2094757D66AA4F5419E","title":"虾满堂手抓龙虾 都市路店","lon":"121.398613","lat":"31.087572","category":"68","category_name":"快餐厅","address":"闵行区都市路3825弄好爱广场内(近金都路)"},{"poiid":"B2094757D06AAAF8409E","title":"金都花好悦园","lon":"121.39911","lat":"31.091726","category":"500","category_name":"未知分类","address":"上海银都路3151弄"},{"poiid":"B2094654DB6CA4F8469D","title":"田园新村派出所","lon":"121.39953","lat":"31.08407","category":"609","category_name":"警察局","address":"金都路2889"},{"poiid":"B2094757D56EA5FB469C","title":"来伊份","lon":"121.404545999999","lat":"31.078136","category":"263","category_name":"公司","address":"都市路3366号"},{"poiid":"B2094757D068A5F8459E","title":"星河湾","lon":"121.408479","lat":"31.088122","category":"47","category_name":"住宅区","address":"上海闵行区都会路3799号(近金都路)"},{"poiid":"B2094757D06FABFA439C","title":"宝燕海鲜(莘庄店)","lon":"121.39846","lat":"31.08808","category":"75","category_name":"浙江菜","address":"闵行区都市路3825弄好爱广场1楼(近金都路)"},{"poiid":"B2094757D068ABFE4293","title":"自由港量贩式KTV(都市路店)","lon":"121.40448","lat":"31.07799","category":"170","category_name":"KTV","address":"闵行区都市路3366号4楼(近贵都路)"},{"poiid":"B2094757D06FA5FA4998","title":"乐购(都市店)","lon":"121.403425","lat":"31.080080257","category":"118","category_name":"超级市场","address":"闵行区都市路3366号(近贵都路)"},{"poiid":"B2094655D264A0F84498","title":"招商雍华府","lon":"121.40441","lat":"31.075537","category":"47","category_name":"住宅区","address":"闵行都市路2988号(靠近贵都路乐购)"},{"poiid":"B2094757D66BABF9459A","title":"品悦酒店 闵行店","lon":"121.40218774005","lat":"31.08005945754","category":"76","category_name":"上海菜","address":"闵行区都市路3377号(近贵都路)"},{"poiid":"B2094757D069A3F9479B","title":"南美水疗(莘庄店)","lon":"121.3986","lat":"31.08809","category":"149","category_name":"洗浴推拿场所","address":"闵行区都市路"},{"poiid":"B2094757D06AA2FD4993","title":"S4金都路上匝道 (沪闵高架路方向)","lon":"121.40286185","lat":"31.085065063","category":"500","category_name":"未知分类","address":"上海闵行区金都路"},{"poiid":"B2094757D068A5FF439B","title":"贵峰苑小区","lon":"121.39724333","lat":"31.081609039","category":"47","category_name":"住宅区","address":"上海闵行区金都路3019弄"},{"poiid":"B2094654DB6CA4F84692","title":"樱园","lon":"121.40267","lat":"31.083956","category":"47","category_name":"住宅区","address":"上海市闵行区都市路2566弄"},{"poiid":"B2094757D469A0F54299","title":"肯德基 贵都路店 KFC","lon":"121.402282054","lat":"31.079764793","category":"68","category_name":"快餐厅","address":"闵行区都市路3366号(贵都路)"},{"poiid":"B2094654DB6EABF54199","title":"上海市莘庄工业区","lon":"121.39472","lat":"31.07947","category":"45","category_name":"产业园区","address":"上海市闵行区中春路1988号(近颛兴路)"},{"poiid":"B2094654DB6EABFD4393","title":"广巢轩酒家","lon":"121.40201","lat":"31.08127","category":"76","category_name":"上海菜","address":"闵行区都市路3523号(近丰顺路)"},{"poiid":"B2094757D06AA6FB4192","title":"虾满堂(都市路店)","lon":"121.39806366","lat":"31.0883331299","category":"500","category_name":"未知分类","address":"上海都市路3825弄7号"},{"poiid":"B2094655D36CA6FA419E","title":"都市路贵都路","lon":"121.40331","lat":"31.07925","category":"38","category_name":"公交车站","address":""},{"poiid":"B2094757D06AA5FF439F","title":"兴银花园","lon":"121.40198","lat":"31.08066","category":"252","category_name":"楼宇机构","address":"上海市闵行区都市路3509弄"},{"poiid":"B2094757D16FA2FD409F","title":"田园外语实验小学","lon":"121.404283857","lat":"31.07792092","category":"253","category_name":"校园生活","address":"上海都市路3000号"},{"poiid":"B2094757D16CA3F4439E","title":"君莲新城","lon":"121.40904557","lat":"31.08370188","category":"252","category_name":"楼宇机构","address":"上海都会路3199弄"},{"poiid":"B2094654DB6EABFA489B","title":"今天花园","lon":"121.40287","lat":"31.07743","category":"47","category_name":"住宅区","address":"贵都路209弄"},{"poiid":"B2094757D16CABFC4399","title":"味之都 贵都路店","lon":"121.403660054","lat":"31.078210793","category":"68","category_name":"快餐厅","address":"闵行区都市路3366号(近贵都路)"},{"poiid":"B2094757D568AAF5489B","title":"复美大药房(都市路)","lon":"121.4021894","lat":"31.08097114","category":"162","category_name":"医院","address":"中国上海市闵行区都市路"},{"poiid":"B2094655D36CA6FA4299","title":"都市路丰顺路","lon":"121.40166","lat":"31.08243","category":"38","category_name":"公交车站","address":""},{"poiid":"B2094654DB6EABFD449E","title":"颛桥镇瑛瑛杂货店","lon":"121.40219","lat":"31.08093","category":"117","category_name":"便民商店/便利店","address":"闵行区都市路3517号"},{"poiid":"B2094654DB6CA4FF4898","title":"重庆鸡公煲(上海金都综合医院东南)","lon":"121.40153","lat":"31.08213","category":"71","category_name":"四川菜","address":""},{"poiid":"B2094655D36CA7F94993","title":"好世樱缘","lon":"121.40116","lat":"31.08336","category":"38","category_name":"公交车站","address":""},{"poiid":"B2094655D26EA5FC479B","title":"黑三娘 好爱店","lon":"121.398469054","lat":"31.087303793","category":"71","category_name":"四川菜","address":"闵行区都市路3825弄好爱广场149-151号(近金都路)"},{"poiid":"B2094655D26FA4F94692","title":"名门世家","lon":"121.40634","lat":"31.0798","category":"47","category_name":"住宅区","address":"老沪闵路2788弄"},{"poiid":"B2094654DB6CAAFA439C","title":"海燕精菜馆","lon":"121.398469054","lat":"31.087303793","category":"72","category_name":"广东菜","address":"闵行区都市路3825弄好爱广场1楼(近金都路)"},{"poiid":"B2094757D064A6F44493","title":"申良花园","lon":"121.39976","lat":"31.07633","category":"47","category_name":"住宅区","address":"上海市闵行区贵都路345弄"},{"poiid":"B2094757D16CA5F8489D","title":"圣特丽墅","lon":"121.408","lat":"31.0834","category":"148","category_name":"美容美发店","address":"航头沪南路5588号"},{"poiid":"B2094757D568A7FC449D","title":"克丽缇娜(齐盛世纪花园北)","lon":"121.40329102","lat":"31.07885254","category":"148","category_name":"美容美发店","address":"中国上海市闵行区"},{"poiid":"B2094757D068A5FA4098","title":"德尚世嘉","lon":"121.402925","lat":"31.073551","category":"47","category_name":"住宅区","address":"上海都市路2899弄"},{"poiid":"B2094654DB6CA4FF479F","title":"上海金都综合医院","lon":"121.40118","lat":"31.0828","category":"162","category_name":"医院","address":"闵行区都市路3649号"},{"poiid":"B2094655D36CA2FE4898","title":"齐盛世纪花园","lon":"121.40347","lat":"31.077948","category":"38","category_name":"公交车站","address":"齐盛世纪花园位于闵行颛桥镇,贵都路"},{"poiid":"B2094757D069A4FC459E","title":"櫻園南區","lon":"121.403245207","lat":"31.0834322703","category":"252","category_name":"楼宇机构","address":"上海都市路3566弄"},{"poiid":"B2094757D06BABFE499D","title":"S4","lon":"121.40632","lat":"31.083226","category":"253","category_name":"校园生活","address":"上海金都路出口"},{"poiid":"B2094654DB6CA4F8469A","title":"快客No.6387","lon":"121.40086","lat":"31.08252","category":"117","category_name":"便民商店/便利店","address":""},{"poiid":"B2094654DB6CA4F8459B","title":"嘟嘟幼儿园","lon":"121.39964","lat":"31.08208","category":"57","category_name":"幼儿园","address":" 都市路3635弄35号"},{"poiid":"B2094757D56EA6FC489C","title":"达芙妮-都市乐购店","lon":"121.4031418","lat":"31.0797357","category":"249","category_name":"购物服务","address":"闵行区都市路3366号"},{"poiid":"B2094757D165AAFB439E","title":"卡雨诗都市路店","lon":"121.403310257","lat":"31.0835010317","category":"500","category_name":"未知分类","address":"上海都市路3593号"},{"poiid":"B2094654DB6FA1F9429E","title":"花墅","lon":"121.40549","lat":"31.07826","category":"47","category_name":"住宅区","address":""},{"poiid":"B2094757D06AA6FF489E","title":"花语墅","lon":"121.40443185","lat":"31.077159904","category":"500","category_name":"未知分类","address":"上海市宝山区环镇北路152号"},{"poiid":"B2094654DB6EABFA489E","title":"颛桥芬芬商店","lon":"121.40319","lat":"31.07801","category":"117","category_name":"便民商店/便利店","address":"闵行区贵都路199号"},{"poiid":"B2094757D06BA0F54692","title":"贵都新村","lon":"121.400224857","lat":"31.0812989876","category":"252","category_name":"楼宇机构","address":"上海闵行区都市路3635弄"},{"poiid":"B2094655D26EA2F54498","title":"樱园(西门)","lon":"121.40229","lat":"31.08175","category":"656","category_name":"大门","address":"都市路3566弄"},{"poiid":"B2094654DB6CAAFA429E","title":"黑三娘","lon":"121.39765","lat":"31.0886","category":"71","category_name":"四川菜","address":"闵行区都市路3825弄好爱广场149-151号(近金都路)"},{"poiid":"B2094757D66AA4F5419E","title":"虾满堂手抓龙虾 都市路店","lon":"121.398613","lat":"31.087572","category":"68","category_name":"快餐厅","address":"闵行区都市路3825弄好爱广场内(近金都路)"},{"poiid":"B2094757D06AAAF8409E","title":"金都花好悦园","lon":"121.39911","lat":"31.091726","category":"500","category_name":"未知分类","address":"上海银都路3151弄"},{"poiid":"B2094654DB6CA4F8469D","title":"田园新村派出所","lon":"121.39953","lat":"31.08407","category":"609","category_name":"警察局","address":"金都路2889"},{"poiid":"B2094757D56EA5FB469C","title":"来伊份","lon":"121.404545999999","lat":"31.078136","category":"263","category_name":"公司","address":"都市路3366号"}]