[{"poiid":"B2094750D664A4FA419A","title":"耳光馄饨","lon":"121.481","lat":"31.216","category":"68","category_name":"快餐厅","address":"黄浦区肇周路209-213号(近合肥路)"},{"poiid":"B2094757D06FA3FC459D","title":"COSTA COFFEE(马当路店)","lon":"121.47564265","lat":"31.2161755734","category":"65","category_name":"咖啡厅","address":"卢湾区马当路245号新天地时尚购物广场L117、L220、L243室(近复兴中路)"},{"poiid":"B2094757D06FA3FF479D","title":"长脚汤面","lon":"121.480717","lat":"31.216623","category":"68","category_name":"快餐厅","address":"卢湾区肇周路166弄弄堂里(近济南路)"},{"poiid":"B2094753D76FAAFA449C","title":"上海滩国泰旗舰店","lon":"121.466011","lat":"31.216125","category":"249","category_name":"购物服务","address":"淮海中路868号"},{"poiid":"B209475CD564A7F84292","title":"上海滩新天地店","lon":"121.47463","lat":"31.22164","category":"119","category_name":"商场","address":"\"太仓路181弄新天地北里15号\r\n\""},{"poiid":"B209475CD564A7F8439E","title":"上海滩中信泰富店","lon":"121.45602","lat":"31.22851","category":"119","category_name":"商场","address":"\"南京西路1168号中信泰富广场，店铺号221.\r\n\""},{"poiid":"B2094757D06FA4F44098","title":"何师傅面馆","lon":"121.47698","lat":"31.21536","category":"68","category_name":"快餐厅","address":"卢湾区黄陂南路618号(近合肥路)"},{"poiid":"B2094757D06FA6F5499C","title":"翠湖天地御苑","lon":"121.47715","lat":"31.21806","category":"47","category_name":"住宅区","address":"黄浦区东门路168号2楼252号(近中华路豫园)"},{"poiid":"B2094757D66AA5FC419D","title":"吴记老锅底麻辣火锅 黄陂南路店","lon":"121.47667530833","lat":"31.216400943765","category":"86","category_name":"火锅店","address":"卢湾区黄陂南路577号(复兴中路合肥路间)"},{"poiid":"B2094757D068A1F94392","title":"新天地南里","lon":"121.48018047","lat":"31.217756111","category":"119","category_name":"商场","address":"上海卢湾区兴业路123弄"},{"poiid":"B2094757D064A3FC4299","title":"POST餐厅","lon":"121.47842","lat":"31.21808","category":"94","category_name":"西餐厅","address":"卢湾区顺昌路168弄翠湖天地10号会所2楼(自忠路)"},{"poiid":"B2094757D06AA6FE469C","title":"新天地style","lon":"121.47919464","lat":"31.214149475","category":"500","category_name":"未知分类","address":"上海复兴中路马当路"},{"poiid":"B2094751D26DABFA459F","title":"新天地摩罗街","lon":"121.479576","lat":"31.217754","category":"500","category_name":"未知分类","address":null},{"poiid":"B2094757D068A1F5429E","title":"顺昌路","lon":"121.478856","lat":"31.214754","category":"500","category_name":"未知分类","address":"上海卢湾区顺昌路"},{"poiid":"B2094750D26FA5F84792","title":"宁静名猫生活馆","lon":"121.480108","lat":"31.217455","category":"260","category_name":"其他","address":"黄浦区西藏南路765号永惠大厦1303室(近方斜路)"},{"poiid":"B2094750D565A1F4469D","title":"CASA700","lon":"121.476936","lat":"31.215234","category":"247","category_name":"餐饮美食","address":"黄陂南路700号"},{"poiid":"B209475DDB64AAFA4193","title":"云南云海肴","lon":"121.479309","lat":"31.217967","category":"247","category_name":"餐饮美食","address":"上海市 新天地兴业路123弄1号楼03单元"},{"poiid":"B2094654DA6DA5FD4599","title":"新电大厦","lon":"121.479","lat":"31.2154","category":"46","category_name":"楼宇","address":"沈河区文化东路8号"},{"poiid":"B209475CD468A1FC4899","title":"大福屋","lon":"121.478874","lat":"31.216972","category":"500","category_name":"未知分类","address":"上海市 上海市卢湾区新天地"},{"poiid":"B209475DDA6DAAFC4698","title":"花蒲甜品","lon":"121.479293","lat":"31.216024","category":"247","category_name":"餐饮美食","address":"上海市 马当路245号新天地时尚1楼107室(自忠路)"},{"poiid":"B2094757DB6FA5FA4798","title":"地铁八号线","lon":"121.4801134782591","lat":"31.21684147290736","category":"500","category_name":"未知分类","address":"陆家浜路站"},{"poiid":"B2094757D068A4F8479B","title":"肯德基 KFC (中华店)","lon":"121.47820043","lat":"31.217946738","category":"68","category_name":"快餐厅","address":"黄浦区中华路1405号(文庙旁)"},{"poiid":"B2094757D069ABF84992","title":"吉旺港式餐厅(虹口龙之梦店)","lon":"121.477626988","lat":"31.2160295975","category":"247","category_name":"餐饮美食","address":"上海虹口区西江湾路388号凯德龙之梦虹口广场A区6层"},{"poiid":"B2094654DB6BA4FB469F","title":"卓维700上海创意产业集聚区","lon":"121.47692","lat":"31.21411","category":"45","category_name":"产业园区","address":"黄陂南路700"},{"poiid":"B2094655D26CA4F84899","title":"星平里(顺昌路)","lon":"121.47879","lat":"31.21668","category":"47","category_name":"住宅区","address":"顺昌路279弄1-78号"},{"poiid":"B2094654DA6EABF54498","title":"翠湖天地","lon":"121.47864","lat":"31.21832","category":"47","category_name":"住宅区","address":"长宁区镇宁路111号"},{"poiid":"B2094757D465A7FE4499","title":"东东砂锅馆","lon":"121.47981","lat":"31.21603","category":"68","category_name":"快餐厅","address":"卢湾区合肥路46号(近肇周路)"},{"poiid":"B2094655D36CA1FF4093","title":"顺昌路复兴中路","lon":"121.47849","lat":"31.21684","category":"38","category_name":"公交车站","address":""},{"poiid":"B2094752D665A2F9439C","title":"韵色","lon":"121.478048","lat":"31.215633","category":"247","category_name":"餐饮美食","address":"方斜路446号"},{"poiid":"B2094654DA6EAAF44099","title":"凹凸大厦","lon":"121.4784","lat":"31.21583","category":"46","category_name":"楼宇","address":"顺昌路330号"},{"poiid":"B2094655D26CA4F9429D","title":"光明邨","lon":"121.47763","lat":"31.2158","category":"47","category_name":"住宅区","address":"合肥路148弄1-83号"},{"poiid":"B2094757DA65A5FB419C","title":"格林豪泰(上海复兴中路新天地快捷酒店)","lon":"121.4786196","lat":"31.21725163","category":"216","category_name":"经济型连锁酒店","address":"上海市黄浦区复兴中路199号（近顺昌路）"},{"poiid":"B209475CD76EA0F44599","title":"威尔士Will's健身会所新天地点","lon":"121.478958","lat":"31.216522","category":"500","category_name":"未知分类","address":"上海市 马当路220号近华府天地"},{"poiid":"B2094655D26FA3F8489F","title":"避风塘街景No.910","lon":"121.47754","lat":"31.21701","category":"66","category_name":"茶艺馆","address":""},{"poiid":"B2094655D26CA4F5439C","title":"成裕里","lon":"121.47797","lat":"31.21684","category":"47","category_name":"住宅区","address":"复兴中路221弄2-42号"},{"poiid":"B2094757D068A4F9489F","title":"BerryBear Frozen Yogurt","lon":"121.479574738","lat":"31.2173970267","category":"113","category_name":"冷饮店","address":"上海卢湾区兴业路123弄新天地南里6号楼3楼327-3单元"},{"poiid":"B2094757D66DAAFF499F","title":"冷馄饨","lon":"121.48063773","lat":"31.215786992","category":"247","category_name":"餐饮美食","address":"上海肇周路"},{"poiid":"B2094751D56DA5FC489F","title":"麟笼坊","lon":"121.477961","lat":"31.217917","category":"247","category_name":"餐饮美食","address":null},{"poiid":"B2094654DB6BA4FF4698","title":"星平里(西三门)","lon":"121.47873","lat":"31.21613","category":"47","category_name":"住宅区","address":"顺昌路313弄7-35号"},{"poiid":"B2094655D268ABFD419A","title":"顺昌路279弄小区(西二门)","lon":"121.4786","lat":"31.21685","category":"47","category_name":"住宅区","address":""},{"poiid":"B2094654DA6FA3FC499D","title":"上海市卢湾区人民法院","lon":"121.47657","lat":"31.21483","category":"608","category_name":"法院","address":"合肥路213"},{"poiid":"B209475CD16EABFC459A","title":"瑞金医院","lon":"121.477035","lat":"31.215791","category":"162","category_name":"医院","address":"上海市 瑞金二路197号"},{"poiid":"B2094757D76AA6FC4192","title":"湘聚缘湘菜馆 黄陂南路店","lon":"121.476572054","lat":"31.216518793","category":"77","category_name":"湖南菜","address":"卢湾区黄陂南路567号(复兴中路口)"},{"poiid":"B2094655D26FA4FA479B","title":"复兴中路239弄小区","lon":"121.47763","lat":"31.21685","category":"47","category_name":"住宅区","address":"复兴中路239弄1-29"},{"poiid":"B2094654DA6EAAFB489E","title":"盛升杂货店","lon":"121.47836","lat":"31.21705","category":"117","category_name":"便民商店/便利店","address":"顺昌路252"},{"poiid":"B2094655D36CA6FF4398","title":"复兴中路黄陂南路","lon":"121.47711","lat":"31.21702","category":"38","category_name":"公交车站","address":""},{"poiid":"B2094454D264A0FF4899","title":"嫩绿茶","lon":"121.4794","lat":"31.215515","category":"247","category_name":"餐饮美食","address":"上海市 马当路245号114单元"},{"poiid":"B209475DDB64AAFA4399","title":"云南云海肴","lon":"121.479309","lat":"31.217967","category":"247","category_name":"餐饮美食","address":"上海市 新天地兴业路123弄1号楼03单元"},{"poiid":"B2094655D268A6F5419F","title":"延寿里","lon":"121.47906","lat":"31.21607","category":"47","category_name":"住宅区","address":"顺昌路325弄1号"},{"poiid":"B2094757D16FABF4429C","title":"老仓浪亭何师傅羊肉面","lon":"121.476678","lat":"31.216334","category":"247","category_name":"餐饮美食","address":"上海黄彼南路"},{"poiid":"B2094750D664A4FA419A","title":"耳光馄饨","lon":"121.481","lat":"31.216","category":"68","category_name":"快餐厅","address":"黄浦区肇周路209-213号(近合肥路)"},{"poiid":"B2094757D06FA3FC459D","title":"COSTA COFFEE(马当路店)","lon":"121.47564265","lat":"31.2161755734","category":"65","category_name":"咖啡厅","address":"卢湾区马当路245号新天地时尚购物广场L117、L220、L243室(近复兴中路)"},{"poiid":"B2094757D06FA3FF479D","title":"长脚汤面","lon":"121.480717","lat":"31.216623","category":"68","category_name":"快餐厅","address":"卢湾区肇周路166弄弄堂里(近济南路)"},{"poiid":"B2094753D76FAAFA449C","title":"上海滩国泰旗舰店","lon":"121.466011","lat":"31.216125","category":"249","category_name":"购物服务","address":"淮海中路868号"},{"poiid":"B209475CD564A7F84292","title":"上海滩新天地店","lon":"121.47463","lat":"31.22164","category":"119","category_name":"商场","address":"\"太仓路181弄新天地北里15号\r\n\""},{"poiid":"B209475CD564A7F8439E","title":"上海滩中信泰富店","lon":"121.45602","lat":"31.22851","category":"119","category_name":"商场","address":"\"南京西路1168号中信泰富广场，店铺号221.\r\n\""},{"poiid":"B2094757D06FA4F44098","title":"何师傅面馆","lon":"121.47698","lat":"31.21536","category":"68","category_name":"快餐厅","address":"卢湾区黄陂南路618号(近合肥路)"},{"poiid":"B2094757D06FA6F5499C","title":"翠湖天地御苑","lon":"121.47715","lat":"31.21806","category":"47","category_name":"住宅区","address":"黄浦区东门路168号2楼252号(近中华路豫园)"},{"poiid":"B2094757D66AA5FC419D","title":"吴记老锅底麻辣火锅 黄陂南路店","lon":"121.47667530833","lat":"31.216400943765","category":"86","category_name":"火锅店","address":"卢湾区黄陂南路577号(复兴中路合肥路间)"},{"poiid":"B2094757D068A1F94392","title":"新天地南里","lon":"121.48018047","lat":"31.217756111","category":"119","category_name":"商场","address":"上海卢湾区兴业路123弄"},{"poiid":"B2094757D064A3FC4299","title":"POST餐厅","lon":"121.47842","lat":"31.21808","category":"94","category_name":"西餐厅","address":"卢湾区顺昌路168弄翠湖天地10号会所2楼(自忠路)"},{"poiid":"B2094757D06AA6FE469C","title":"新天地style","lon":"121.47919464","lat":"31.214149475","category":"500","category_name":"未知分类","address":"上海复兴中路马当路"},{"poiid":"B2094751D26DABFA459F","title":"新天地摩罗街","lon":"121.479576","lat":"31.217754","category":"500","category_name":"未知分类","address":null},{"poiid":"B2094757D068A1F5429E","title":"顺昌路","lon":"121.478856","lat":"31.214754","category":"500","category_name":"未知分类","address":"上海卢湾区顺昌路"},{"poiid":"B2094750D26FA5F84792","title":"宁静名猫生活馆","lon":"121.480108","lat":"31.217455","category":"260","category_name":"其他","address":"黄浦区西藏南路765号永惠大厦1303室(近方斜路)"},{"poiid":"B2094750D565A1F4469D","title":"CASA700","lon":"121.476936","lat":"31.215234","category":"247","category_name":"餐饮美食","address":"黄陂南路700号"},{"poiid":"B209475DDB64AAFA4193","title":"云南云海肴","lon":"121.479309","lat":"31.217967","category":"247","category_name":"餐饮美食","address":"上海市 新天地兴业路123弄1号楼03单元"},{"poiid":"B2094654DA6DA5FD4599","title":"新电大厦","lon":"121.479","lat":"31.2154","category":"46","category_name":"楼宇","address":"沈河区文化东路8号"},{"poiid":"B209475CD468A1FC4899","title":"大福屋","lon":"121.478874","lat":"31.216972","category":"500","category_name":"未知分类","address":"上海市 上海市卢湾区新天地"},{"poiid":"B209475DDA6DAAFC4698","title":"花蒲甜品","lon":"121.479293","lat":"31.216024","category":"247","category_name":"餐饮美食","address":"上海市 马当路245号新天地时尚1楼107室(自忠路)"},{"poiid":"B2094757DB6FA5FA4798","title":"地铁八号线","lon":"121.4801134782591","lat":"31.21684147290736","category":"500","category_name":"未知分类","address":"陆家浜路站"},{"poiid":"B2094757D068A4F8479B","title":"肯德基 KFC (中华店)","lon":"121.47820043","lat":"31.217946738","category":"68","category_name":"快餐厅","address":"黄浦区中华路1405号(文庙旁)"},{"poiid":"B2094757D069ABF84992","title":"吉旺港式餐厅(虹口龙之梦店)","lon":"121.477626988","lat":"31.2160295975","category":"247","category_name":"餐饮美食","address":"上海虹口区西江湾路388号凯德龙之梦虹口广场A区6层"},{"poiid":"B2094654DB6BA4FB469F","title":"卓维700上海创意产业集聚区","lon":"121.47692","lat":"31.21411","category":"45","category_name":"产业园区","address":"黄陂南路700"},{"poiid":"B2094655D26CA4F84899","title":"星平里(顺昌路)","lon":"121.47879","lat":"31.21668","category":"47","category_name":"住宅区","address":"顺昌路279弄1-78号"},{"poiid":"B2094654DA6EABF54498","title":"翠湖天地","lon":"121.47864","lat":"31.21832","category":"47","category_name":"住宅区","address":"长宁区镇宁路111号"},{"poiid":"B2094757D465A7FE4499","title":"东东砂锅馆","lon":"121.47981","lat":"31.21603","category":"68","category_name":"快餐厅","address":"卢湾区合肥路46号(近肇周路)"},{"poiid":"B2094655D36CA1FF4093","title":"顺昌路复兴中路","lon":"121.47849","lat":"31.21684","category":"38","category_name":"公交车站","address":""},{"poiid":"B2094752D665A2F9439C","title":"韵色","lon":"121.478048","lat":"31.215633","category":"247","category_name":"餐饮美食","address":"方斜路446号"},{"poiid":"B2094654DA6EAAF44099","title":"凹凸大厦","lon":"121.4784","lat":"31.21583","category":"46","category_name":"楼宇","address":"顺昌路330号"},{"poiid":"B2094655D26CA4F9429D","title":"光明邨","lon":"121.47763","lat":"31.2158","category":"47","category_name":"住宅区","address":"合肥路148弄1-83号"},{"poiid":"B2094757DA65A5FB419C","title":"格林豪泰(上海复兴中路新天地快捷酒店)","lon":"121.4786196","lat":"31.21725163","category":"216","category_name":"经济型连锁酒店","address":"上海市黄浦区复兴中路199号（近顺昌路）"},{"poiid":"B209475CD76EA0F44599","title":"威尔士Will's健身会所新天地点","lon":"121.478958","lat":"31.216522","category":"500","category_name":"未知分类","address":"上海市 马当路220号近华府天地"},{"poiid":"B2094655D26FA3F8489F","title":"避风塘街景No.910","lon":"121.47754","lat":"31.21701","category":"66","category_name":"茶艺馆","address":""},{"poiid":"B2094655D26CA4F5439C","title":"成裕里","lon":"121.47797","lat":"31.21684","category":"47","category_name":"住宅区","address":"复兴中路221弄2-42号"},{"poiid":"B2094757D068A4F9489F","title":"BerryBear Frozen Yogurt","lon":"121.479574738","lat":"31.2173970267","category":"113","category_name":"冷饮店","address":"上海卢湾区兴业路123弄新天地南里6号楼3楼327-3单元"},{"poiid":"B2094757D66DAAFF499F","title":"冷馄饨","lon":"121.48063773","lat":"31.215786992","category":"247","category_name":"餐饮美食","address":"上海肇周路"},{"poiid":"B2094751D56DA5FC489F","title":"麟笼坊","lon":"121.477961","lat":"31.217917","category":"247","category_name":"餐饮美食","address":null},{"poiid":"B2094654DB6BA4FF4698","title":"星平里(西三门)","lon":"121.47873","lat":"31.21613","category":"47","category_name":"住宅区","address":"顺昌路313弄7-35号"},{"poiid":"B2094655D268ABFD419A","title":"顺昌路279弄小区(西二门)","lon":"121.4786","lat":"31.21685","category":"47","category_name":"住宅区","address":""},{"poiid":"B2094654DA6FA3FC499D","title":"上海市卢湾区人民法院","lon":"121.47657","lat":"31.21483","category":"608","category_name":"法院","address":"合肥路213"},{"poiid":"B209475CD16EABFC459A","title":"瑞金医院","lon":"121.477035","lat":"31.215791","category":"162","category_name":"医院","address":"上海市 瑞金二路197号"},{"poiid":"B2094757D76AA6FC4192","title":"湘聚缘湘菜馆 黄陂南路店","lon":"121.476572054","lat":"31.216518793","category":"77","category_name":"湖南菜","address":"卢湾区黄陂南路567号(复兴中路口)"},{"poiid":"B2094655D26FA4FA479B","title":"复兴中路239弄小区","lon":"121.47763","lat":"31.21685","category":"47","category_name":"住宅区","address":"复兴中路239弄1-29"},{"poiid":"B2094654DA6EAAFB489E","title":"盛升杂货店","lon":"121.47836","lat":"31.21705","category":"117","category_name":"便民商店/便利店","address":"顺昌路252"},{"poiid":"B2094655D36CA6FF4398","title":"复兴中路黄陂南路","lon":"121.47711","lat":"31.21702","category":"38","category_name":"公交车站","address":""},{"poiid":"B2094454D264A0FF4899","title":"嫩绿茶","lon":"121.4794","lat":"31.215515","category":"247","category_name":"餐饮美食","address":"上海市 马当路245号114单元"},{"poiid":"B209475DDB64AAFA4399","title":"云南云海肴","lon":"121.479309","lat":"31.217967","category":"247","category_name":"餐饮美食","address":"上海市 新天地兴业路123弄1号楼03单元"},{"poiid":"B2094655D268A6F5419F","title":"延寿里","lon":"121.47906","lat":"31.21607","category":"47","category_name":"住宅区","address":"顺昌路325弄1号"},{"poiid":"B2094757D16FABF4429C","title":"老仓浪亭何师傅羊肉面","lon":"121.476678","lat":"31.216334","category":"247","category_name":"餐饮美食","address":"上海黄彼南路"},{"poiid":"B2094750D664A4FA419A","title":"耳光馄饨","lon":"121.481","lat":"31.216","category":"68","category_name":"快餐厅","address":"黄浦区肇周路209-213号(近合肥路)"},{"poiid":"B2094757D06FA3FC459D","title":"COSTA COFFEE(马当路店)","lon":"121.47564265","lat":"31.2161755734","category":"65","category_name":"咖啡厅","address":"卢湾区马当路245号新天地时尚购物广场L117、L220、L243室(近复兴中路)"},{"poiid":"B2094757D06FA3FF479D","title":"长脚汤面","lon":"121.480717","lat":"31.216623","category":"68","category_name":"快餐厅","address":"卢湾区肇周路166弄弄堂里(近济南路)"},{"poiid":"B2094753D76FAAFA449C","title":"上海滩国泰旗舰店","lon":"121.466011","lat":"31.216125","category":"249","category_name":"购物服务","address":"淮海中路868号"},{"poiid":"B209475CD564A7F84292","title":"上海滩新天地店","lon":"121.47463","lat":"31.22164","category":"119","category_name":"商场","address":"\"太仓路181弄新天地北里15号\r\n\""},{"poiid":"B209475CD564A7F8439E","title":"上海滩中信泰富店","lon":"121.45602","lat":"31.22851","category":"119","category_name":"商场","address":"\"南京西路1168号中信泰富广场，店铺号221.\r\n\""},{"poiid":"B2094757D06FA4F44098","title":"何师傅面馆","lon":"121.47698","lat":"31.21536","category":"68","category_name":"快餐厅","address":"卢湾区黄陂南路618号(近合肥路)"},{"poiid":"B2094757D06FA6F5499C","title":"翠湖天地御苑","lon":"121.47715","lat":"31.21806","category":"47","category_name":"住宅区","address":"黄浦区东门路168号2楼252号(近中华路豫园)"},{"poiid":"B2094757D66AA5FC419D","title":"吴记老锅底麻辣火锅 黄陂南路店","lon":"121.47667530833","lat":"31.216400943765","category":"86","category_name":"火锅店","address":"卢湾区黄陂南路577号(复兴中路合肥路间)"},{"poiid":"B2094757D068A1F94392","title":"新天地南里","lon":"121.48018047","lat":"31.217756111","category":"119","category_name":"商场","address":"上海卢湾区兴业路123弄"},{"poiid":"B2094757D064A3FC4299","title":"POST餐厅","lon":"121.47842","lat":"31.21808","category":"94","category_name":"西餐厅","address":"卢湾区顺昌路168弄翠湖天地10号会所2楼(自忠路)"},{"poiid":"B2094757D06AA6FE469C","title":"新天地style","lon":"121.47919464","lat":"31.214149475","category":"500","category_name":"未知分类","address":"上海复兴中路马当路"},{"poiid":"B2094751D26DABFA459F","title":"新天地摩罗街","lon":"121.479576","lat":"31.217754","category":"500","category_name":"未知分类","address":null},{"poiid":"B2094757D068A1F5429E","title":"顺昌路","lon":"121.478856","lat":"31.214754","category":"500","category_name":"未知分类","address":"上海卢湾区顺昌路"},{"poiid":"B2094750D26FA5F84792","title":"宁静名猫生活馆","lon":"121.480108","lat":"31.217455","category":"260","category_name":"其他","address":"黄浦区西藏南路765号永惠大厦1303室(近方斜路)"},{"poiid":"B2094750D565A1F4469D","title":"CASA700","lon":"121.476936","lat":"31.215234","category":"247","category_name":"餐饮美食","address":"黄陂南路700号"},{"poiid":"B209475DDB64AAFA4193","title":"云南云海肴","lon":"121.479309","lat":"31.217967","category":"247","category_name":"餐饮美食","address":"上海市 新天地兴业路123弄1号楼03单元"},{"poiid":"B2094654DA6DA5FD4599","title":"新电大厦","lon":"121.479","lat":"31.2154","category":"46","category_name":"楼宇","address":"沈河区文化东路8号"},{"poiid":"B209475CD468A1FC4899","title":"大福屋","lon":"121.478874","lat":"31.216972","category":"500","category_name":"未知分类","address":"上海市 上海市卢湾区新天地"},{"poiid":"B209475DDA6DAAFC4698","title":"花蒲甜品","lon":"121.479293","lat":"31.216024","category":"247","category_name":"餐饮美食","address":"上海市 马当路245号新天地时尚1楼107室(自忠路)"},{"poiid":"B2094757DB6FA5FA4798","title":"地铁八号线","lon":"121.4801134782591","lat":"31.21684147290736","category":"500","category_name":"未知分类","address":"陆家浜路站"},{"poiid":"B2094757D068A4F8479B","title":"肯德基 KFC (中华店)","lon":"121.47820043","lat":"31.217946738","category":"68","category_name":"快餐厅","address":"黄浦区中华路1405号(文庙旁)"},{"poiid":"B2094757D069ABF84992","title":"吉旺港式餐厅(虹口龙之梦店)","lon":"121.477626988","lat":"31.2160295975","category":"247","category_name":"餐饮美食","address":"上海虹口区西江湾路388号凯德龙之梦虹口广场A区6层"},{"poiid":"B2094654DB6BA4FB469F","title":"卓维700上海创意产业集聚区","lon":"121.47692","lat":"31.21411","category":"45","category_name":"产业园区","address":"黄陂南路700"},{"poiid":"B2094655D26CA4F84899","title":"星平里(顺昌路)","lon":"121.47879","lat":"31.21668","category":"47","category_name":"住宅区","address":"顺昌路279弄1-78号"},{"poiid":"B2094654DA6EABF54498","title":"翠湖天地","lon":"121.47864","lat":"31.21832","category":"47","category_name":"住宅区","address":"长宁区镇宁路111号"},{"poiid":"B2094757D465A7FE4499","title":"东东砂锅馆","lon":"121.47981","lat":"31.21603","category":"68","category_name":"快餐厅","address":"卢湾区合肥路46号(近肇周路)"},{"poiid":"B2094655D36CA1FF4093","title":"顺昌路复兴中路","lon":"121.47849","lat":"31.21684","category":"38","category_name":"公交车站","address":""},{"poiid":"B2094752D665A2F9439C","title":"韵色","lon":"121.478048","lat":"31.215633","category":"247","category_name":"餐饮美食","address":"方斜路446号"},{"poiid":"B2094654DA6EAAF44099","title":"凹凸大厦","lon":"121.4784","lat":"31.21583","category":"46","category_name":"楼宇","address":"顺昌路330号"},{"poiid":"B2094655D26CA4F9429D","title":"光明邨","lon":"121.47763","lat":"31.2158","category":"47","category_name":"住宅区","address":"合肥路148弄1-83号"},{"poiid":"B2094757DA65A5FB419C","title":"格林豪泰(上海复兴中路新天地快捷酒店)","lon":"121.4786196","lat":"31.21725163","category":"216","category_name":"经济型连锁酒店","address":"上海市黄浦区复兴中路199号（近顺昌路）"},{"poiid":"B209475CD76EA0F44599","title":"威尔士Will's健身会所新天地点","lon":"121.478958","lat":"31.216522","category":"500","category_name":"未知分类","address":"上海市 马当路220号近华府天地"},{"poiid":"B2094655D26FA3F8489F","title":"避风塘街景No.910","lon":"121.47754","lat":"31.21701","category":"66","category_name":"茶艺馆","address":""},{"poiid":"B2094655D26CA4F5439C","title":"成裕里","lon":"121.47797","lat":"31.21684","category":"47","category_name":"住宅区","address":"复兴中路221弄2-42号"},{"poiid":"B2094757D068A4F9489F","title":"BerryBear Frozen Yogurt","lon":"121.479574738","lat":"31.2173970267","category":"113","category_name":"冷饮店","address":"上海卢湾区兴业路123弄新天地南里6号楼3楼327-3单元"},{"poiid":"B2094757D66DAAFF499F","title":"冷馄饨","lon":"121.48063773","lat":"31.215786992","category":"247","category_name":"餐饮美食","address":"上海肇周路"},{"poiid":"B2094751D56DA5FC489F","title":"麟笼坊","lon":"121.477961","lat":"31.217917","category":"247","category_name":"餐饮美食","address":null},{"poiid":"B2094654DB6BA4FF4698","title":"星平里(西三门)","lon":"121.47873","lat":"31.21613","category":"47","category_name":"住宅区","address":"顺昌路313弄7-35号"},{"poiid":"B2094655D268ABFD419A","title":"顺昌路279弄小区(西二门)","lon":"121.4786","lat":"31.21685","category":"47","category_name":"住宅区","address":""},{"poiid":"B2094654DA6FA3FC499D","title":"上海市卢湾区人民法院","lon":"121.47657","lat":"31.21483","category":"608","category_name":"法院","address":"合肥路213"},{"poiid":"B209475CD16EABFC459A","title":"瑞金医院","lon":"121.477035","lat":"31.215791","category":"162","category_name":"医院","address":"上海市 瑞金二路197号"},{"poiid":"B2094757D76AA6FC4192","title":"湘聚缘湘菜馆 黄陂南路店","lon":"121.476572054","lat":"31.216518793","category":"77","category_name":"湖南菜","address":"卢湾区黄陂南路567号(复兴中路口)"},{"poiid":"B2094655D26FA4FA479B","title":"复兴中路239弄小区","lon":"121.47763","lat":"31.21685","category":"47","category_name":"住宅区","address":"复兴中路239弄1-29"},{"poiid":"B2094654DA6EAAFB489E","title":"盛升杂货店","lon":"121.47836","lat":"31.21705","category":"117","category_name":"便民商店/便利店","address":"顺昌路252"},{"poiid":"B2094655D36CA6FF4398","title":"复兴中路黄陂南路","lon":"121.47711","lat":"31.21702","category":"38","category_name":"公交车站","address":""},{"poiid":"B2094454D264A0FF4899","title":"嫩绿茶","lon":"121.4794","lat":"31.215515","category":"247","category_name":"餐饮美食","address":"上海市 马当路245号114单元"},{"poiid":"B209475DDB64AAFA4399","title":"云南云海肴","lon":"121.479309","lat":"31.217967","category":"247","category_name":"餐饮美食","address":"上海市 新天地兴业路123弄1号楼03单元"},{"poiid":"B2094655D268A6F5419F","title":"延寿里","lon":"121.47906","lat":"31.21607","category":"47","category_name":"住宅区","address":"顺昌路325弄1号"},{"poiid":"B2094757D16FABF4429C","title":"老仓浪亭何师傅羊肉面","lon":"121.476678","lat":"31.216334","category":"247","category_name":"餐饮美食","address":"上海黄彼南路"},{"poiid":"B2094750D664A4FA419A","title":"耳光馄饨","lon":"121.481","lat":"31.216","category":"68","category_name":"快餐厅","address":"黄浦区肇周路209-213号(近合肥路)"},{"poiid":"B2094757D06FA3FC459D","title":"COSTA COFFEE(马当路店)","lon":"121.47564265","lat":"31.2161755734","category":"65","category_name":"咖啡厅","address":"卢湾区马当路245号新天地时尚购物广场L117、L220、L243室(近复兴中路)"},{"poiid":"B2094757D06FA3FF479D","title":"长脚汤面","lon":"121.480717","lat":"31.216623","category":"68","category_name":"快餐厅","address":"卢湾区肇周路166弄弄堂里(近济南路)"},{"poiid":"B2094753D76FAAFA449C","title":"上海滩国泰旗舰店","lon":"121.466011","lat":"31.216125","category":"249","category_name":"购物服务","address":"淮海中路868号"},{"poiid":"B209475CD564A7F84292","title":"上海滩新天地店","lon":"121.47463","lat":"31.22164","category":"119","category_name":"商场","address":"\"太仓路181弄新天地北里15号\r\n\""},{"poiid":"B209475CD564A7F8439E","title":"上海滩中信泰富店","lon":"121.45602","lat":"31.22851","category":"119","category_name":"商场","address":"\"南京西路1168号中信泰富广场，店铺号221.\r\n\""},{"poiid":"B2094757D06FA4F44098","title":"何师傅面馆","lon":"121.47698","lat":"31.21536","category":"68","category_name":"快餐厅","address":"卢湾区黄陂南路618号(近合肥路)"},{"poiid":"B2094757D06FA6F5499C","title":"翠湖天地御苑","lon":"121.47715","lat":"31.21806","category":"47","category_name":"住宅区","address":"黄浦区东门路168号2楼252号(近中华路豫园)"},{"poiid":"B2094757D66AA5FC419D","title":"吴记老锅底麻辣火锅 黄陂南路店","lon":"121.47667530833","lat":"31.216400943765","category":"86","category_name":"火锅店","address":"卢湾区黄陂南路577号(复兴中路合肥路间)"},{"poiid":"B2094757D068A1F94392","title":"新天地南里","lon":"121.48018047","lat":"31.217756111","category":"119","category_name":"商场","address":"上海卢湾区兴业路123弄"},{"poiid":"B2094757D064A3FC4299","title":"POST餐厅","lon":"121.47842","lat":"31.21808","category":"94","category_name":"西餐厅","address":"卢湾区顺昌路168弄翠湖天地10号会所2楼(自忠路)"},{"poiid":"B2094757D06AA6FE469C","title":"新天地style","lon":"121.47919464","lat":"31.214149475","category":"500","category_name":"未知分类","address":"上海复兴中路马当路"},{"poiid":"B2094751D26DABFA459F","title":"新天地摩罗街","lon":"121.479576","lat":"31.217754","category":"500","category_name":"未知分类","address":null},{"poiid":"B2094757D068A1F5429E","title":"顺昌路","lon":"121.478856","lat":"31.214754","category":"500","category_name":"未知分类","address":"上海卢湾区顺昌路"},{"poiid":"B2094750D26FA5F84792","title":"宁静名猫生活馆","lon":"121.480108","lat":"31.217455","category":"260","category_name":"其他","address":"黄浦区西藏南路765号永惠大厦1303室(近方斜路)"},{"poiid":"B2094750D565A1F4469D","title":"CASA700","lon":"121.476936","lat":"31.215234","category":"247","category_name":"餐饮美食","address":"黄陂南路700号"},{"poiid":"B209475DDB64AAFA4193","title":"云南云海肴","lon":"121.479309","lat":"31.217967","category":"247","category_name":"餐饮美食","address":"上海市 新天地兴业路123弄1号楼03单元"},{"poiid":"B2094654DA6DA5FD4599","title":"新电大厦","lon":"121.479","lat":"31.2154","category":"46","category_name":"楼宇","address":"沈河区文化东路8号"},{"poiid":"B209475CD468A1FC4899","title":"大福屋","lon":"121.478874","lat":"31.216972","category":"500","category_name":"未知分类","address":"上海市 上海市卢湾区新天地"},{"poiid":"B209475DDA6DAAFC4698","title":"花蒲甜品","lon":"121.479293","lat":"31.216024","category":"247","category_name":"餐饮美食","address":"上海市 马当路245号新天地时尚1楼107室(自忠路)"},{"poiid":"B2094757DB6FA5FA4798","title":"地铁八号线","lon":"121.4801134782591","lat":"31.21684147290736","category":"500","category_name":"未知分类","address":"陆家浜路站"},{"poiid":"B2094757D068A4F8479B","title":"肯德基 KFC (中华店)","lon":"121.47820043","lat":"31.217946738","category":"68","category_name":"快餐厅","address":"黄浦区中华路1405号(文庙旁)"},{"poiid":"B2094757D069ABF84992","title":"吉旺港式餐厅(虹口龙之梦店)","lon":"121.477626988","lat":"31.2160295975","category":"247","category_name":"餐饮美食","address":"上海虹口区西江湾路388号凯德龙之梦虹口广场A区6层"},{"poiid":"B2094654DB6BA4FB469F","title":"卓维700上海创意产业集聚区","lon":"121.47692","lat":"31.21411","category":"45","category_name":"产业园区","address":"黄陂南路700"},{"poiid":"B2094655D26CA4F84899","title":"星平里(顺昌路)","lon":"121.47879","lat":"31.21668","category":"47","category_name":"住宅区","address":"顺昌路279弄1-78号"},{"poiid":"B2094654DA6EABF54498","title":"翠湖天地","lon":"121.47864","lat":"31.21832","category":"47","category_name":"住宅区","address":"长宁区镇宁路111号"},{"poiid":"B2094757D465A7FE4499","title":"东东砂锅馆","lon":"121.47981","lat":"31.21603","category":"68","category_name":"快餐厅","address":"卢湾区合肥路46号(近肇周路)"},{"poiid":"B2094655D36CA1FF4093","title":"顺昌路复兴中路","lon":"121.47849","lat":"31.21684","category":"38","category_name":"公交车站","address":""},{"poiid":"B2094752D665A2F9439C","title":"韵色","lon":"121.478048","lat":"31.215633","category":"247","category_name":"餐饮美食","address":"方斜路446号"},{"poiid":"B2094654DA6EAAF44099","title":"凹凸大厦","lon":"121.4784","lat":"31.21583","category":"46","category_name":"楼宇","address":"顺昌路330号"},{"poiid":"B2094655D26CA4F9429D","title":"光明邨","lon":"121.47763","lat":"31.2158","category":"47","category_name":"住宅区","address":"合肥路148弄1-83号"},{"poiid":"B2094757DA65A5FB419C","title":"格林豪泰(上海复兴中路新天地快捷酒店)","lon":"121.4786196","lat":"31.21725163","category":"216","category_name":"经济型连锁酒店","address":"上海市黄浦区复兴中路199号（近顺昌路）"},{"poiid":"B209475CD76EA0F44599","title":"威尔士Will's健身会所新天地点","lon":"121.478958","lat":"31.216522","category":"500","category_name":"未知分类","address":"上海市 马当路220号近华府天地"},{"poiid":"B2094655D26FA3F8489F","title":"避风塘街景No.910","lon":"121.47754","lat":"31.21701","category":"66","category_name":"茶艺馆","address":""},{"poiid":"B2094655D26CA4F5439C","title":"成裕里","lon":"121.47797","lat":"31.21684","category":"47","category_name":"住宅区","address":"复兴中路221弄2-42号"},{"poiid":"B2094757D068A4F9489F","title":"BerryBear Frozen Yogurt","lon":"121.479574738","lat":"31.2173970267","category":"113","category_name":"冷饮店","address":"上海卢湾区兴业路123弄新天地南里6号楼3楼327-3单元"},{"poiid":"B2094757D66DAAFF499F","title":"冷馄饨","lon":"121.48063773","lat":"31.215786992","category":"247","category_name":"餐饮美食","address":"上海肇周路"},{"poiid":"B2094751D56DA5FC489F","title":"麟笼坊","lon":"121.477961","lat":"31.217917","category":"247","category_name":"餐饮美食","address":null},{"poiid":"B2094654DB6BA4FF4698","title":"星平里(西三门)","lon":"121.47873","lat":"31.21613","category":"47","category_name":"住宅区","address":"顺昌路313弄7-35号"},{"poiid":"B2094655D268ABFD419A","title":"顺昌路279弄小区(西二门)","lon":"121.4786","lat":"31.21685","category":"47","category_name":"住宅区","address":""},{"poiid":"B2094654DA6FA3FC499D","title":"上海市卢湾区人民法院","lon":"121.47657","lat":"31.21483","category":"608","category_name":"法院","address":"合肥路213"},{"poiid":"B209475CD16EABFC459A","title":"瑞金医院","lon":"121.477035","lat":"31.215791","category":"162","category_name":"医院","address":"上海市 瑞金二路197号"},{"poiid":"B2094757D76AA6FC4192","title":"湘聚缘湘菜馆 黄陂南路店","lon":"121.476572054","lat":"31.216518793","category":"77","category_name":"湖南菜","address":"卢湾区黄陂南路567号(复兴中路口)"},{"poiid":"B2094655D26FA4FA479B","title":"复兴中路239弄小区","lon":"121.47763","lat":"31.21685","category":"47","category_name":"住宅区","address":"复兴中路239弄1-29"},{"poiid":"B2094654DA6EAAFB489E","title":"盛升杂货店","lon":"121.47836","lat":"31.21705","category":"117","category_name":"便民商店/便利店","address":"顺昌路252"},{"poiid":"B2094655D36CA6FF4398","title":"复兴中路黄陂南路","lon":"121.47711","lat":"31.21702","category":"38","category_name":"公交车站","address":""},{"poiid":"B2094454D264A0FF4899","title":"嫩绿茶","lon":"121.4794","lat":"31.215515","category":"247","category_name":"餐饮美食","address":"上海市 马当路245号114单元"},{"poiid":"B209475DDB64AAFA4399","title":"云南云海肴","lon":"121.479309","lat":"31.217967","category":"247","category_name":"餐饮美食","address":"上海市 新天地兴业路123弄1号楼03单元"},{"poiid":"B2094655D268A6F5419F","title":"延寿里","lon":"121.47906","lat":"31.21607","category":"47","category_name":"住宅区","address":"顺昌路325弄1号"},{"poiid":"B2094757D16FABF4429C","title":"老仓浪亭何师傅羊肉面","lon":"121.476678","lat":"31.216334","category":"247","category_name":"餐饮美食","address":"上海黄彼南路"}]