[{"poiid":"B2094757D06FA2F84299","title":"Wagas沃歌斯(金桥国际广场店)","lon":"121.58569335","lat":"31.252571106","category":"94","category_name":"西餐厅","address":"浦东新区张杨路3611号金桥国际商业广场(金桥路张杨路)"},{"poiid":"B2094757D068A2FC499D","title":"金杨新村","lon":"121.580062","lat":"31.249486","category":"252","category_name":"楼宇机构","address":"上海金杨路枣庄路"},{"poiid":"B2094654D568A0FB4798","title":"兰州拉面金杨拉面王","lon":"121.57984","lat":"31.24853","category":"68","category_name":"快餐厅","address":"浦东新区金杨路460号(近金口路)"},{"poiid":"B2094757D069A7F8499C","title":"陆行中学","lon":"121.5868","lat":"31.25336","category":"55","category_name":"中学","address":"上海浦东新区金桥路1288号"},{"poiid":"B2094757D06FA6F54399","title":"肯德基 KFC (金杨店)","lon":"121.580584","lat":"31.249445","category":"500","category_name":"未知分类","address":"浦东新区金杨路524号(近枣庄路)"},{"poiid":"B2094757D069A4F84292","title":"骏莱海鲜","lon":"121.5871744","lat":"31.253618245","category":"247","category_name":"餐饮美食","address":"上海金桥路1379号"},{"poiid":"B2094757D068A7FC4698","title":"大富贵酒楼(金杨店)","lon":"121.58217","lat":"31.25082","category":"76","category_name":"上海菜","address":"浦东新区金杨路635号(近枣庄路)"},{"poiid":"B2094655D26DABFE449C","title":"金杨路商业街(金杨路)","lon":"121.58482","lat":"31.25505","category":"116","category_name":"特色商业街","address":""},{"poiid":"B2094757D16BAAFE4593","title":"金台路","lon":"121.58593633","lat":"31.2501258","category":"500","category_name":"未知分类","address":"上海市浦东新区金杨路"},{"poiid":"B2094655D26CA7F8479B","title":"瑞亚·臻品酒店","lon":"121.58742","lat":"31.25276","category":"250","category_name":"公园户外","address":"上海市浦东新区金桥路1388号(近金台路)"},{"poiid":"B2094757D069A1FD459F","title":"爱金华鱼头汤 金桥店","lon":"121.58592147378","lat":"31.254573735846","category":"76","category_name":"上海菜","address":"浦东新区金桥路1258号(近金杨路)"},{"poiid":"B2094757D06FA2FF469A","title":"金桥路金台路","lon":"121.5884957","lat":"31.2523508","category":"260","category_name":"其他","address":"上海浦东新区金桥路金台路"},{"poiid":"B2094655D36CA0FE419C","title":"金杨路枣庄路","lon":"121.58121","lat":"31.25098","category":"38","category_name":"公交车站","address":"上海金杨路枣庄路金桥路"},{"poiid":"B2094654D568A6FB439F","title":"哈尔滨人家 金台路店","lon":"121.58527758954","lat":"31.249521136892","category":"82","category_name":"东北菜","address":"浦东新区金台路136号(近枣庄路)"},{"poiid":"B2094757D468A3FE409C","title":"唐城酒楼","lon":"121.58792","lat":"31.252148","category":"76","category_name":"上海菜","address":"浦东新区金台路201号(近金桥路)"},{"poiid":"B2094654D568A6FA459A","title":"金杨十街坊","lon":"121.58266","lat":"31.251093","category":"47","category_name":"住宅区","address":"金杨路660弄"},{"poiid":"B2094757D06FA5F84499","title":"85度C(金杨店)","lon":"121.57983033","lat":"31.248967773","category":"112","category_name":"糕饼店","address":"浦东新区金杨路483号1楼"},{"poiid":"B2094750DB6EA6F9439D","title":"红宝石金杨店","lon":"121.581665","lat":"31.248418","category":"67","category_name":"甜品店","address":"浦东新区金杨路486号(近枣庄路)"},{"poiid":"B2094757D069AAF44993","title":"格力特健身中心","lon":"121.58154","lat":"31.25021","category":"148","category_name":"美容美发店","address":"浦东新区金杨路628号家得利超市3楼(近枣庄路)"},{"poiid":"B2094757D064A1F9459B","title":"缘品火锅坊","lon":"121.58073","lat":"31.24992","category":"86","category_name":"火锅店","address":"浦东新区金杨路558号(近枣庄路)"},{"poiid":"B2094654D568A6F9459A","title":"绍兴家园(枣庄路)","lon":"121.58283","lat":"31.24895","category":"47","category_name":"住宅区","address":"浦东新区枣庄路903号(近金台路)"},{"poiid":"B2094757D165A3F5419F","title":"王老家饭店","lon":"121.582391339","lat":"31.2491507779","category":"247","category_name":"餐饮美食","address":"浦东新区枣庄路(近金台路)"},{"poiid":"B2094757D16AA4FD4498","title":"碧悦城市酒店","lon":"121.58781833","lat":"31.252270849","category":"217","category_name":"旅馆招待所","address":"上海市浦东新区金台路222号(近金桥路)"},{"poiid":"B2094654D568A6F84099","title":"唐朝酒楼","lon":"121.58792","lat":"31.25214","category":"70","category_name":"综合酒楼","address":"金台路201"},{"poiid":"B2094655D26DAAF4419E","title":"上海市陆行中学南校","lon":"121.58531","lat":"31.24925","category":"55","category_name":"中学","address":"金台路96"},{"poiid":"B2094654D568A6FA4999","title":"快客No.6108","lon":"121.58532","lat":"31.24991","category":"117","category_name":"便民商店/便利店","address":"金台路117"},{"poiid":"B2094654D568A6FA4792","title":"得壹宠物俱乐部","lon":"121.58475","lat":"31.24943","category":"162","category_name":"医院","address":"金台路79"},{"poiid":"B2094757D164A0FF4392","title":"重庆谢记麻辣烫","lon":"121.582626339","lat":"31.2523888523","category":"68","category_name":"快餐厅","address":"浦东新区金杨路686号"},{"poiid":"B2094654DB6BA1FE429F","title":"招商银行上海金桥支行","lon":"121.58791","lat":"31.2523","category":"150","category_name":"银行","address":"浦东新区金桥路1398号(近金台路)"},{"poiid":"B2094655D26DA4FA469B","title":"风兆公寓","lon":"121.58374","lat":"31.24916","category":"47","category_name":"住宅区","address":""},{"poiid":"B2094654D568A6FB4393","title":"克丽缇娜(金台路)","lon":"121.58582","lat":"31.24987","category":"148","category_name":"美容美发店","address":"浦东新区金台路116号(近金桥路)"},{"poiid":"B2094757D064A7FF4793","title":"新亚大包(金杨店)","lon":"121.58026","lat":"31.25067","category":"68","category_name":"快餐厅","address":"浦东新区枣庄路765号(近金杨路)"},{"poiid":"B2094757D569A3FC4399","title":"吴氏小龙虾摊","lon":"121.58209","lat":"31.25177306","category":"68","category_name":"快餐厅","address":"浦东新区金杨路672号中国银行旁(近枣庄路)"},{"poiid":"B2094654D568A6FB409F","title":"名角女士生活馆No.0189(金台路)","lon":"121.58567","lat":"31.25023","category":"148","category_name":"美容美发店","address":"浦东新区金台路131号(近金桥路)"},{"poiid":"B2094757D568ABFD4793","title":"勿忘我兰州拉面","lon":"121.5816306","lat":"31.25114667","category":"68","category_name":"快餐厅","address":"浦东新区金杨路650号(近枣庄路)"},{"poiid":"B2094757D164A5FB499D","title":"苹果园(金杨路店)","lon":"121.58141","lat":"31.25001","category":"117","category_name":"便民商店/便利店","address":"浦东新区金杨路277号(近金口路)"},{"poiid":"B2094757D569A0F44392","title":"仇记特色小锅锅贴","lon":"121.58209","lat":"31.25177306","category":"68","category_name":"快餐厅","address":"浦东新区金杨路672号中国银行旁(近枣庄路)"},{"poiid":"B2094654D568A6FA469E","title":"春江烟杂商店","lon":"121.58416","lat":"31.24893","category":"117","category_name":"便民商店/便利店","address":""},{"poiid":"B2094655D26DA5FE459E","title":"好德便利No.536","lon":"121.58579","lat":"31.24985","category":"117","category_name":"便民商店/便利店","address":"金台路114"},{"poiid":"B2094757D169A4FA459D","title":"金杨第一商城","lon":"121.58145","lat":"31.24986","category":"119","category_name":"商场","address":"浦东新区金杨路618号(近枣庄路)"},{"poiid":"B2094654D568A6F9459D","title":"寇记东北人家","lon":"121.58358","lat":"31.24854","category":"82","category_name":"东北菜","address":"枣庄路957"},{"poiid":"B2094757D06BA2F84893","title":"泰煌鸡(银山路店)","lon":"121.58432","lat":"31.24564","category":"68","category_name":"快餐厅","address":"浦东新区银山路352号(近枣庄路)"},{"poiid":"B2094655D26FA6FD449E","title":"浦东新区青少年活动中心","lon":"121.583","lat":"31.24819","category":"188","category_name":"文化宫","address":"浦东新区枣庄路998弄1号(近金台路)"},{"poiid":"B2094654DB6AA6FF4598","title":"上海城中园酒店","lon":"121.58831","lat":"31.25125","category":"214","category_name":"四星级宾馆","address":"金桥路1480号城中园酒店金台金桥路口"},{"poiid":"B2094757D66EA0FA4792","title":"吉阿婆(金台店)","lon":"121.584752","lat":"31.249429","category":"500","category_name":"未知分类","address":"上海金台路79號"},{"poiid":"B2094654D568A6F94698","title":"迪亚天天No.5144","lon":"121.58381","lat":"31.24869","category":"117","category_name":"便民商店/便利店","address":"金台路15"},{"poiid":"B2094654D568A0FB4498","title":"金杨新村七街坊(四号门)","lon":"121.58351","lat":"31.24793","category":"47","category_name":"住宅区","address":"枣庄路998弄1-31号"},{"poiid":"B2094654DB6BA1FE449D","title":"浦东青年公寓","lon":"121.58484","lat":"31.248003","category":"47","category_name":"住宅区","address":"浦东新区枣庄路1029弄(金台路口)"},{"poiid":"B2094655D26DA0FE469C","title":"金杨八街坊","lon":"121.5847","lat":"31.24563","category":"47","category_name":"住宅区","address":"银山路370弄2-7号"},{"poiid":"B2094655D36DA7FC499E","title":"枣庄路银山路","lon":"121.58462","lat":"31.24756","category":"38","category_name":"公交车站","address":""},{"poiid":"B2094757D06FA2F84299","title":"Wagas沃歌斯(金桥国际广场店)","lon":"121.58569335","lat":"31.252571106","category":"94","category_name":"西餐厅","address":"浦东新区张杨路3611号金桥国际商业广场(金桥路张杨路)"},{"poiid":"B2094757D068A2FC499D","title":"金杨新村","lon":"121.580062","lat":"31.249486","category":"252","category_name":"楼宇机构","address":"上海金杨路枣庄路"},{"poiid":"B2094654D568A0FB4798","title":"兰州拉面金杨拉面王","lon":"121.57984","lat":"31.24853","category":"68","category_name":"快餐厅","address":"浦东新区金杨路460号(近金口路)"},{"poiid":"B2094757D069A7F8499C","title":"陆行中学","lon":"121.5868","lat":"31.25336","category":"55","category_name":"中学","address":"上海浦东新区金桥路1288号"},{"poiid":"B2094757D06FA6F54399","title":"肯德基 KFC (金杨店)","lon":"121.580584","lat":"31.249445","category":"500","category_name":"未知分类","address":"浦东新区金杨路524号(近枣庄路)"},{"poiid":"B2094757D069A4F84292","title":"骏莱海鲜","lon":"121.5871744","lat":"31.253618245","category":"247","category_name":"餐饮美食","address":"上海金桥路1379号"},{"poiid":"B2094757D068A7FC4698","title":"大富贵酒楼(金杨店)","lon":"121.58217","lat":"31.25082","category":"76","category_name":"上海菜","address":"浦东新区金杨路635号(近枣庄路)"},{"poiid":"B2094655D26DABFE449C","title":"金杨路商业街(金杨路)","lon":"121.58482","lat":"31.25505","category":"116","category_name":"特色商业街","address":""},{"poiid":"B2094757D16BAAFE4593","title":"金台路","lon":"121.58593633","lat":"31.2501258","category":"500","category_name":"未知分类","address":"上海市浦东新区金杨路"},{"poiid":"B2094655D26CA7F8479B","title":"瑞亚·臻品酒店","lon":"121.58742","lat":"31.25276","category":"250","category_name":"公园户外","address":"上海市浦东新区金桥路1388号(近金台路)"},{"poiid":"B2094757D069A1FD459F","title":"爱金华鱼头汤 金桥店","lon":"121.58592147378","lat":"31.254573735846","category":"76","category_name":"上海菜","address":"浦东新区金桥路1258号(近金杨路)"},{"poiid":"B2094757D06FA2FF469A","title":"金桥路金台路","lon":"121.5884957","lat":"31.2523508","category":"260","category_name":"其他","address":"上海浦东新区金桥路金台路"},{"poiid":"B2094655D36CA0FE419C","title":"金杨路枣庄路","lon":"121.58121","lat":"31.25098","category":"38","category_name":"公交车站","address":"上海金杨路枣庄路金桥路"},{"poiid":"B2094654D568A6FB439F","title":"哈尔滨人家 金台路店","lon":"121.58527758954","lat":"31.249521136892","category":"82","category_name":"东北菜","address":"浦东新区金台路136号(近枣庄路)"},{"poiid":"B2094757D468A3FE409C","title":"唐城酒楼","lon":"121.58792","lat":"31.252148","category":"76","category_name":"上海菜","address":"浦东新区金台路201号(近金桥路)"},{"poiid":"B2094654D568A6FA459A","title":"金杨十街坊","lon":"121.58266","lat":"31.251093","category":"47","category_name":"住宅区","address":"金杨路660弄"},{"poiid":"B2094757D06FA5F84499","title":"85度C(金杨店)","lon":"121.57983033","lat":"31.248967773","category":"112","category_name":"糕饼店","address":"浦东新区金杨路483号1楼"},{"poiid":"B2094750DB6EA6F9439D","title":"红宝石金杨店","lon":"121.581665","lat":"31.248418","category":"67","category_name":"甜品店","address":"浦东新区金杨路486号(近枣庄路)"},{"poiid":"B2094757D069AAF44993","title":"格力特健身中心","lon":"121.58154","lat":"31.25021","category":"148","category_name":"美容美发店","address":"浦东新区金杨路628号家得利超市3楼(近枣庄路)"},{"poiid":"B2094757D064A1F9459B","title":"缘品火锅坊","lon":"121.58073","lat":"31.24992","category":"86","category_name":"火锅店","address":"浦东新区金杨路558号(近枣庄路)"},{"poiid":"B2094654D568A6F9459A","title":"绍兴家园(枣庄路)","lon":"121.58283","lat":"31.24895","category":"47","category_name":"住宅区","address":"浦东新区枣庄路903号(近金台路)"},{"poiid":"B2094757D165A3F5419F","title":"王老家饭店","lon":"121.582391339","lat":"31.2491507779","category":"247","category_name":"餐饮美食","address":"浦东新区枣庄路(近金台路)"},{"poiid":"B2094757D16AA4FD4498","title":"碧悦城市酒店","lon":"121.58781833","lat":"31.252270849","category":"217","category_name":"旅馆招待所","address":"上海市浦东新区金台路222号(近金桥路)"},{"poiid":"B2094654D568A6F84099","title":"唐朝酒楼","lon":"121.58792","lat":"31.25214","category":"70","category_name":"综合酒楼","address":"金台路201"},{"poiid":"B2094655D26DAAF4419E","title":"上海市陆行中学南校","lon":"121.58531","lat":"31.24925","category":"55","category_name":"中学","address":"金台路96"},{"poiid":"B2094654D568A6FA4999","title":"快客No.6108","lon":"121.58532","lat":"31.24991","category":"117","category_name":"便民商店/便利店","address":"金台路117"},{"poiid":"B2094654D568A6FA4792","title":"得壹宠物俱乐部","lon":"121.58475","lat":"31.24943","category":"162","category_name":"医院","address":"金台路79"},{"poiid":"B2094757D164A0FF4392","title":"重庆谢记麻辣烫","lon":"121.582626339","lat":"31.2523888523","category":"68","category_name":"快餐厅","address":"浦东新区金杨路686号"},{"poiid":"B2094654DB6BA1FE429F","title":"招商银行上海金桥支行","lon":"121.58791","lat":"31.2523","category":"150","category_name":"银行","address":"浦东新区金桥路1398号(近金台路)"},{"poiid":"B2094655D26DA4FA469B","title":"风兆公寓","lon":"121.58374","lat":"31.24916","category":"47","category_name":"住宅区","address":""},{"poiid":"B2094654D568A6FB4393","title":"克丽缇娜(金台路)","lon":"121.58582","lat":"31.24987","category":"148","category_name":"美容美发店","address":"浦东新区金台路116号(近金桥路)"},{"poiid":"B2094757D064A7FF4793","title":"新亚大包(金杨店)","lon":"121.58026","lat":"31.25067","category":"68","category_name":"快餐厅","address":"浦东新区枣庄路765号(近金杨路)"},{"poiid":"B2094757D569A3FC4399","title":"吴氏小龙虾摊","lon":"121.58209","lat":"31.25177306","category":"68","category_name":"快餐厅","address":"浦东新区金杨路672号中国银行旁(近枣庄路)"},{"poiid":"B2094654D568A6FB409F","title":"名角女士生活馆No.0189(金台路)","lon":"121.58567","lat":"31.25023","category":"148","category_name":"美容美发店","address":"浦东新区金台路131号(近金桥路)"},{"poiid":"B2094757D568ABFD4793","title":"勿忘我兰州拉面","lon":"121.5816306","lat":"31.25114667","category":"68","category_name":"快餐厅","address":"浦东新区金杨路650号(近枣庄路)"},{"poiid":"B2094757D164A5FB499D","title":"苹果园(金杨路店)","lon":"121.58141","lat":"31.25001","category":"117","category_name":"便民商店/便利店","address":"浦东新区金杨路277号(近金口路)"},{"poiid":"B2094757D569A0F44392","title":"仇记特色小锅锅贴","lon":"121.58209","lat":"31.25177306","category":"68","category_name":"快餐厅","address":"浦东新区金杨路672号中国银行旁(近枣庄路)"},{"poiid":"B2094654D568A6FA469E","title":"春江烟杂商店","lon":"121.58416","lat":"31.24893","category":"117","category_name":"便民商店/便利店","address":""},{"poiid":"B2094655D26DA5FE459E","title":"好德便利No.536","lon":"121.58579","lat":"31.24985","category":"117","category_name":"便民商店/便利店","address":"金台路114"},{"poiid":"B2094757D169A4FA459D","title":"金杨第一商城","lon":"121.58145","lat":"31.24986","category":"119","category_name":"商场","address":"浦东新区金杨路618号(近枣庄路)"},{"poiid":"B2094654D568A6F9459D","title":"寇记东北人家","lon":"121.58358","lat":"31.24854","category":"82","category_name":"东北菜","address":"枣庄路957"},{"poiid":"B2094757D06BA2F84893","title":"泰煌鸡(银山路店)","lon":"121.58432","lat":"31.24564","category":"68","category_name":"快餐厅","address":"浦东新区银山路352号(近枣庄路)"},{"poiid":"B2094655D26FA6FD449E","title":"浦东新区青少年活动中心","lon":"121.583","lat":"31.24819","category":"188","category_name":"文化宫","address":"浦东新区枣庄路998弄1号(近金台路)"},{"poiid":"B2094654DB6AA6FF4598","title":"上海城中园酒店","lon":"121.58831","lat":"31.25125","category":"214","category_name":"四星级宾馆","address":"金桥路1480号城中园酒店金台金桥路口"},{"poiid":"B2094757D66EA0FA4792","title":"吉阿婆(金台店)","lon":"121.584752","lat":"31.249429","category":"500","category_name":"未知分类","address":"上海金台路79號"},{"poiid":"B2094654D568A6F94698","title":"迪亚天天No.5144","lon":"121.58381","lat":"31.24869","category":"117","category_name":"便民商店/便利店","address":"金台路15"},{"poiid":"B2094654D568A0FB4498","title":"金杨新村七街坊(四号门)","lon":"121.58351","lat":"31.24793","category":"47","category_name":"住宅区","address":"枣庄路998弄1-31号"},{"poiid":"B2094654DB6BA1FE449D","title":"浦东青年公寓","lon":"121.58484","lat":"31.248003","category":"47","category_name":"住宅区","address":"浦东新区枣庄路1029弄(金台路口)"},{"poiid":"B2094655D26DA0FE469C","title":"金杨八街坊","lon":"121.5847","lat":"31.24563","category":"47","category_name":"住宅区","address":"银山路370弄2-7号"},{"poiid":"B2094655D36DA7FC499E","title":"枣庄路银山路","lon":"121.58462","lat":"31.24756","category":"38","category_name":"公交车站","address":""},{"poiid":"B2094757D06FA2F84299","title":"Wagas沃歌斯(金桥国际广场店)","lon":"121.58569335","lat":"31.252571106","category":"94","category_name":"西餐厅","address":"浦东新区张杨路3611号金桥国际商业广场(金桥路张杨路)"},{"poiid":"B2094757D068A2FC499D","title":"金杨新村","lon":"121.580062","lat":"31.249486","category":"252","category_name":"楼宇机构","address":"上海金杨路枣庄路"},{"poiid":"B2094654D568A0FB4798","title":"兰州拉面金杨拉面王","lon":"121.57984","lat":"31.24853","category":"68","category_name":"快餐厅","address":"浦东新区金杨路460号(近金口路)"},{"poiid":"B2094757D069A7F8499C","title":"陆行中学","lon":"121.5868","lat":"31.25336","category":"55","category_name":"中学","address":"上海浦东新区金桥路1288号"},{"poiid":"B2094757D06FA6F54399","title":"肯德基 KFC (金杨店)","lon":"121.580584","lat":"31.249445","category":"500","category_name":"未知分类","address":"浦东新区金杨路524号(近枣庄路)"},{"poiid":"B2094757D069A4F84292","title":"骏莱海鲜","lon":"121.5871744","lat":"31.253618245","category":"247","category_name":"餐饮美食","address":"上海金桥路1379号"},{"poiid":"B2094757D068A7FC4698","title":"大富贵酒楼(金杨店)","lon":"121.58217","lat":"31.25082","category":"76","category_name":"上海菜","address":"浦东新区金杨路635号(近枣庄路)"},{"poiid":"B2094655D26DABFE449C","title":"金杨路商业街(金杨路)","lon":"121.58482","lat":"31.25505","category":"116","category_name":"特色商业街","address":""},{"poiid":"B2094757D16BAAFE4593","title":"金台路","lon":"121.58593633","lat":"31.2501258","category":"500","category_name":"未知分类","address":"上海市浦东新区金杨路"},{"poiid":"B2094655D26CA7F8479B","title":"瑞亚·臻品酒店","lon":"121.58742","lat":"31.25276","category":"250","category_name":"公园户外","address":"上海市浦东新区金桥路1388号(近金台路)"},{"poiid":"B2094757D069A1FD459F","title":"爱金华鱼头汤 金桥店","lon":"121.58592147378","lat":"31.254573735846","category":"76","category_name":"上海菜","address":"浦东新区金桥路1258号(近金杨路)"},{"poiid":"B2094757D06FA2FF469A","title":"金桥路金台路","lon":"121.5884957","lat":"31.2523508","category":"260","category_name":"其他","address":"上海浦东新区金桥路金台路"},{"poiid":"B2094655D36CA0FE419C","title":"金杨路枣庄路","lon":"121.58121","lat":"31.25098","category":"38","category_name":"公交车站","address":"上海金杨路枣庄路金桥路"},{"poiid":"B2094654D568A6FB439F","title":"哈尔滨人家 金台路店","lon":"121.58527758954","lat":"31.249521136892","category":"82","category_name":"东北菜","address":"浦东新区金台路136号(近枣庄路)"},{"poiid":"B2094757D468A3FE409C","title":"唐城酒楼","lon":"121.58792","lat":"31.252148","category":"76","category_name":"上海菜","address":"浦东新区金台路201号(近金桥路)"},{"poiid":"B2094654D568A6FA459A","title":"金杨十街坊","lon":"121.58266","lat":"31.251093","category":"47","category_name":"住宅区","address":"金杨路660弄"},{"poiid":"B2094757D06FA5F84499","title":"85度C(金杨店)","lon":"121.57983033","lat":"31.248967773","category":"112","category_name":"糕饼店","address":"浦东新区金杨路483号1楼"},{"poiid":"B2094750DB6EA6F9439D","title":"红宝石金杨店","lon":"121.581665","lat":"31.248418","category":"67","category_name":"甜品店","address":"浦东新区金杨路486号(近枣庄路)"},{"poiid":"B2094757D069AAF44993","title":"格力特健身中心","lon":"121.58154","lat":"31.25021","category":"148","category_name":"美容美发店","address":"浦东新区金杨路628号家得利超市3楼(近枣庄路)"},{"poiid":"B2094757D064A1F9459B","title":"缘品火锅坊","lon":"121.58073","lat":"31.24992","category":"86","category_name":"火锅店","address":"浦东新区金杨路558号(近枣庄路)"},{"poiid":"B2094654D568A6F9459A","title":"绍兴家园(枣庄路)","lon":"121.58283","lat":"31.24895","category":"47","category_name":"住宅区","address":"浦东新区枣庄路903号(近金台路)"},{"poiid":"B2094757D165A3F5419F","title":"王老家饭店","lon":"121.582391339","lat":"31.2491507779","category":"247","category_name":"餐饮美食","address":"浦东新区枣庄路(近金台路)"},{"poiid":"B2094757D16AA4FD4498","title":"碧悦城市酒店","lon":"121.58781833","lat":"31.252270849","category":"217","category_name":"旅馆招待所","address":"上海市浦东新区金台路222号(近金桥路)"},{"poiid":"B2094654D568A6F84099","title":"唐朝酒楼","lon":"121.58792","lat":"31.25214","category":"70","category_name":"综合酒楼","address":"金台路201"},{"poiid":"B2094655D26DAAF4419E","title":"上海市陆行中学南校","lon":"121.58531","lat":"31.24925","category":"55","category_name":"中学","address":"金台路96"},{"poiid":"B2094654D568A6FA4999","title":"快客No.6108","lon":"121.58532","lat":"31.24991","category":"117","category_name":"便民商店/便利店","address":"金台路117"},{"poiid":"B2094654D568A6FA4792","title":"得壹宠物俱乐部","lon":"121.58475","lat":"31.24943","category":"162","category_name":"医院","address":"金台路79"},{"poiid":"B2094757D164A0FF4392","title":"重庆谢记麻辣烫","lon":"121.582626339","lat":"31.2523888523","category":"68","category_name":"快餐厅","address":"浦东新区金杨路686号"},{"poiid":"B2094654DB6BA1FE429F","title":"招商银行上海金桥支行","lon":"121.58791","lat":"31.2523","category":"150","category_name":"银行","address":"浦东新区金桥路1398号(近金台路)"},{"poiid":"B2094655D26DA4FA469B","title":"风兆公寓","lon":"121.58374","lat":"31.24916","category":"47","category_name":"住宅区","address":""},{"poiid":"B2094654D568A6FB4393","title":"克丽缇娜(金台路)","lon":"121.58582","lat":"31.24987","category":"148","category_name":"美容美发店","address":"浦东新区金台路116号(近金桥路)"},{"poiid":"B2094757D064A7FF4793","title":"新亚大包(金杨店)","lon":"121.58026","lat":"31.25067","category":"68","category_name":"快餐厅","address":"浦东新区枣庄路765号(近金杨路)"},{"poiid":"B2094757D569A3FC4399","title":"吴氏小龙虾摊","lon":"121.58209","lat":"31.25177306","category":"68","category_name":"快餐厅","address":"浦东新区金杨路672号中国银行旁(近枣庄路)"},{"poiid":"B2094654D568A6FB409F","title":"名角女士生活馆No.0189(金台路)","lon":"121.58567","lat":"31.25023","category":"148","category_name":"美容美发店","address":"浦东新区金台路131号(近金桥路)"},{"poiid":"B2094757D568ABFD4793","title":"勿忘我兰州拉面","lon":"121.5816306","lat":"31.25114667","category":"68","category_name":"快餐厅","address":"浦东新区金杨路650号(近枣庄路)"},{"poiid":"B2094757D164A5FB499D","title":"苹果园(金杨路店)","lon":"121.58141","lat":"31.25001","category":"117","category_name":"便民商店/便利店","address":"浦东新区金杨路277号(近金口路)"},{"poiid":"B2094757D569A0F44392","title":"仇记特色小锅锅贴","lon":"121.58209","lat":"31.25177306","category":"68","category_name":"快餐厅","address":"浦东新区金杨路672号中国银行旁(近枣庄路)"},{"poiid":"B2094654D568A6FA469E","title":"春江烟杂商店","lon":"121.58416","lat":"31.24893","category":"117","category_name":"便民商店/便利店","address":""},{"poiid":"B2094655D26DA5FE459E","title":"好德便利No.536","lon":"121.58579","lat":"31.24985","category":"117","category_name":"便民商店/便利店","address":"金台路114"},{"poiid":"B2094757D169A4FA459D","title":"金杨第一商城","lon":"121.58145","lat":"31.24986","category":"119","category_name":"商场","address":"浦东新区金杨路618号(近枣庄路)"},{"poiid":"B2094654D568A6F9459D","title":"寇记东北人家","lon":"121.58358","lat":"31.24854","category":"82","category_name":"东北菜","address":"枣庄路957"},{"poiid":"B2094757D06BA2F84893","title":"泰煌鸡(银山路店)","lon":"121.58432","lat":"31.24564","category":"68","category_name":"快餐厅","address":"浦东新区银山路352号(近枣庄路)"},{"poiid":"B2094655D26FA6FD449E","title":"浦东新区青少年活动中心","lon":"121.583","lat":"31.24819","category":"188","category_name":"文化宫","address":"浦东新区枣庄路998弄1号(近金台路)"},{"poiid":"B2094654DB6AA6FF4598","title":"上海城中园酒店","lon":"121.58831","lat":"31.25125","category":"214","category_name":"四星级宾馆","address":"金桥路1480号城中园酒店金台金桥路口"},{"poiid":"B2094757D66EA0FA4792","title":"吉阿婆(金台店)","lon":"121.584752","lat":"31.249429","category":"500","category_name":"未知分类","address":"上海金台路79號"},{"poiid":"B2094654D568A6F94698","title":"迪亚天天No.5144","lon":"121.58381","lat":"31.24869","category":"117","category_name":"便民商店/便利店","address":"金台路15"},{"poiid":"B2094654D568A0FB4498","title":"金杨新村七街坊(四号门)","lon":"121.58351","lat":"31.24793","category":"47","category_name":"住宅区","address":"枣庄路998弄1-31号"},{"poiid":"B2094654DB6BA1FE449D","title":"浦东青年公寓","lon":"121.58484","lat":"31.248003","category":"47","category_name":"住宅区","address":"浦东新区枣庄路1029弄(金台路口)"},{"poiid":"B2094655D26DA0FE469C","title":"金杨八街坊","lon":"121.5847","lat":"31.24563","category":"47","category_name":"住宅区","address":"银山路370弄2-7号"},{"poiid":"B2094655D36DA7FC499E","title":"枣庄路银山路","lon":"121.58462","lat":"31.24756","category":"38","category_name":"公交车站","address":""},{"poiid":"B2094757D06FA2F84299","title":"Wagas沃歌斯(金桥国际广场店)","lon":"121.58569335","lat":"31.252571106","category":"94","category_name":"西餐厅","address":"浦东新区张杨路3611号金桥国际商业广场(金桥路张杨路)"},{"poiid":"B2094757D068A2FC499D","title":"金杨新村","lon":"121.580062","lat":"31.249486","category":"252","category_name":"楼宇机构","address":"上海金杨路枣庄路"},{"poiid":"B2094654D568A0FB4798","title":"兰州拉面金杨拉面王","lon":"121.57984","lat":"31.24853","category":"68","category_name":"快餐厅","address":"浦东新区金杨路460号(近金口路)"},{"poiid":"B2094757D069A7F8499C","title":"陆行中学","lon":"121.5868","lat":"31.25336","category":"55","category_name":"中学","address":"上海浦东新区金桥路1288号"},{"poiid":"B2094757D06FA6F54399","title":"肯德基 KFC (金杨店)","lon":"121.580584","lat":"31.249445","category":"500","category_name":"未知分类","address":"浦东新区金杨路524号(近枣庄路)"},{"poiid":"B2094757D069A4F84292","title":"骏莱海鲜","lon":"121.5871744","lat":"31.253618245","category":"247","category_name":"餐饮美食","address":"上海金桥路1379号"},{"poiid":"B2094757D068A7FC4698","title":"大富贵酒楼(金杨店)","lon":"121.58217","lat":"31.25082","category":"76","category_name":"上海菜","address":"浦东新区金杨路635号(近枣庄路)"},{"poiid":"B2094655D26DABFE449C","title":"金杨路商业街(金杨路)","lon":"121.58482","lat":"31.25505","category":"116","category_name":"特色商业街","address":""},{"poiid":"B2094757D16BAAFE4593","title":"金台路","lon":"121.58593633","lat":"31.2501258","category":"500","category_name":"未知分类","address":"上海市浦东新区金杨路"},{"poiid":"B2094655D26CA7F8479B","title":"瑞亚·臻品酒店","lon":"121.58742","lat":"31.25276","category":"250","category_name":"公园户外","address":"上海市浦东新区金桥路1388号(近金台路)"},{"poiid":"B2094757D069A1FD459F","title":"爱金华鱼头汤 金桥店","lon":"121.58592147378","lat":"31.254573735846","category":"76","category_name":"上海菜","address":"浦东新区金桥路1258号(近金杨路)"},{"poiid":"B2094757D06FA2FF469A","title":"金桥路金台路","lon":"121.5884957","lat":"31.2523508","category":"260","category_name":"其他","address":"上海浦东新区金桥路金台路"},{"poiid":"B2094655D36CA0FE419C","title":"金杨路枣庄路","lon":"121.58121","lat":"31.25098","category":"38","category_name":"公交车站","address":"上海金杨路枣庄路金桥路"},{"poiid":"B2094654D568A6FB439F","title":"哈尔滨人家 金台路店","lon":"121.58527758954","lat":"31.249521136892","category":"82","category_name":"东北菜","address":"浦东新区金台路136号(近枣庄路)"},{"poiid":"B2094757D468A3FE409C","title":"唐城酒楼","lon":"121.58792","lat":"31.252148","category":"76","category_name":"上海菜","address":"浦东新区金台路201号(近金桥路)"},{"poiid":"B2094654D568A6FA459A","title":"金杨十街坊","lon":"121.58266","lat":"31.251093","category":"47","category_name":"住宅区","address":"金杨路660弄"},{"poiid":"B2094757D06FA5F84499","title":"85度C(金杨店)","lon":"121.57983033","lat":"31.248967773","category":"112","category_name":"糕饼店","address":"浦东新区金杨路483号1楼"},{"poiid":"B2094750DB6EA6F9439D","title":"红宝石金杨店","lon":"121.581665","lat":"31.248418","category":"67","category_name":"甜品店","address":"浦东新区金杨路486号(近枣庄路)"},{"poiid":"B2094757D069AAF44993","title":"格力特健身中心","lon":"121.58154","lat":"31.25021","category":"148","category_name":"美容美发店","address":"浦东新区金杨路628号家得利超市3楼(近枣庄路)"},{"poiid":"B2094757D064A1F9459B","title":"缘品火锅坊","lon":"121.58073","lat":"31.24992","category":"86","category_name":"火锅店","address":"浦东新区金杨路558号(近枣庄路)"},{"poiid":"B2094654D568A6F9459A","title":"绍兴家园(枣庄路)","lon":"121.58283","lat":"31.24895","category":"47","category_name":"住宅区","address":"浦东新区枣庄路903号(近金台路)"},{"poiid":"B2094757D165A3F5419F","title":"王老家饭店","lon":"121.582391339","lat":"31.2491507779","category":"247","category_name":"餐饮美食","address":"浦东新区枣庄路(近金台路)"},{"poiid":"B2094757D16AA4FD4498","title":"碧悦城市酒店","lon":"121.58781833","lat":"31.252270849","category":"217","category_name":"旅馆招待所","address":"上海市浦东新区金台路222号(近金桥路)"},{"poiid":"B2094654D568A6F84099","title":"唐朝酒楼","lon":"121.58792","lat":"31.25214","category":"70","category_name":"综合酒楼","address":"金台路201"},{"poiid":"B2094655D26DAAF4419E","title":"上海市陆行中学南校","lon":"121.58531","lat":"31.24925","category":"55","category_name":"中学","address":"金台路96"},{"poiid":"B2094654D568A6FA4999","title":"快客No.6108","lon":"121.58532","lat":"31.24991","category":"117","category_name":"便民商店/便利店","address":"金台路117"},{"poiid":"B2094654D568A6FA4792","title":"得壹宠物俱乐部","lon":"121.58475","lat":"31.24943","category":"162","category_name":"医院","address":"金台路79"},{"poiid":"B2094757D164A0FF4392","title":"重庆谢记麻辣烫","lon":"121.582626339","lat":"31.2523888523","category":"68","category_name":"快餐厅","address":"浦东新区金杨路686号"},{"poiid":"B2094654DB6BA1FE429F","title":"招商银行上海金桥支行","lon":"121.58791","lat":"31.2523","category":"150","category_name":"银行","address":"浦东新区金桥路1398号(近金台路)"},{"poiid":"B2094655D26DA4FA469B","title":"风兆公寓","lon":"121.58374","lat":"31.24916","category":"47","category_name":"住宅区","address":""},{"poiid":"B2094654D568A6FB4393","title":"克丽缇娜(金台路)","lon":"121.58582","lat":"31.24987","category":"148","category_name":"美容美发店","address":"浦东新区金台路116号(近金桥路)"},{"poiid":"B2094757D064A7FF4793","title":"新亚大包(金杨店)","lon":"121.58026","lat":"31.25067","category":"68","category_name":"快餐厅","address":"浦东新区枣庄路765号(近金杨路)"},{"poiid":"B2094757D569A3FC4399","title":"吴氏小龙虾摊","lon":"121.58209","lat":"31.25177306","category":"68","category_name":"快餐厅","address":"浦东新区金杨路672号中国银行旁(近枣庄路)"},{"poiid":"B2094654D568A6FB409F","title":"名角女士生活馆No.0189(金台路)","lon":"121.58567","lat":"31.25023","category":"148","category_name":"美容美发店","address":"浦东新区金台路131号(近金桥路)"},{"poiid":"B2094757D568ABFD4793","title":"勿忘我兰州拉面","lon":"121.5816306","lat":"31.25114667","category":"68","category_name":"快餐厅","address":"浦东新区金杨路650号(近枣庄路)"},{"poiid":"B2094757D164A5FB499D","title":"苹果园(金杨路店)","lon":"121.58141","lat":"31.25001","category":"117","category_name":"便民商店/便利店","address":"浦东新区金杨路277号(近金口路)"},{"poiid":"B2094757D569A0F44392","title":"仇记特色小锅锅贴","lon":"121.58209","lat":"31.25177306","category":"68","category_name":"快餐厅","address":"浦东新区金杨路672号中国银行旁(近枣庄路)"},{"poiid":"B2094654D568A6FA469E","title":"春江烟杂商店","lon":"121.58416","lat":"31.24893","category":"117","category_name":"便民商店/便利店","address":""},{"poiid":"B2094655D26DA5FE459E","title":"好德便利No.536","lon":"121.58579","lat":"31.24985","category":"117","category_name":"便民商店/便利店","address":"金台路114"},{"poiid":"B2094757D169A4FA459D","title":"金杨第一商城","lon":"121.58145","lat":"31.24986","category":"119","category_name":"商场","address":"浦东新区金杨路618号(近枣庄路)"},{"poiid":"B2094654D568A6F9459D","title":"寇记东北人家","lon":"121.58358","lat":"31.24854","category":"82","category_name":"东北菜","address":"枣庄路957"},{"poiid":"B2094757D06BA2F84893","title":"泰煌鸡(银山路店)","lon":"121.58432","lat":"31.24564","category":"68","category_name":"快餐厅","address":"浦东新区银山路352号(近枣庄路)"},{"poiid":"B2094655D26FA6FD449E","title":"浦东新区青少年活动中心","lon":"121.583","lat":"31.24819","category":"188","category_name":"文化宫","address":"浦东新区枣庄路998弄1号(近金台路)"},{"poiid":"B2094654DB6AA6FF4598","title":"上海城中园酒店","lon":"121.58831","lat":"31.25125","category":"214","category_name":"四星级宾馆","address":"金桥路1480号城中园酒店金台金桥路口"},{"poiid":"B2094757D66EA0FA4792","title":"吉阿婆(金台店)","lon":"121.584752","lat":"31.249429","category":"500","category_name":"未知分类","address":"上海金台路79號"},{"poiid":"B2094654D568A6F94698","title":"迪亚天天No.5144","lon":"121.58381","lat":"31.24869","category":"117","category_name":"便民商店/便利店","address":"金台路15"},{"poiid":"B2094654D568A0FB4498","title":"金杨新村七街坊(四号门)","lon":"121.58351","lat":"31.24793","category":"47","category_name":"住宅区","address":"枣庄路998弄1-31号"},{"poiid":"B2094654DB6BA1FE449D","title":"浦东青年公寓","lon":"121.58484","lat":"31.248003","category":"47","category_name":"住宅区","address":"浦东新区枣庄路1029弄(金台路口)"},{"poiid":"B2094655D26DA0FE469C","title":"金杨八街坊","lon":"121.5847","lat":"31.24563","category":"47","category_name":"住宅区","address":"银山路370弄2-7号"},{"poiid":"B2094655D36DA7FC499E","title":"枣庄路银山路","lon":"121.58462","lat":"31.24756","category":"38","category_name":"公交车站","address":""}]