[{"poiid":"B2094654DB68AAFA4893","title":"上海化学工业区","lon":"121.46523","lat":"30.81924","category":"45","category_name":"产业园区","address":""},{"poiid":"B2094757D069ABFC4192","title":"上海华凯华美达广场酒店","lon":"121.464831","lat":"30.814451","category":"217","category_name":"旅馆招待所","address":"上海市奉贤区环华路9号"},{"poiid":"B2094655D36DA6FC439C","title":"柘林","lon":"121.47497","lat":"30.82637","category":"38","category_name":"公交车站","address":""},{"poiid":"B2094654DB68AAFA4799","title":"化工区大厦","lon":"121.4663","lat":"30.81543","category":"46","category_name":"楼宇","address":"上海化學工業區目華路201號"},{"poiid":"B2094757D06AA3F94393","title":"华凯华美达广场酒店自助餐厅","lon":"121.46482","lat":"30.81404","category":"268","category_name":"自助","address":"近郊奉贤区化学工业区环华路9号华凯华美达广场酒店1楼"},{"poiid":"B2094654DB64A7FF449F","title":"上海化学工业区管理委员会一门式受理处","lon":"121.46619","lat":"30.81478","category":"45","category_name":"产业园区","address":""},{"poiid":"B2094654DB68AAFA4992","title":"上海化学工业区医疗中心","lon":"121.46557","lat":"30.81291","category":"162","category_name":"医院","address":""},{"poiid":"B2094654DB68AAFA439E","title":"上海海关驻化学工业区办事处","lon":"121.46704","lat":"30.81363","category":"45","category_name":"产业园区","address":"环华路8"},{"poiid":"B2094654DB68AAFB4193","title":"华凯乡村体育俱乐部","lon":"121.46453","lat":"30.81439","category":"220","category_name":"运动场所","address":"环华路9"},{"poiid":"B2094654DB68AAFA439B","title":"置业大楼","lon":"121.4663","lat":"30.81298","category":"46","category_name":"楼宇","address":""},{"poiid":"B2094757D16DA0F9469E","title":"化工区综合楼","lon":"121.466615021","lat":"30.8144676057","category":"500","category_name":"未知分类","address":"上海目华路185号"},{"poiid":"B2094654DB68AAFA499C","title":"化工区体育中心","lon":"121.46546","lat":"30.81113","category":"224","category_name":"综合体育馆","address":""},{"poiid":"B2094655D26BABF8479A","title":"化工区酒店","lon":"121.46484","lat":"30.81445","category":"250","category_name":"公园户外","address":"环华路9号"},{"poiid":"B2094757D164A5F5469A","title":"东京恐怖学院 2年１班","lon":"121.46500618","lat":"30.81339433","category":"500","category_name":"未知分类","address":"上海东京"},{"poiid":"B2094757D16CA5FD419A","title":"上海化学工业区管理委员会","lon":"121.46653218","lat":"30.811796293","category":"500","category_name":"未知分类","address":"上海市月华路66号"},{"poiid":"B2094654DB68AAFA4392","title":"中国工商银行上海市化工区支行","lon":"121.46517","lat":"30.81511","category":"150","category_name":"银行","address":"柘林镇"},{"poiid":"B2094654DB68AAFA439F","title":"中国银行(环华路)","lon":"121.46659","lat":"30.81371","category":"150","category_name":"银行","address":""},{"poiid":"B2094654DB68AAF9429C","title":"上海化学工业区中法水务发展有限公司","lon":"121.4679","lat":"30.81343","category":"263","category_name":"公司","address":""},{"poiid":"B2094654DB68AAF9419E","title":"上海市公安局上海化学工业区分局","lon":"121.46662","lat":"30.81259","category":"248","category_name":"生活娱乐","address":""},{"poiid":"B2094654DB68AAFA499D","title":"上海埃金科工程建设服务有限公司","lon":"121.464165","lat":"30.811175","category":"263","category_name":"公司","address":"北河路123"},{"poiid":"B2094654DB68AAF8479D","title":"目华新村","lon":"121.46988","lat":"30.829157","category":"47","category_name":"住宅区","address":"苍工路158弄"},{"poiid":"B2094757D66EA2F54492","title":"柘林(沪杭公路新柘中路)站(莘海,浦卫,西卫)","lon":"121.472603984","lat":"30.8294740372","category":"38","category_name":"公交车站","address":"上海奉贤区沪杭公路新柘中路"},{"poiid":"B2094655D36CA6F8429B","title":"冯桥招呼站","lon":"121.47381","lat":"30.82545","category":"38","category_name":"公交车站","address":""},{"poiid":"B2094757D16BA1FD479C","title":"临海派出所","lon":"121.4625319","lat":"30.8239558","category":"609","category_name":"警察局","address":"上海奉贤区目华北路388号"},{"poiid":"B2094757D568A7F4419C","title":"上海新空间(东门)","lon":"121.47305854","lat":"30.8268929","category":"47","category_name":"住宅区","address":"中国上海市奉贤区"},{"poiid":"B2094654DB68AAF8499B","title":"上海奉贤海光门窗有限公司","lon":"121.47276","lat":"30.8238","category":"263","category_name":"公司","address":""},{"poiid":"B2094654DB68AAF9469A","title":"上海中外运化工国际物流有限公司","lon":"121.461","lat":"30.82659","category":"263","category_name":"公司","address":""},{"poiid":"B2094654DB65A6F8449B","title":"柘林学校","lon":"121.47506","lat":"30.82887","category":"55","category_name":"中学","address":"奉贤区钦林南路101号"},{"poiid":"B2094654DB68AAF8489E","title":"奉贤区拓林学校","lon":"121.4749","lat":"30.82919","category":"55","category_name":"中学","address":""},{"poiid":"B2094654DB69A7FB4898","title":"中国联通上海公司柘林邮政支局代售点","lon":"121.47367","lat":"30.82965","category":"151","category_name":"电讯营业厅","address":"奉贤区柘林镇"},{"poiid":"B2094654DB68AAF8489A","title":"拓林影剧院","lon":"121.47375","lat":"30.830787","category":"178","category_name":"电影院","address":"钦林北路"},{"poiid":"B2094654DB69A7F5479C","title":"海岸景苑","lon":"121.47855","lat":"30.830198","category":"47","category_name":"住宅区","address":"奉贤区新柘东路99弄"},{"poiid":"B2094654DB68AAF9459D","title":"中远物流","lon":"121.45934","lat":"30.82993","category":"248","category_name":"生活娱乐","address":"目华北路799号"},{"poiid":"B2094654DB68AAF84798","title":"奉贤区拓林镇文化广播电视中心","lon":"121.47934","lat":"30.83084","category":"252","category_name":"楼宇机构","address":"新柘中路"},{"poiid":"B2094654DB68A7FE4099","title":"上海柘林水电设备制造有限公司分公司","lon":"121.47178","lat":"30.83445","category":"263","category_name":"公司","address":""}]