[{"poiid":"B2094757D06EABF44998","title":"宜家家居IKEA(徐汇商场)","lon":"121.43423790178304","lat":"31.178010857800547","category":"119","category_name":"商场","address":"上海徐汇区漕溪路126号(近中山西路)"},{"poiid":"B2094655D26AA0FF489B","title":"上海体育馆","lon":"121.43837","lat":"31.18147","category":"224","category_name":"综合体育馆","address":"徐汇区漕溪北路1111号(零陵路口)"},{"poiid":"B2094655D26EAAFD459C","title":"上海大舞台","lon":"121.43837","lat":"31.18147","category":"180","category_name":"剧场","address":"徐汇区漕溪北路1111号(近中山南二路)"},{"poiid":"B2094654DB69A0F54498","title":"宜家餐厅","lon":"121.435266054","lat":"31.176502793","category":"94","category_name":"西餐厅","address":"徐汇区漕溪路126号宜家家居2楼(近中山西路)"},{"poiid":"B2094654DA6CAAFF449A","title":"华亭宾馆","lon":"121.43555991170888","lat":"31.18155784041246","category":"213","category_name":"五星级宾馆","address":"徐汇区漕溪北路1200号华亭宾馆4楼(近零陵路)"},{"poiid":"B2094757D068A3F94892","title":"上海万体馆","lon":"121.438225586","lat":"31.1821814917","category":"148","category_name":"美容美发店","address":"上海漕溪北路中山西路"},{"poiid":"B2094654DA6DA0F5469D","title":"鸿瑞兴徐汇店","lon":"121.44014","lat":"31.17986","category":"76","category_name":"上海菜","address":"徐汇区中山南二路1500号东亚体育宾馆1-3楼(上海体育场运动员之家内)"},{"poiid":"B2094757D064A1FF459C","title":"Nike篮球公园","lon":"121.43688507806542","lat":"31.182279528801896","category":"224","category_name":"综合体育馆","address":"徐汇区漕溪北路1111号东亚体育文化中心1号门(零陵路口)"},{"poiid":"B2094757D06FA3F84393","title":"悦蓉香锅牛蛙(飞洲国际店)","lon":"121.43784","lat":"31.18282","category":"71","category_name":"四川菜","address":"徐汇区零陵路899号飞洲国际广场B1楼(近漕溪北路)"},{"poiid":"B2094757D06FA7FC409C","title":"东亚展览馆","lon":"121.439664586","lat":"31.1816744818","category":"179","category_name":"音乐厅","address":"徐汇区天钥桥路666号上海八万人体育场内(近中山南二路)"},{"poiid":"B2094757D06EAAFB429E","title":"上海体育馆地铁站","lon":"121.43746609","lat":"31.182893","category":"36","category_name":"地铁站","address":"上海轨道交通 一号线 四号线 轨交上海体育馆站 轻轨 1 4"},{"poiid":"B2094757D06EAAFB4393","title":"漕溪路地铁站","lon":"121.438054","lat":"31.176627","category":"36","category_name":"地铁站","address":"上海轨道交通 三号线 轨交漕溪路站 轻轨 3"},{"poiid":"B2094750D66BA4F8459D","title":"宜家","lon":"121.43769","lat":"31.180406","category":"500","category_name":"未知分类","address":null},{"poiid":"B2094757D068ABF9499C","title":"小南国(万体馆店)","lon":"121.437889586","lat":"31.1826755013","category":"76","category_name":"上海菜","address":"徐汇区零陵路899号飞洲国际大厦5楼"},{"poiid":"B2094655D268A3F9479E","title":"漕溪路公交枢纽站","lon":"121.43729","lat":"31.1786","category":"38","category_name":"公交车站","address":"徐汇区漕溪路93号(近轻轨三号线漕溪路站)"},{"poiid":"B2094654DB65A6FA4298","title":"上海奥林匹克俱乐部","lon":"121.43959","lat":"31.18069","category":"260","category_name":"其他","address":"中山南二路1800号(近上海游泳馆)"},{"poiid":"B2094655D268A2F4499D","title":"上海体育场(二号门)","lon":"121.43698","lat":"31.18028","category":"224","category_name":"综合体育馆","address":""},{"poiid":"B2094757D06FA5F44499","title":"东亚壁球馆","lon":"121.43781","lat":"31.17969","category":"220","category_name":"运动场所","address":"徐汇区中山南二路1500号(近零陵路)"},{"poiid":"B2094752DB68A1FC4693","title":"上上谦串串香火锅(龙华西路店)","lon":"121.439194","lat":"31.180206","category":"247","category_name":"餐饮美食","address":"上海市 龙华西路565号(近中山南二路)"},{"poiid":"B2094757D06FA2FB4393","title":"萨莉亚(飞洲国际店)","lon":"121.43734","lat":"31.18285","category":"94","category_name":"西餐厅","address":"徐汇区零陵路899号飞洲国际大厦B1楼(近漕溪北路)"},{"poiid":"B2094757D06FA0FE4192","title":"争鲜回转寿司 飞洲国际店","lon":"121.436941054","lat":"31.182774793","category":"95","category_name":"日本料理","address":"徐汇区零陵路899号飞洲国际大厦B1楼(近漕溪北路)"},{"poiid":"B2094750D669A5FB489A","title":"辛香汇飞洲国际店","lon":"121.438926","lat":"31.180387","category":"247","category_name":"餐饮美食","address":null},{"poiid":"B2094654DB65A1F9499B","title":"上海旅游集散中心(上海市徐汇区漕河泾市容管理所西)","lon":"121.43862","lat":"31.17817","category":"248","category_name":"生活娱乐","address":"中山南二路2419"},{"poiid":"B2094654DB6AA6F8469D","title":"上海东亚体育宾馆","lon":"121.44016","lat":"31.17974","category":"250","category_name":"公园户外","address":"上海市徐汇区中山南二路1500号(八万人体育场旁)"},{"poiid":"B2094655D26EA5FC499D","title":"华亭宾馆宴会厅","lon":"121.43519","lat":"31.18103","category":"257","category_name":"中餐厅","address":"徐汇区漕溪北路1200号华亭宾馆内(近零陵路)查看地图"},{"poiid":"B2094757D068A7F5439B","title":"呷哺(漕溪路)","lon":"121.437984","lat":"31.177094","category":"86","category_name":"火锅店","address":"上海徐汇区吉美臣商城二楼"},{"poiid":"B2094757D068A2F44793","title":"沪闵高架转内环高架","lon":"121.433752","lat":"31.177968","category":"500","category_name":"未知分类","address":"上海宜家家居附近"},{"poiid":"B2094757D665A3FD439C","title":"翠蝶川味茶餐厅","lon":"121.437018","lat":"31.182831","category":"71","category_name":"四川菜","address":"徐汇区零陵路899号飞洲国际广场B1楼(近漕溪北路)"},{"poiid":"B2094757D16DABFB469F","title":"宜家員工餐廳","lon":"121.436689386","lat":"31.1790545306","category":"500","category_name":"未知分类","address":"上海漕溪路126號2樓"},{"poiid":"B2094757D16FA1FF4492","title":"京门涮肉","lon":"121.438689386","lat":"31.179947048","category":"86","category_name":"火锅店","address":"徐汇区漕溪北路1111号上海体育馆3号楼梯旁"},{"poiid":"B2094654DA6DA0F54793","title":"上海东亚网球场","lon":"121.43814","lat":"31.18001","category":"226","category_name":"网球场","address":"零陵路800号(上海体育馆对面)"},{"poiid":"B2094655D269A4FB439C","title":"统一撞球海盜馆","lon":"121.43625","lat":"31.17745","category":"171","category_name":"台球厅","address":"徐汇区漕溪路111号苏宁电器5楼(近地铁3号线漕溪路站)"},{"poiid":"B2094757D16CA7F84798","title":"索尼产品技术服务中心","lon":"121.43560758","lat":"31.176297376","category":"260","category_name":"其他","address":"徐汇区漕溪路129-131号"},{"poiid":"B2094655D26AAAFD429A","title":"上海南华亭酒店原上海华亭宾馆二号楼","lon":"121.43492","lat":"31.181","category":"250","category_name":"公园户外","address":"上海市徐汇区中山西路2525号(漕溪路口)"},{"poiid":"B2094750DA6AA6FF4893","title":"飞洲国际","lon":"121.438926","lat":"31.180414","category":"252","category_name":"楼宇机构","address":null},{"poiid":"B2094654DA6DA1FF4399","title":"洛卡铁板烧烤","lon":"121.43594","lat":"31.17684","category":"87","category_name":"特色／地方风味餐厅","address":"徐汇区漕溪路123号(近中山西路)"},{"poiid":"B2094757D06FAAFF4799","title":"一井寿司","lon":"121.43697","lat":"31.18703","category":"95","category_name":"日本料理","address":"徐汇区漕溪北路950号(近万体馆)"},{"poiid":"B2094757D068A2FF4493","title":"肯德基 KFC (漕东店)","lon":"121.438676","lat":"31.176462","category":"68","category_name":"快餐厅","address":"徐汇区轻轨三号线漕溪路站1楼(近3号出口)"},{"poiid":"B2094757D06AA2F54698","title":"小亭酒家","lon":"121.43628","lat":"31.1823","category":"76","category_name":"上海菜","address":"徐汇区漕溪北路960号华亭宾馆旁(近华亭宾馆)"},{"poiid":"B2094750D76EA4FA439F","title":"味千拉面(漕溪路地铁站店)","lon":"121.436","lat":"31.1759","category":"95","category_name":"日本料理","address":"徐汇区漕溪路地铁站2楼"},{"poiid":"B2094655D268A6F5409A","title":"Reebok篮球公园","lon":"121.43703","lat":"31.1808","category":"229","category_name":"篮球场馆","address":""},{"poiid":"B2094757D06BA2F8419D","title":"49路上海体育馆站","lon":"121.436623","lat":"31.178729","category":"38","category_name":"公交车站","address":"上海漕溪北路公交枢纽"},{"poiid":"B2094757D065A6F9439F","title":"新吉士酒楼(漕溪北路店)","lon":"121.43558","lat":"31.18066","category":"76","category_name":"上海菜","address":"徐汇区漕溪北路1200号华亭宾馆3楼(近零陵路)"},{"poiid":"B2094654DB64AAFD499E","title":"奥林泰园村鱼翅","lon":"121.43974","lat":"31.18008","category":"72","category_name":"广东菜","address":"徐汇区中山南二路1800号奥林匹克宾馆2楼(近漕溪路)"},{"poiid":"B2094757D165A5FF4699","title":"Ikea","lon":"121.43506958","lat":"31.178269415","category":"500","category_name":"未知分类","address":"上海Ikea"},{"poiid":"B2094752DB6CA5FE4793","title":"上上谦火锅店","lon":"121.43659","lat":"31.180172","category":"247","category_name":"餐饮美食","address":"上海市 徐汇区龙华西路"},{"poiid":"B2094757D069A6F4419A","title":"吉祥日本料理(徐汇店)","lon":"121.44157","lat":"31.17851","category":"95","category_name":"日本料理","address":"徐汇区中山南二路1800号奥林匹克俱乐部1楼(近漕溪路)"},{"poiid":"B2094757D16EABF44299","title":"台湾小吃","lon":"121.43647898","lat":"31.179303835","category":"247","category_name":"餐饮美食","address":"上海飞洲国际B1"},{"poiid":"B2094757D068AAFE4998","title":"凯萨铁板烧(飞洲国际店)","lon":"121.43773","lat":"31.18272","category":"94","category_name":"西餐厅","address":"徐汇区零陵路899号飞洲国际大厦B1楼(近漕溪北路)"},{"poiid":"B2094757D068A6FB479C","title":"城市超市(永新店)","lon":"121.43848858","lat":"31.181142471","category":"118","category_name":"超级市场","address":"上海徐汇区天钥桥路131号永新坊B1楼08A(近辛耕路)  "},{"poiid":"B2094757D06EABF44998","title":"宜家家居IKEA(徐汇商场)","lon":"121.43423790178304","lat":"31.178010857800547","category":"119","category_name":"商场","address":"上海徐汇区漕溪路126号(近中山西路)"},{"poiid":"B2094655D26AA0FF489B","title":"上海体育馆","lon":"121.43837","lat":"31.18147","category":"224","category_name":"综合体育馆","address":"徐汇区漕溪北路1111号(零陵路口)"},{"poiid":"B2094655D26EAAFD459C","title":"上海大舞台","lon":"121.43837","lat":"31.18147","category":"180","category_name":"剧场","address":"徐汇区漕溪北路1111号(近中山南二路)"},{"poiid":"B2094654DB69A0F54498","title":"宜家餐厅","lon":"121.435266054","lat":"31.176502793","category":"94","category_name":"西餐厅","address":"徐汇区漕溪路126号宜家家居2楼(近中山西路)"},{"poiid":"B2094654DA6CAAFF449A","title":"华亭宾馆","lon":"121.43555991170888","lat":"31.18155784041246","category":"213","category_name":"五星级宾馆","address":"徐汇区漕溪北路1200号华亭宾馆4楼(近零陵路)"},{"poiid":"B2094757D068A3F94892","title":"上海万体馆","lon":"121.438225586","lat":"31.1821814917","category":"148","category_name":"美容美发店","address":"上海漕溪北路中山西路"},{"poiid":"B2094654DA6DA0F5469D","title":"鸿瑞兴徐汇店","lon":"121.44014","lat":"31.17986","category":"76","category_name":"上海菜","address":"徐汇区中山南二路1500号东亚体育宾馆1-3楼(上海体育场运动员之家内)"},{"poiid":"B2094757D064A1FF459C","title":"Nike篮球公园","lon":"121.43688507806542","lat":"31.182279528801896","category":"224","category_name":"综合体育馆","address":"徐汇区漕溪北路1111号东亚体育文化中心1号门(零陵路口)"},{"poiid":"B2094757D06FA3F84393","title":"悦蓉香锅牛蛙(飞洲国际店)","lon":"121.43784","lat":"31.18282","category":"71","category_name":"四川菜","address":"徐汇区零陵路899号飞洲国际广场B1楼(近漕溪北路)"},{"poiid":"B2094757D06FA7FC409C","title":"东亚展览馆","lon":"121.439664586","lat":"31.1816744818","category":"179","category_name":"音乐厅","address":"徐汇区天钥桥路666号上海八万人体育场内(近中山南二路)"},{"poiid":"B2094757D06EAAFB429E","title":"上海体育馆地铁站","lon":"121.43746609","lat":"31.182893","category":"36","category_name":"地铁站","address":"上海轨道交通 一号线 四号线 轨交上海体育馆站 轻轨 1 4"},{"poiid":"B2094757D06EAAFB4393","title":"漕溪路地铁站","lon":"121.438054","lat":"31.176627","category":"36","category_name":"地铁站","address":"上海轨道交通 三号线 轨交漕溪路站 轻轨 3"},{"poiid":"B2094750D66BA4F8459D","title":"宜家","lon":"121.43769","lat":"31.180406","category":"500","category_name":"未知分类","address":null},{"poiid":"B2094757D068ABF9499C","title":"小南国(万体馆店)","lon":"121.437889586","lat":"31.1826755013","category":"76","category_name":"上海菜","address":"徐汇区零陵路899号飞洲国际大厦5楼"},{"poiid":"B2094655D268A3F9479E","title":"漕溪路公交枢纽站","lon":"121.43729","lat":"31.1786","category":"38","category_name":"公交车站","address":"徐汇区漕溪路93号(近轻轨三号线漕溪路站)"},{"poiid":"B2094654DB65A6FA4298","title":"上海奥林匹克俱乐部","lon":"121.43959","lat":"31.18069","category":"260","category_name":"其他","address":"中山南二路1800号(近上海游泳馆)"},{"poiid":"B2094655D268A2F4499D","title":"上海体育场(二号门)","lon":"121.43698","lat":"31.18028","category":"224","category_name":"综合体育馆","address":""},{"poiid":"B2094757D06FA5F44499","title":"东亚壁球馆","lon":"121.43781","lat":"31.17969","category":"220","category_name":"运动场所","address":"徐汇区中山南二路1500号(近零陵路)"},{"poiid":"B2094752DB68A1FC4693","title":"上上谦串串香火锅(龙华西路店)","lon":"121.439194","lat":"31.180206","category":"247","category_name":"餐饮美食","address":"上海市 龙华西路565号(近中山南二路)"},{"poiid":"B2094757D06FA2FB4393","title":"萨莉亚(飞洲国际店)","lon":"121.43734","lat":"31.18285","category":"94","category_name":"西餐厅","address":"徐汇区零陵路899号飞洲国际大厦B1楼(近漕溪北路)"},{"poiid":"B2094757D06FA0FE4192","title":"争鲜回转寿司 飞洲国际店","lon":"121.436941054","lat":"31.182774793","category":"95","category_name":"日本料理","address":"徐汇区零陵路899号飞洲国际大厦B1楼(近漕溪北路)"},{"poiid":"B2094750D669A5FB489A","title":"辛香汇飞洲国际店","lon":"121.438926","lat":"31.180387","category":"247","category_name":"餐饮美食","address":null},{"poiid":"B2094654DB65A1F9499B","title":"上海旅游集散中心(上海市徐汇区漕河泾市容管理所西)","lon":"121.43862","lat":"31.17817","category":"248","category_name":"生活娱乐","address":"中山南二路2419"},{"poiid":"B2094654DB6AA6F8469D","title":"上海东亚体育宾馆","lon":"121.44016","lat":"31.17974","category":"250","category_name":"公园户外","address":"上海市徐汇区中山南二路1500号(八万人体育场旁)"},{"poiid":"B2094655D26EA5FC499D","title":"华亭宾馆宴会厅","lon":"121.43519","lat":"31.18103","category":"257","category_name":"中餐厅","address":"徐汇区漕溪北路1200号华亭宾馆内(近零陵路)查看地图"},{"poiid":"B2094757D068A7F5439B","title":"呷哺(漕溪路)","lon":"121.437984","lat":"31.177094","category":"86","category_name":"火锅店","address":"上海徐汇区吉美臣商城二楼"},{"poiid":"B2094757D068A2F44793","title":"沪闵高架转内环高架","lon":"121.433752","lat":"31.177968","category":"500","category_name":"未知分类","address":"上海宜家家居附近"},{"poiid":"B2094757D665A3FD439C","title":"翠蝶川味茶餐厅","lon":"121.437018","lat":"31.182831","category":"71","category_name":"四川菜","address":"徐汇区零陵路899号飞洲国际广场B1楼(近漕溪北路)"},{"poiid":"B2094757D16DABFB469F","title":"宜家員工餐廳","lon":"121.436689386","lat":"31.1790545306","category":"500","category_name":"未知分类","address":"上海漕溪路126號2樓"},{"poiid":"B2094757D16FA1FF4492","title":"京门涮肉","lon":"121.438689386","lat":"31.179947048","category":"86","category_name":"火锅店","address":"徐汇区漕溪北路1111号上海体育馆3号楼梯旁"},{"poiid":"B2094654DA6DA0F54793","title":"上海东亚网球场","lon":"121.43814","lat":"31.18001","category":"226","category_name":"网球场","address":"零陵路800号(上海体育馆对面)"},{"poiid":"B2094655D269A4FB439C","title":"统一撞球海盜馆","lon":"121.43625","lat":"31.17745","category":"171","category_name":"台球厅","address":"徐汇区漕溪路111号苏宁电器5楼(近地铁3号线漕溪路站)"},{"poiid":"B2094757D16CA7F84798","title":"索尼产品技术服务中心","lon":"121.43560758","lat":"31.176297376","category":"260","category_name":"其他","address":"徐汇区漕溪路129-131号"},{"poiid":"B2094655D26AAAFD429A","title":"上海南华亭酒店原上海华亭宾馆二号楼","lon":"121.43492","lat":"31.181","category":"250","category_name":"公园户外","address":"上海市徐汇区中山西路2525号(漕溪路口)"},{"poiid":"B2094750DA6AA6FF4893","title":"飞洲国际","lon":"121.438926","lat":"31.180414","category":"252","category_name":"楼宇机构","address":null},{"poiid":"B2094654DA6DA1FF4399","title":"洛卡铁板烧烤","lon":"121.43594","lat":"31.17684","category":"87","category_name":"特色／地方风味餐厅","address":"徐汇区漕溪路123号(近中山西路)"},{"poiid":"B2094757D06FAAFF4799","title":"一井寿司","lon":"121.43697","lat":"31.18703","category":"95","category_name":"日本料理","address":"徐汇区漕溪北路950号(近万体馆)"},{"poiid":"B2094757D068A2FF4493","title":"肯德基 KFC (漕东店)","lon":"121.438676","lat":"31.176462","category":"68","category_name":"快餐厅","address":"徐汇区轻轨三号线漕溪路站1楼(近3号出口)"},{"poiid":"B2094757D06AA2F54698","title":"小亭酒家","lon":"121.43628","lat":"31.1823","category":"76","category_name":"上海菜","address":"徐汇区漕溪北路960号华亭宾馆旁(近华亭宾馆)"},{"poiid":"B2094750D76EA4FA439F","title":"味千拉面(漕溪路地铁站店)","lon":"121.436","lat":"31.1759","category":"95","category_name":"日本料理","address":"徐汇区漕溪路地铁站2楼"},{"poiid":"B2094655D268A6F5409A","title":"Reebok篮球公园","lon":"121.43703","lat":"31.1808","category":"229","category_name":"篮球场馆","address":""},{"poiid":"B2094757D06BA2F8419D","title":"49路上海体育馆站","lon":"121.436623","lat":"31.178729","category":"38","category_name":"公交车站","address":"上海漕溪北路公交枢纽"},{"poiid":"B2094757D065A6F9439F","title":"新吉士酒楼(漕溪北路店)","lon":"121.43558","lat":"31.18066","category":"76","category_name":"上海菜","address":"徐汇区漕溪北路1200号华亭宾馆3楼(近零陵路)"},{"poiid":"B2094654DB64AAFD499E","title":"奥林泰园村鱼翅","lon":"121.43974","lat":"31.18008","category":"72","category_name":"广东菜","address":"徐汇区中山南二路1800号奥林匹克宾馆2楼(近漕溪路)"},{"poiid":"B2094757D165A5FF4699","title":"Ikea","lon":"121.43506958","lat":"31.178269415","category":"500","category_name":"未知分类","address":"上海Ikea"},{"poiid":"B2094752DB6CA5FE4793","title":"上上谦火锅店","lon":"121.43659","lat":"31.180172","category":"247","category_name":"餐饮美食","address":"上海市 徐汇区龙华西路"},{"poiid":"B2094757D069A6F4419A","title":"吉祥日本料理(徐汇店)","lon":"121.44157","lat":"31.17851","category":"95","category_name":"日本料理","address":"徐汇区中山南二路1800号奥林匹克俱乐部1楼(近漕溪路)"},{"poiid":"B2094757D16EABF44299","title":"台湾小吃","lon":"121.43647898","lat":"31.179303835","category":"247","category_name":"餐饮美食","address":"上海飞洲国际B1"},{"poiid":"B2094757D068AAFE4998","title":"凯萨铁板烧(飞洲国际店)","lon":"121.43773","lat":"31.18272","category":"94","category_name":"西餐厅","address":"徐汇区零陵路899号飞洲国际大厦B1楼(近漕溪北路)"},{"poiid":"B2094757D068A6FB479C","title":"城市超市(永新店)","lon":"121.43848858","lat":"31.181142471","category":"118","category_name":"超级市场","address":"上海徐汇区天钥桥路131号永新坊B1楼08A(近辛耕路)  "},{"poiid":"B2094757D06EABF44998","title":"宜家家居IKEA(徐汇商场)","lon":"121.43423790178304","lat":"31.178010857800547","category":"119","category_name":"商场","address":"上海徐汇区漕溪路126号(近中山西路)"},{"poiid":"B2094655D26AA0FF489B","title":"上海体育馆","lon":"121.43837","lat":"31.18147","category":"224","category_name":"综合体育馆","address":"徐汇区漕溪北路1111号(零陵路口)"},{"poiid":"B2094655D26EAAFD459C","title":"上海大舞台","lon":"121.43837","lat":"31.18147","category":"180","category_name":"剧场","address":"徐汇区漕溪北路1111号(近中山南二路)"},{"poiid":"B2094654DB69A0F54498","title":"宜家餐厅","lon":"121.435266054","lat":"31.176502793","category":"94","category_name":"西餐厅","address":"徐汇区漕溪路126号宜家家居2楼(近中山西路)"},{"poiid":"B2094654DA6CAAFF449A","title":"华亭宾馆","lon":"121.43555991170888","lat":"31.18155784041246","category":"213","category_name":"五星级宾馆","address":"徐汇区漕溪北路1200号华亭宾馆4楼(近零陵路)"},{"poiid":"B2094757D068A3F94892","title":"上海万体馆","lon":"121.438225586","lat":"31.1821814917","category":"148","category_name":"美容美发店","address":"上海漕溪北路中山西路"},{"poiid":"B2094654DA6DA0F5469D","title":"鸿瑞兴徐汇店","lon":"121.44014","lat":"31.17986","category":"76","category_name":"上海菜","address":"徐汇区中山南二路1500号东亚体育宾馆1-3楼(上海体育场运动员之家内)"},{"poiid":"B2094757D064A1FF459C","title":"Nike篮球公园","lon":"121.43688507806542","lat":"31.182279528801896","category":"224","category_name":"综合体育馆","address":"徐汇区漕溪北路1111号东亚体育文化中心1号门(零陵路口)"},{"poiid":"B2094757D06FA3F84393","title":"悦蓉香锅牛蛙(飞洲国际店)","lon":"121.43784","lat":"31.18282","category":"71","category_name":"四川菜","address":"徐汇区零陵路899号飞洲国际广场B1楼(近漕溪北路)"},{"poiid":"B2094757D06FA7FC409C","title":"东亚展览馆","lon":"121.439664586","lat":"31.1816744818","category":"179","category_name":"音乐厅","address":"徐汇区天钥桥路666号上海八万人体育场内(近中山南二路)"},{"poiid":"B2094757D06EAAFB429E","title":"上海体育馆地铁站","lon":"121.43746609","lat":"31.182893","category":"36","category_name":"地铁站","address":"上海轨道交通 一号线 四号线 轨交上海体育馆站 轻轨 1 4"},{"poiid":"B2094757D06EAAFB4393","title":"漕溪路地铁站","lon":"121.438054","lat":"31.176627","category":"36","category_name":"地铁站","address":"上海轨道交通 三号线 轨交漕溪路站 轻轨 3"},{"poiid":"B2094750D66BA4F8459D","title":"宜家","lon":"121.43769","lat":"31.180406","category":"500","category_name":"未知分类","address":null},{"poiid":"B2094757D068ABF9499C","title":"小南国(万体馆店)","lon":"121.437889586","lat":"31.1826755013","category":"76","category_name":"上海菜","address":"徐汇区零陵路899号飞洲国际大厦5楼"},{"poiid":"B2094655D268A3F9479E","title":"漕溪路公交枢纽站","lon":"121.43729","lat":"31.1786","category":"38","category_name":"公交车站","address":"徐汇区漕溪路93号(近轻轨三号线漕溪路站)"},{"poiid":"B2094654DB65A6FA4298","title":"上海奥林匹克俱乐部","lon":"121.43959","lat":"31.18069","category":"260","category_name":"其他","address":"中山南二路1800号(近上海游泳馆)"},{"poiid":"B2094655D268A2F4499D","title":"上海体育场(二号门)","lon":"121.43698","lat":"31.18028","category":"224","category_name":"综合体育馆","address":""},{"poiid":"B2094757D06FA5F44499","title":"东亚壁球馆","lon":"121.43781","lat":"31.17969","category":"220","category_name":"运动场所","address":"徐汇区中山南二路1500号(近零陵路)"},{"poiid":"B2094752DB68A1FC4693","title":"上上谦串串香火锅(龙华西路店)","lon":"121.439194","lat":"31.180206","category":"247","category_name":"餐饮美食","address":"上海市 龙华西路565号(近中山南二路)"},{"poiid":"B2094757D06FA2FB4393","title":"萨莉亚(飞洲国际店)","lon":"121.43734","lat":"31.18285","category":"94","category_name":"西餐厅","address":"徐汇区零陵路899号飞洲国际大厦B1楼(近漕溪北路)"},{"poiid":"B2094757D06FA0FE4192","title":"争鲜回转寿司 飞洲国际店","lon":"121.436941054","lat":"31.182774793","category":"95","category_name":"日本料理","address":"徐汇区零陵路899号飞洲国际大厦B1楼(近漕溪北路)"},{"poiid":"B2094750D669A5FB489A","title":"辛香汇飞洲国际店","lon":"121.438926","lat":"31.180387","category":"247","category_name":"餐饮美食","address":null},{"poiid":"B2094654DB65A1F9499B","title":"上海旅游集散中心(上海市徐汇区漕河泾市容管理所西)","lon":"121.43862","lat":"31.17817","category":"248","category_name":"生活娱乐","address":"中山南二路2419"},{"poiid":"B2094654DB6AA6F8469D","title":"上海东亚体育宾馆","lon":"121.44016","lat":"31.17974","category":"250","category_name":"公园户外","address":"上海市徐汇区中山南二路1500号(八万人体育场旁)"},{"poiid":"B2094655D26EA5FC499D","title":"华亭宾馆宴会厅","lon":"121.43519","lat":"31.18103","category":"257","category_name":"中餐厅","address":"徐汇区漕溪北路1200号华亭宾馆内(近零陵路)查看地图"},{"poiid":"B2094757D068A7F5439B","title":"呷哺(漕溪路)","lon":"121.437984","lat":"31.177094","category":"86","category_name":"火锅店","address":"上海徐汇区吉美臣商城二楼"},{"poiid":"B2094757D068A2F44793","title":"沪闵高架转内环高架","lon":"121.433752","lat":"31.177968","category":"500","category_name":"未知分类","address":"上海宜家家居附近"},{"poiid":"B2094757D665A3FD439C","title":"翠蝶川味茶餐厅","lon":"121.437018","lat":"31.182831","category":"71","category_name":"四川菜","address":"徐汇区零陵路899号飞洲国际广场B1楼(近漕溪北路)"},{"poiid":"B2094757D16DABFB469F","title":"宜家員工餐廳","lon":"121.436689386","lat":"31.1790545306","category":"500","category_name":"未知分类","address":"上海漕溪路126號2樓"},{"poiid":"B2094757D16FA1FF4492","title":"京门涮肉","lon":"121.438689386","lat":"31.179947048","category":"86","category_name":"火锅店","address":"徐汇区漕溪北路1111号上海体育馆3号楼梯旁"},{"poiid":"B2094654DA6DA0F54793","title":"上海东亚网球场","lon":"121.43814","lat":"31.18001","category":"226","category_name":"网球场","address":"零陵路800号(上海体育馆对面)"},{"poiid":"B2094655D269A4FB439C","title":"统一撞球海盜馆","lon":"121.43625","lat":"31.17745","category":"171","category_name":"台球厅","address":"徐汇区漕溪路111号苏宁电器5楼(近地铁3号线漕溪路站)"},{"poiid":"B2094757D16CA7F84798","title":"索尼产品技术服务中心","lon":"121.43560758","lat":"31.176297376","category":"260","category_name":"其他","address":"徐汇区漕溪路129-131号"},{"poiid":"B2094655D26AAAFD429A","title":"上海南华亭酒店原上海华亭宾馆二号楼","lon":"121.43492","lat":"31.181","category":"250","category_name":"公园户外","address":"上海市徐汇区中山西路2525号(漕溪路口)"},{"poiid":"B2094750DA6AA6FF4893","title":"飞洲国际","lon":"121.438926","lat":"31.180414","category":"252","category_name":"楼宇机构","address":null},{"poiid":"B2094654DA6DA1FF4399","title":"洛卡铁板烧烤","lon":"121.43594","lat":"31.17684","category":"87","category_name":"特色／地方风味餐厅","address":"徐汇区漕溪路123号(近中山西路)"},{"poiid":"B2094757D06FAAFF4799","title":"一井寿司","lon":"121.43697","lat":"31.18703","category":"95","category_name":"日本料理","address":"徐汇区漕溪北路950号(近万体馆)"},{"poiid":"B2094757D068A2FF4493","title":"肯德基 KFC (漕东店)","lon":"121.438676","lat":"31.176462","category":"68","category_name":"快餐厅","address":"徐汇区轻轨三号线漕溪路站1楼(近3号出口)"},{"poiid":"B2094757D06AA2F54698","title":"小亭酒家","lon":"121.43628","lat":"31.1823","category":"76","category_name":"上海菜","address":"徐汇区漕溪北路960号华亭宾馆旁(近华亭宾馆)"},{"poiid":"B2094750D76EA4FA439F","title":"味千拉面(漕溪路地铁站店)","lon":"121.436","lat":"31.1759","category":"95","category_name":"日本料理","address":"徐汇区漕溪路地铁站2楼"},{"poiid":"B2094655D268A6F5409A","title":"Reebok篮球公园","lon":"121.43703","lat":"31.1808","category":"229","category_name":"篮球场馆","address":""},{"poiid":"B2094757D06BA2F8419D","title":"49路上海体育馆站","lon":"121.436623","lat":"31.178729","category":"38","category_name":"公交车站","address":"上海漕溪北路公交枢纽"},{"poiid":"B2094757D065A6F9439F","title":"新吉士酒楼(漕溪北路店)","lon":"121.43558","lat":"31.18066","category":"76","category_name":"上海菜","address":"徐汇区漕溪北路1200号华亭宾馆3楼(近零陵路)"},{"poiid":"B2094654DB64AAFD499E","title":"奥林泰园村鱼翅","lon":"121.43974","lat":"31.18008","category":"72","category_name":"广东菜","address":"徐汇区中山南二路1800号奥林匹克宾馆2楼(近漕溪路)"},{"poiid":"B2094757D165A5FF4699","title":"Ikea","lon":"121.43506958","lat":"31.178269415","category":"500","category_name":"未知分类","address":"上海Ikea"},{"poiid":"B2094752DB6CA5FE4793","title":"上上谦火锅店","lon":"121.43659","lat":"31.180172","category":"247","category_name":"餐饮美食","address":"上海市 徐汇区龙华西路"},{"poiid":"B2094757D069A6F4419A","title":"吉祥日本料理(徐汇店)","lon":"121.44157","lat":"31.17851","category":"95","category_name":"日本料理","address":"徐汇区中山南二路1800号奥林匹克俱乐部1楼(近漕溪路)"},{"poiid":"B2094757D16EABF44299","title":"台湾小吃","lon":"121.43647898","lat":"31.179303835","category":"247","category_name":"餐饮美食","address":"上海飞洲国际B1"},{"poiid":"B2094757D068AAFE4998","title":"凯萨铁板烧(飞洲国际店)","lon":"121.43773","lat":"31.18272","category":"94","category_name":"西餐厅","address":"徐汇区零陵路899号飞洲国际大厦B1楼(近漕溪北路)"},{"poiid":"B2094757D068A6FB479C","title":"城市超市(永新店)","lon":"121.43848858","lat":"31.181142471","category":"118","category_name":"超级市场","address":"上海徐汇区天钥桥路131号永新坊B1楼08A(近辛耕路)  "},{"poiid":"B2094757D06EABF44998","title":"宜家家居IKEA(徐汇商场)","lon":"121.43423790178304","lat":"31.178010857800547","category":"119","category_name":"商场","address":"上海徐汇区漕溪路126号(近中山西路)"},{"poiid":"B2094655D26AA0FF489B","title":"上海体育馆","lon":"121.43837","lat":"31.18147","category":"224","category_name":"综合体育馆","address":"徐汇区漕溪北路1111号(零陵路口)"},{"poiid":"B2094655D26EAAFD459C","title":"上海大舞台","lon":"121.43837","lat":"31.18147","category":"180","category_name":"剧场","address":"徐汇区漕溪北路1111号(近中山南二路)"},{"poiid":"B2094654DB69A0F54498","title":"宜家餐厅","lon":"121.435266054","lat":"31.176502793","category":"94","category_name":"西餐厅","address":"徐汇区漕溪路126号宜家家居2楼(近中山西路)"},{"poiid":"B2094654DA6CAAFF449A","title":"华亭宾馆","lon":"121.43555991170888","lat":"31.18155784041246","category":"213","category_name":"五星级宾馆","address":"徐汇区漕溪北路1200号华亭宾馆4楼(近零陵路)"},{"poiid":"B2094757D068A3F94892","title":"上海万体馆","lon":"121.438225586","lat":"31.1821814917","category":"148","category_name":"美容美发店","address":"上海漕溪北路中山西路"},{"poiid":"B2094654DA6DA0F5469D","title":"鸿瑞兴徐汇店","lon":"121.44014","lat":"31.17986","category":"76","category_name":"上海菜","address":"徐汇区中山南二路1500号东亚体育宾馆1-3楼(上海体育场运动员之家内)"},{"poiid":"B2094757D064A1FF459C","title":"Nike篮球公园","lon":"121.43688507806542","lat":"31.182279528801896","category":"224","category_name":"综合体育馆","address":"徐汇区漕溪北路1111号东亚体育文化中心1号门(零陵路口)"},{"poiid":"B2094757D06FA3F84393","title":"悦蓉香锅牛蛙(飞洲国际店)","lon":"121.43784","lat":"31.18282","category":"71","category_name":"四川菜","address":"徐汇区零陵路899号飞洲国际广场B1楼(近漕溪北路)"},{"poiid":"B2094757D06FA7FC409C","title":"东亚展览馆","lon":"121.439664586","lat":"31.1816744818","category":"179","category_name":"音乐厅","address":"徐汇区天钥桥路666号上海八万人体育场内(近中山南二路)"},{"poiid":"B2094757D06EAAFB429E","title":"上海体育馆地铁站","lon":"121.43746609","lat":"31.182893","category":"36","category_name":"地铁站","address":"上海轨道交通 一号线 四号线 轨交上海体育馆站 轻轨 1 4"},{"poiid":"B2094757D06EAAFB4393","title":"漕溪路地铁站","lon":"121.438054","lat":"31.176627","category":"36","category_name":"地铁站","address":"上海轨道交通 三号线 轨交漕溪路站 轻轨 3"},{"poiid":"B2094750D66BA4F8459D","title":"宜家","lon":"121.43769","lat":"31.180406","category":"500","category_name":"未知分类","address":null},{"poiid":"B2094757D068ABF9499C","title":"小南国(万体馆店)","lon":"121.437889586","lat":"31.1826755013","category":"76","category_name":"上海菜","address":"徐汇区零陵路899号飞洲国际大厦5楼"},{"poiid":"B2094655D268A3F9479E","title":"漕溪路公交枢纽站","lon":"121.43729","lat":"31.1786","category":"38","category_name":"公交车站","address":"徐汇区漕溪路93号(近轻轨三号线漕溪路站)"},{"poiid":"B2094654DB65A6FA4298","title":"上海奥林匹克俱乐部","lon":"121.43959","lat":"31.18069","category":"260","category_name":"其他","address":"中山南二路1800号(近上海游泳馆)"},{"poiid":"B2094655D268A2F4499D","title":"上海体育场(二号门)","lon":"121.43698","lat":"31.18028","category":"224","category_name":"综合体育馆","address":""},{"poiid":"B2094757D06FA5F44499","title":"东亚壁球馆","lon":"121.43781","lat":"31.17969","category":"220","category_name":"运动场所","address":"徐汇区中山南二路1500号(近零陵路)"},{"poiid":"B2094752DB68A1FC4693","title":"上上谦串串香火锅(龙华西路店)","lon":"121.439194","lat":"31.180206","category":"247","category_name":"餐饮美食","address":"上海市 龙华西路565号(近中山南二路)"},{"poiid":"B2094757D06FA2FB4393","title":"萨莉亚(飞洲国际店)","lon":"121.43734","lat":"31.18285","category":"94","category_name":"西餐厅","address":"徐汇区零陵路899号飞洲国际大厦B1楼(近漕溪北路)"},{"poiid":"B2094757D06FA0FE4192","title":"争鲜回转寿司 飞洲国际店","lon":"121.436941054","lat":"31.182774793","category":"95","category_name":"日本料理","address":"徐汇区零陵路899号飞洲国际大厦B1楼(近漕溪北路)"},{"poiid":"B2094750D669A5FB489A","title":"辛香汇飞洲国际店","lon":"121.438926","lat":"31.180387","category":"247","category_name":"餐饮美食","address":null},{"poiid":"B2094654DB65A1F9499B","title":"上海旅游集散中心(上海市徐汇区漕河泾市容管理所西)","lon":"121.43862","lat":"31.17817","category":"248","category_name":"生活娱乐","address":"中山南二路2419"},{"poiid":"B2094654DB6AA6F8469D","title":"上海东亚体育宾馆","lon":"121.44016","lat":"31.17974","category":"250","category_name":"公园户外","address":"上海市徐汇区中山南二路1500号(八万人体育场旁)"},{"poiid":"B2094655D26EA5FC499D","title":"华亭宾馆宴会厅","lon":"121.43519","lat":"31.18103","category":"257","category_name":"中餐厅","address":"徐汇区漕溪北路1200号华亭宾馆内(近零陵路)查看地图"},{"poiid":"B2094757D068A7F5439B","title":"呷哺(漕溪路)","lon":"121.437984","lat":"31.177094","category":"86","category_name":"火锅店","address":"上海徐汇区吉美臣商城二楼"},{"poiid":"B2094757D068A2F44793","title":"沪闵高架转内环高架","lon":"121.433752","lat":"31.177968","category":"500","category_name":"未知分类","address":"上海宜家家居附近"},{"poiid":"B2094757D665A3FD439C","title":"翠蝶川味茶餐厅","lon":"121.437018","lat":"31.182831","category":"71","category_name":"四川菜","address":"徐汇区零陵路899号飞洲国际广场B1楼(近漕溪北路)"},{"poiid":"B2094757D16DABFB469F","title":"宜家員工餐廳","lon":"121.436689386","lat":"31.1790545306","category":"500","category_name":"未知分类","address":"上海漕溪路126號2樓"},{"poiid":"B2094757D16FA1FF4492","title":"京门涮肉","lon":"121.438689386","lat":"31.179947048","category":"86","category_name":"火锅店","address":"徐汇区漕溪北路1111号上海体育馆3号楼梯旁"},{"poiid":"B2094654DA6DA0F54793","title":"上海东亚网球场","lon":"121.43814","lat":"31.18001","category":"226","category_name":"网球场","address":"零陵路800号(上海体育馆对面)"},{"poiid":"B2094655D269A4FB439C","title":"统一撞球海盜馆","lon":"121.43625","lat":"31.17745","category":"171","category_name":"台球厅","address":"徐汇区漕溪路111号苏宁电器5楼(近地铁3号线漕溪路站)"},{"poiid":"B2094757D16CA7F84798","title":"索尼产品技术服务中心","lon":"121.43560758","lat":"31.176297376","category":"260","category_name":"其他","address":"徐汇区漕溪路129-131号"},{"poiid":"B2094655D26AAAFD429A","title":"上海南华亭酒店原上海华亭宾馆二号楼","lon":"121.43492","lat":"31.181","category":"250","category_name":"公园户外","address":"上海市徐汇区中山西路2525号(漕溪路口)"},{"poiid":"B2094750DA6AA6FF4893","title":"飞洲国际","lon":"121.438926","lat":"31.180414","category":"252","category_name":"楼宇机构","address":null},{"poiid":"B2094654DA6DA1FF4399","title":"洛卡铁板烧烤","lon":"121.43594","lat":"31.17684","category":"87","category_name":"特色／地方风味餐厅","address":"徐汇区漕溪路123号(近中山西路)"},{"poiid":"B2094757D06FAAFF4799","title":"一井寿司","lon":"121.43697","lat":"31.18703","category":"95","category_name":"日本料理","address":"徐汇区漕溪北路950号(近万体馆)"},{"poiid":"B2094757D068A2FF4493","title":"肯德基 KFC (漕东店)","lon":"121.438676","lat":"31.176462","category":"68","category_name":"快餐厅","address":"徐汇区轻轨三号线漕溪路站1楼(近3号出口)"},{"poiid":"B2094757D06AA2F54698","title":"小亭酒家","lon":"121.43628","lat":"31.1823","category":"76","category_name":"上海菜","address":"徐汇区漕溪北路960号华亭宾馆旁(近华亭宾馆)"},{"poiid":"B2094750D76EA4FA439F","title":"味千拉面(漕溪路地铁站店)","lon":"121.436","lat":"31.1759","category":"95","category_name":"日本料理","address":"徐汇区漕溪路地铁站2楼"},{"poiid":"B2094655D268A6F5409A","title":"Reebok篮球公园","lon":"121.43703","lat":"31.1808","category":"229","category_name":"篮球场馆","address":""},{"poiid":"B2094757D06BA2F8419D","title":"49路上海体育馆站","lon":"121.436623","lat":"31.178729","category":"38","category_name":"公交车站","address":"上海漕溪北路公交枢纽"},{"poiid":"B2094757D065A6F9439F","title":"新吉士酒楼(漕溪北路店)","lon":"121.43558","lat":"31.18066","category":"76","category_name":"上海菜","address":"徐汇区漕溪北路1200号华亭宾馆3楼(近零陵路)"},{"poiid":"B2094654DB64AAFD499E","title":"奥林泰园村鱼翅","lon":"121.43974","lat":"31.18008","category":"72","category_name":"广东菜","address":"徐汇区中山南二路1800号奥林匹克宾馆2楼(近漕溪路)"},{"poiid":"B2094757D165A5FF4699","title":"Ikea","lon":"121.43506958","lat":"31.178269415","category":"500","category_name":"未知分类","address":"上海Ikea"},{"poiid":"B2094752DB6CA5FE4793","title":"上上谦火锅店","lon":"121.43659","lat":"31.180172","category":"247","category_name":"餐饮美食","address":"上海市 徐汇区龙华西路"},{"poiid":"B2094757D069A6F4419A","title":"吉祥日本料理(徐汇店)","lon":"121.44157","lat":"31.17851","category":"95","category_name":"日本料理","address":"徐汇区中山南二路1800号奥林匹克俱乐部1楼(近漕溪路)"},{"poiid":"B2094757D16EABF44299","title":"台湾小吃","lon":"121.43647898","lat":"31.179303835","category":"247","category_name":"餐饮美食","address":"上海飞洲国际B1"},{"poiid":"B2094757D068AAFE4998","title":"凯萨铁板烧(飞洲国际店)","lon":"121.43773","lat":"31.18272","category":"94","category_name":"西餐厅","address":"徐汇区零陵路899号飞洲国际大厦B1楼(近漕溪北路)"},{"poiid":"B2094757D068A6FB479C","title":"城市超市(永新店)","lon":"121.43848858","lat":"31.181142471","category":"118","category_name":"超级市场","address":"上海徐汇区天钥桥路131号永新坊B1楼08A(近辛耕路)  "}]