[{"poiid":"B2094757DA6EA7F4489F","title":"外婆家(百联徐汇店)","lon":"121.436862945559","lat":"31.1969076011097","category":"75","category_name":"浙江菜","address":"徐汇区华山路2038号百联徐汇购物广场3楼"},{"poiid":"B2094750D268A4FE449E","title":"海底捞火锅店 徐家汇店","lon":"121.43703","lat":"31.197456","category":"86","category_name":"火锅店","address":"徐汇区华山路2068号百联徐汇商业广场南5楼(近徐家汇地铁站)"},{"poiid":"B2094655D26AABF8489C","title":"小小花园 LE PETIT JARDIN","lon":"121.43694071246","lat":"31.200279747478","category":"260","category_name":"其他","address":"徐汇区康平路220号(天平路华山路之间)"},{"poiid":"B2094757D06EAAFD449F","title":"新利查西餐馆(广元路店)","lon":"121.43839813","lat":"31.198795189","category":"94","category_name":"西餐厅","address":"徐汇区广元路196号甲(近天平路)"},{"poiid":"B2094654DA6DABF84992","title":"国际和平妇幼保健院","lon":"121.43799","lat":"31.19649","category":"251","category_name":"出行住宿","address":"上海徐汇区衡山路910号(港汇广场对面)"},{"poiid":"B2094750DB69A5F9429F","title":"好乐迪","lon":"121.437736","lat":"31.196538","category":"248","category_name":"生活娱乐","address":"华山路2088号徐汇百联四楼"},{"poiid":"B2094654DA6EA0FC4099","title":"上海交通大学徐汇校区(东门)","lon":"121.43654","lat":"31.19868","category":"52","category_name":"高等院校","address":"华山路1954"},{"poiid":"B2094757DA69A1FA4498","title":"百联徐汇商业广场","lon":"121.43708","lat":"31.19745","category":"119","category_name":"商场","address":"徐汇区华山路2038号(近广元西路)"},{"poiid":"B2094654DA6DA3FF429B","title":"城开国际大厦","lon":"121.438","lat":"31.1994","category":"46","category_name":"楼宇","address":"宝山区友谊路1588弄"},{"poiid":"B2094654DB6AA6F8479F","title":"天平宾馆","lon":"121.43934","lat":"31.19739","category":"215","category_name":"三星级宾馆","address":"徐汇区天平路185号(近衡山路)"},{"poiid":"B2094750D56EA6FB429E","title":"新衡山电影院","lon":"121.438407","lat":"31.1975","category":"178","category_name":"电影院","address":"徐汇区衡山路838号(天平路口)"},{"poiid":"B2094757D06FA0F54099","title":"美心酒家(华山路店)","lon":"121.43735","lat":"31.19698","category":"72","category_name":"广东菜","address":"徐汇区华山路2018号新路达商厦5楼(近广元西路)"},{"poiid":"B2094757D06FA1F94093","title":"大西洋电子娱乐中心","lon":"121.43709","lat":"31.1975","category":"173","category_name":"游戏厅","address":"徐汇区华山路2018号大西洋娱乐中心6楼(近广元西路)"},{"poiid":"B2094654DB64A4FF449A","title":"味千拉面博家楼店","lon":"121.43709","lat":"31.19857","category":"95","category_name":"日本料理","address":"徐汇区华山路1859号1楼(近广元西路)"},{"poiid":"B2094757D068A3FB499B","title":"上海交通大学新上院","lon":"121.43655","lat":"31.198691","category":"52","category_name":"高等院校","address":"上海市华山路1954号"},{"poiid":"B2094654DB6BA5F54193","title":"南洋模范中学","lon":"121.43667","lat":"31.20099","category":"55","category_name":"中学","address":"天平路200"},{"poiid":"B2094757D068A3F9419B","title":"梅园村酒家(广元路店)","lon":"121.43761","lat":"31.19646","category":"76","category_name":"上海菜","address":"徐汇区华山路2088号汇银广场新路达商厦6楼(近港汇广场)"},{"poiid":"B2094752D265A4FC479F","title":"70后饭吧","lon":"121.438988","lat":"31.197917","category":"247","category_name":"餐饮美食","address":"徐家汇汇金商厦"},{"poiid":"B2094752D46DABF94792","title":"义面屋","lon":"121.43645","lat":"31.197101","category":"247","category_name":"餐饮美食","address":"华山路2038号百联徐汇商业广场3楼(近广元西路)"},{"poiid":"B2094757D06AA1FE449A","title":"正宜丰","lon":"121.43801933","lat":"31.199464491","category":"257","category_name":"中餐厅","address":"徐汇区天平路137号(康平路与广元路中间)"},{"poiid":"B2094757DA6FA3FD449F","title":"呷哺呷哺(百联徐汇店)","lon":"121.44219","lat":"31.19597","category":"86","category_name":"火锅店","address":"徐汇区华山路2038号百联徐汇商业广场3楼G49-F03-1-002号商铺"},{"poiid":"B2094654DA6CAAFD4093","title":"元福大厦","lon":"121.43874095254","lat":"31.19830331843","category":"46","category_name":"楼宇","address":"上海市徐汇区虹桥路188号"},{"poiid":"B2094654DA6CAAF4449F","title":"新路达商厦","lon":"121.43689","lat":"31.19781","category":"119","category_name":"商场","address":"徐汇区华山路1988号"},{"poiid":"B2094752D36FA5FA479D","title":"70后饭吧","lon":"121.43639","lat":"31.19789","category":"247","category_name":"餐饮美食","address":"上海市肇嘉浜路汇金百货7楼"},{"poiid":"B2094751D565A1FC4499","title":"百嘉乐vshow","lon":"121.438392","lat":"31.198287","category":"248","category_name":"生活娱乐","address":"天钥桥路123号"},{"poiid":"B2094753DA64A6FA4393","title":"港汇恒隆广场","lon":"121.438941","lat":"31.198213","category":"500","category_name":"未知分类","address":"上海市 徐家汇"},{"poiid":"B2094454D26AAAFB409C","title":"查厘士","lon":"121.43766","lat":"31.196874","category":"247","category_name":"餐饮美食","address":"上海市 华山路2038号4F"},{"poiid":"B2094757D068AAF54292","title":"辣肉面大王","lon":"121.43841","lat":"31.19983","category":"68","category_name":"快餐厅","address":"徐汇区天平路220号(近康平路)"},{"poiid":"B2094757D064A4F84692","title":"上海交通大学徐汇校区图书馆","lon":"121.43806457","lat":"31.198844909","category":"253","category_name":"校园生活","address":"徐汇区华山路1954号上海交通大学内"},{"poiid":"B2094750DB65ABF5459C","title":"大渔铁板烧","lon":"121.437652","lat":"31.196443","category":"247","category_name":"餐饮美食","address":"华山路2038号百联徐汇购物广场3楼"},{"poiid":"B2094655D268A1FC489C","title":"天平小区","lon":"121.43919","lat":"31.198286","category":"47","category_name":"住宅区","address":"天平路179弄1-32号"},{"poiid":"B2094757D464A7FD419E","title":"牧羊餐厅","lon":"121.43730728468","lat":"31.199917951653","category":"76","category_name":"上海菜","address":"徐汇区天平路208弄车间1号(近康平路)"},{"poiid":"B2094757DA6EA6F4449E","title":"渔寿司","lon":"121.43692731857","lat":"31.1974949505109","category":"95","category_name":"日本料理","address":"徐汇区华山路2038号百联徐汇购物广场3楼"},{"poiid":"B2094752D16CA3F54393","title":"上海港汇恒隆广场5F小辉哥火锅","lon":"121.438755","lat":"31.197921","category":"500","category_name":"未知分类","address":null},{"poiid":"B2094757D065A0FF459B","title":"汇金百货B1超市","lon":"121.438954586","lat":"31.1975307916","category":"118","category_name":"超级市场","address":"上海肇嘉浜路1000号"},{"poiid":"B2094757D069A2FB409C","title":"莎拂利(天平店)","lon":"121.43762","lat":"31.20045","category":"94","category_name":"西餐厅","address":"徐汇区天平路220号(近康平路)"},{"poiid":"B2094757D06AA2FB459E","title":"大回音KTV量贩","lon":"121.437302","lat":"31.196714","category":"170","category_name":"KTV","address":"上海徐汇区华山路汇银广场7M"},{"poiid":"B2094757D06FAAFC459D","title":"中国工商银行(徐家汇支行)","lon":"121.43691","lat":"31.19748","category":"150","category_name":"银行","address":"徐汇区广元西路8号"},{"poiid":"B2094654DA6DABFE499F","title":"上海交通大学医学院附属国际和平妇幼保健院生殖医学中心","lon":"121.43977","lat":"31.1989","category":"162","category_name":"医院","address":"广元路145"},{"poiid":"B2094757D66BA3F94298","title":"村夫烤鱼 广元路店","lon":"121.43862","lat":"31.19887","category":"68","category_name":"快餐厅","address":"徐汇区广元路196号(近天平路)"},{"poiid":"B2094655D26AA0FE489D","title":"母婴之家","lon":"121.43698","lat":"31.19723","category":"247","category_name":"餐饮美食","address":"www.muyingzhijia.com"},{"poiid":"B2094752DB6AAAF5449C","title":"義麵屋La Pasta（徐家匯店）","lon":"121.436391","lat":"31.197095","category":"247","category_name":"餐饮美食","address":"上海市 南京西路819号中创大厦5楼507室"},{"poiid":"B2094753D569A4F44893","title":"潮州府砂锅粥","lon":"121.436004","lat":"31.197999","category":"247","category_name":"餐饮美食","address":"上海市 上海市徐汇区广元西路60号（近华山路）"},{"poiid":"B209475CD365ABF84393","title":"金时代顺风大酒店 汇银广场店","lon":"121.43743","lat":"31.19686","category":"76","category_name":"上海菜","address":"华山路2038号汇银广场5楼"},{"poiid":"B2094750D76EA4F4439C","title":"交通大学教师活动中心","lon":"121.437","lat":"31.1988","category":"76","category_name":"上海菜","address":"徐汇区华山路1954号上海交通大学内(近广元西路)"},{"poiid":"B2094757D069AAFB409E","title":"大西洋保齡球館","lon":"121.4365751","lat":"31.197541431","category":"220","category_name":"运动场所","address":"上海華山路1988號B1"},{"poiid":"B2094752D568A7FA4493","title":"pizzamarzano","lon":"121.438778","lat":"31.197621","category":"247","category_name":"餐饮美食","address":"港汇广场"},{"poiid":"B2094757D068ABFE469E","title":"OLE西班牙语文化基地(徐汇校区)","lon":"121.43752","lat":"31.19644","category":"190","category_name":"培训机构","address":"徐汇区华山路2018号汇银广场北楼15楼(近广元西路)"},{"poiid":"B2094654DB65A1FD4699","title":"麦当劳新路达商厦店","lon":"121.43728","lat":"31.19701","category":"68","category_name":"快餐厅","address":"上海徐汇区华山路2018号汇银广场内(近广元西路)"},{"poiid":"B2094757D465A0F4459B","title":"小巷面馆","lon":"121.437625","lat":"31.198714","category":"68","category_name":"快餐厅","address":"徐汇区广元路208弄(近华山路)"},{"poiid":"B2094757DA6EA7F4489F","title":"外婆家(百联徐汇店)","lon":"121.436862945559","lat":"31.1969076011097","category":"75","category_name":"浙江菜","address":"徐汇区华山路2038号百联徐汇购物广场3楼"},{"poiid":"B2094750D268A4FE449E","title":"海底捞火锅店 徐家汇店","lon":"121.43703","lat":"31.197456","category":"86","category_name":"火锅店","address":"徐汇区华山路2068号百联徐汇商业广场南5楼(近徐家汇地铁站)"},{"poiid":"B2094655D26AABF8489C","title":"小小花园 LE PETIT JARDIN","lon":"121.43694071246","lat":"31.200279747478","category":"260","category_name":"其他","address":"徐汇区康平路220号(天平路华山路之间)"},{"poiid":"B2094757D06EAAFD449F","title":"新利查西餐馆(广元路店)","lon":"121.43839813","lat":"31.198795189","category":"94","category_name":"西餐厅","address":"徐汇区广元路196号甲(近天平路)"},{"poiid":"B2094654DA6DABF84992","title":"国际和平妇幼保健院","lon":"121.43799","lat":"31.19649","category":"251","category_name":"出行住宿","address":"上海徐汇区衡山路910号(港汇广场对面)"},{"poiid":"B2094750DB69A5F9429F","title":"好乐迪","lon":"121.437736","lat":"31.196538","category":"248","category_name":"生活娱乐","address":"华山路2088号徐汇百联四楼"},{"poiid":"B2094654DA6EA0FC4099","title":"上海交通大学徐汇校区(东门)","lon":"121.43654","lat":"31.19868","category":"52","category_name":"高等院校","address":"华山路1954"},{"poiid":"B2094757DA69A1FA4498","title":"百联徐汇商业广场","lon":"121.43708","lat":"31.19745","category":"119","category_name":"商场","address":"徐汇区华山路2038号(近广元西路)"},{"poiid":"B2094654DA6DA3FF429B","title":"城开国际大厦","lon":"121.438","lat":"31.1994","category":"46","category_name":"楼宇","address":"宝山区友谊路1588弄"},{"poiid":"B2094654DB6AA6F8479F","title":"天平宾馆","lon":"121.43934","lat":"31.19739","category":"215","category_name":"三星级宾馆","address":"徐汇区天平路185号(近衡山路)"},{"poiid":"B2094750D56EA6FB429E","title":"新衡山电影院","lon":"121.438407","lat":"31.1975","category":"178","category_name":"电影院","address":"徐汇区衡山路838号(天平路口)"},{"poiid":"B2094757D06FA0F54099","title":"美心酒家(华山路店)","lon":"121.43735","lat":"31.19698","category":"72","category_name":"广东菜","address":"徐汇区华山路2018号新路达商厦5楼(近广元西路)"},{"poiid":"B2094757D06FA1F94093","title":"大西洋电子娱乐中心","lon":"121.43709","lat":"31.1975","category":"173","category_name":"游戏厅","address":"徐汇区华山路2018号大西洋娱乐中心6楼(近广元西路)"},{"poiid":"B2094654DB64A4FF449A","title":"味千拉面博家楼店","lon":"121.43709","lat":"31.19857","category":"95","category_name":"日本料理","address":"徐汇区华山路1859号1楼(近广元西路)"},{"poiid":"B2094757D068A3FB499B","title":"上海交通大学新上院","lon":"121.43655","lat":"31.198691","category":"52","category_name":"高等院校","address":"上海市华山路1954号"},{"poiid":"B2094654DB6BA5F54193","title":"南洋模范中学","lon":"121.43667","lat":"31.20099","category":"55","category_name":"中学","address":"天平路200"},{"poiid":"B2094757D068A3F9419B","title":"梅园村酒家(广元路店)","lon":"121.43761","lat":"31.19646","category":"76","category_name":"上海菜","address":"徐汇区华山路2088号汇银广场新路达商厦6楼(近港汇广场)"},{"poiid":"B2094752D265A4FC479F","title":"70后饭吧","lon":"121.438988","lat":"31.197917","category":"247","category_name":"餐饮美食","address":"徐家汇汇金商厦"},{"poiid":"B2094752D46DABF94792","title":"义面屋","lon":"121.43645","lat":"31.197101","category":"247","category_name":"餐饮美食","address":"华山路2038号百联徐汇商业广场3楼(近广元西路)"},{"poiid":"B2094757D06AA1FE449A","title":"正宜丰","lon":"121.43801933","lat":"31.199464491","category":"257","category_name":"中餐厅","address":"徐汇区天平路137号(康平路与广元路中间)"},{"poiid":"B2094757DA6FA3FD449F","title":"呷哺呷哺(百联徐汇店)","lon":"121.44219","lat":"31.19597","category":"86","category_name":"火锅店","address":"徐汇区华山路2038号百联徐汇商业广场3楼G49-F03-1-002号商铺"},{"poiid":"B2094654DA6CAAFD4093","title":"元福大厦","lon":"121.43874095254","lat":"31.19830331843","category":"46","category_name":"楼宇","address":"上海市徐汇区虹桥路188号"},{"poiid":"B2094654DA6CAAF4449F","title":"新路达商厦","lon":"121.43689","lat":"31.19781","category":"119","category_name":"商场","address":"徐汇区华山路1988号"},{"poiid":"B2094752D36FA5FA479D","title":"70后饭吧","lon":"121.43639","lat":"31.19789","category":"247","category_name":"餐饮美食","address":"上海市肇嘉浜路汇金百货7楼"},{"poiid":"B2094751D565A1FC4499","title":"百嘉乐vshow","lon":"121.438392","lat":"31.198287","category":"248","category_name":"生活娱乐","address":"天钥桥路123号"},{"poiid":"B2094753DA64A6FA4393","title":"港汇恒隆广场","lon":"121.438941","lat":"31.198213","category":"500","category_name":"未知分类","address":"上海市 徐家汇"},{"poiid":"B2094454D26AAAFB409C","title":"查厘士","lon":"121.43766","lat":"31.196874","category":"247","category_name":"餐饮美食","address":"上海市 华山路2038号4F"},{"poiid":"B2094757D068AAF54292","title":"辣肉面大王","lon":"121.43841","lat":"31.19983","category":"68","category_name":"快餐厅","address":"徐汇区天平路220号(近康平路)"},{"poiid":"B2094757D064A4F84692","title":"上海交通大学徐汇校区图书馆","lon":"121.43806457","lat":"31.198844909","category":"253","category_name":"校园生活","address":"徐汇区华山路1954号上海交通大学内"},{"poiid":"B2094750DB65ABF5459C","title":"大渔铁板烧","lon":"121.437652","lat":"31.196443","category":"247","category_name":"餐饮美食","address":"华山路2038号百联徐汇购物广场3楼"},{"poiid":"B2094655D268A1FC489C","title":"天平小区","lon":"121.43919","lat":"31.198286","category":"47","category_name":"住宅区","address":"天平路179弄1-32号"},{"poiid":"B2094757D464A7FD419E","title":"牧羊餐厅","lon":"121.43730728468","lat":"31.199917951653","category":"76","category_name":"上海菜","address":"徐汇区天平路208弄车间1号(近康平路)"},{"poiid":"B2094757DA6EA6F4449E","title":"渔寿司","lon":"121.43692731857","lat":"31.1974949505109","category":"95","category_name":"日本料理","address":"徐汇区华山路2038号百联徐汇购物广场3楼"},{"poiid":"B2094752D16CA3F54393","title":"上海港汇恒隆广场5F小辉哥火锅","lon":"121.438755","lat":"31.197921","category":"500","category_name":"未知分类","address":null},{"poiid":"B2094757D065A0FF459B","title":"汇金百货B1超市","lon":"121.438954586","lat":"31.1975307916","category":"118","category_name":"超级市场","address":"上海肇嘉浜路1000号"},{"poiid":"B2094757D069A2FB409C","title":"莎拂利(天平店)","lon":"121.43762","lat":"31.20045","category":"94","category_name":"西餐厅","address":"徐汇区天平路220号(近康平路)"},{"poiid":"B2094757D06AA2FB459E","title":"大回音KTV量贩","lon":"121.437302","lat":"31.196714","category":"170","category_name":"KTV","address":"上海徐汇区华山路汇银广场7M"},{"poiid":"B2094757D06FAAFC459D","title":"中国工商银行(徐家汇支行)","lon":"121.43691","lat":"31.19748","category":"150","category_name":"银行","address":"徐汇区广元西路8号"},{"poiid":"B2094654DA6DABFE499F","title":"上海交通大学医学院附属国际和平妇幼保健院生殖医学中心","lon":"121.43977","lat":"31.1989","category":"162","category_name":"医院","address":"广元路145"},{"poiid":"B2094757D66BA3F94298","title":"村夫烤鱼 广元路店","lon":"121.43862","lat":"31.19887","category":"68","category_name":"快餐厅","address":"徐汇区广元路196号(近天平路)"},{"poiid":"B2094655D26AA0FE489D","title":"母婴之家","lon":"121.43698","lat":"31.19723","category":"247","category_name":"餐饮美食","address":"www.muyingzhijia.com"},{"poiid":"B2094752DB6AAAF5449C","title":"義麵屋La Pasta（徐家匯店）","lon":"121.436391","lat":"31.197095","category":"247","category_name":"餐饮美食","address":"上海市 南京西路819号中创大厦5楼507室"},{"poiid":"B2094753D569A4F44893","title":"潮州府砂锅粥","lon":"121.436004","lat":"31.197999","category":"247","category_name":"餐饮美食","address":"上海市 上海市徐汇区广元西路60号（近华山路）"},{"poiid":"B209475CD365ABF84393","title":"金时代顺风大酒店 汇银广场店","lon":"121.43743","lat":"31.19686","category":"76","category_name":"上海菜","address":"华山路2038号汇银广场5楼"},{"poiid":"B2094750D76EA4F4439C","title":"交通大学教师活动中心","lon":"121.437","lat":"31.1988","category":"76","category_name":"上海菜","address":"徐汇区华山路1954号上海交通大学内(近广元西路)"},{"poiid":"B2094757D069AAFB409E","title":"大西洋保齡球館","lon":"121.4365751","lat":"31.197541431","category":"220","category_name":"运动场所","address":"上海華山路1988號B1"},{"poiid":"B2094752D568A7FA4493","title":"pizzamarzano","lon":"121.438778","lat":"31.197621","category":"247","category_name":"餐饮美食","address":"港汇广场"},{"poiid":"B2094757D068ABFE469E","title":"OLE西班牙语文化基地(徐汇校区)","lon":"121.43752","lat":"31.19644","category":"190","category_name":"培训机构","address":"徐汇区华山路2018号汇银广场北楼15楼(近广元西路)"},{"poiid":"B2094654DB65A1FD4699","title":"麦当劳新路达商厦店","lon":"121.43728","lat":"31.19701","category":"68","category_name":"快餐厅","address":"上海徐汇区华山路2018号汇银广场内(近广元西路)"},{"poiid":"B2094757D465A0F4459B","title":"小巷面馆","lon":"121.437625","lat":"31.198714","category":"68","category_name":"快餐厅","address":"徐汇区广元路208弄(近华山路)"},{"poiid":"B2094757DA6EA7F4489F","title":"外婆家(百联徐汇店)","lon":"121.436862945559","lat":"31.1969076011097","category":"75","category_name":"浙江菜","address":"徐汇区华山路2038号百联徐汇购物广场3楼"},{"poiid":"B2094750D268A4FE449E","title":"海底捞火锅店 徐家汇店","lon":"121.43703","lat":"31.197456","category":"86","category_name":"火锅店","address":"徐汇区华山路2068号百联徐汇商业广场南5楼(近徐家汇地铁站)"},{"poiid":"B2094655D26AABF8489C","title":"小小花园 LE PETIT JARDIN","lon":"121.43694071246","lat":"31.200279747478","category":"260","category_name":"其他","address":"徐汇区康平路220号(天平路华山路之间)"},{"poiid":"B2094757D06EAAFD449F","title":"新利查西餐馆(广元路店)","lon":"121.43839813","lat":"31.198795189","category":"94","category_name":"西餐厅","address":"徐汇区广元路196号甲(近天平路)"},{"poiid":"B2094654DA6DABF84992","title":"国际和平妇幼保健院","lon":"121.43799","lat":"31.19649","category":"251","category_name":"出行住宿","address":"上海徐汇区衡山路910号(港汇广场对面)"},{"poiid":"B2094750DB69A5F9429F","title":"好乐迪","lon":"121.437736","lat":"31.196538","category":"248","category_name":"生活娱乐","address":"华山路2088号徐汇百联四楼"},{"poiid":"B2094654DA6EA0FC4099","title":"上海交通大学徐汇校区(东门)","lon":"121.43654","lat":"31.19868","category":"52","category_name":"高等院校","address":"华山路1954"},{"poiid":"B2094757DA69A1FA4498","title":"百联徐汇商业广场","lon":"121.43708","lat":"31.19745","category":"119","category_name":"商场","address":"徐汇区华山路2038号(近广元西路)"},{"poiid":"B2094654DA6DA3FF429B","title":"城开国际大厦","lon":"121.438","lat":"31.1994","category":"46","category_name":"楼宇","address":"宝山区友谊路1588弄"},{"poiid":"B2094654DB6AA6F8479F","title":"天平宾馆","lon":"121.43934","lat":"31.19739","category":"215","category_name":"三星级宾馆","address":"徐汇区天平路185号(近衡山路)"},{"poiid":"B2094750D56EA6FB429E","title":"新衡山电影院","lon":"121.438407","lat":"31.1975","category":"178","category_name":"电影院","address":"徐汇区衡山路838号(天平路口)"},{"poiid":"B2094757D06FA0F54099","title":"美心酒家(华山路店)","lon":"121.43735","lat":"31.19698","category":"72","category_name":"广东菜","address":"徐汇区华山路2018号新路达商厦5楼(近广元西路)"},{"poiid":"B2094757D06FA1F94093","title":"大西洋电子娱乐中心","lon":"121.43709","lat":"31.1975","category":"173","category_name":"游戏厅","address":"徐汇区华山路2018号大西洋娱乐中心6楼(近广元西路)"},{"poiid":"B2094654DB64A4FF449A","title":"味千拉面博家楼店","lon":"121.43709","lat":"31.19857","category":"95","category_name":"日本料理","address":"徐汇区华山路1859号1楼(近广元西路)"},{"poiid":"B2094757D068A3FB499B","title":"上海交通大学新上院","lon":"121.43655","lat":"31.198691","category":"52","category_name":"高等院校","address":"上海市华山路1954号"},{"poiid":"B2094654DB6BA5F54193","title":"南洋模范中学","lon":"121.43667","lat":"31.20099","category":"55","category_name":"中学","address":"天平路200"},{"poiid":"B2094757D068A3F9419B","title":"梅园村酒家(广元路店)","lon":"121.43761","lat":"31.19646","category":"76","category_name":"上海菜","address":"徐汇区华山路2088号汇银广场新路达商厦6楼(近港汇广场)"},{"poiid":"B2094752D265A4FC479F","title":"70后饭吧","lon":"121.438988","lat":"31.197917","category":"247","category_name":"餐饮美食","address":"徐家汇汇金商厦"},{"poiid":"B2094752D46DABF94792","title":"义面屋","lon":"121.43645","lat":"31.197101","category":"247","category_name":"餐饮美食","address":"华山路2038号百联徐汇商业广场3楼(近广元西路)"},{"poiid":"B2094757D06AA1FE449A","title":"正宜丰","lon":"121.43801933","lat":"31.199464491","category":"257","category_name":"中餐厅","address":"徐汇区天平路137号(康平路与广元路中间)"},{"poiid":"B2094757DA6FA3FD449F","title":"呷哺呷哺(百联徐汇店)","lon":"121.44219","lat":"31.19597","category":"86","category_name":"火锅店","address":"徐汇区华山路2038号百联徐汇商业广场3楼G49-F03-1-002号商铺"},{"poiid":"B2094654DA6CAAFD4093","title":"元福大厦","lon":"121.43874095254","lat":"31.19830331843","category":"46","category_name":"楼宇","address":"上海市徐汇区虹桥路188号"},{"poiid":"B2094654DA6CAAF4449F","title":"新路达商厦","lon":"121.43689","lat":"31.19781","category":"119","category_name":"商场","address":"徐汇区华山路1988号"},{"poiid":"B2094752D36FA5FA479D","title":"70后饭吧","lon":"121.43639","lat":"31.19789","category":"247","category_name":"餐饮美食","address":"上海市肇嘉浜路汇金百货7楼"},{"poiid":"B2094751D565A1FC4499","title":"百嘉乐vshow","lon":"121.438392","lat":"31.198287","category":"248","category_name":"生活娱乐","address":"天钥桥路123号"},{"poiid":"B2094753DA64A6FA4393","title":"港汇恒隆广场","lon":"121.438941","lat":"31.198213","category":"500","category_name":"未知分类","address":"上海市 徐家汇"},{"poiid":"B2094454D26AAAFB409C","title":"查厘士","lon":"121.43766","lat":"31.196874","category":"247","category_name":"餐饮美食","address":"上海市 华山路2038号4F"},{"poiid":"B2094757D068AAF54292","title":"辣肉面大王","lon":"121.43841","lat":"31.19983","category":"68","category_name":"快餐厅","address":"徐汇区天平路220号(近康平路)"},{"poiid":"B2094757D064A4F84692","title":"上海交通大学徐汇校区图书馆","lon":"121.43806457","lat":"31.198844909","category":"253","category_name":"校园生活","address":"徐汇区华山路1954号上海交通大学内"},{"poiid":"B2094750DB65ABF5459C","title":"大渔铁板烧","lon":"121.437652","lat":"31.196443","category":"247","category_name":"餐饮美食","address":"华山路2038号百联徐汇购物广场3楼"},{"poiid":"B2094655D268A1FC489C","title":"天平小区","lon":"121.43919","lat":"31.198286","category":"47","category_name":"住宅区","address":"天平路179弄1-32号"},{"poiid":"B2094757D464A7FD419E","title":"牧羊餐厅","lon":"121.43730728468","lat":"31.199917951653","category":"76","category_name":"上海菜","address":"徐汇区天平路208弄车间1号(近康平路)"},{"poiid":"B2094757DA6EA6F4449E","title":"渔寿司","lon":"121.43692731857","lat":"31.1974949505109","category":"95","category_name":"日本料理","address":"徐汇区华山路2038号百联徐汇购物广场3楼"},{"poiid":"B2094752D16CA3F54393","title":"上海港汇恒隆广场5F小辉哥火锅","lon":"121.438755","lat":"31.197921","category":"500","category_name":"未知分类","address":null},{"poiid":"B2094757D065A0FF459B","title":"汇金百货B1超市","lon":"121.438954586","lat":"31.1975307916","category":"118","category_name":"超级市场","address":"上海肇嘉浜路1000号"},{"poiid":"B2094757D069A2FB409C","title":"莎拂利(天平店)","lon":"121.43762","lat":"31.20045","category":"94","category_name":"西餐厅","address":"徐汇区天平路220号(近康平路)"},{"poiid":"B2094757D06AA2FB459E","title":"大回音KTV量贩","lon":"121.437302","lat":"31.196714","category":"170","category_name":"KTV","address":"上海徐汇区华山路汇银广场7M"},{"poiid":"B2094757D06FAAFC459D","title":"中国工商银行(徐家汇支行)","lon":"121.43691","lat":"31.19748","category":"150","category_name":"银行","address":"徐汇区广元西路8号"},{"poiid":"B2094654DA6DABFE499F","title":"上海交通大学医学院附属国际和平妇幼保健院生殖医学中心","lon":"121.43977","lat":"31.1989","category":"162","category_name":"医院","address":"广元路145"},{"poiid":"B2094757D66BA3F94298","title":"村夫烤鱼 广元路店","lon":"121.43862","lat":"31.19887","category":"68","category_name":"快餐厅","address":"徐汇区广元路196号(近天平路)"},{"poiid":"B2094655D26AA0FE489D","title":"母婴之家","lon":"121.43698","lat":"31.19723","category":"247","category_name":"餐饮美食","address":"www.muyingzhijia.com"},{"poiid":"B2094752DB6AAAF5449C","title":"義麵屋La Pasta（徐家匯店）","lon":"121.436391","lat":"31.197095","category":"247","category_name":"餐饮美食","address":"上海市 南京西路819号中创大厦5楼507室"},{"poiid":"B2094753D569A4F44893","title":"潮州府砂锅粥","lon":"121.436004","lat":"31.197999","category":"247","category_name":"餐饮美食","address":"上海市 上海市徐汇区广元西路60号（近华山路）"},{"poiid":"B209475CD365ABF84393","title":"金时代顺风大酒店 汇银广场店","lon":"121.43743","lat":"31.19686","category":"76","category_name":"上海菜","address":"华山路2038号汇银广场5楼"},{"poiid":"B2094750D76EA4F4439C","title":"交通大学教师活动中心","lon":"121.437","lat":"31.1988","category":"76","category_name":"上海菜","address":"徐汇区华山路1954号上海交通大学内(近广元西路)"},{"poiid":"B2094757D069AAFB409E","title":"大西洋保齡球館","lon":"121.4365751","lat":"31.197541431","category":"220","category_name":"运动场所","address":"上海華山路1988號B1"},{"poiid":"B2094752D568A7FA4493","title":"pizzamarzano","lon":"121.438778","lat":"31.197621","category":"247","category_name":"餐饮美食","address":"港汇广场"},{"poiid":"B2094757D068ABFE469E","title":"OLE西班牙语文化基地(徐汇校区)","lon":"121.43752","lat":"31.19644","category":"190","category_name":"培训机构","address":"徐汇区华山路2018号汇银广场北楼15楼(近广元西路)"},{"poiid":"B2094654DB65A1FD4699","title":"麦当劳新路达商厦店","lon":"121.43728","lat":"31.19701","category":"68","category_name":"快餐厅","address":"上海徐汇区华山路2018号汇银广场内(近广元西路)"},{"poiid":"B2094757D465A0F4459B","title":"小巷面馆","lon":"121.437625","lat":"31.198714","category":"68","category_name":"快餐厅","address":"徐汇区广元路208弄(近华山路)"},{"poiid":"B2094757DA6EA7F4489F","title":"外婆家(百联徐汇店)","lon":"121.436862945559","lat":"31.1969076011097","category":"75","category_name":"浙江菜","address":"徐汇区华山路2038号百联徐汇购物广场3楼"},{"poiid":"B2094750D268A4FE449E","title":"海底捞火锅店 徐家汇店","lon":"121.43703","lat":"31.197456","category":"86","category_name":"火锅店","address":"徐汇区华山路2068号百联徐汇商业广场南5楼(近徐家汇地铁站)"},{"poiid":"B2094655D26AABF8489C","title":"小小花园 LE PETIT JARDIN","lon":"121.43694071246","lat":"31.200279747478","category":"260","category_name":"其他","address":"徐汇区康平路220号(天平路华山路之间)"},{"poiid":"B2094757D06EAAFD449F","title":"新利查西餐馆(广元路店)","lon":"121.43839813","lat":"31.198795189","category":"94","category_name":"西餐厅","address":"徐汇区广元路196号甲(近天平路)"},{"poiid":"B2094654DA6DABF84992","title":"国际和平妇幼保健院","lon":"121.43799","lat":"31.19649","category":"251","category_name":"出行住宿","address":"上海徐汇区衡山路910号(港汇广场对面)"},{"poiid":"B2094750DB69A5F9429F","title":"好乐迪","lon":"121.437736","lat":"31.196538","category":"248","category_name":"生活娱乐","address":"华山路2088号徐汇百联四楼"},{"poiid":"B2094654DA6EA0FC4099","title":"上海交通大学徐汇校区(东门)","lon":"121.43654","lat":"31.19868","category":"52","category_name":"高等院校","address":"华山路1954"},{"poiid":"B2094757DA69A1FA4498","title":"百联徐汇商业广场","lon":"121.43708","lat":"31.19745","category":"119","category_name":"商场","address":"徐汇区华山路2038号(近广元西路)"},{"poiid":"B2094654DA6DA3FF429B","title":"城开国际大厦","lon":"121.438","lat":"31.1994","category":"46","category_name":"楼宇","address":"宝山区友谊路1588弄"},{"poiid":"B2094654DB6AA6F8479F","title":"天平宾馆","lon":"121.43934","lat":"31.19739","category":"215","category_name":"三星级宾馆","address":"徐汇区天平路185号(近衡山路)"},{"poiid":"B2094750D56EA6FB429E","title":"新衡山电影院","lon":"121.438407","lat":"31.1975","category":"178","category_name":"电影院","address":"徐汇区衡山路838号(天平路口)"},{"poiid":"B2094757D06FA0F54099","title":"美心酒家(华山路店)","lon":"121.43735","lat":"31.19698","category":"72","category_name":"广东菜","address":"徐汇区华山路2018号新路达商厦5楼(近广元西路)"},{"poiid":"B2094757D06FA1F94093","title":"大西洋电子娱乐中心","lon":"121.43709","lat":"31.1975","category":"173","category_name":"游戏厅","address":"徐汇区华山路2018号大西洋娱乐中心6楼(近广元西路)"},{"poiid":"B2094654DB64A4FF449A","title":"味千拉面博家楼店","lon":"121.43709","lat":"31.19857","category":"95","category_name":"日本料理","address":"徐汇区华山路1859号1楼(近广元西路)"},{"poiid":"B2094757D068A3FB499B","title":"上海交通大学新上院","lon":"121.43655","lat":"31.198691","category":"52","category_name":"高等院校","address":"上海市华山路1954号"},{"poiid":"B2094654DB6BA5F54193","title":"南洋模范中学","lon":"121.43667","lat":"31.20099","category":"55","category_name":"中学","address":"天平路200"},{"poiid":"B2094757D068A3F9419B","title":"梅园村酒家(广元路店)","lon":"121.43761","lat":"31.19646","category":"76","category_name":"上海菜","address":"徐汇区华山路2088号汇银广场新路达商厦6楼(近港汇广场)"},{"poiid":"B2094752D265A4FC479F","title":"70后饭吧","lon":"121.438988","lat":"31.197917","category":"247","category_name":"餐饮美食","address":"徐家汇汇金商厦"},{"poiid":"B2094752D46DABF94792","title":"义面屋","lon":"121.43645","lat":"31.197101","category":"247","category_name":"餐饮美食","address":"华山路2038号百联徐汇商业广场3楼(近广元西路)"},{"poiid":"B2094757D06AA1FE449A","title":"正宜丰","lon":"121.43801933","lat":"31.199464491","category":"257","category_name":"中餐厅","address":"徐汇区天平路137号(康平路与广元路中间)"},{"poiid":"B2094757DA6FA3FD449F","title":"呷哺呷哺(百联徐汇店)","lon":"121.44219","lat":"31.19597","category":"86","category_name":"火锅店","address":"徐汇区华山路2038号百联徐汇商业广场3楼G49-F03-1-002号商铺"},{"poiid":"B2094654DA6CAAFD4093","title":"元福大厦","lon":"121.43874095254","lat":"31.19830331843","category":"46","category_name":"楼宇","address":"上海市徐汇区虹桥路188号"},{"poiid":"B2094654DA6CAAF4449F","title":"新路达商厦","lon":"121.43689","lat":"31.19781","category":"119","category_name":"商场","address":"徐汇区华山路1988号"},{"poiid":"B2094752D36FA5FA479D","title":"70后饭吧","lon":"121.43639","lat":"31.19789","category":"247","category_name":"餐饮美食","address":"上海市肇嘉浜路汇金百货7楼"},{"poiid":"B2094751D565A1FC4499","title":"百嘉乐vshow","lon":"121.438392","lat":"31.198287","category":"248","category_name":"生活娱乐","address":"天钥桥路123号"},{"poiid":"B2094753DA64A6FA4393","title":"港汇恒隆广场","lon":"121.438941","lat":"31.198213","category":"500","category_name":"未知分类","address":"上海市 徐家汇"},{"poiid":"B2094454D26AAAFB409C","title":"查厘士","lon":"121.43766","lat":"31.196874","category":"247","category_name":"餐饮美食","address":"上海市 华山路2038号4F"},{"poiid":"B2094757D068AAF54292","title":"辣肉面大王","lon":"121.43841","lat":"31.19983","category":"68","category_name":"快餐厅","address":"徐汇区天平路220号(近康平路)"},{"poiid":"B2094757D064A4F84692","title":"上海交通大学徐汇校区图书馆","lon":"121.43806457","lat":"31.198844909","category":"253","category_name":"校园生活","address":"徐汇区华山路1954号上海交通大学内"},{"poiid":"B2094750DB65ABF5459C","title":"大渔铁板烧","lon":"121.437652","lat":"31.196443","category":"247","category_name":"餐饮美食","address":"华山路2038号百联徐汇购物广场3楼"},{"poiid":"B2094655D268A1FC489C","title":"天平小区","lon":"121.43919","lat":"31.198286","category":"47","category_name":"住宅区","address":"天平路179弄1-32号"},{"poiid":"B2094757D464A7FD419E","title":"牧羊餐厅","lon":"121.43730728468","lat":"31.199917951653","category":"76","category_name":"上海菜","address":"徐汇区天平路208弄车间1号(近康平路)"},{"poiid":"B2094757DA6EA6F4449E","title":"渔寿司","lon":"121.43692731857","lat":"31.1974949505109","category":"95","category_name":"日本料理","address":"徐汇区华山路2038号百联徐汇购物广场3楼"},{"poiid":"B2094752D16CA3F54393","title":"上海港汇恒隆广场5F小辉哥火锅","lon":"121.438755","lat":"31.197921","category":"500","category_name":"未知分类","address":null},{"poiid":"B2094757D065A0FF459B","title":"汇金百货B1超市","lon":"121.438954586","lat":"31.1975307916","category":"118","category_name":"超级市场","address":"上海肇嘉浜路1000号"},{"poiid":"B2094757D069A2FB409C","title":"莎拂利(天平店)","lon":"121.43762","lat":"31.20045","category":"94","category_name":"西餐厅","address":"徐汇区天平路220号(近康平路)"},{"poiid":"B2094757D06AA2FB459E","title":"大回音KTV量贩","lon":"121.437302","lat":"31.196714","category":"170","category_name":"KTV","address":"上海徐汇区华山路汇银广场7M"},{"poiid":"B2094757D06FAAFC459D","title":"中国工商银行(徐家汇支行)","lon":"121.43691","lat":"31.19748","category":"150","category_name":"银行","address":"徐汇区广元西路8号"},{"poiid":"B2094654DA6DABFE499F","title":"上海交通大学医学院附属国际和平妇幼保健院生殖医学中心","lon":"121.43977","lat":"31.1989","category":"162","category_name":"医院","address":"广元路145"},{"poiid":"B2094757D66BA3F94298","title":"村夫烤鱼 广元路店","lon":"121.43862","lat":"31.19887","category":"68","category_name":"快餐厅","address":"徐汇区广元路196号(近天平路)"},{"poiid":"B2094655D26AA0FE489D","title":"母婴之家","lon":"121.43698","lat":"31.19723","category":"247","category_name":"餐饮美食","address":"www.muyingzhijia.com"},{"poiid":"B2094752DB6AAAF5449C","title":"義麵屋La Pasta（徐家匯店）","lon":"121.436391","lat":"31.197095","category":"247","category_name":"餐饮美食","address":"上海市 南京西路819号中创大厦5楼507室"},{"poiid":"B2094753D569A4F44893","title":"潮州府砂锅粥","lon":"121.436004","lat":"31.197999","category":"247","category_name":"餐饮美食","address":"上海市 上海市徐汇区广元西路60号（近华山路）"},{"poiid":"B209475CD365ABF84393","title":"金时代顺风大酒店 汇银广场店","lon":"121.43743","lat":"31.19686","category":"76","category_name":"上海菜","address":"华山路2038号汇银广场5楼"},{"poiid":"B2094750D76EA4F4439C","title":"交通大学教师活动中心","lon":"121.437","lat":"31.1988","category":"76","category_name":"上海菜","address":"徐汇区华山路1954号上海交通大学内(近广元西路)"},{"poiid":"B2094757D069AAFB409E","title":"大西洋保齡球館","lon":"121.4365751","lat":"31.197541431","category":"220","category_name":"运动场所","address":"上海華山路1988號B1"},{"poiid":"B2094752D568A7FA4493","title":"pizzamarzano","lon":"121.438778","lat":"31.197621","category":"247","category_name":"餐饮美食","address":"港汇广场"},{"poiid":"B2094757D068ABFE469E","title":"OLE西班牙语文化基地(徐汇校区)","lon":"121.43752","lat":"31.19644","category":"190","category_name":"培训机构","address":"徐汇区华山路2018号汇银广场北楼15楼(近广元西路)"},{"poiid":"B2094654DB65A1FD4699","title":"麦当劳新路达商厦店","lon":"121.43728","lat":"31.19701","category":"68","category_name":"快餐厅","address":"上海徐汇区华山路2018号汇银广场内(近广元西路)"},{"poiid":"B2094757D465A0F4459B","title":"小巷面馆","lon":"121.437625","lat":"31.198714","category":"68","category_name":"快餐厅","address":"徐汇区广元路208弄(近华山路)"}]