[{"poiid":"B2094757D06FA3F9429C","title":"银河宾馆","lon":"121.41138860008414","lat":"31.20410764288778","category":"214","category_name":"四星级宾馆","address":"长宁区中山西路888号银河宾馆内(近延安西路)"},{"poiid":"B2094655D26FA5FE4299","title":"东华大学(延安西路校区)","lon":"121.41384","lat":"31.20653","category":"671","category_name":"高校中心点","address":"上海市长宁区延安西路1882号"},{"poiid":"B2094655D26EA5FD4099","title":"虹桥宾馆","lon":"121.41060904662709","lat":"31.20369027936784","category":"214","category_name":"四星级宾馆","address":"上海市长宁区延安西路2000号(近中山西路口)"},{"poiid":"B2094757D06FA3F5459B","title":"唐宫(银河店)","lon":"121.4118","lat":"31.20395","category":"72","category_name":"广东菜","address":"长宁区中山西路888号银河宾馆2楼(近延安西路)"},{"poiid":"B2094757D06FA6FB479D","title":"柚子(虹桥店)","lon":"121.40877","lat":"31.20379","category":"95","category_name":"日本料理","address":"长宁区仙霞路8号仲盛金融中心2楼"},{"poiid":"B2094655D26DA3FD459E","title":"上海国际贸易中心","lon":"121.41","lat":"31.2082","category":"46","category_name":"楼宇","address":"上海市长宁区延安西路2201号"},{"poiid":"B2094750DB6CA0FE449A","title":"纽斯韩式汗蒸会所","lon":"121.411201","lat":"31.20803","category":"148","category_name":"美容美发店","address":null},{"poiid":"B2094757D068A5FF409C","title":"上海内环线高架路","lon":"121.412181378","lat":"31.2059787732","category":"260","category_name":"其他","address":"上海市内环线高架路"},{"poiid":"B2094654DB65A3FC469F","title":"东华大学-莱佛士国际设计学院","lon":"121.4128","lat":"31.20497","category":"671","category_name":"高校中心点","address":"上海市长宁区延安西路1882号"},{"poiid":"B2094655D269AAFB429E","title":"银河宾馆宴会厅","lon":"121.4113","lat":"31.20401","category":"247","category_name":"餐饮美食","address":"长宁区中山西路888号银河宾馆内(近延安西路)查看地图"},{"poiid":"B2094655D26AA7FB469E","title":"一兆韦德虹桥店","lon":"121.41033","lat":"31.20403","category":"247","category_name":"餐饮美食","address":"长宁区延安西路2000号虹桥宾馆3楼(近中山西路)"},{"poiid":"B2094757D069A7F94493","title":"东华大学 旭日楼","lon":"121.412886526","lat":"31.2028334153","category":"253","category_name":"校园生活","address":"上海长宁区延安西路1882号东华大学延安路校区"},{"poiid":"B2094751D26DA0FE409A","title":"古北国际财富中心二期","lon":"121.41","lat":"31.2036","category":"252","category_name":"楼宇机构","address":"红宝石路200号"},{"poiid":"B2094654DB6BA7FE4393","title":"澳门豆捞坊(仲盛金融中心)","lon":"121.40811","lat":"31.20396","category":"86","category_name":"火锅店","address":"长宁区延安西路2067号仲盛金融中心2楼(近仙霞路)"},{"poiid":"B2094757D16FA3FD4698","title":"甬府酒楼","lon":"121.41141408","lat":"31.203946917","category":"75","category_name":"浙江菜","address":"长宁区中山西路888号银河宾馆1楼(近延安西路)"},{"poiid":"B2094757D065A4FB4898","title":"城日本料理","lon":"121.4104","lat":"31.20364","category":"95","category_name":"日本料理","address":"长宁区延安西路2000号虹桥宾馆1号门1楼(近中山西路)"},{"poiid":"B2094655D26EAAF5449C","title":"银河咖啡厅","lon":"121.4113","lat":"31.20401","category":"65","category_name":"咖啡厅","address":"长宁区中山西路888号银河宾馆1楼(近延安西路)"},{"poiid":"B2094655D268ABFF4092","title":"内环延安西路立交桥","lon":"121.41219","lat":"31.20563","category":"250","category_name":"公园户外","address":""},{"poiid":"B2094655D26EA7FC4292","title":"莫泰268(上海虹桥开发区店)","lon":"121.41212","lat":"31.20283","category":"250","category_name":"公园户外","address":"上海市长宁区中山西路906号(近新华路)"},{"poiid":"B2094753D569ABFD439C","title":"鸟心","lon":"121.411972","lat":"31.205631","category":"500","category_name":"未知分类","address":"上海市 仙霞路99号尚嘉中心B2楼"},{"poiid":"B2094757D16CA7FF429A","title":"虹桥宾馆 虹苑厅","lon":"121.41009","lat":"31.20364","category":"76","category_name":"上海菜","address":"长宁区延安西路2000号虹桥宾馆1楼(近中山西路)"},{"poiid":"B2094757D66CA3FE4493","title":"小红楼203","lon":"121.411216386","lat":"31.2056514504","category":"247","category_name":"餐饮美食","address":null},{"poiid":"B2094757D16EA0FA439B","title":"樱川","lon":"121.411448586","lat":"31.2039649174","category":"247","category_name":"餐饮美食","address":"上海市长宁区中山西路888号银河宾馆二楼"},{"poiid":"B2094753D464A7FD4098","title":"南小馆","lon":"121.412155","lat":"31.205631","category":"247","category_name":"餐饮美食","address":"上海市 尚嘉中心"},{"poiid":"B2094750D76DA6FC469B","title":"空海日本料理","lon":"121.41","lat":"31.2039","category":"95","category_name":"日本料理","address":"长宁区延安西路2000号虹桥宾馆大厅内(近中山西路)"},{"poiid":"B2094654D56BA0FA4592","title":"虹桥豪苑","lon":"121.40938","lat":"31.207148","category":"47","category_name":"住宅区","address":"上海长宁区紫云路118弄"},{"poiid":"B2094655D268A0F94198","title":"花园餐厅","lon":"121.41131","lat":"31.20401","category":"76","category_name":"上海菜","address":"长宁区中山西路888号银河宾馆3楼(近延安西路)"},{"poiid":"B2094751D26FA2F8439B","title":"中山医院","lon":"121.411529","lat":"31.205919","category":"162","category_name":"医院","address":null},{"poiid":"B2094757D06BA4F8489B","title":"zeta villa","lon":"121.411146786","lat":"31.2055030475","category":"500","category_name":"未知分类","address":"上海紫云路118号虹桥豪苑4号楼底层"},{"poiid":"B2094654D564A3FD439F","title":"V8club","lon":"121.4113","lat":"31.204","category":"170","category_name":"KTV","address":"中山西路888号银河宾馆2层"},{"poiid":"B2094654D564A7F84592","title":"上海喜天游大酒店","lon":"121.41246","lat":"31.20543","category":"250","category_name":"公园户外","address":"上海市长宁区中山西路827号"},{"poiid":"B2094757D068ABFB469F","title":"东华大学(延安路校区)二教","lon":"121.413879","lat":"31.206532","category":"253","category_name":"校园生活","address":"上海市长宁区延安西路1882号 东华大学 第二教学楼"},{"poiid":"B2094654D564A3FD439E","title":"花月日本料理","lon":"121.4113","lat":"31.20401","category":"95","category_name":"日本料理","address":"中山西路888号银河宾馆2楼近延安西路"},{"poiid":"B2094757D06FAAF4409E","title":"延安路高架外灘方向","lon":"121.413614","lat":"31.20365","category":"500","category_name":"未知分类","address":"上海延安路"},{"poiid":"B2094757D76AA1FE449A","title":"紫云路福建沙县特色营养小吃","lon":"121.409192","lat":"31.205454","category":"68","category_name":"快餐厅","address":"长宁区紫云路联建新村1号101室(近紫云大厦)"},{"poiid":"B2094752D769A2FE4092","title":"本家","lon":"121.412352","lat":"31.207938","category":"247","category_name":"餐饮美食","address":"天山路1900号(近延安西路)"},{"poiid":"B2094757D06AA1F8449A","title":"かつ膳","lon":"121.40834591","lat":"31.206333207","category":"95","category_name":"日本料理","address":"长宁区遵义路100号上海城5楼(紫云西路口)"},{"poiid":"B2094753D765A0FC489F","title":"糯美人韩国年糕火锅","lon":"121.408226","lat":"31.204523","category":"96","category_name":"韩国料理","address":"长宁区仙霞路8号仲盛金融中心2楼(近延安西路口)"},{"poiid":"B2094655D268A0F5479B","title":"钢琴酒吧KTV","lon":"121.41131","lat":"31.20401","category":"170","category_name":"KTV","address":""},{"poiid":"B2094655D264A7FB4993","title":"联建社区卫生服务站","lon":"121.40971","lat":"31.20558","category":"162","category_name":"医院","address":""},{"poiid":"B2094655D26EA4F84993","title":"平壤馆","lon":"121.41214923858","lat":"31.204814543329","category":"247","category_name":"餐饮美食","address":"中山西路888号银河宾馆1楼近延安西路"},{"poiid":"B2094753D46AA0F5419C","title":"尚嘉中心","lon":"121.409927","lat":"31.204006","category":"500","category_name":"未知分类","address":"上海市 长宁区仙霞路99号"},{"poiid":"B2094757D66CAAFF429B","title":"Yang's House","lon":"121.411394586","lat":"31.2056599505","category":"500","category_name":"未知分类","address":"上海市长宁区紫云路"},{"poiid":"B2094757D16AA2F44698","title":"和之美","lon":"121.40867363","lat":"31.20410942","category":"95","category_name":"日本料理","address":"长宁区仙霞路1号(近延安西路)"},{"poiid":"B2094654DB64AAF5499F","title":"百花园","lon":"121.41019","lat":"31.20399","category":"196","category_name":"公园","address":"延安西路2000"},{"poiid":"B2094655D36DA7F8489C","title":"中山西路新华路","lon":"121.41206","lat":"31.20396","category":"38","category_name":"公交车站","address":""},{"poiid":"B2094757D06AAAFF419A","title":"虹桥宾馆(礼宾部)","lon":"121.409612586","lat":"31.2058769548","category":"217","category_name":"旅馆招待所","address":"上海市长宁区延安西路2000号"},{"poiid":"B2094654D56BA0FA439C","title":"中紫小区","lon":"121.41093","lat":"31.207148","category":"47","category_name":"住宅区","address":"中山西路800弄53"},{"poiid":"B2094750D76EA1FC489D","title":"G.HAUSLIVEHOUSE&CLUB","lon":"121.411","lat":"31.204","category":"269","category_name":"烧烤","address":"中山西路888号银河宾馆2楼(近延安西路)"},{"poiid":"B2094654D564A7F84699","title":"东华大学-拉萨尔国际设计学院","lon":"121.4128","lat":"31.20497","category":"52","category_name":"高等院校","address":"新华路832"},{"poiid":"B2094750D76DA6F4429D","title":"海福阁韩国料理","lon":"121.413","lat":"31.2069","category":"96","category_name":"韩国料理","address":"长宁区延安西路1750号(近天山路)"},{"poiid":"B2094752D569A3FA409E","title":"上海国际赛车场","lon":"121.411134","lat":"31.20607","category":"248","category_name":"生活娱乐","address":"伊宁路2000号"},{"poiid":"B2094757D66DA0F5429B","title":"WASABI和さ美","lon":"121.410985586","lat":"31.2063749645","category":"500","category_name":"未知分类","address":"上海长宁区仙霞路1号"},{"poiid":"B2094757D068A0FD489C","title":"新鲜生活","lon":"121.408667","lat":"31.204266","category":"113","category_name":"冷饮店","address":"上海长宁区仙霞路8号仲盛金融中心一楼(近延安西路)"},{"poiid":"B2094750D268A7F84492","title":"iface club","lon":"121.411567","lat":"31.204158","category":"260","category_name":"其他","address":"长宁区中山西路888号银河宾馆2楼"},{"poiid":"B2094654D56BA0FA469A","title":"联建小区(北门)","lon":"121.40961","lat":"31.20598","category":"47","category_name":"住宅区","address":""},{"poiid":"B2094757D169AAFD419B","title":"姨妈家韩国料理","lon":"121.412215226","lat":"31.2061790307","category":"247","category_name":"餐饮美食","address":"上海延安西路1928号"},{"poiid":"B2094655D26CAAFA4692","title":"联建小区","lon":"121.40919","lat":"31.205454","category":"47","category_name":"住宅区","address":"紫云路1940弄"},{"poiid":"B2094757D66FA3F8489D","title":"東華大學","lon":"121.41400658","lat":"31.205343944","category":"671","category_name":"高校中心点","address":"上海市长宁区紫云路"},{"poiid":"B209475DD46EA3FA439C","title":"kyochon校村","lon":"121.409065","lat":"31.204505","category":"247","category_name":"餐饮美食","address":"上海市 伊犁路(古北侧)"},{"poiid":"B2094655D26DA0FB4299","title":"联建新村(南1门)","lon":"121.4094","lat":"31.2046","category":"47","category_name":"住宅区","address":"延安西路2055弄1-8号"},{"poiid":"B2094757D16BABFA429B","title":"葡京","lon":"121.41301582","lat":"31.2056333537","category":"247","category_name":"餐饮美食","address":"上海虹桥百盛"},{"poiid":"B2094757D065AAFF4192","title":"紫虹大厦","lon":"121.409798","lat":"31.205941","category":"252","category_name":"楼宇机构","address":"上海中山西路800弄57号"},{"poiid":"B2094757D16EA2F9409C","title":"中国银行(延安西路支行)","lon":"121.40967758","lat":"31.204215922","category":"150","category_name":"银行","address":"长宁区延安西路1988号(近虹桥宾馆)"},{"poiid":"B2094757D66BABFA4198","title":"虹苑餐厅","lon":"121.409529054","lat":"31.203946793","category":"268","category_name":"自助","address":"延安西路2000号虹桥宾馆1楼近伊犁路"},{"poiid":"B2094757D064AAF8469F","title":"中国银行(长宁支行)","lon":"121.409246286","lat":"31.2044049927","category":"150","category_name":"银行","address":"上海长宁区延安西路2067号  "},{"poiid":"B2094753D56DA4FB4398","title":"虹桥尚嘉中心","lon":"121.41217","lat":"31.206155","category":"500","category_name":"未知分类","address":"上海市 长宁区仙霞路99号"},{"poiid":"B2094655D265ABF94399","title":"虹银商场","lon":"121.40983","lat":"31.2036","category":"119","category_name":"商场","address":""},{"poiid":"B2094753D16FA6FD449F","title":"罗曼园高级婚礼会馆(虹桥店)","lon":"121.41223","lat":"31.2056","category":"263","category_name":"公司","address":"长宁区中山西路1011号(近虹桥路)查看地图"},{"poiid":"B2094655D26FA7FA449E","title":"仲盛金融中心(北二门)","lon":"121.40857","lat":"31.20422","category":"46","category_name":"楼宇","address":"仙霞路8"},{"poiid":"B2094752D56FAAF4489D","title":"新天地","lon":"121.408517","lat":"31.204784","category":"500","category_name":"未知分类","address":"上海黄浦区"},{"poiid":"B2094757D16CABF44699","title":"925B虹桥开发区站","lon":"121.40938558","lat":"31.205269942","category":"500","category_name":"未知分类","address":"上海延安西路"},{"poiid":"B2094757D169A4FB419E","title":"coco(东华大学店)","lon":"121.412034586","lat":"31.2073999846","category":"87","category_name":"特色／地方风味餐厅","address":"浦东新区天山路东华大学附近(近延安西路)"},{"poiid":"B2094654D56BA0FA409B","title":"天山工商所","lon":"121.41033","lat":"31.20706","category":"250","category_name":"公园户外","address":"紫云路299"},{"poiid":"B2094654D56BA0FA409A","title":"良友金伴(紫云路)","lon":"121.41033","lat":"31.20711","category":"117","category_name":"便民商店/便利店","address":"紫云路301"},{"poiid":"B2094757D16FA3F54392","title":"中国银行","lon":"121.40853171","lat":"31.203635","category":"150","category_name":"银行","address":"上海延安西路2067号"},{"poiid":"B2094655D264A2F54199","title":"美林小厨","lon":"121.41203","lat":"31.2022","category":"76","category_name":"上海菜","address":"长宁区中山西路906号莫泰268店内1楼"},{"poiid":"B2094757D66EA5F8489A","title":"建桥学院七号楼","lon":"121.411307","lat":"31.20402","category":"500","category_name":"未知分类","address":"上海三楼"},{"poiid":"B2094655D269AAFC449C","title":"上服假日酒店中山西路店","lon":"121.41102","lat":"31.2077","category":"247","category_name":"餐饮美食","address":"长宁区中山西路750号"},{"poiid":"B2094655D26FA1FD489F","title":"上海长宁百联西郊NK","lon":"121.41097","lat":"31.20307","category":"140","category_name":"体育用品店","address":"长宁区仙霞西路88号3楼"},{"poiid":"B2094655D26FA7FF4599","title":"虹桥上海城购物中心(南四门)","lon":"121.40859","lat":"31.20634","category":"46","category_name":"楼宇","address":""},{"poiid":"B2094757DA6AABFD499A","title":"上海火车站","lon":"121.412663","lat":"31.20308","category":"627","category_name":"一般地点标志","address":"上海市闸北区秣陵路303号"},{"poiid":"B2094757D568A5FA4999","title":"东华大学教学大楼","lon":"121.4138523","lat":"31.20652751","category":"52","category_name":"高等院校","address":"延安西路1882号"},{"poiid":"B2094655D268A0F9419B","title":"天使酒廊","lon":"121.41131","lat":"31.204","category":"260","category_name":"其他","address":"长宁区中山西路888号银河宾馆2楼(近延安西路)"},{"poiid":"B2094655D26EA5F84492","title":"上海仙踪林(虹桥店)","lon":"121.4085","lat":"31.20457","category":"111","category_name":"休闲餐饮场所","address":"长宁区仙霞路15弄2号101室"},{"poiid":"B2094757D164A4FC4492","title":"宝鼎酒店","lon":"121.411452054","lat":"31.207149793","category":"76","category_name":"上海菜","address":"长宁区中山西路750号(近天山路)"},{"poiid":"B2094757D16FA1FB469A","title":"嘉顿广场","lon":"121.40804178","lat":"31.205218841","category":"500","category_name":"未知分类","address":"上海延安西路2088号"},{"poiid":"B2094757D66DA7FF429C","title":"文艺路","lon":"121.410197","lat":"31.203999","category":"500","category_name":"未知分类","address":"西安皇室健身会所"},{"poiid":"B2094655D268A0F9419A","title":"花园酒廊","lon":"121.41019","lat":"31.204","category":"260","category_name":"其他","address":"长宁区延安西路2000号虹桥宾馆1楼(仙霞路伊犁路)"},{"poiid":"B2094757D065A4F8439C","title":"和さ美(仙霞路店)","lon":"121.40827","lat":"31.20412","category":"95","category_name":"日本料理","address":"长宁区仙霞路1号(近延安西路)"},{"poiid":"B2094757D16DA4FD4998","title":"华阳路长宁支路","lon":"121.410338","lat":"31.207111","category":"500","category_name":"未知分类","address":"上海长宁支路301弄"},{"poiid":"B2094757D06BA6FA4093","title":"独自等待","lon":"121.412077","lat":"31.206664","category":"500","category_name":"未知分类","address":"上海我在等你。你又在等什么呢？"},{"poiid":"B2094757D66DAAFB419F","title":"伊犁路152号","lon":"121.411074586","lat":"31.2068139731","category":"500","category_name":"未知分类","address":"上海指付通公司"},{"poiid":"B2094750DB6CABF4469E","title":"串鑫","lon":"121.40836","lat":"31.20608","category":"95","category_name":"日本料理","address":"长宁区紫云路59号(近遵义路)"},{"poiid":"B2094654D56BA0F4419E","title":"燕记 天山店","lon":"121.41146419719","lat":"31.206282775429","category":"257","category_name":"中餐厅","address":"长宁区中山西路750号(近天山路)"},{"poiid":"B2094654DB65A4F44598","title":"上海东华大学(西门)","lon":"121.4137","lat":"31.20675","category":"52","category_name":"高等院校","address":"长宁区延安西路1882号"},{"poiid":"B2094753D76DA0FC499C","title":"同一首歌","lon":"121.412002","lat":"31.207397","category":"170","category_name":"KTV","address":"上海市 天山路1900号"},{"poiid":"B2094654D56BA0FA459B","title":"好德No.159","lon":"121.40847","lat":"31.20607","category":"117","category_name":"便民商店/便利店","address":"紫云路63"},{"poiid":"B2094757D16BAAFB4193","title":"121淞虹路站点","lon":"121.410299586","lat":"31.2067379716","category":"500","category_name":"未知分类","address":"上海淞虹路天山西路口"},{"poiid":"B2094655D26DA0F44692","title":"联建新村南门","lon":"121.40854","lat":"31.20459","category":"47","category_name":"住宅区","address":"仙霞路15弄"},{"poiid":"B2094655D26CAAFE469A","title":"中紫小区(南门)","lon":"121.41124","lat":"31.2059","category":"656","category_name":"大门","address":""},{"poiid":"B2094655D26EA5FD4399","title":"鲜箸坊","lon":"121.4085","lat":"31.20457","category":"247","category_name":"餐饮美食","address":"虹桥路1440号申康宾馆近古北湾大酒店"},{"poiid":"B2094753D46BA4F5439A","title":"南小馆","lon":"121.413879","lat":"31.205633","category":"247","category_name":"餐饮美食","address":"上海市 尚嘉中心地下2层A-003"},{"poiid":"B2094655D26DA2FD4793","title":"好德No.041","lon":"121.41093","lat":"31.20771","category":"117","category_name":"便民商店/便利店","address":"中山西路750号6幢"},{"poiid":"B2094655D26EA5FE429E","title":"两岸咖啡(仙霞路店)","lon":"121.40843","lat":"31.20411","category":"65","category_name":"咖啡厅","address":"长宁区仙霞路8号仲盛金融中心2楼"},{"poiid":"B2094655D26CAAFE4798","title":"虹桥上海城购物中心1栋(南三门)","lon":"121.4085","lat":"31.20686","category":"46","category_name":"楼宇","address":""},{"poiid":"B2094752D76DA0F4469F","title":"逸夫楼(东华大学,延安路校区)","lon":"121.413","lat":"31.206","category":"253","category_name":"校园生活","address":"上海长宁区延安西路1882号东华大学延安路校区"},{"poiid":"B2094757D66CA4F9409C","title":"上菜上海菜","lon":"121.408509","lat":"31.204064","category":"247","category_name":"餐饮美食","address":"上海市闵行区莘庄镇仲盛二楼"},{"poiid":"B2094655D26DA3FB409F","title":"热风虹桥店","lon":"121.40875","lat":"31.20442","category":"141","category_name":"服装鞋帽皮具店","address":""},{"poiid":"B2094757D569A2F5459C","title":"蓝叶洗衣(紫云路)","lon":"121.40920492","lat":"31.2061282","category":"610","category_name":"干洗店","address":"紫云路67-2"},{"poiid":"B2094751D26BA7FB499A","title":"v2 club","lon":"121.4135524","lat":"31.2061227","category":"248","category_name":"生活娱乐","address":"长宁区凯旋路1140号2楼(近杨宅路)"},{"poiid":"B2094753D76BA6F4449D","title":"龙之梦","lon":"121.413009","lat":"31.207212","category":"500","category_name":"未知分类","address":"上海市 中山公园"},{"poiid":"B2094757D064A0FD4499","title":"紫云路  中紫","lon":"121.410931","lat":"31.207148","category":"500","category_name":"未知分类","address":"上海中紫"},{"poiid":"B2094757D568A6FD469E","title":"元和易润养生美容美体","lon":"121.41035021","lat":"31.20743869","category":"148","category_name":"美容美发店","address":"紫云路317"},{"poiid":"B2094654DB69A0F44293","title":"东华大学旭日工商管理学院","lon":"121.41384","lat":"31.20653","category":"52","category_name":"高等院校","address":"长宁区延安西路1882号"},{"poiid":"B2094752D465AAFB459C","title":"Cat&Coffee","lon":"121.408506","lat":"31.20358","category":"247","category_name":"餐饮美食","address":"延安西路2077号金桥大厦1502室"},{"poiid":"B2094757D16AA7FD489A","title":"联建新村","lon":"121.40839","lat":"31.204855","category":"500","category_name":"未知分类","address":"上海长宁区遵义路紫云路"},{"poiid":"B2094655D26CAAFD479E","title":"虹桥上海城购物中心(南二门)","lon":"121.40793","lat":"31.20642","category":"46","category_name":"楼宇","address":""},{"poiid":"B2094654D56BA0F4429C","title":"上服假日茶室","lon":"121.41152","lat":"31.2078","category":"66","category_name":"茶艺馆","address":"中山西路750号星程上服假日酒店虹桥店"},{"poiid":"B2094654DB6AA3F54599","title":"中国建设银行长宁支行营业部","lon":"121.40843","lat":"31.20411","category":"150","category_name":"银行","address":"长宁区仙霞路8号"},{"poiid":"B2094757D16DA4FA4499","title":"Circus","lon":"121.40915893","lat":"31.203935766","category":"500","category_name":"未知分类","address":"上海延安西路2088号"},{"poiid":"B2094757D16EA2FB459C","title":"东华大学 一教101","lon":"121.412845586","lat":"31.2032159028","category":"500","category_name":"未知分类","address":"上海市延安西路1882号"},{"poiid":"B2094655D26DA5F9439C","title":"可的","lon":"121.40812","lat":"31.20395","category":"117","category_name":"便民商店/便利店","address":"仙霞路8号仲盛金融中心"},{"poiid":"B2094757D66CA5FF4899","title":"STAR PLACE(仙霞路店)","lon":"121.40893","lat":"31.20373","category":"141","category_name":"服装鞋帽皮具店","address":"上海长宁区仙霞路5号(近遵义路)  "},{"poiid":"B2094654D56BA0F4419F","title":"宝鼎大酒店","lon":"121.41127","lat":"31.20767","category":"250","category_name":"公园户外","address":"中山西路750号"},{"poiid":"B2094654D56BA0F9489F","title":"中紫小区(东门)","lon":"121.41153","lat":"31.20662","category":"656","category_name":"大门","address":"中山西路800弄1-57号"},{"poiid":"B2094654D56BA0F5499E","title":"新偶像专业造型设计","lon":"121.40795","lat":"31.20484","category":"148","category_name":"美容美发店","address":"仙霞路19"},{"poiid":"B2094654DB65A5F8409F","title":"星程上服假日酒店(虹桥店)","lon":"121.41152","lat":"31.2078","category":"250","category_name":"公园户外","address":"长宁区中山西路750号(延安西路中山西路)"},{"poiid":"B2094757D065A1F94199","title":"DQ(虹桥百盛店)","lon":"121.408","lat":"31.2065","category":"247","category_name":"餐饮美食","address":"长宁区遵义路100号虹桥上海城B1楼(紫云西路口)  "},{"poiid":"B2094757D16FABFF479E","title":"天山路派出所","lon":"121.40899347","lat":"31.20743847","category":"609","category_name":"警察局","address":"上海长宁区紫云路365号"},{"poiid":"B2094654DB69A7FB4999","title":"中国工商银行延安西路第二分理处","lon":"121.41313","lat":"31.20644","category":"150","category_name":"银行","address":"长宁区延安西路1922号"},{"poiid":"B2094757D16AAAF5489B","title":"东华大学小红楼203","lon":"121.413343586","lat":"31.2060999591","category":"500","category_name":"未知分类","address":null},{"poiid":"B2094757D06BA7F54192","title":"锦色若梦","lon":"121.41169358","lat":"31.207378984","category":"500","category_name":"未知分类","address":"上海Dream &amp; Nina"},{"poiid":"B2094751DA6DA1F8449A","title":"同一首歌娱乐会所","lon":"121.411926","lat":"31.207397","category":"248","category_name":"生活娱乐","address":"天山路延安西路"},{"poiid":"B2094750DB6DAAF5419D","title":"纽斯洗浴","lon":"121.412155","lat":"31.207779","category":"248","category_name":"生活娱乐","address":"天山路延安西路"},{"poiid":"B2094757D06AA3F4429C","title":"威宁谢工程咨询上海有限公司","lon":"121.40849304","lat":"31.206863403","category":"500","category_name":"未知分类","address":"遵义路100号虹桥上海城B栋1502室"},{"poiid":"B2094757DA6EAAFA439E","title":"时艺美发裁剪(虹桥店)","lon":"121.409118175508","lat":"31.2065249885487","category":"248","category_name":"生活娱乐","address":"长宁区紫云路55号(近虹桥上海城)"},{"poiid":"B2094655D268A5FC4293","title":"东华休闲运动馆射箭馆","lon":"121.41361","lat":"31.20364","category":"220","category_name":"运动场所","address":"中山西路849"},{"poiid":"B2094655D26DA3FC4592","title":"中国建设银行","lon":"121.40811","lat":"31.20395","category":"150","category_name":"银行","address":"仙霞路8号仲盛金融中心6层"},{"poiid":"B2094757D569A2FE4492","title":"上海驴馆国际青年连锁酒店","lon":"121.4125728","lat":"31.20415722","category":"251","category_name":"出行住宿","address":"上海市长宁区中山西路743号"},{"poiid":"B2094757D569A2FE489F","title":"紫云洗衣门市部","lon":"121.41088352","lat":"31.2077219","category":"610","category_name":"干洗店","address":"中山西路800弄52-2"},{"poiid":"B2094750D26FABF9489D","title":"OBAMA CLUB","lon":"121.408676","lat":"31.203102","category":"260","category_name":"其他","address":"长宁区延安西路2088号虹桥嘉顿广场1楼(近伊犁路)"},{"poiid":"B2094757D66CA1F5499B","title":"东华大学第一食堂","lon":"121.41389753","lat":"31.206369619","category":"500","category_name":"未知分类","address":"上海长宁区延安西路1882号东华大学延安路校区"},{"poiid":"B2094750DA6BABFC4399","title":"Gabeeyang","lon":"121.412216","lat":"31.207935","category":"260","category_name":"其他","address":"长宁区天山路1900号纽斯洗浴旁(近延安西路)"},{"poiid":"B2094654D56BA0FA4593","title":"虹桥豪苑(南门)","lon":"121.40943","lat":"31.20635","category":"656","category_name":"大门","address":"紫云路118弄"},{"poiid":"B2094753D56EAAFE459A","title":"上海虹桥机场","lon":"121.413261","lat":"31.207372","category":"500","category_name":"未知分类","address":"上海市 海宁区紫云路"},{"poiid":"B2094655D26CAAF9449E","title":"中国银行上海市虹桥支行","lon":"121.40812","lat":"31.20395","category":"150","category_name":"银行","address":"仙霞路8号仲盛金融中心8层01"},{"poiid":"B2094655D26EA2FA4999","title":"中紫小区(西二门)","lon":"121.41036","lat":"31.20695","category":"656","category_name":"大门","address":"中山西路800弄53"},{"poiid":"B2094757D66DA4F4499E","title":"燕记","lon":"121.41157858","lat":"31.207879993","category":"500","category_name":"未知分类","address":"上海市长宁区紫云路"},{"poiid":"B2094757D66FA6FF469E","title":"2011花园音乐节主会场","lon":"121.413056586","lat":"31.2032199028","category":"500","category_name":"未知分类","address":null},{"poiid":"B2094654D56BA0FB4992","title":"世纪金才网","lon":"121.41152","lat":"31.20781","category":"263","category_name":"公司","address":"中山西路750号星程上服假日酒店虹桥店4层422"},{"poiid":"B2094757D169ABFD469F","title":"东华大学6宿","lon":"121.413458886","lat":"31.206909575","category":"500","category_name":"未知分类","address":null},{"poiid":"B2094757D568AAF9499B","title":"东华大学现代纺织研究院","lon":"121.413742","lat":"31.204097","category":"191","category_name":"科研机构","address":"上海长宁区延安西路1882号东华大学延安路校区"},{"poiid":"B2094757D06BA7FD4592","title":"莱佛士国际设计学院D楼","lon":"121.413847","lat":"31.206528","category":"500","category_name":"未知分类","address":"上海市延安西路1882号东华大学内"},{"poiid":"B2094757D16FA5F5469F","title":"巴马丹拿国际公司(上海分公司)","lon":"121.408256","lat":"31.206882","category":"263","category_name":"公司","address":"遵义路100号虹桥上海城B栋31楼"},{"poiid":"B2094655D26DA7FE4992","title":"联建新村(北二门)","lon":"121.40877","lat":"31.20604","category":"656","category_name":"大门","address":""},{"poiid":"B2094757D169A5FF449A","title":"香啡缤","lon":"121.41225433","lat":"31.208024978","category":"500","category_name":"未知分类","address":"上海虹桥百盛"},{"poiid":"B2094654D56BA5FA459F","title":"上海仲盛虹桥房地产开发有限公司","lon":"121.40811","lat":"31.20395","category":"263","category_name":"公司","address":"仙霞路8号仲盛金融中心29层"},{"poiid":"B2094757D169ABFD4999","title":"霍尼韦尔(中国)有限公司","lon":"121.408245286","lat":"31.2067843725","category":"263","category_name":"公司","address":"上海市遵义路100号虹桥上海城A座35楼"},{"poiid":"B2094654D564A5FF409C","title":"东华大学(西门)","lon":"121.41282","lat":"31.20313","category":"656","category_name":"大门","address":"中山西路849"},{"poiid":"B2094654D56BA0F9489D","title":"中紫小区(北门)","lon":"121.41077","lat":"31.20758","category":"656","category_name":"大门","address":""},{"poiid":"B2094757D069A7F44598","title":"仙草一品--虹桥上海城店","lon":"121.40879","lat":"31.20711","category":"260","category_name":"其他","address":"长宁区遵义路100号虹桥上海城1-17/18单元(近紫云西路)"},{"poiid":"B2094654D56BA0F94998","title":"中紫小区(西门)","lon":"121.41036","lat":"31.20761","category":"656","category_name":"大门","address":"中山西路800弄51"},{"poiid":"B2094654D56BA5FA459B","title":"仲盛金融中心(北门)","lon":"121.40809","lat":"31.20443","category":"656","category_name":"大门","address":"仙霞路8"},{"poiid":"B2094654DB6BA7FC479F","title":"联建新村(西门)","lon":"121.40793","lat":"31.20493","category":"656","category_name":"大门","address":""}]