[{"poiid":"B2094655D264A2FA4098","title":"汇丰馨苑金山","lon":"121.24673941867","lat":"30.834675088048","category":"47","category_name":"住宅区","address":"金山区汇丰大街85弄"},{"poiid":"B2094655D264A4FC489F","title":"芳心园农庄","lon":"121.25078","lat":"30.82063","category":"247","category_name":"餐饮美食","address":"近郊金山区吕巷镇金张公路1818号"},{"poiid":"B2094654DB68ABF4479C","title":"上海市干巷学校","lon":"121.23967","lat":"30.82707","category":"55","category_name":"中学","address":"近郊吕巷镇干巷新溪街35号"},{"poiid":"B2094654DB68ABF44593","title":"中国农业银行金山区干巷支行","lon":"121.23577","lat":"30.83058","category":"150","category_name":"银行","address":"干巷镇"},{"poiid":"B2094757D66FA3FC4399","title":"车镜广场","lon":"121.23608737","lat":"30.829597559","category":"500","category_name":"未知分类","address":"上海市金山区荣昌路"},{"poiid":"B2094757D168A6FC409D","title":"廊下岑仙苑","lon":"121.23451637","lat":"30.829835565","category":"47","category_name":"住宅区","address":"上海市金山区朱吕公路"},{"poiid":"B2094654DB68ABF4479B","title":"吕巷镇干巷幼儿园","lon":"121.23677","lat":"30.82866","category":"57","category_name":"幼儿园","address":""},{"poiid":"B2094654DB68ABF4479E","title":"金山区干巷社区卫生服务中心","lon":"121.23789","lat":"30.82715","category":"162","category_name":"医院","address":""},{"poiid":"B2094654DB68ABF4489A","title":"上海干巷经济小区","lon":"121.23612","lat":"30.82578","category":"46","category_name":"楼宇","address":""},{"poiid":"B2094655D268ABF84992","title":"Ａ６荣昌路收费站","lon":"121.22965","lat":"30.83815","category":"267","category_name":"收费站","address":""},{"poiid":"B2094654DB68ABF44999","title":"诚新园","lon":"121.25053","lat":"30.8205","category":"47","category_name":"住宅区","address":""},{"poiid":"B2094654DB68ABF44799","title":"干巷派出所","lon":"121.23651","lat":"30.8253","category":"609","category_name":"警察局","address":"金山区金张公路2523"},{"poiid":"B2094654DB68ABF4499B","title":"干巷邮政支局","lon":"121.23611","lat":"30.82541","category":"248","category_name":"生活娱乐","address":"金张公路2545"}]