[{"poiid":"B2094757D06FA2F9469B","title":"阿木龙虾(包头南路店)","lon":"121.54139","lat":"31.29733","category":"68","category_name":"快餐厅","address":"杨浦区包头南路79号(近佳木斯路)"},{"poiid":"B2094757D06FA2FF459A","title":"松花江路延吉东路站(公交220终,868,135,863,874,103)","lon":"121.543189","lat":"31.296834","category":"38","category_name":"公交车站","address":"上海市杨浦区松花江路延吉东路"},{"poiid":"B2094757D06FA0FD4798","title":"佳木斯路","lon":"121.540633895","lat":"31.2981333784","category":"627","category_name":"一般地点标志","address":"上海佳木斯路"},{"poiid":"B2094757D06FA5F8489C","title":"长白三村","lon":"121.54531160867","lat":"31.295015391115","category":"47","category_name":"住宅区","address":"上海杨浦区靖宇东路 水丰路 延吉东路 敦化路"},{"poiid":"B2094750D76CA3FC489E","title":"220辣肉面馆","lon":"121.545","lat":"31.2973","category":"68","category_name":"快餐厅","address":"杨浦区松花江路2号(近军工路)"},{"poiid":"B2094757D06FA4FE469D","title":"海尚杰座","lon":"121.541221","lat":"31.300634","category":"47","category_name":"住宅区","address":"越秀区环市东路362-366号"},{"poiid":"B2094654D56FA6FB4898","title":"白玉兰环保广场","lon":"121.54223583627","lat":"31.298838786782","category":"46","category_name":"楼宇","address":"上海杨浦区松花江路251弄"},{"poiid":"B2094757D164A5F5439C","title":"延吉东路131弄","lon":"121.543818803","lat":"31.2951247387","category":"47","category_name":"住宅区","address":"上海延吉东路图门路"},{"poiid":"B2094757D069A4FE409F","title":"辣肉面","lon":"121.545109585","lat":"31.2977345776","category":"247","category_name":"餐饮美食","address":"上海松花江路2号"},{"poiid":"B2094757D068A0FB4399","title":"延吉七村","lon":"121.54116771808","lat":"31.295803022138","category":"252","category_name":"楼宇机构","address":"上海延吉七村"},{"poiid":"B2094757D068A4FA4393","title":"靖宇家园","lon":"121.54266","lat":"31.291809","category":"47","category_name":"住宅区","address":"松江方松街道文诚路2188弄409-413"},{"poiid":"B2094655D36CA0FC409C","title":"军工路松花江路","lon":"121.54632","lat":"31.29758","category":"38","category_name":"公交车站","address":""},{"poiid":"B2094757D068ABFD4393","title":"东光明中学","lon":"121.544884","lat":"31.29557","category":"55","category_name":"中学","address":"杨浦区延吉东路99号(近靖宇东路)"},{"poiid":"B2094654DB6BA2FB469D","title":"松花小区","lon":"121.5422","lat":"31.29531","category":"47","category_name":"住宅区","address":"延吉东路82弄"},{"poiid":"B2094757D06FA5F44892","title":"上海电机学院(杨浦校区)","lon":"121.54593","lat":"31.29875","category":"500","category_name":"未知分类","address":"杨浦区军工路1100号(近松花江路)"},{"poiid":"B2094757D06AA3FF4098","title":"延吉东路","lon":"121.54693603","lat":"31.292917251","category":"500","category_name":"未知分类","address":"上海137弄"},{"poiid":"B2094654D568A3FC4998","title":"松花一村","lon":"121.54093","lat":"31.294388","category":"47","category_name":"住宅区","address":"延吉东路82弄"},{"poiid":"B2094757D06BA5F9459E","title":"通略驾校(佳木斯路店)","lon":"121.54311","lat":"31.30001","category":"253","category_name":"校园生活","address":"杨浦区佳木斯路51号(近军工路)"},{"poiid":"B2094757D165A1F5449A","title":"8号线黄兴公园站","lon":"121.543653103","lat":"31.2963129635","category":"500","category_name":"未知分类","address":"上海佳木斯路国顺东路"},{"poiid":"B2094654DB65A5FD459B","title":"上海市英华中学","lon":"121.54648","lat":"31.29648","category":"55","category_name":"中学","address":"杨浦区军工路虬江新镇26弄50号"},{"poiid":"B2094655D265A7F8469F","title":"吉发酒家","lon":"121.54914","lat":"31.29291","category":"76","category_name":"上海菜","address":"杨浦区军工路897号(军工路民治路)"},{"poiid":"B2094757D068A4F84998","title":"延吉六村","lon":"121.54345296856","lat":"31.296559786505","category":"47","category_name":"住宅区","address":"松花江路营口路"},{"poiid":"B2094757D66AA4F5469B","title":"和醇","lon":"121.54511","lat":"31.29252","category":"76","category_name":"上海菜","address":"杨浦区延吉东路143号(近图们路)"},{"poiid":"B2094757D66EA6F94598","title":"啃德起汉堡 许昌路","lon":"121.5440831","lat":"31.295808253","category":"68","category_name":"快餐厅","address":"杨浦区延吉东路45号(近松花江路)"},{"poiid":"B2094757D06BA6F9489F","title":"长白新村派出所","lon":"121.5440201","lat":"31.296585969","category":"609","category_name":"警察局","address":"上海杨浦区延吉东路111号"},{"poiid":"B2094654DB6BA2F8479B","title":"长白社区卫生服务中心","lon":"121.54477","lat":"31.29776","category":"162","category_name":"医院","address":"松花江路3号"},{"poiid":"B2094655D36DA0F8449D","title":"延吉东路松花江路","lon":"121.54315","lat":"31.29551","category":"38","category_name":"公交车站","address":""},{"poiid":"B2094654D568A3FC479C","title":"杨浦区商业委员会供销经济园区松花江路分部","lon":"121.54509","lat":"31.29725","category":"45","category_name":"产业园区","address":"松花江路2"},{"poiid":"B2094757D16CA7FD409D","title":"天恩重庆麻辣烫（第九店）","lon":"121.543032","lat":"31.295916","category":"68","category_name":"快餐厅","address":"杨浦区延吉东路45号(松花江路口)"},{"poiid":"B2094757D16CA2FA4792","title":"延吉东路鸡蛋饼摊","lon":"121.54295","lat":"31.2961","category":"68","category_name":"快餐厅","address":"杨浦区延吉东路(松花江路口)"},{"poiid":"B209475CD46AA0FB4492","title":"上海理工大学基础学院","lon":"121.548263","lat":"31.299348","category":"500","category_name":"未知分类","address":"上海市 军工路1100号"},{"poiid":"B2094757D065A7FB4198","title":"松花江路40弄","lon":"121.5453981","lat":"31.296668971","category":"500","category_name":"未知分类","address":"上海杨浦区松花江路近军工路"},{"poiid":"B2094751D26EA5FD449C","title":"金桥国际广场","lon":"121.5455118","lat":"31.2946049","category":"500","category_name":"未知分类","address":"上海杨浦区"},{"poiid":"B2094654D568A2F8489B","title":"上海电气李斌技师学院(军工路)","lon":"121.54566","lat":"31.29902","category":"52","category_name":"高等院校","address":"杨浦区军工路1100"},{"poiid":"B2094752D765A3F5459C","title":"梅赛德斯-奔驰文化中心","lon":"121.547575","lat":"31.296528","category":"500","category_name":"未知分类","address":null},{"poiid":"B2094757DA6FA2F44493","title":"上海理工大学体育活动中心","lon":"121.547944","lat":"31.294975","category":"253","category_name":"校园生活","address":"杨浦区军工路580号上海理工大学校园内勤勉大道"},{"poiid":"B2094757D168AAF4429B","title":"旺鼎鸡","lon":"121.54264","lat":"31.29596","category":"68","category_name":"快餐厅","address":"杨浦区延吉东路557号(近水丰路)"},{"poiid":"B2094757D16DA3F5489B","title":"军工路松花江路黑面店","lon":"121.54578627","lat":"31.297216652","category":"500","category_name":"未知分类","address":"上海松花江路铁轨旁"},{"poiid":"B2094757D16CAAFC419D","title":"延吉路125弄","lon":"121.5453691","lat":"31.295067128","category":"500","category_name":"未知分类","address":"上海延吉路松花江路"},{"poiid":"B2094757D06FA2F54993","title":"松花新村第一幼儿园","lon":"121.54368741","lat":"31.295309755","category":"57","category_name":"幼儿园","address":"杨浦区延吉东路82弄37号(近松花江路)"},{"poiid":"B2094757D169A3FB4098","title":"长白街道社区服务中心","lon":"121.543937","lat":"31.294957","category":"500","category_name":"未知分类","address":"上海市延吉东路107号"},{"poiid":"B209475CD76AA0FB479E","title":"上海理工大学基础学院","lon":"121.546913","lat":"31.299369","category":"500","category_name":"未知分类","address":"上海市 杨浦区军工路1100号"},{"poiid":"B2094757D06BA5F84693","title":"上海机床厂有限公司","lon":"121.54992675","lat":"31.29755783","category":"263","category_name":"公司","address":"上海市杨浦区军工路1146号"},{"poiid":"B2094757D66DA0FE4999","title":"MR. WEDDING","lon":"121.543958003","lat":"31.2952516413","category":"500","category_name":"未知分类","address":"上海延吉东路143号"},{"poiid":"B2094654D56FA6F4459F","title":"上海长白经济园区晟华工业园","lon":"121.54299","lat":"31.29709","category":"45","category_name":"产业园区","address":"松花江路99号"},{"poiid":"B2094757D064A0FF4992","title":"酷烫百变美容美发","lon":"121.54310655","lat":"31.295739043","category":"148","category_name":"美容美发店","address":"上海杨浦区延吉东路49号"},{"poiid":"B2094757D06AABFC4792","title":"长白路图们路站(公交6终,22终)","lon":"121.547733","lat":"31.290544","category":"38","category_name":"公交车站","address":"上海市杨浦区长白路138号"},{"poiid":"B2094654D56FA6FA4793","title":"好福楼 佳木斯路店","lon":"121.53954371687","lat":"31.297246446067","category":"76","category_name":"上海菜","address":"杨浦区佳木斯路265号(近包头南路)"},{"poiid":"B2094757D068A5FA429B","title":"行商教会欧佐瓦","lon":"121.5455811","lat":"31.294592927","category":"250","category_name":"公园户外","address":"上海市杨浦区延吉东路125弄"},{"poiid":"B2094751D565A6FE4492","title":"复旦大学","lon":"121.5513831","lat":"31.2971055","category":"671","category_name":"高校中心点","address":null},{"poiid":"B2094654D56FAAFB459F","title":"松花小区(东门)","lon":"121.54294","lat":"31.29553","category":"47","category_name":"住宅区","address":"延吉东路82弄"},{"poiid":"B2094757D06BA4FB429B","title":"硪旳角落","lon":"121.546275803","lat":"31.2949528351","category":"500","category_name":"未知分类","address":null},{"poiid":"B2094757D064A5FF459F","title":"环球超市(延吉东路店)","lon":"121.54352","lat":"31.29526","category":"118","category_name":"超级市场","address":"杨浦区延吉东路45号(包头南路松花江路)"},{"poiid":"B209475CDB64A0FF4792","title":"上海理工大学","lon":"121.54776","lat":"31.298871","category":"500","category_name":"未知分类","address":"上海市 杨浦区军工路1100号"},{"poiid":"B2094654D56FAAFB449D","title":"长华绿苑","lon":"121.54455","lat":"31.292126","category":"47","category_name":"住宅区","address":"上海市杨浦区延吉东路图们路口"},{"poiid":"B2094654D56FAAFB489B","title":"图们小区","lon":"121.5451","lat":"31.29391","category":"47","category_name":"住宅区","address":"延吉东路131弄"},{"poiid":"B2094655D265AAF5419E","title":"松花江路105号公寓","lon":"121.5426","lat":"31.29686","category":"47","category_name":"住宅区","address":"松花江路105"},{"poiid":"B2094655D26CA5FB459F","title":"佳木斯路315弄小区","lon":"121.545","lat":"31.3028","category":"47","category_name":"住宅区","address":"佳木斯路315弄"},{"poiid":"B209475CD66BA5FB489A","title":"上海理工大学","lon":"121.545722","lat":"31.300228","category":"500","category_name":"未知分类","address":"上海市 上海市军工路1100号"},{"poiid":"B2094757D064A5FB489E","title":"虬江饭店","lon":"121.543894103","lat":"31.2942919213","category":"247","category_name":"餐饮美食","address":"上海市杨浦区延吉东路127号"},{"poiid":"B2094655D265A4FF439A","title":"松花江路105号公寓(东门)","lon":"121.54277","lat":"31.29699","category":"47","category_name":"住宅区","address":"松花江路105"},{"poiid":"B2094655D26CA6F4479F","title":"敦化路4弄","lon":"121.548","lat":"31.2936","category":"47","category_name":"住宅区","address":"敦化路4弄"},{"poiid":"B2094757D66CAAFD4492","title":"延吉东路1、5弄小区","lon":"121.5427428","lat":"31.296687438","category":"500","category_name":"未知分类","address":"上海延吉东路1弄"},{"poiid":"B2094654D56FA6F4469B","title":"上海市杨浦区社会福利院","lon":"121.54326","lat":"31.29821","category":"207","category_name":"度假疗养场所","address":"松花江路55弄5"},{"poiid":"B2094655D26DA4FE479B","title":"盛强小区(南门)","lon":"121.54285","lat":"31.2982","category":"47","category_name":"住宅区","address":"松花江路95弄"},{"poiid":"B2094757D568A5FB4692","title":"黄毛菜饭","lon":"121.5410911","lat":"31.29761806","category":"68","category_name":"快餐厅","address":"杨浦区包头南路85号(佳木斯路包头南路)"},{"poiid":"B2094757D16FAAFD449D","title":"千易造型","lon":"121.543779503","lat":"31.2955541477","category":"148","category_name":"美容美发店","address":"杨浦区延吉东路146号"},{"poiid":"B2094654D56FA6FA469A","title":"毛胡子拉面店","lon":"121.54102","lat":"31.2984","category":"68","category_name":"快餐厅","address":"杨浦区佳木斯路231号(佳木斯路包头南路)"},{"poiid":"B2094757D16BA1F4469E","title":"上海工具厂有限公司","lon":"121.548239","lat":"31.294786","category":"263","category_name":"公司","address":"杨浦区军工路1060号"},{"poiid":"B2094655D26CA6F5459E","title":"盛强小区","lon":"121.54287","lat":"31.29851","category":"47","category_name":"住宅区","address":"松花江路95弄"},{"poiid":"B2094654D56FAAFB4993","title":"上海市延吉初级中学","lon":"121.54585","lat":"31.29231","category":"55","category_name":"中学","address":"延吉东路145"},{"poiid":"B2094757D16CA3FB4299","title":"松花江路","lon":"121.5429001","lat":"31.298125001","category":"500","category_name":"未知分类","address":"上海市杨浦区包头南路"},{"poiid":"B2094757D16AABFD499B","title":"Victor&amp;Mimi's home","lon":"121.546861103","lat":"31.2939529142","category":"500","category_name":"未知分类","address":"上海延吉东路131弄"},{"poiid":"B2094757D168ABF4469F","title":"上海电机学院杨浦校区大会议室","lon":"121.545667","lat":"31.299025","category":"500","category_name":"未知分类","address":"上海军工路1100号李斌路北侧"},{"poiid":"B2094757D16AAAFF459F","title":"农工商超市","lon":"121.5435951","lat":"31.299481029","category":"118","category_name":"超级市场","address":"上海市杨浦区松花江路"},{"poiid":"B2094655D269AAFD4099","title":"婚礼先生结婚馆延吉东路店","lon":"121.54513","lat":"31.29256","category":"247","category_name":"餐饮美食","address":"杨浦区延吉东路143号东区聚场A栋(近安图路)查看地图"},{"poiid":"B2094655D26CA6FF4699","title":"延吉中路130弄小区(东二门)","lon":"121.54439","lat":"31.29303","category":"47","category_name":"住宅区","address":""},{"poiid":"B2094654D56FA6F4429A","title":"美美公寓","lon":"121.54141","lat":"31.296135","category":"47","category_name":"住宅区","address":"松花江路123弄"},{"poiid":"B2094655D26EA5FB469E","title":"盱眙朱大龙虾王(延吉东路店)","lon":"121.54513","lat":"31.29256","category":"88","category_name":"海鲜酒楼","address":"杨浦区延吉东路143号"},{"poiid":"B2094654D56FA6F44193","title":"美美公寓(南门)","lon":"121.54173","lat":"31.29623","category":"47","category_name":"住宅区","address":"松花江路123弄"},{"poiid":"B2094654D568A2F4429B","title":"小区(民治路)","lon":"121.55167","lat":"31.29418","category":"47","category_name":"住宅区","address":"民治路12弄"},{"poiid":"B2094655D26CA6F4489F","title":"营口路788弄小区","lon":"121.54134888158","lat":"31.29499939523","category":"47","category_name":"住宅区","address":"营口路788弄"},{"poiid":"B2094655D26AA5FB469F","title":"糖果时尚儿童摄影","lon":"121.54513","lat":"31.29256","category":"247","category_name":"餐饮美食","address":"杨浦区延吉东路143号东区聚场D栋(近安图路)"},{"poiid":"B2094655D36DA0F84499","title":"延吉东路靖宇东路","lon":"121.54504","lat":"31.29215","category":"38","category_name":"公交车站","address":""},{"poiid":"B2094757D66CABF84492","title":"515终点站","lon":"121.5431871","lat":"31.297868996","category":"500","category_name":"未知分类","address":"上海松花江路延吉东路"},{"poiid":"B2094655D264A7F9419E","title":"美丽公馆","lon":"121.549","lat":"31.2929","category":"47","category_name":"住宅区","address":"上海市杨浦区控江路568l弄(敦化路口)"},{"poiid":"B2094757D064A0F8479D","title":"延吉初级中学","lon":"121.54536","lat":"31.29182","category":"55","category_name":"中学","address":"上海杨浦区延吉东路145号(近图们路)  "},{"poiid":"B2094757D06AA0FB429E","title":"控江路军工路","lon":"121.5499683","lat":"31.292912792","category":"260","category_name":"其他","address":"上海市杨浦区内江路军工路"},{"poiid":"B2094757D16AAAFE449B","title":"农工商超市门口烧烤摊位","lon":"121.54307341","lat":"31.29795934","category":"500","category_name":"未知分类","address":null},{"poiid":"B2094654D56FAAFB4998","title":"上海阳普进修学校","lon":"121.54505","lat":"31.29295","category":"53","category_name":"成人教育","address":"延吉东路139"},{"poiid":"B2094655D36CA0FA4492","title":"佳木斯路包头南路","lon":"121.54121","lat":"31.29888","category":"38","category_name":"公交车站","address":""},{"poiid":"B2094655D26FA0F9499F","title":"延吉东路130弄小区(东一门)","lon":"121.54463","lat":"31.29268","category":"47","category_name":"住宅区","address":"延吉东路130弄"},{"poiid":"B2094757D168A2F8429E","title":"1906 Cafe","lon":"121.5504899","lat":"31.293003594","category":"500","category_name":"未知分类","address":"军工路580号(上海理工大学内)"},{"poiid":"B2094654D56FAAFB479D","title":"多多足浴扦脚房","lon":"121.54419","lat":"31.29406","category":"149","category_name":"洗浴推拿场所","address":"延吉东路129甲"},{"poiid":"B2094757DA69A2F5429E","title":"上海华图","lon":"121.54034","lat":"31.29771","category":"54","category_name":"职业技术学校","address":"杨浦区翔殷路1088号凯迪金融大厦7楼"},{"poiid":"B2094655D26FA0FE429D","title":"松花江路205弄小区","lon":"121.54573938518","lat":"31.30129384078","category":"47","category_name":"住宅区","address":"松花江路205弄"},{"poiid":"B2094655D26CA5F9449E","title":"中农小区","lon":"121.54187","lat":"31.29872","category":"47","category_name":"住宅区","address":"佳木斯路205弄"},{"poiid":"B2094757D16EA1F8489C","title":"美国空军国家博物馆","lon":"121.5431181","lat":"31.299729635","category":"500","category_name":"未知分类","address":"1100 Spaatz Street, Wright-Patterson AFB, OH 45433, USA  "},{"poiid":"B2094654D568A2F8429A","title":"上海市机电工业学校","lon":"121.54938","lat":"31.30054","category":"55","category_name":"中学","address":"杨浦区军工路1100号"},{"poiid":"B2094757D169A5FB409B","title":"德丰阁老杨饭店","lon":"121.54104","lat":"31.29788","category":"247","category_name":"餐饮美食","address":"杨浦区包头南路109号(近佳木斯路)"},{"poiid":"B2094655D264A2FB439E","title":"扬声歌城KTV","lon":"121.54066","lat":"31.29558","category":"170","category_name":"KTV","address":"杨浦区松花江路127号1幢2楼"},{"poiid":"B2094757D06AA3FE469B","title":"铁岭路50弄","lon":"121.543129678","lat":"31.2986570126","category":"500","category_name":"未知分类","address":"上海铁岭路抚顺路"},{"poiid":"B2094654D56FA6FA449B","title":"上海通略机动车驾驶员培训有限公司","lon":"121.54306","lat":"31.30012","category":"192","category_name":"驾校","address":"佳木斯路51"},{"poiid":"B2094655D36CA0FC4093","title":"军工路佳木斯路","lon":"121.54484","lat":"31.30172","category":"38","category_name":"公交车站","address":""},{"poiid":"B2094655D26BA0F5409A","title":"天天唱吧茶苑","lon":"121.54072","lat":"31.29799","category":"170","category_name":"KTV","address":"包头南路111临"},{"poiid":"B2094757D06AA3FF449C","title":"Swarovski 国金中心店","lon":"121.5410991","lat":"31.295323942","category":"500","category_name":"未知分类","address":"上海世纪大道8号国金中心LG1"},{"poiid":"B2094655D26BA0FC419B","title":"杨浦区教育局退休教工活动中心","lon":"121.5459","lat":"31.29358","category":"248","category_name":"生活娱乐","address":"延吉东路131弄19"},{"poiid":"B2094757D069AAF94598","title":"谢荣生摄影艺术培训中心","lon":"121.54542","lat":"31.2921","category":"500","category_name":"未知分类","address":"杨浦区延吉东路143号(近安图路)"},{"poiid":"B2094757D16BA1FA499D","title":"长白二村","lon":"121.548677","lat":"31.299976","category":"252","category_name":"楼宇机构","address":"延吉东路靖宇东路"},{"poiid":"B2094757D16DA2FB4798","title":"Carol's HomE","lon":"121.5419811","lat":"31.297892996","category":"500","category_name":"未知分类","address":null},{"poiid":"B2094757D169A1F8499F","title":"松花车行","lon":"121.542081","lat":"31.296392","category":"500","category_name":"未知分类","address":"上海杨浦区松花江路111号"},{"poiid":"B2094655D26CA5F94499","title":"佳木斯路154弄1-15号院(南门)","lon":"121.54135","lat":"31.29914","category":"47","category_name":"住宅区","address":"佳木斯路102-194"},{"poiid":"B2094757D06FAAFD4398","title":"民治路12弄","lon":"121.5499164","lat":"31.292867891","category":"500","category_name":"未知分类","address":"上海民治路12弄"},{"poiid":"B2094655D26EAAF8499F","title":"上海电缆研究所","lon":"121.54865","lat":"31.29341","category":"191","category_name":"科研机构","address":"杨浦区军工路1000号"},{"poiid":"B2094757D16FA0F8489E","title":"佳木斯路炒面摊头","lon":"121.540714103","lat":"31.29853701","category":"247","category_name":"餐饮美食","address":"上海市杨浦区佳木斯路包头南路"},{"poiid":"B2094654DB6AA2F8409F","title":"上海北斗星商苑民治商场","lon":"121.55167","lat":"31.29417","category":"119","category_name":"商场","address":"民治路12弄23号102室"},{"poiid":"B2094757D068A1FC449B","title":"民治路15弄","lon":"121.5511281","lat":"31.295120938","category":"500","category_name":"未知分类","address":"上海市杨浦区中环路"},{"poiid":"B2094757D16CA4FF469E","title":"6路终点站","lon":"121.5452561","lat":"31.290612844","category":"38","category_name":"公交车站","address":"上海市杨浦区安图路"},{"poiid":"B2094655D264AAFB4592","title":"福缘酒店式公寓","lon":"121.54096","lat":"31.29576","category":"250","category_name":"公园户外","address":"虹口区松花江路127号"},{"poiid":"B2094654D56FA6FA4492","title":"皖凤理发店","lon":"121.54122","lat":"31.29902","category":"148","category_name":"美容美发店","address":""},{"poiid":"B2094655D36CA0FA459A","title":"佳木斯路延吉东路","lon":"121.54005","lat":"31.29791","category":"38","category_name":"公交车站","address":""},{"poiid":"B2094655D26DA5F9499C","title":"佳木斯路154弄1-15号院","lon":"121.54114","lat":"31.29939","category":"47","category_name":"住宅区","address":"佳木斯路102-194"},{"poiid":"B2094757D068A2FA479C","title":"控江三村","lon":"121.54081549703","lat":"31.294246475949","category":"500","category_name":"未知分类","address":"上海靖宇中路营口路"},{"poiid":"B2094654D568A2F4419C","title":"长白经济园区物资一机分园","lon":"121.55107","lat":"31.29283","category":"45","category_name":"产业园区","address":""},{"poiid":"B2094654D568A3FC499B","title":"松花一村(北门)","lon":"121.54017","lat":"31.29486","category":"47","category_name":"住宅区","address":""},{"poiid":"B2094655D26FA3FC409D","title":"沈永和","lon":"121.53687562132","lat":"31.30108559595","category":"257","category_name":"中餐厅","address":"佳木斯路228号"},{"poiid":"B2094757D068A0F8429F","title":"班车车站","lon":"121.5428921","lat":"31.297019978","category":"251","category_name":"出行住宿","address":null},{"poiid":"B2094752D465A1FF4199","title":"上海火车站","lon":"121.548727","lat":"31.291126","category":"500","category_name":"未知分类","address":null},{"poiid":"B2094757D064A2FB419F","title":"和醇美食坊","lon":"121.543489069","lat":"31.2913397595","category":"247","category_name":"餐饮美食","address":"上海延吉东路143号"},{"poiid":"B2094654D56FAAF44598","title":"良友金伴(图们路)","lon":"121.54708","lat":"31.29067","category":"117","category_name":"便民商店/便利店","address":"图们路29"},{"poiid":"B2094654D56FAAF4449D","title":"光明便利No.248","lon":"121.54705","lat":"31.29094","category":"117","category_name":"便民商店/便利店","address":"图们路38"},{"poiid":"B2094654D568A2F44893","title":"民治路幼稚园","lon":"121.5518","lat":"31.29396","category":"57","category_name":"幼儿园","address":"民治路8"},{"poiid":"B2094757D164A0FE409A","title":"元祖(图们路店)","lon":"121.54709","lat":"31.29052","category":"247","category_name":"餐饮美食","address":"上海杨浦区图们路39号(近长白路)  "},{"poiid":"B2094757D16FA7FD4992","title":"凯琴双语数码幼稚园(杨浦园)","lon":"121.547641103","lat":"31.2920091735","category":"500","category_name":"未知分类","address":"杨浦区延吉东路137弄16号(近靖宇东路)"},{"poiid":"B2094757D064ABF4459E","title":"良友金伴(佳木斯店)","lon":"121.54132","lat":"31.29862","category":"500","category_name":"未知分类","address":"上海杨浦区佳木斯路202号"},{"poiid":"B2094655D26DABF4439D","title":"延吉东路1弄(西门)","lon":"121.54293","lat":"31.29599","category":"656","category_name":"大门","address":"延吉东路1弄1-8"},{"poiid":"B2094757D56EA2F44199","title":"上海理工大学出版印刷与艺术设计学院","lon":"121.548467","lat":"31.292114","category":"253","category_name":"校园生活","address":"杨浦区军工路517号上海理工大学校园内湛恩大道综合楼A区"},{"poiid":"B2094655D26BABF9499C","title":"长白街道233街坊住宅小区","lon":"121.54108","lat":"31.29287","category":"47","category_name":"住宅区","address":""},{"poiid":"B2094751D56AA7FA499D","title":"上海皇家帝国理工大学","lon":"121.551418","lat":"31.293703","category":"253","category_name":"校园生活","address":null},{"poiid":"B2094757D568A4F54099","title":"和醇酒店","lon":"121.545204","lat":"31.292434","category":"251","category_name":"出行住宿","address":"延吉东路143-5"},{"poiid":"B2094654D56FAAF54593","title":"中国农业银行杨浦区长白支行","lon":"121.54751","lat":"31.29038","category":"150","category_name":"银行","address":"长白路1"},{"poiid":"B2094654D56FAAF44498","title":"云云形象设计","lon":"121.54659","lat":"31.29085","category":"148","category_name":"美容美发店","address":"杨浦区图们路41号(近延吉东路)"},{"poiid":"B2094757D16FABF8429E","title":"安图路","lon":"121.5418801","lat":"31.292049874","category":"500","category_name":"未知分类","address":"上海安图路"},{"poiid":"B2094757D66DA1FD4199","title":"佳佳家","lon":"121.545001","lat":"31.301485171","category":"500","category_name":"未知分类","address":"上海松花江路40弄"},{"poiid":"B2094654DB6BA2FB4693","title":"图们小区(西二门)","lon":"121.54443","lat":"31.29374","category":"656","category_name":"大门","address":"延吉东路131弄"},{"poiid":"B2094757D16EA0F44499","title":"延吉大樓","lon":"121.540472025","lat":"31.2944557806","category":"500","category_name":"未知分类","address":"上海松花江路215弄"},{"poiid":"B2094757D16AA3F54992","title":"美味辣肉面","lon":"121.5405481","lat":"31.299098021","category":"500","category_name":"未知分类","address":"上海市杨浦区松花江路2号"},{"poiid":"B2094757D168A7FC489A","title":"来伊份(延吉东路二店)","lon":"121.54525","lat":"31.29157","category":"500","category_name":"未知分类","address":"上海杨浦区延吉东路152号甲(近安图路)  "},{"poiid":"B209475CD465A6F9419E","title":"上海理工大学","lon":"121.545715","lat":"31.290325","category":"500","category_name":"未知分类","address":"上海市 军工路516号"},{"poiid":"B2094757D16EA2F8409C","title":"Mr11","lon":"121.5487175","lat":"31.291678566","category":"500","category_name":"未知分类","address":"上海空江路图门路十弄"},{"poiid":"B2094757D16FA0F4499D","title":"海贼王俱乐部","lon":"121.5403627","lat":"31.294392923","category":"500","category_name":"未知分类","address":"上海新世界"},{"poiid":"B2094655D26FA0FF449A","title":"图们小区(西一门)","lon":"121.54484","lat":"31.29308","category":"656","category_name":"大门","address":"延吉东路137弄"},{"poiid":"B2094654D56FA6FA4999","title":"上海市水产研究所","lon":"121.54057","lat":"31.2975","category":"191","category_name":"科研机构","address":"佳木斯路265"},{"poiid":"B2094654DB6BA2FB469F","title":"温州指压","lon":"121.54434","lat":"31.2914","category":"149","category_name":"洗浴推拿场所","address":"延吉东路158"},{"poiid":"B2094757D16EA7FE439C","title":"招商銀行24小時自助服務","lon":"121.540191465","lat":"31.2943519463","category":"500","category_name":"未知分类","address":"上海國權路"},{"poiid":"B2094757D168A2FC4499","title":"中国电信延吉东路营业厅","lon":"121.544221","lat":"31.291332","category":"150","category_name":"银行","address":"上海中国电信延吉东路营业厅"},{"poiid":"B2094655D26CA6F54693","title":"中农小区(西门)","lon":"121.54165","lat":"31.29758","category":"656","category_name":"大门","address":"佳木斯路185弄"},{"poiid":"B2094757D66EA2F9469F","title":"芬兰商品展","lon":"121.540762503","lat":"31.2995030302","category":"263","category_name":"公司","address":"上海淞沪路189号五角场万达广场B1中庭"},{"poiid":"B2094654D56FAAFB419D","title":"昕逸模型","lon":"121.54386","lat":"31.291","category":"255","category_name":"专卖店","address":"延吉东路172"},{"poiid":"B2094654D56FAAFA4699","title":"靖宇家园(北门)","lon":"121.54266","lat":"31.29248","category":"656","category_name":"大门","address":"靖宇东路55弄"},{"poiid":"B2094654D56FAAFB4492","title":"长华绿苑(东门)","lon":"121.54481","lat":"31.29241","category":"656","category_name":"大门","address":"延吉东路140弄"},{"poiid":"B2094655D26CA5F94193","title":"中农小区(北门)","lon":"121.54164","lat":"31.29902","category":"656","category_name":"大门","address":"佳木斯路205弄"},{"poiid":"B2094655D26CA6F44693","title":"长华绿苑(南门)","lon":"121.54422","lat":"31.2913","category":"656","category_name":"大门","address":""},{"poiid":"B2094655D26CA5F84899","title":"远东一村(东门)","lon":"121.54022","lat":"31.29902","category":"656","category_name":"大门","address":""}]