[{"poiid":"B2094655D269ABFD469B","title":"静安寺","lon":"121.44552","lat":"31.22324","category":"244","category_name":"寺庙道观","address":"静安区南京西路1686号(近静安寺)"},{"poiid":"B2094757D06FA6FE4392","title":"芮欧百货(上海)","lon":"121.44795308","lat":"31.223756204","category":"119","category_name":"商场","address":"静安区南京西路1601号"},{"poiid":"B2094654DB69A0FA449C","title":"椰香天堂泰国料理","lon":"121.44991","lat":"31.22092","category":"99","category_name":"泰国／越南菜品餐厅","address":"静安区富民路38号(近延安中路)"},{"poiid":"B2094753D76FAAFA449C","title":"上海滩国泰旗舰店","lon":"121.466011","lat":"31.216125","category":"249","category_name":"购物服务","address":"淮海中路868号"},{"poiid":"B209475CD564A7F84292","title":"上海滩新天地店","lon":"121.47463","lat":"31.22164","category":"119","category_name":"商场","address":"\"太仓路181弄新天地北里15号\r\n\""},{"poiid":"B209475CD564A7F8439E","title":"上海滩中信泰富店","lon":"121.45602","lat":"31.22851","category":"119","category_name":"商场","address":"\"南京西路1168号中信泰富广场，店铺号221.\r\n\""},{"poiid":"B2094757D06FA3FB419F","title":"窩","lon":"121.44984693","lat":"31.220437979","category":"65","category_name":"咖啡厅","address":"静安区巨鹿路786弄66号1楼(近富民路)"},{"poiid":"B2094757D06FA0F44593","title":"柒寿司(富民路店)","lon":"121.45014813109981","lat":"31.221289026267844","category":"95","category_name":"日本料理","address":"上海静安寺富民路51号"},{"poiid":"B2094655D26FA2FA429D","title":"越洋廣場","lon":"121.44767667724614","lat":"31.223172433526056","category":"249","category_name":"购物服务","address":"上海市静安区常德路"},{"poiid":"B2094757D068A7FA4698","title":"Dr. Beer","lon":"121.450329386","lat":"31.2207334453","category":"500","category_name":"未知分类","address":"上海市富民路80号(巨鹿路)"},{"poiid":"B2094655D26CAAF44692","title":"璞丽酒店(常德路)","lon":"121.44858","lat":"31.22251","category":"250","category_name":"公园户外","address":"静安区常德路1号(近延安中路)"},{"poiid":"B2094655D26EA1FE449F","title":"上海延安饭店","lon":"121.44827","lat":"31.22062","category":"214","category_name":"四星级宾馆","address":"静安区延安中路1111号(近华山路)"},{"poiid":"B2094757D46EABFF449B","title":"Réel Kitchen","lon":"121.4476342","lat":"31.2238135","category":"68","category_name":"快餐厅","address":"静安区南京西路1601号芮欧百货B2楼(近地铁静安寺站)"},{"poiid":"B2094757D068AAF54793","title":"葡京制造 芮欧百货店","lon":"121.4476342","lat":"31.2238135","category":"72","category_name":"广东菜","address":"静安区南京西路1601号芮欧百货B2楼B213号(近地铁2号线10号口)"},{"poiid":"B2094655D268A2FA409B","title":"多乐星 旗舰店 Donut King","lon":"121.445782054","lat":"31.222489793","category":"65","category_name":"咖啡厅","address":"静安区南京西路1649号静安公园内(久光百货对面)"},{"poiid":"B2094757D06FA7FA4899","title":"苏浙汇(静安店)","lon":"121.4476","lat":"31.22033","category":"76","category_name":"上海菜","address":"静安区延安中路1121号(近华山路)"},{"poiid":"B2094757D06FA6F8499C","title":"小南国烧烤(久光店)","lon":"121.44737","lat":"31.22351","category":"95","category_name":"日本料理","address":"静安区南京西路1618号久光百货8楼(近静安寺)"},{"poiid":"B209475CD66BABF4409F","title":"大董烤鸭店","lon":"121.448539","lat":"31.223339","category":"247","category_name":"餐饮美食","address":"上海市 南京西路1601号越洋广场芮欧百货5楼"},{"poiid":"B2094655D264A1FF479D","title":"上海静安嘉里商务中心(北区)","lon":"121.44928","lat":"31.22384","category":"46","category_name":"楼宇","address":""},{"poiid":"B209475CD56BA2F44892","title":"翠园","lon":"121.449012","lat":"31.22355","category":"500","category_name":"未知分类","address":"上海市 延安西路1238号嘉里中心S4—01"},{"poiid":"B2094757D068A7FD4199","title":"釜山料理(越洋广场店)","lon":"121.447444586","lat":"31.2233062956","category":"247","category_name":"餐饮美食","address":"上海静安区南京西路1601号越洋广场B2楼"},{"poiid":"B2094757D06FA1F54799","title":"上海人家精作坊(航站店)","lon":"121.44726","lat":"31.22342","category":"76","category_name":"上海菜","address":"静安区南京西路1600号机场航站楼4楼(近常德路)"},{"poiid":"B2094757D06FAAFD459F","title":"Pho Asia","lon":"121.450447","lat":"31.220718","category":"99","category_name":"泰国／越南菜品餐厅","address":"静安区富民路85号巨富大厦(近巨鹿路)"},{"poiid":"B2094757D468AAFD409E","title":"饥饿吐司","lon":"121.4476216","lat":"31.2238243","category":"112","category_name":"糕饼店","address":"静安区南京西路1601号芮欧百货B205号(近静安公园)"},{"poiid":"B2094757D064A5F9439C","title":"Sabatini意大利餐厅","lon":"121.446666586","lat":"31.2211182528","category":"500","category_name":"未知分类","address":"南京西路1717号会德丰国际广场南苑1楼"},{"poiid":"B2094757D068ABF4459C","title":"香港肥杜火锅","lon":"121.45016495","lat":"31.220844179","category":"86","category_name":"火锅店","address":"静安区富民路85号巨富大厦1楼(近巨鹿路)"},{"poiid":"B2094757D06FA6F4449F","title":"清风人家(静安店)","lon":"121.44802","lat":"31.22035","category":"260","category_name":"其他","address":"静安区延安中路1109号(近延安饭店)"},{"poiid":"B2094757D068A4FB419A","title":"富民路巨鹿路","lon":"121.45020024","lat":"31.221579561","category":"260","category_name":"其他","address":"上海静安区富民路巨鹿路口"},{"poiid":"B2094753DA65ABFB459F","title":"小贝壳海鲜火锅","lon":"121.448814","lat":"31.222833","category":"247","category_name":"餐饮美食","address":"上海市 万航渡路1号"},{"poiid":"B209475DD16EA4FC499F","title":"百美汇影城","lon":"121.448913","lat":"31.223381","category":"178","category_name":"电影院","address":"上海市 上海市静安区南京西路1551号静安嘉里中心商场N4-01室"},{"poiid":"B209475CDA6CABF4429E","title":"myst","lon":"121.447692","lat":"31.220817","category":"500","category_name":"未知分类","address":"上海市 静安区延安中路"},{"poiid":"B2094757D568ABFA4998","title":"JACafe","lon":"121.44664","lat":"31.222799","category":"65","category_name":"咖啡厅","address":"中国上海市静安区南京西路"},{"poiid":"B2094757D66DA5FF4798","title":"苏浙汇","lon":"121.44903058","lat":"31.221403258","category":"500","category_name":"未知分类","address":"上海延安西路"},{"poiid":"B2094752D664A7F94498","title":"Henkes","lon":"121.44739","lat":"31.222622","category":"247","category_name":"餐饮美食","address":"芮欧百货"},{"poiid":"B2094757D06FA5F9459C","title":"JA Cafe (静安公园内)","lon":"121.4465","lat":"31.22271","category":"260","category_name":"其他","address":"静安区南京西路1649号静安公园内(近静安公园)"},{"poiid":"B2094757D16AA7FC439F","title":"莹七餐厅","lon":"121.449147586","lat":"31.221130253","category":"500","category_name":"未知分类","address":"上海巨鹿路805号"},{"poiid":"B209475CD26FA2FC4392","title":"La Creperie","lon":"121.447349","lat":"31.223041","category":"500","category_name":"未知分类","address":"上海市 南京西路1601号芮欧百货1楼D座"},{"poiid":"B2094757D069A5FC499B","title":"翠华","lon":"121.44918058","lat":"31.221185254","category":"249","category_name":"购物服务","address":"上海静安区华山路"},{"poiid":"B2094757DA6FA3FB409C","title":"锦官城麻辣香锅","lon":"121.447634200002","lat":"31.2238134999997","category":"71","category_name":"四川菜","address":"静安区南京西路1601号芮欧百货B2楼(近常德路)"},{"poiid":"B2094757D06FA6FC4999","title":"COSTA COFFEE(越洋广场店)","lon":"121.44875","lat":"31.2223","category":"65","category_name":"咖啡厅","address":"静安区南京西路1601号越洋广场1楼B单元(近常德路)"},{"poiid":"B2094757D065A3FA459D","title":"coconut paradise","lon":"121.449070586","lat":"31.2214652596","category":"500","category_name":"未知分类","address":"上海市静安区富民路38号近巨鹿路"},{"poiid":"B209475CD16AA1FC459C","title":"艾米1895电影街","lon":"121.447013","lat":"31.222036","category":"178","category_name":"电影院","address":"上海市 上海市北京西路1829号4楼 靠近愚园路"},{"poiid":"B2094750D66CABFA429C","title":"筑地银章鱼烧Gindaco","lon":"121.447265","lat":"31.22351","category":"68","category_name":"快餐厅","address":"静安区南京西路1601号芮欧百货B2楼ReelKitchen内(近静安寺)"},{"poiid":"B209475DD06EA7FC4498","title":"KABB","lon":"121.449417","lat":"31.223478","category":"500","category_name":"未知分类","address":"上海市 靜安嘉里中心"},{"poiid":"B2094753D26EA6F8429E","title":"上海展览中心","lon":"121.448048","lat":"31.22397","category":"500","category_name":"未知分类","address":"上海市 延安中路1000号"},{"poiid":"B2094757D069A2F5479E","title":"和兴汤馆","lon":"121.44792946","lat":"31.221589774","category":"72","category_name":"广东菜","address":"静安区延安中路1123号(近富民路)"},{"poiid":"B2094757D169A0F84593","title":"一哥火锅","lon":"121.449226586","lat":"31.2211502534","category":"247","category_name":"餐饮美食","address":"上海市静安区华山路"},{"poiid":"B2094654DB6BA6FC429E","title":"格林豪泰(上海延安中路店)","lon":"121.4485","lat":"31.22102","category":"216","category_name":"经济型连锁酒店","address":"上海市延安中路1111号(近华山路)"},{"poiid":"B2094757D16DA1F5419A","title":"延安高架","lon":"121.45033958","lat":"31.222230274","category":"500","category_name":"未知分类","address":"上海市静安区"},{"poiid":"B2094757D069A2FF4599","title":"华东模范中学","lon":"121.4503","lat":"31.22113","category":"55","category_name":"中学","address":"静安区富民路43号(富民路延安中路)"},{"poiid":"B209475DD56FA6F44798","title":"晶采轩（芮欧百货店）","lon":"121.447303","lat":"31.222906","category":"247","category_name":"餐饮美食","address":"上海市 南京西路1601号芮欧百货3-4楼(近常德路)"},{"poiid":"B209475CDB6FA1FC499E","title":"PINTXOS","lon":"121.449722","lat":"31.223426","category":"500","category_name":"未知分类","address":"上海市 静安嘉里中心SB1-10"},{"poiid":"B2094654DB69AAF84092","title":"延安饭店东方厅","lon":"121.44627536163","lat":"31.220577794887","category":"247","category_name":"餐饮美食","address":"静安区延安中路1111号延安饭店12楼(近华山路)"},{"poiid":"B209475DD264A2FB4192","title":"bunlife","lon":"121.449737","lat":"31.223474","category":"500","category_name":"未知分类","address":"上海市 嘉里中心"},{"poiid":"B2094757D16AA1FD4398","title":"厚味香辣馆","lon":"121.449156586","lat":"31.2211242529","category":"247","category_name":"餐饮美食","address":"上海市静安区静安寺"},{"poiid":"B2094757D068A1FC4198","title":"赛百味(静安寺店)","lon":"121.448063","lat":"31.221935","category":"94","category_name":"西餐厅","address":"静安区南京西路1699号伊美时尚广场内(近静安寺)"},{"poiid":"B209475DD669A4FD4098","title":"Seesaw coffee","lon":"121.447776","lat":"31.223237","category":"247","category_name":"餐饮美食","address":"上海市 南京西路1601号越洋广场5楼(近常德路)"},{"poiid":"B2094757D06BA4FD4099","title":"长鑫大厦","lon":"121.449","lat":"31.2213","category":"46","category_name":"楼宇","address":"上海市徐汇区长乐路1219号"},{"poiid":"B2094757D069ABFC4699","title":"吴记锅仔牛肉面","lon":"121.447933186","lat":"31.223737504","category":"68","category_name":"快餐厅","address":"静安区南京西路1601号芮欧百货B2楼(近静安寺)"},{"poiid":"B2094757D064A5FB4799","title":"上海人家(久光店)","lon":"121.44659938","lat":"31.221167253","category":"247","category_name":"餐饮美食","address":"上海南京西路1640号4楼"},{"poiid":"B209475DD16AA0F9499B","title":"一风堂IPPUDO","lon":"121.448036","lat":"31.22286","category":"247","category_name":"餐饮美食","address":"上海市 静安嘉里城B1"},{"poiid":"B209475DD46AA6FC449C","title":"祥兴记生煎","lon":"121.448509","lat":"31.222238","category":"247","category_name":"餐饮美食","address":"上海市 万航渡路7号(近愚园路)"},{"poiid":"B2094757D468AAF84992","title":"墨可思 越洋广场店","lon":"121.4476342","lat":"31.2238135","category":"109","category_name":"墨西哥菜","address":"静安区南京西路1601号芮欧百货B2-42号柜位(近地铁二号线七号线10号口)"},{"poiid":"B2094757D068A5F5479E","title":"延安路高架","lon":"121.44808356","lat":"31.221350291","category":"260","category_name":"其他","address":"上海静安"},{"poiid":"B2094757D064A0FD409D","title":"Long Bar","lon":"121.4484198","lat":"31.222239284","category":"500","category_name":"未知分类","address":"上海静安区常德路1号璞丽酒店1楼"},{"poiid":"B209475CD764A4F94798","title":"金牛苑 南京西路店","lon":"121.44844","lat":"31.22329","category":"47","category_name":"住宅区","address":"南京西路1601号越洋广场2楼2A号铺(近静安寺地铁站)"},{"poiid":"B209475DD564A4FB4293","title":"七條日式炸猪排","lon":"121.447273","lat":"31.223535","category":"247","category_name":"餐饮美食","address":"上海市 静安区南京西路1601号芮欧百货B2美食广场"},{"poiid":"B2094655D26AA4FC459A","title":"街客 静安公园店 Jack Hut","lon":"121.446417054","lat":"31.223230793","category":"113","category_name":"冷饮店","address":"静安区南京西路1649号静安公园门口(近静安寺)"},{"poiid":"B2094757D66BA2F5499A","title":"溢阳食府","lon":"121.4468165","lat":"31.220961","category":"76","category_name":"上海菜","address":"静安区延安中路1127号延安饭店旁(近华山路)"},{"poiid":"B2094750D664A7FC429B","title":"大一梦薄皮鲷鱼烧(芮欧百货店)","lon":"121.448","lat":"31.2236","category":"68","category_name":"快餐厅","address":"静安区南京西路1601号芮欧百货B2楼(常德路口)"},{"poiid":"B2094757DA6FA2FC479D","title":"沃歌斯(芮欧百货店)","lon":"121.447634200002","lat":"31.2238134999997","category":"94","category_name":"西餐厅","address":"静安区南京西路1601号芮欧百货B209号铺(近常德路)"},{"poiid":"B209475CDB64A3FE459C","title":"逸谷会","lon":"121.448669","lat":"31.222801","category":"500","category_name":"未知分类","address":"上海市 静安嘉里中心"},{"poiid":"B2094757D164A7FD4199","title":"伊比力铁板牛排","lon":"121.44795867","lat":"31.2229926564","category":"94","category_name":"西餐厅","address":"静安区南京西路1601号芮欧百货B2楼(近二号线七号线10号口)"},{"poiid":"B2094757D06BABF44999","title":"外服体检部","lon":"121.448305753","lat":"31.2236734694","category":"162","category_name":"医院","address":"上海金陵西路28号金陵大厦3楼"},{"poiid":"B2094753D76BA4FE419C","title":"静安香格里拉大酒店","lon":"121.448013","lat":"31.223201","category":"500","category_name":"未知分类","address":"上海市 延安中路1218号"},{"poiid":"B2094753DA6AA4FC4899","title":"克拉美雪Clamshell静安店","lon":"121.448432","lat":"31.220312","category":"247","category_name":"餐饮美食","address":"南京西路1788号B1楼"},{"poiid":"B2094753D764A4FF469A","title":"1788美食广场","lon":"121.449111","lat":"31.222698","category":"500","category_name":"未知分类","address":"上海市 南京西路1788号B1"},{"poiid":"B2094752D26BA1FA4892","title":"Sarment","lon":"121.44778","lat":"31.223805","category":"247","category_name":"餐饮美食","address":"南京西路1601号202"},{"poiid":"B209475DD16AA5FA4198","title":"1515牛排馆","lon":"121.449867","lat":"31.223461","category":"247","category_name":"餐饮美食","address":"上海市 延安中路1218号香格里拉大酒店4楼"},{"poiid":"B2094752D765A0F4499B","title":"DOZO IZAKAYA","lon":"121.446768","lat":"31.22191","category":"247","category_name":"餐饮美食","address":null},{"poiid":"B209475CD064A5FF4699","title":"窝 巨鹿路店 THE NEST","lon":"121.44989","lat":"31.21981","category":"65","category_name":"咖啡厅","address":"巨鹿路786弄66号1楼(近富民路)"},{"poiid":"B2094655D265ABFA459E","title":"迷苑兰州正宗牛肉拉面","lon":"121.45043","lat":"31.2202","category":"68","category_name":"快餐厅","address":"静安区富民路88号(近巨鹿路)"},{"poiid":"B209475DD264AAFB469B","title":"莲香袭欲极品榴莲","lon":"121.450485","lat":"31.220464","category":"247","category_name":"餐饮美食","address":"上海市 上海静安区富民路70号"},{"poiid":"B2094757D569A3FE4892","title":"延安饭店鸿运厅","lon":"121.4482719","lat":"31.22062389","category":"257","category_name":"中餐厅","address":"延安中路1111号延安饭店1层"},{"poiid":"B2094655D26DA2FA4392","title":"越洋广场(东一门)","lon":"121.44834","lat":"31.2232","category":"46","category_name":"楼宇","address":""},{"poiid":"B209475DD664A6FD469B","title":"Flame Bar","lon":"121.448692","lat":"31.223598","category":"247","category_name":"餐饮美食","address":"上海市 上海"},{"poiid":"B2094757D568ABFA489A","title":"COSTA咖啡(越洋广场店)","lon":"121.4480281","lat":"31.22313611","category":"65","category_name":"咖啡厅","address":"静安区南京西路651号上视大院(近广电大厦)"},{"poiid":"B2094753D164A1F54892","title":"乐寿司","lon":"121.447328","lat":"31.22267","category":"247","category_name":"餐饮美食","address":"上海市 南京西路1601号芮欧百货1楼(近Henkes)"},{"poiid":"B209475CD46CA4FC4798","title":"品川","lon":"121.450515","lat":"31.221904","category":"247","category_name":"餐饮美食","address":"上海市 上海市久光百货8楼"},{"poiid":"B2094757D06FA0FD4892","title":"Cargo JJ","lon":"121.44849358","lat":"31.221225254","category":"172","category_name":"酒吧","address":"上海市静安区延安中路1123号"},{"poiid":"B209475DD06BA4F84999","title":"大董中国意境菜","lon":"121.448722","lat":"31.223194","category":"500","category_name":"未知分类","address":"上海市 静安寺"},{"poiid":"B2094757D16DA7FE479E","title":"德国领事馆签证处","lon":"121.44958958","lat":"31.22100025","category":"500","category_name":"未知分类","address":"上海静安区铜仁路soho东海广场8F"},{"poiid":"B2094757D46BABF4489A","title":"狮子山香港餐厅 越洋广场店","lon":"121.448022","lat":"31.223954","category":"71","category_name":"四川菜","address":"静安区南京西路1601号芮欧百货B2-21号(近常德路)"},{"poiid":"B2094753D76FA7F5429D","title":"Citta'享咖(静安寺店)","lon":"121.447951","lat":"31.223816","category":"65","category_name":"咖啡厅","address":"上海市 地铁7号线静安寺站9/10号口“聚集地”B01"},{"poiid":"B209475CD669A4FD4198","title":"艾米1895电影街","lon":"121.447303","lat":"31.222009","category":"178","category_name":"电影院","address":"上海市 北京西路1829号"},{"poiid":"B2094751DB6BA4F4409F","title":"七星茶语公社(长乐路店)","lon":"121.44936","lat":"31.21997","category":"112","category_name":"糕饼店","address":"静安区长乐路612号(近襄阳北路)"},{"poiid":"B2094752D66AA2FA449F","title":"Hug Coffee","lon":"121.449781","lat":"31.222411","category":"247","category_name":"餐饮美食","address":"襄阳北路4号（近巨鹿路）"},{"poiid":"B209475CDA69A6FF429D","title":"PHO REAL","lon":"121.449508","lat":"31.222778","category":"500","category_name":"未知分类","address":"上海市 静安嘉里B1"},{"poiid":"B2094655D268A5F5459D","title":"延安饭店(北门)","lon":"121.44802","lat":"31.22099","category":"214","category_name":"四星级宾馆","address":"延安中路1111"},{"poiid":"B2094757D168A0FA499A","title":"越洋广场39层","lon":"121.447747586","lat":"31.2227842854","category":"46","category_name":"楼宇","address":"上海静安区南京西路1601号越洋广场(近常德路)"},{"poiid":"B2094757D16AA2FF439A","title":"新吉士上海菜","lon":"121.45051574","lat":"31.222301483","category":"247","category_name":"餐饮美食","address":"上海静安久光百货"},{"poiid":"B2094757D168A7FC449D","title":"延安饭店东楼","lon":"121.448794586","lat":"31.2212782559","category":"500","category_name":"未知分类","address":"上海市静安区"},{"poiid":"B2094757D06BA1F8499D","title":"MHD 上海office","lon":"121.44960975","lat":"31.22098851","category":"46","category_name":"楼宇","address":"上海恒隆2期 36楼"},{"poiid":"B209475DD069A4FF4093","title":"晶采轩（芮欧百货店）","lon":"121.447792","lat":"31.22289","category":"500","category_name":"未知分类","address":"上海市 上海市静安区南京西路1601号芮欧百货3-4楼"},{"poiid":"B2094655D26BA2FF439C","title":"铜仁路","lon":"121.45047","lat":"31.22205","category":"38","category_name":"公交车站","address":""},{"poiid":"B2094654D564ABFF489B","title":"静安花园商务楼","lon":"121.4479","lat":"31.21991","category":"46","category_name":"楼宇","address":"延安中路1135弄5"},{"poiid":"B2094750DB64A5FA459E","title":"继光香香鸡","lon":"121.448287","lat":"31.222597","category":"68","category_name":"快餐厅","address":"静安区南京西路1601号越洋广场芮欧百货B2楼(近久光百货)"},{"poiid":"B2094655D26AAAFB4393","title":"DonutKing旗舰店","lon":"121.44682","lat":"31.22211","category":"67","category_name":"甜品店","address":"静安区南京西路1649号静安公园内久光百货对面;;"},{"poiid":"B2094757D16FA7F84592","title":"神田烤肉","lon":"121.449161586","lat":"31.2211332531","category":"247","category_name":"餐饮美食","address":"上海淮海中路776号2F"},{"poiid":"B209475DD36AA3F84299","title":"Old Navy","lon":"121.44989","lat":"31.220645","category":"500","category_name":"未知分类","address":"上海市 上海市静安区南京西路1728号"},{"poiid":"B2094757D16DA3FF4292","title":"桑格水疗会所","lon":"121.450529586","lat":"31.22199627","category":"148","category_name":"美容美发店","address":"静安区富民路183号"},{"poiid":"B2094655D26DA3FA469C","title":"越洋广场(东二门)","lon":"121.44837","lat":"31.2231","category":"46","category_name":"楼宇","address":""},{"poiid":"B2094757D16CA4F5429C","title":"喜旺农家菜","lon":"121.449201586","lat":"31.2211572536","category":"257","category_name":"中餐厅","address":"静安区乌鲁木齐北路191号(近愚园路)"},{"poiid":"B2094655D26DAAF84092","title":"1920年毛泽东寓所旧址","lon":"121.44979","lat":"31.22347","category":"243","category_name":"纪念馆","address":"安义路61"},{"poiid":"B2094752D26CAAFF479A","title":"桃花园肥牛海鲜火锅","lon":"121.44923","lat":"31.22313","category":"86","category_name":"火锅店","address":"静安区万航渡路1号环球大厦B座4楼(近愚园路)"},{"poiid":"B2094757D065A2FC499C","title":"听音寻路","lon":"121.44693698","lat":"31.220899129","category":"46","category_name":"楼宇","address":"上海延安中路1157弄25号"},{"poiid":"B2094757D16EA4FB479C","title":"越洋广场10楼餐厅","lon":"121.44883358","lat":"31.223890307","category":"46","category_name":"楼宇","address":"上海静安区南京西路1601号10楼"},{"poiid":"B2094752DA69A4FE449F","title":"窝","lon":"121.448437","lat":"31.223629","category":"500","category_name":"未知分类","address":"上海市 巨鹿路786弄66号1楼"},{"poiid":"B2094753DA6BA0F54499","title":"小贝壳","lon":"121.448562","lat":"31.22237","category":"500","category_name":"未知分类","address":"上海市 静安区万航渡路1号百乐美食城"},{"poiid":"B2094654DB69A7FF409B","title":"阳阳迪斯科广场","lon":"121.44766","lat":"31.22047","category":"174","category_name":"迪厅","address":"延安中路1127号"},{"poiid":"B2094655D36CA4FD4698","title":"安义路铜仁路","lon":"121.44949","lat":"31.22355","category":"38","category_name":"公交车站","address":""},{"poiid":"B2094757D164A4F5489D","title":"葡京茶餐厅reel百货店","lon":"121.44739968","lat":"31.223649002","category":"249","category_name":"购物服务","address":"上海越洋广场芮欧百货B2"},{"poiid":"B2094752D56AA0F8429C","title":"聚集地INSHOP","lon":"121.448632","lat":"31.222303","category":"249","category_name":"购物服务","address":"7号线静安寺站厅上层（9号-10号出口）"},{"poiid":"B2094750DB6BA1FB4392","title":"A.VINO.BISTRO.BAR","lon":"121.449516","lat":"31.221824","category":"172","category_name":"酒吧","address":"静安区延安中路1007号(近富民路路口)"},{"poiid":"B2094751D26AA2FE469B","title":"良佳会馆","lon":"121.447441","lat":"31.22101","category":"248","category_name":"生活娱乐","address":"静安区愚园支路18号2楼(近静安寺)"},{"poiid":"B2094654D564ABFF479C","title":"可的(富民路)","lon":"121.4503","lat":"31.22105","category":"117","category_name":"便民商店/便利店","address":"静安区富民路59号(富民路延安中路)"},{"poiid":"B2094750D76EA4F9479B","title":"露天花园","lon":"121.448","lat":"31.2223","category":"94","category_name":"西餐厅","address":"静安区常德路1号璞丽酒店"},{"poiid":"B2094757D16BA0F5439A","title":"禾禄回转寿司","lon":"121.44726658","lat":"31.2235743","category":"247","category_name":"餐饮美食","address":"上海市长宁区天山路890号2楼"},{"poiid":"B2094757D064ABF5419A","title":"cocount paradise","lon":"121.45063703","lat":"31.222302046","category":"500","category_name":"未知分类","address":"上海富民路38号(近延安西路)"},{"poiid":"B2094757D065A4FA459B","title":"Pola The Beauty(久光店)","lon":"121.44741","lat":"31.22329","category":"500","category_name":"未知分类","address":"上海静安区南京西路1618号静安寺久光百货9楼(近静安寺)  "},{"poiid":"B2094757D66CA6FE4492","title":"延安饭店行政酒廊","lon":"121.44833858","lat":"31.221558261","category":"247","category_name":"餐饮美食","address":"上海延安中路"},{"poiid":"B2094654DB6BA6FC4399","title":"静安富民公寓(延安中路)","lon":"121.4503","lat":"31.22153","category":"47","category_name":"住宅区","address":"延安中路1003-1005"},{"poiid":"B2094654D564ABFF489A","title":"联华(富民路)","lon":"121.45013","lat":"31.22145","category":"118","category_name":"超级市场","address":"富民路45-47"},{"poiid":"B2094752D668A7FF4592","title":"首尔仁川国际机场","lon":"121.4484088","lat":"31.2200914","category":"500","category_name":"未知分类","address":null},{"poiid":"B2094757D16BABF5429A","title":"Anantara Spa","lon":"121.44863","lat":"31.22225","category":"500","category_name":"未知分类","address":"上海静安区常德路1号璞丽酒店3楼(南京西路延安西路间)  "},{"poiid":"B2094757D06AAAFB419C","title":"Bellagio意式餐厅","lon":"121.44874572","lat":"31.221567153","category":"247","category_name":"餐饮美食","address":"上海静安区万航渡路1号环球世界大厦1楼1"},{"poiid":"B2094757D16CA0FE449C","title":"梅陇镇酒家","lon":"121.44915658","lat":"31.221124252","category":"247","category_name":"餐饮美食","address":"上海市静安区南京西路梅陇镇广场6楼"},{"poiid":"B2094757D065A7FB499A","title":"延安饭店食堂","lon":"121.4483509","lat":"31.220876638","category":"247","category_name":"餐饮美食","address":"上海延安饭店"},{"poiid":"B2094757DA69A1FD4793","title":"巴黎欧莱雅","lon":"121.44759465441","lat":"31.223753017022","category":"641","category_name":"化妆卫浴用品类公司","address":"南京西路No.1601越洋广场9楼"},{"poiid":"B2094655D26FAAF9449F","title":"Club JJ2","lon":"121.44776","lat":"31.22081","category":"172","category_name":"酒吧","address":"延安中路1123号"},{"poiid":"B2094757D065A5F84798","title":"延安饭店十二楼","lon":"121.44693633","lat":"31.221437614","category":"500","category_name":"未知分类","address":"上海延安中路1111号"},{"poiid":"B2094655D268A1FD429C","title":"延中小区","lon":"121.45081","lat":"31.22112","category":"47","category_name":"住宅区","address":"富民路61弄1-22号"},{"poiid":"B209475DD06CA3FB449A","title":"大董海参西路1601号越洋广场5楼","lon":"121.449043","lat":"31.221952","category":"500","category_name":"未知分类","address":"上海市 nanjin"},{"poiid":"B2094751D365A1F9499E","title":"翠华餐厅","lon":"121.4500954","lat":"31.2224708","category":"500","category_name":"未知分类","address":null},{"poiid":"B2094753D564AAFD4099","title":"上海希尔顿酒店","lon":"121.447662","lat":"31.222185","category":"500","category_name":"未知分类","address":"上海市 上海静安区"},{"poiid":"B2094655D268A1FD429D","title":"延中小区(西门)","lon":"121.45037","lat":"31.22098","category":"47","category_name":"住宅区","address":"富民路61弄1-22号"},{"poiid":"B2094757D16FA1FA4598","title":"灵灵美甲美睫(伊美店)","lon":"121.44668","lat":"31.2228","category":"122","category_name":"个人用品/化妆品店","address":"静安区南京西路1699号伊美时尚广场2楼A-127号商铺(近静安寺)"},{"poiid":"B2094753D36FA1F44398","title":"Life by city'super","lon":"121.44949255465","lat":"31.223683739794","category":"249","category_name":"购物服务","address":"上海市静安区南京西路1563号静安嘉里中心（北区） 地下一层"},{"poiid":"B209475CD76FA1FF4298","title":"La CaRePeRiE","lon":"121.448005","lat":"31.223112","category":"500","category_name":"未知分类","address":"上海市 芮欧百货"},{"poiid":"B209475DD465A1F8409C","title":"Myst酒吧","lon":"121.44799","lat":"31.222665","category":"248","category_name":"生活娱乐","address":"上海市 延安饭店"},{"poiid":"B2094654DB64A4FD459E","title":"上海神麒酒店","lon":"121.45012","lat":"31.22161","category":"250","category_name":"公园户外","address":"延安中路1007"},{"poiid":"B2094757D069A2F5419F","title":"MARELLA(久光店)","lon":"121.44920958","lat":"31.221147253","category":"141","category_name":"服装鞋帽皮具店","address":"上海静安区南京西路1618号久光百货1楼D103号(近静安寺)"},{"poiid":"B209475CDA65AAFF409F","title":"静安公园","lon":"121.446405","lat":"31.221914","category":"196","category_name":"公园","address":"上海市 静安寺站"},{"poiid":"B209475CDA6AA3FB4799","title":"element fresh","lon":"121.449783","lat":"31.223682","category":"500","category_name":"未知分类","address":"上海市 嘉里中心"},{"poiid":"B209475CDA69A6FB4798","title":"HUROM JUICE CAFé","lon":"121.448303","lat":"31.2198","category":"500","category_name":"未知分类","address":"上海市 上海市静安区南京西路1856号"},{"poiid":"B2094757D16DA5FA4893","title":"Jing'an Restaurant","lon":"121.448579","lat":"31.222491","category":"500","category_name":"未知分类","address":"上海常德路1号璞麗酒店"},{"poiid":"B2094757D66EA5F84999","title":"新加坡领事馆","lon":"121.45071758","lat":"31.222193273","category":"500","category_name":"未知分类","address":"上海万山路89号"},{"poiid":"B2094757D16AA7FA4492","title":"平安银行上海分行","lon":"121.44851803","lat":"31.221225864","category":"150","category_name":"银行","address":"上海常熟路8号"},{"poiid":"B2094752D26AA5FE429E","title":"元坊Yuan Lounge","lon":"121.449486","lat":"31.22121","category":"248","category_name":"生活娱乐","address":"襄阳北路17-2"},{"poiid":"B2094655D26AA4FF499E","title":"八景园茶室","lon":"121.44682","lat":"31.22211","category":"260","category_name":"其他","address":"静安区南京西路1649号静安公园内(近静安寺)"},{"poiid":"B2094757D16EABF44998","title":"LEMON HEAD造型沙龙","lon":"121.447188086","lat":"31.2214221302","category":"148","category_name":"美容美发店","address":"上海黄浦区地铁人民广场站6号出口地铁生活馆2-134号"},{"poiid":"B2094750DA6CA1FB499F","title":"上海戏剧学院紫藤庐","lon":"121.449569","lat":"31.220516","category":"500","category_name":"未知分类","address":null},{"poiid":"B2094753D164A7F9419D","title":"俏江南881会所","lon":"121.449139","lat":"31.222567","category":"500","category_name":"未知分类","address":"上海市 延安中路881"},{"poiid":"B2094757D66DA0FC479C","title":"金刷盘","lon":"121.448925586","lat":"31.222661283","category":"500","category_name":"未知分类","address":"上海愚园路(近静安寺)"},{"poiid":"B2094757D66EAAFB4593","title":"CASA CASA家居设计","lon":"121.449821","lat":"31.220106","category":"123","category_name":"家具建材市场","address":"上海徐汇区安福路201号西门一楼"},{"poiid":"B2094757D06AABF8419B","title":"Johnsonville","lon":"121.45027417","lat":"31.221669563","category":"500","category_name":"未知分类","address":"上海久光百貨B1"},{"poiid":"B2094757D16DA0F4459C","title":"Newyork Pizza","lon":"121.447009074","lat":"31.2228762872","category":"500","category_name":"未知分类","address":"上海南京西路1669号静安广场J16"},{"poiid":"B2094757DB6FAAF4489E","title":"汉源书屋","lon":"121.447576153499","lat":"31.22233711658376","category":"249","category_name":"购物服务","address":"绍兴路27号"},{"poiid":"B2094752DB65ABF8489E","title":"papabubble手工糖果","lon":"121.449191","lat":"31.221728","category":"249","category_name":"购物服务","address":"上海市 上海市靜安區巨鹿路891號"},{"poiid":"B2094757D06AA1F44493","title":"越洋广场43F","lon":"121.447878467","lat":"31.2231421898","category":"500","category_name":"未知分类","address":"上海静安区南京西路1601号(近常德路)"},{"poiid":"B2094757D164A4FF479A","title":"久光百货6楼玩具部","lon":"121.44917358","lat":"31.221111252","category":"500","category_name":"未知分类","address":"上海市静安区华山路"},{"poiid":"B2094757D16CA0F4449A","title":"芮漫卡梦游奇境@","lon":"121.448501","lat":"31.221007","category":"500","category_name":"未知分类","address":"天津水中央"},{"poiid":"B2094757D16CA5F44599","title":"JJ  Club","lon":"121.4487934","lat":"31.221238055","category":"500","category_name":"未知分类","address":"上海延安饭店"},{"poiid":"B2094757D66EAAFB429D","title":"马尔代夫","lon":"121.44886158","lat":"31.221538261","category":"500","category_name":"未知分类","address":"马尔代夫"},{"poiid":"B2094757D16CA4FB419D","title":"西安翻译学院东四餐厅","lon":"121.447564586","lat":"31.2215272608","category":"500","category_name":"未知分类","address":"陕西省西安市长安区太乙宫西安翻译学院"},{"poiid":"B2094757D66DABFF4298","title":"玫琳凯","lon":"121.44959395","lat":"31.221027321","category":"500","category_name":"未知分类","address":"上海恒隆广场二期"},{"poiid":"B2094757D16FAAFB4599","title":"Spin旋","lon":"121.44814058","lat":"31.22168793","category":"260","category_name":"其他","address":"上海静安区康定路360号"},{"poiid":"B2094757D16DA5F8439D","title":"智威湯遜","lon":"121.44957225","lat":"31.221024991","category":"500","category_name":"未知分类","address":"上海長樂路989號世紀商貿廣場25樓"},{"poiid":"B2094757D16EA4F84599","title":"恒生银行南西支行","lon":"121.449284472","lat":"31.2218801716","category":"150","category_name":"银行","address":"上海南京西路1566号"},{"poiid":"B2094757D16EA2FB4699","title":"延安饭店财务部","lon":"121.448233","lat":"31.220624","category":"500","category_name":"未知分类","address":"上海延安饭店"},{"poiid":"B2094757D16AABF94198","title":"兴创驾校(车站南路)","lon":"121.446773586","lat":"31.2227502847","category":"253","category_name":"校园生活","address":"上海车站南路119号"},{"poiid":"B2094757D06BA5FE469D","title":"德克士(阜成门店)","lon":"121.44876858","lat":"31.221992269","category":"500","category_name":"未知分类","address":"上海北京阜成门"},{"poiid":"B2094757D16FA0FE449A","title":"01路华山路站","lon":"121.44770883","lat":"31.221452189","category":"500","category_name":"未知分类","address":"上海延安西路华山路"},{"poiid":"B2094757D16BAAF5449C","title":"自閉症","lon":"121.44878858","lat":"31.221391258","category":"500","category_name":"未知分类","address":"上海隱藏式精神病"},{"poiid":"B2094757D06AA5FA4393","title":"寂寞胡同","lon":"121.44890158","lat":"31.221751265","category":"500","category_name":"未知分类","address":"上海市静安区愚园路"},{"poiid":"B2094757D064A6FB4693","title":"愛佷簡單","lon":"121.44905158","lat":"31.221349257","category":"500","category_name":"未知分类","address":null},{"poiid":"B2094757D16CA2F8489F","title":"打酱油","lon":"121.450721553","lat":"31.2228654536","category":"500","category_name":"未知分类","address":"上海市静安区"},{"poiid":"B2094757D065AAF5439D","title":"波拉加意大利休闲餐厅","lon":"121.44933617","lat":"31.221505556","category":"500","category_name":"未知分类","address":"上海静安区万航渡路1号1层B室"},{"poiid":"B2094757D165A2FD499A","title":"淫魂","lon":"121.44810458","lat":"31.220683244","category":"500","category_name":"未知分类","address":"上海沸騰"},{"poiid":"B2094757D66CAAFB4298","title":"东昊汽车养护中心","lon":"121.449598586","lat":"31.2236013014","category":"163","category_name":"4S店","address":"上海杨浦区抚顺路31号"},{"poiid":"B2094757D16BA2F9409C","title":"蓮花小院","lon":"121.45009511","lat":"31.220176306","category":"500","category_name":"未知分类","address":"上海巨鹿路786弄14號東南間"},{"poiid":"B2094757D16AA2F44993","title":"富民路拉面","lon":"121.44927258","lat":"31.22148526","category":"500","category_name":"未知分类","address":"上海市静安区华山路"},{"poiid":"B2094757D16BA6F8479F","title":"广良兴（中信泰富店）","lon":"121.44953202","lat":"31.22099847","category":"500","category_name":"未知分类","address":"静安区南京西路1168号中信泰富广场5楼(近陕西北路)"},{"poiid":"B2094654DA6CA7FC4893","title":"上海阿波罗大厦有限公司管理部","lon":"121.44731","lat":"31.22155","category":"263","category_name":"公司","address":"延安中路1440号阿波罗大厦7层713"},{"poiid":"B2094757D568ABFD4498","title":"FAME PUB","lon":"121.4505","lat":"31.22072","category":"260","category_name":"其他","address":"静安区富民路83号(近巨富大厦)"},{"poiid":"B2094757D569A2F9469D","title":"Fame","lon":"121.45050212","lat":"31.22074761","category":"248","category_name":"生活娱乐","address":"富民路83号"},{"poiid":"B2094655D26DA4FD419B","title":"Intergrated Industrial Systems，Usa (I2s) Shanghai Office","lon":"121.44731","lat":"31.22156","category":"263","category_name":"公司","address":"延安中路1440号阿波罗大厦5层511"},{"poiid":"B2094757D568A1FC499D","title":"香格里拉大酒店(延安中路店)","lon":"121.447686","lat":"31.22164","category":"251","category_name":"出行住宿","address":"静安区延安中路1238号(近静安寺)"},{"poiid":"B2094654DB65A4F5479E","title":"静安·富民公寓(西门)","lon":"121.45018","lat":"31.22131","category":"48","category_name":"楼宇大门","address":"富民路49号55弄2号、6号"},{"poiid":"B2094750D26EA4FB489C","title":"the puli","lon":"121.448509","lat":"31.222639","category":"251","category_name":"出行住宿","address":null},{"poiid":"B2094655D268A2F8499D","title":"静安富民公寓(北门)","lon":"121.45044","lat":"31.22182","category":"48","category_name":"楼宇大门","address":""},{"poiid":"B2094752D664A1FF4698","title":"浦东机场","lon":"121.450227","lat":"31.223126","category":"251","category_name":"出行住宿","address":null},{"poiid":"B2094654D564ABFF419F","title":"巨富大厦(北门)","lon":"121.45041","lat":"31.22085","category":"656","category_name":"大门","address":"富民路83-1"},{"poiid":"B2094654D564ABFA419A","title":"华东模范中学(西门)","lon":"121.4503","lat":"31.22114","category":"656","category_name":"大门","address":"富民路43号"}]