[{"poiid":"B2094654DA6CA1FF4493","title":"中信泰富广场","lon":"121.462","lat":"31.2349","category":"119","category_name":"商场","address":"静安区南京西路1168号中信泰富广场内(近陕西北路)"},{"poiid":"B2094654DB69A6F44893","title":"金钱豹餐饮(中信店)","lon":"121.45568","lat":"31.22796","category":"247","category_name":"餐饮美食","address":"静安区南京西路1168号中信泰富广场4-5楼(近陕西北路)"},{"poiid":"B2094654DB6AA6FC4893","title":"星巴克(中信店)","lon":"121.4549","lat":"31.2286","category":"65","category_name":"咖啡厅","address":"静安区南京西路1168号中信泰富广场B1楼LG12单元(近陕西北路)"},{"poiid":"B2094753D76FAAFA449C","title":"上海滩国泰旗舰店","lon":"121.466011","lat":"31.216125","category":"249","category_name":"购物服务","address":"淮海中路868号"},{"poiid":"B209475CD564A7F84292","title":"上海滩新天地店","lon":"121.47463","lat":"31.22164","category":"119","category_name":"商场","address":"\"太仓路181弄新天地北里15号\r\n\""},{"poiid":"B2094654DB64A7F94793","title":"玛满矿(中信泰富店)","lon":"121.45568","lat":"31.22796","category":"99","category_name":"泰国／越南菜品餐厅","address":"静安区南京西路1168号中信泰富广场4楼417号铺(近陕西北路)"},{"poiid":"B2094757D06FA3FB449D","title":"蓝玛赫","lon":"121.455921","lat":"31.229122","category":"94","category_name":"西餐厅","address":"静安区南京西路1038号梅龙镇广场3楼319A(近江宁路)"},{"poiid":"B209475CD564A7F8439E","title":"上海滩中信泰富店","lon":"121.45602","lat":"31.22851","category":"119","category_name":"商场","address":"\"南京西路1168号中信泰富广场，店铺号221.\r\n\""},{"poiid":"B2094654DB65A6F54493","title":"金鹰国际购物中心(陕西北路店)","lon":"121.45463","lat":"31.22855","category":"119","category_name":"商场","address":"静安区陕西北路278号金鹰国际购物中心内(近南京西路)"},{"poiid":"B2094655D265A5FF499D","title":"揽香川菜馆 金鹰店","lon":"121.45493030548","lat":"31.228215580823","category":"71","category_name":"四川菜","address":"静安区陕西北路278号金鹰国际购物中心8楼(近南京西路)"},{"poiid":"B2094757D06FA7FA409B","title":"恒隆广场一期","lon":"121.454415685","lat":"31.228063637","category":"47","category_name":"住宅区","address":"上海南京西路1266号"},{"poiid":"B2094655D265A1F54693","title":"豆捞坊(南京西路店)","lon":"121.4547","lat":"31.22855","category":"86","category_name":"火锅店","address":"静安区陕西北路278号金鹰国际购物广场6楼(近南京西路)"},{"poiid":"B2094654DB6BA6F54092","title":"俏江南(南京西路)","lon":"121.45569","lat":"31.22796","category":"71","category_name":"四川菜","address":"静安区南京西路1168号中信泰富广场3楼(近陕西北路)"},{"poiid":"B2094655D36CA3FD4993","title":"相当香港餐厅南京西路店","lon":"121.4547","lat":"31.22855","category":"72","category_name":"广东菜","address":"静安区陕西北路278号金鹰国际购物广场7楼(近南京西路)"},{"poiid":"B2094757D06EAAFB4192","title":"恒隆广场二期","lon":"121.45439147","lat":"31.227611541","category":"47","category_name":"住宅区","address":"杨浦区大学路33号"},{"poiid":"B2094654DA6CA1FF469C","title":"新镇江酒家","lon":"121.45673","lat":"31.22814","category":"74","category_name":"江苏菜","address":"静安区南京西路1111号(近江宁路)"},{"poiid":"B2094655D268A6F84393","title":"台北吴记老锅底麻辣火锅(江宁路店)","lon":"121.45554","lat":"31.22933","category":"86","category_name":"火锅店","address":"上海静安区江宁路77号3楼(近中信泰富)"},{"poiid":"B2094654DB6BA6F5409D","title":"星巴克(金鹰店)","lon":"121.454368","lat":"31.228431","category":"65","category_name":"咖啡厅","address":"静安区陕西北路278号金鹰国际购物中心1楼(近南京西路)"},{"poiid":"B2094654DA6CA1FF4499","title":"麦当劳(南京西路)","lon":"121.45569","lat":"31.22796","category":"68","category_name":"快餐厅","address":"静安区南京西路1168号中信泰富广场B1楼(近陕西北路)"},{"poiid":"B2094757D06FA5FF4792","title":"美国驻上海总领事馆(Consulate General of the United States in Shanghai)","lon":"121.45674315","lat":"31.228797151","category":"46","category_name":"楼宇","address":"上海徐汇区淮海中路1469号(近乌鲁木齐南路)"},{"poiid":"B2094757D068A3FB469E","title":"梅龙镇酒家(总店)","lon":"121.4561979","lat":"31.228197746","category":"75","category_name":"浙江菜","address":"静安区南京西路1081弄22号(近江宁路)"},{"poiid":"B2094757D068A1FE4098","title":"上海爱莎金煦全套房酒店","lon":"121.454661","lat":"31.228642","category":"76","category_name":"上海菜","address":"静安区陕西北路288号爱莎金煦全套房酒店9楼(近南京西路)"},{"poiid":"B2094757D068A1FE479F","title":"桃花源小厨(恒隆店)","lon":"121.4545385754036","lat":"31.227524079570962","category":"72","category_name":"广东菜","address":"上海市静安区南京西路1266号恒隆广场5楼"},{"poiid":"B2094757D06FA6FD4598","title":"小南国(金鹰广场店)","lon":"121.45523","lat":"31.22788","category":"76","category_name":"上海菜","address":"静安区陕西北路278号金鹰国际购物中心7楼(近南京西路)"},{"poiid":"B2094655D26DAAFB4999","title":"中信泰富广场(南门)","lon":"121.45568","lat":"31.22795","category":"656","category_name":"大门","address":""},{"poiid":"B2094757D06FA3FF4192","title":"Wagas沃歌斯(中信泰富店)","lon":"121.45568753","lat":"31.228491679","category":"94","category_name":"西餐厅","address":"静安区南京西路1168号中信泰富B1楼(近陕西北路)"},{"poiid":"B2094752D06CA5FD469D","title":"小辉哥火锅","lon":"121.455719","lat":"31.228485","category":"247","category_name":"餐饮美食","address":"梅龙镇广场南京西路1038号701室-709室"},{"poiid":"B2094655D265A0FD469F","title":"镜子咖啡馆 Caffe Specchi","lon":"121.453597","lat":"31.227215","category":"67","category_name":"甜品店","address":"静安区南京西路1266号恒隆广场103铺(近西康路)"},{"poiid":"B2094750D76EABF44393","title":"味皇港式茶餐厅","lon":"121.456","lat":"31.2287","category":"72","category_name":"广东菜","address":"静安区南京西路1168号中信泰富广场B1楼(近陕西北路)"},{"poiid":"B2094757D065A2FF479A","title":"美国领事馆签证处","lon":"121.456695138","lat":"31.2288976717","category":"252","category_name":"楼宇机构","address":"静安区南京西路1038号梅龙镇广场8楼(近江宁路)"},{"poiid":"B2094757D068A1F4409B","title":"美琪桂林米粉","lon":"121.45652887304","lat":"31.228560252955","category":"68","category_name":"快餐厅","address":"静安区江宁路66-1号(近奉贤路)"},{"poiid":"B2094757D069A2F54598","title":"Benson salon(金鹰店)","lon":"121.454544","lat":"31.22855","category":"148","category_name":"美容美发店","address":"上海陕西北路278号金鹰购物广场8楼"},{"poiid":"B2094757D068A2FF439B","title":"鸭王(江宁店)","lon":"121.45576","lat":"31.22903","category":"260","category_name":"其他","address":"静安区江宁路77号(近奉贤路)"},{"poiid":"B2094757D06FA7F54692","title":"御锅坊","lon":"121.455117938","lat":"31.2284299317","category":"86","category_name":"火锅店","address":"静安区江宁路77号恒顺大厦7楼(奉贤路口)"},{"poiid":"B2094757D06FA0FA459F","title":"1001原汁牛肉面(金鹰店)","lon":"121.45492","lat":"31.2283","category":"68","category_name":"快餐厅","address":"静安区陕西北路278号金鹰国际购物广场6B6号(近南京西路)"},{"poiid":"B2094757D06FA3F44792","title":"ZARA(南京西路店)","lon":"121.45491766","lat":"31.227113854","category":"141","category_name":"服装鞋帽皮具店","address":"静安区南京西路1201号(近陕西北路)"},{"poiid":"B2094655D269ABFD4598","title":"烈火游艺机","lon":"121.45597","lat":"31.22938","category":"247","category_name":"餐饮美食","address":"静安区江宁路77号美琪大戏院4楼(近奉贤路)"},{"poiid":"B2094757D068A0FF4698","title":"wagas","lon":"121.45502473","lat":"31.227744247","category":"500","category_name":"未知分类","address":"常州中信泰富地下一樓"},{"poiid":"B2094757D06FA5FE459E","title":"Gucci(金鹰店)","lon":"121.45552","lat":"31.22787","category":"141","category_name":"服装鞋帽皮具店","address":"上海静安区陕西北路278号金鹰国际购物中心(近南京西路)  "},{"poiid":"B2094757D66CABFC439A","title":"麻辣誘惑","lon":"121.456319738","lat":"31.2284212615","category":"247","category_name":"餐饮美食","address":"上海梅龍鎮"},{"poiid":"B2094757D16CA4F4469F","title":"中兴泰富","lon":"121.455156738","lat":"31.2279352512","category":"500","category_name":"未知分类","address":"上海南京西路1168号"},{"poiid":"B2094757D068A4FE499F","title":"绿杨邨77坊","lon":"121.45566","lat":"31.22876","category":"72","category_name":"广东菜","address":"静安区奉贤路282号(近江宁路)"},{"poiid":"B2094757D06FA0F9479C","title":"McDonald Citic","lon":"121.45477327","lat":"31.227719613","category":"68","category_name":"快餐厅","address":"上海中信泰富1635"},{"poiid":"B2094655D26BA3FE439E","title":"汉堡王 梅龙镇店 Burger King","lon":"121.456526054","lat":"31.228408793","category":"68","category_name":"快餐厅","address":"静安区南京西路1038号梅龙镇广场B1楼(近江宁路)"},{"poiid":"B2094654DA6CA1FF449D","title":"鱼翅捞饭 静安店","lon":"121.455857054","lat":"31.227937793","category":"72","category_name":"广东菜","address":"静安区南京西路1168号中信泰富广场5楼(近陕西北路)"},{"poiid":"B2094655D26DAAFD459D","title":"彩蝶轩","lon":"121.45441","lat":"31.22758","category":"257","category_name":"中餐厅","address":"静安区南京西路1266号恒隆广场5楼(近陕西北路)"},{"poiid":"B2094751D465ABFE499F","title":"COSTA COFFEE(中信泰富店)","lon":"121.45587","lat":"31.22872","category":"65","category_name":"咖啡厅","address":"静安区南京西路1168号中信泰富广场501A单元(近江宁路)"},{"poiid":"B2094757D06AA0F84392","title":"威尔士健身会所(金鹰广场店)","lon":"121.4549","lat":"31.22828","category":"148","category_name":"美容美发店","address":"静安区陕西北路278号金鹰国际购物中心8楼(近南京西路)"},{"poiid":"B2094655D26FA3F5439E","title":"梅龙镇广场(三号门)","lon":"121.45617","lat":"31.22915","category":"119","category_name":"商场","address":"南京西路1038号"},{"poiid":"B2094751D56CA3FD469B","title":"COSTA COFFEE(环艺影城店)","lon":"121.45669","lat":"31.22864","category":"65","category_name":"咖啡厅","address":"静安区南京西路1038号梅龙镇广场10楼B区(近江宁路)"},{"poiid":"B2094757D169A6FF489B","title":"刘娟美甲梅龙镇店","lon":"121.456390738","lat":"31.2285672647","category":"500","category_name":"未知分类","address":"上海南京西路梅龙镇广场6楼"},{"poiid":"B2094655D26AA1FE4498","title":"王磊形象公社梅龙镇2店","lon":"121.45672","lat":"31.22862","category":"247","category_name":"餐饮美食","address":"静安区南京西路1038号梅龙镇广场801座(近江宁路)"},{"poiid":"B2094750D665A4FD459B","title":"汉宫精菜坊","lon":"121.455","lat":"31.2277","category":"76","category_name":"上海菜","address":"静安区南京西路1168号中信泰富广场商场5楼"},{"poiid":"B2094654DB69A7FD409D","title":"绿杨村酒家 江宁店","lon":"121.45604682298","lat":"31.229361757005","category":"247","category_name":"餐饮美食","address":"静安区江宁路77号美琪大戏院对面(近奉贤路)"},{"poiid":"B2094757D069A2F9489A","title":"美琪大戏院(Majestic Theatre)","lon":"121.45615","lat":"31.22912","category":"179","category_name":"音乐厅","address":"静安区江宁路66号美琪大戏院边(近南京西路)"},{"poiid":"B2094655D26AA4FA4393","title":"中信泰富员工食堂","lon":"121.45569","lat":"31.22796","category":"247","category_name":"餐饮美食","address":"静安区南京西路1168号中信泰富大厦5楼(近陕西北路)"},{"poiid":"B2094757DA69A2F8469C","title":"上海金鹰国际购物广场","lon":"121.45463","lat":"31.22855","category":"119","category_name":"商场","address":"上海市陕西北路278号"},{"poiid":"B2094757D068A3FE429A","title":"焱","lon":"121.45459","lat":"31.22852","category":"257","category_name":"中餐厅","address":"陕西北路278号金鹰国际购物广场6楼近南京西路"},{"poiid":"B2094757D169A2F9419A","title":"carr salon","lon":"121.455183738","lat":"31.2290422748","category":"500","category_name":"未知分类","address":"上海市普陀区陕西北路"},{"poiid":"B2094757D06FA7F8439C","title":"楚炫堂生态鱼馆(金鹰国际店)","lon":"121.45463","lat":"31.228555","category":"86","category_name":"火锅店","address":"静安区陕西北路278号金鹰国际购物中心6楼"},{"poiid":"B2094751D56DA7FF459A","title":"明谦咖啡(陕西北路店)","lon":"121.45533","lat":"31.22722","category":"247","category_name":"餐饮美食","address":"静安区陕西北路204号甲4楼(近南京西路)"},{"poiid":"B2094655D26DA2F9419D","title":"芬兰驻沪总领事馆","lon":"121.45577","lat":"31.22875","category":"252","category_name":"楼宇机构","address":"上海市南京西路1168号中信泰富广场25楼2501-2505室"},{"poiid":"B2094757D06EAAF94993","title":"Nike China","lon":"121.454399","lat":"31.227587","category":"141","category_name":"服装鞋帽皮具店","address":"上海南京西路1366号恒隆广场二座"},{"poiid":"B2094753D665A3FD479F","title":"博璨摩登德国啤酒餐厅","lon":"121.454284","lat":"31.228189","category":"500","category_name":"未知分类","address":"上海市 陕西北路288号爱莎金煦酒店1楼(近南京西路)"},{"poiid":"B2094655D26EAAF5429B","title":"SALON ESPRIT","lon":"121.45569","lat":"31.22796","category":"248","category_name":"生活娱乐","address":"静安区南京西路1168号中信泰富广场301B号"},{"poiid":"B2094654DA6CA0FC4298","title":"烈火游戏机娱乐","lon":"121.45555","lat":"31.22932","category":"173","category_name":"游戏厅","address":"江宁路77号4层"},{"poiid":"B2094654DB65A6F9459E","title":"平安动感电影院","lon":"121.455285","lat":"31.227311","category":"178","category_name":"电影院","address":"南京西路1193号"},{"poiid":"B2094757D769A4F44198","title":"牡丹弄 Mu Dan Alley","lon":"121.456591","lat":"31.228037","category":"94","category_name":"西餐厅","address":"静安区南京西路1025弄静安别墅41号(梅龙镇ISETAN对面)"},{"poiid":"B2094757D164A1FA4099","title":"美心点心店","lon":"121.455875738","lat":"31.2269792308","category":"500","category_name":"未知分类","address":"上海市威海路"},{"poiid":"B2094757D66CA0FE449D","title":"藏乐汤坊","lon":"121.45542573","lat":"31.22883327","category":"247","category_name":"餐饮美食","address":"上海市静安区西康路"},{"poiid":"B2094757D068A4FD4198","title":"Cartier (恒隆店)","lon":"121.454389","lat":"31.227605","category":"131","category_name":"珠宝首饰工艺品","address":"上海静安区南京西路1266号恒隆广场1楼"},{"poiid":"B2094757D76AA1FD4593","title":"黛堡嘉莱 DEBAUVE&GALLAIS","lon":"121.454474054","lat":"31.228393793","category":"68","category_name":"快餐厅","address":"静安区陕西北路278号金鹰国际购物中心6楼(近南京西路)"},{"poiid":"B2094654DB6AA6F84792","title":"上海美丽园全套房酒店公寓","lon":"121.45466","lat":"31.22864","category":"213","category_name":"五星级宾馆","address":"陕西北路288号"},{"poiid":"B2094655D26AAAFB4192","title":"顺悦酒楼","lon":"121.45555","lat":"31.22932","category":"72","category_name":"广东菜","address":"静安区江宁路77号7楼(近奉贤路)"},{"poiid":"B2094757D16EA1FA409E","title":"鱼翅捞饭中信泰富店","lon":"121.45516273","lat":"31.227939251","category":"500","category_name":"未知分类","address":"上海市静安区西康路"},{"poiid":"B2094655D268A6F84392","title":"恒顺大楼","lon":"121.45555","lat":"31.22932","category":"46","category_name":"楼宇","address":"江宁路77"},{"poiid":"B2094753D26BAAF54698","title":"小辉哥海鲜火锅","lon":"121.456107","lat":"31.228749","category":"247","category_name":"餐饮美食","address":"上海市 梅龙镇广场"},{"poiid":"B2094757D064A3F54993","title":"炎韩式料理","lon":"121.454649268","lat":"31.2285900751","category":"247","category_name":"餐饮美食","address":"上海金鹰"},{"poiid":"B2094655D26AA5FE4199","title":"pinkmary梅陇镇伊势丹店","lon":"121.45672","lat":"31.22862","category":"247","category_name":"餐饮美食","address":"静安区南京西路1038号梅龙镇伊势丹内(近江宁路)"},{"poiid":"B2094751D468ABFE469D","title":"伊势丹饕餮俱乐部","lon":"121.4551727294921","lat":"31.2290440743504","category":"247","category_name":"餐饮美食","address":"南京路伊势丹B1"},{"poiid":"B2094757D169A5F44498","title":"梅龙镇广场美国签证处","lon":"121.456645738","lat":"31.228629266","category":"500","category_name":"未知分类","address":"上海市静安区陕西北路"},{"poiid":"B2094757D069A6FC469D","title":"万宝龙(中信泰富店)","lon":"121.45529923","lat":"31.227410611","category":"131","category_name":"珠宝首饰工艺品","address":"静安区南京西路1168号中信泰富广场109、218商铺(近陕西北路)"},{"poiid":"B2094751D569A5FA4193","title":"普陀医院","lon":"121.455048","lat":"31.227646","category":"162","category_name":"医院","address":null},{"poiid":"B2094757D064AAFE479E","title":"玛满纩(中兴泰富店)","lon":"121.45513414","lat":"31.228668276","category":"500","category_name":"未知分类","address":"上海中兴泰富三楼"},{"poiid":"B2094655D36CA0F9429D","title":"江宁路南京西路","lon":"121.45638","lat":"31.22853","category":"38","category_name":"公交车站","address":"上海江宁路南京西路"},{"poiid":"B2094757DB64A3FB4498","title":"焱韩式料理（上海金鹰国际购物广场店）","lon":"121.455","lat":"31.2284","category":"256","category_name":"外国餐厅","address":"上海静安区陕西北路278号 上海金鹰国际购物广场六层"},{"poiid":"B2094757D16EA7FA489C","title":"腾圆日式料理","lon":"121.45504373","lat":"31.22886227","category":"247","category_name":"餐饮美食","address":"上海奉贤路286号"},{"poiid":"B2094757D16EA2FF419A","title":"Haagen-Dazs","lon":"121.456464738","lat":"31.2289992739","category":"500","category_name":"未知分类","address":"上海市静安区梅龙镇伊势丹1楼"},{"poiid":"B2094757D16DA0F8419A","title":"梅龙镇 河河亭","lon":"121.4562317","lat":"31.229026624","category":"500","category_name":"未知分类","address":"上海南京西路1038号梅龙镇广场"},{"poiid":"B2094757D66CA7F8459D","title":"吴江路茂名北路","lon":"121.45480473","lat":"31.22837126","category":"500","category_name":"未知分类","address":"上海市静安区乌吴江路茂名北路"},{"poiid":"B2094655D269ABFB4493","title":"LOEWE中信泰富店","lon":"121.45576","lat":"31.22875","category":"247","category_name":"餐饮美食","address":"静安区南京西路1168号中信泰富广场1楼(近陕西北路)"},{"poiid":"B209475CD36CA3FA419C","title":"金钱豹自助餐 中信泰富店","lon":"121.455857054","lat":"31.227937793","category":"268","category_name":"自助","address":"南京西路1168号中信泰富广场4-5楼东侧近江宁路"},{"poiid":"B2094757D568A4F84799","title":"Esprit中信泰富店","lon":"121.4557639","lat":"31.228755","category":"141","category_name":"服装鞋帽皮具店","address":"南京西路1168号中信泰富广场118-120201号"},{"poiid":"B2094655D26CAAF8489D","title":"阿斯利康中国会议中心","lon":"121.45577","lat":"31.22875","category":"185","category_name":"会展中心","address":"南京西路1168号中信泰富广场4202-04"},{"poiid":"B2094654DB69A0F5489E","title":"大昌烧味 中信泰富广场店","lon":"121.4564869","lat":"31.2281259","category":"87","category_name":"特色／地方风味餐厅","address":"南京西路1168号中信泰富广场地库一层LG11-12单元"},{"poiid":"B2094654DB6AA2F5429E","title":"美国铝业亚洲资源采购中心","lon":"121.45569","lat":"31.22796","category":"119","category_name":"商场","address":"南京西路1168号2701室"},{"poiid":"B2094757D065A2FF4992","title":"巴黎世家(恒隆店)","lon":"121.45474","lat":"31.22728","category":"141","category_name":"服装鞋帽皮具店","address":"静安区南京西路1266号恒隆广场B1楼(近陕西北路)"},{"poiid":"B2094654DA6CA0FC419C","title":"中信银行上海中信泰富广场支行","lon":"121.456","lat":"31.22844","category":"150","category_name":"银行","address":"静安区南京西路1168号中信泰富广场内(近陕西北路)"},{"poiid":"B2094654DA6CA0FC429D","title":"好邻居便利店","lon":"121.45552","lat":"31.22936","category":"117","category_name":"便民商店/便利店","address":"静安区江宁路77号美琪大戏院内(近奉贤路)"},{"poiid":"B2094655D26AA0FC4699","title":"CHLOE中信泰富店","lon":"121.45576","lat":"31.22875","category":"247","category_name":"餐饮美食","address":"黄浦区南京西路2-68号新世界城1楼(近西藏中路)"},{"poiid":"B2094757D568AAFA449E","title":"BOTTEGA VENETA(陕西北路)","lon":"121.45482069","lat":"31.22846219","category":"141","category_name":"服装鞋帽皮具店","address":"陕西北路278号金鹰国际购物中心"},{"poiid":"B2094757D66DABFB489F","title":"恆隆廣場29樓Dior","lon":"121.455284738","lat":"31.2283752606","category":"500","category_name":"未知分类","address":"上海南京西路1266號"},{"poiid":"B2094757D16CABFB479A","title":"修身堂纤体美容会所","lon":"121.45574","lat":"31.22875","category":"148","category_name":"美容美发店","address":"上海静安区江宁路81号(近北京西路)  "},{"poiid":"B2094655D26CABFB449C","title":"安乐坊(北门)","lon":"121.45632","lat":"31.22785","category":"47","category_name":"住宅区","address":"南京西路1129弄"},{"poiid":"B2094757D06EAAFC4999","title":"McQueen(金鹰广场店)","lon":"121.454639","lat":"31.228945","category":"141","category_name":"服装鞋帽皮具店","address":"上海静安区陕西北路278号金鹰国际购物广场2楼(近南京西路)"},{"poiid":"B2094757DB6AA5FE499D","title":"mTm个人专属护肤中心（中信泰富广场店）","lon":"121.455","lat":"31.2289","category":"148","category_name":"美容美发店","address":"上海静安区南京西路1168号 中信泰富广场五层"},{"poiid":"B2094757D66CA5F9409A","title":"芝麻开门乐格斯","lon":"121.455757738","lat":"31.2282272574","category":"247","category_name":"餐饮美食","address":"上海市南京西路中兴泰富广场5楼"},{"poiid":"B2094655D269AAFE489A","title":"EMILIOPUCCI","lon":"121.45576","lat":"31.22875","category":"247","category_name":"餐饮美食","address":"静安区南京西路1168号中信泰富广场115-116室(近陕西北路)"},{"poiid":"B2094757D068A5FA4898","title":"Tod's(恒隆广场店)","lon":"121.45438861","lat":"31.227604794","category":"141","category_name":"服装鞋帽皮具店","address":"静安区南京西路1266号恒隆广场1楼(近陕西北路)"},{"poiid":"B2094757D06BAAFE469F","title":"安乐坊","lon":"121.45657","lat":"31.227524","category":"500","category_name":"未知分类","address":"上海静安区南京西路1129弄"},{"poiid":"B2094655D268A2F94992","title":"重华小区","lon":"121.45567","lat":"31.227077","category":"47","category_name":"住宅区","address":"南京西路1081弄"},{"poiid":"B2094757D16FA6FB4199","title":"JUICY COUTURE (梅龙镇店)","lon":"121.45657573","lat":"31.228765268","category":"500","category_name":"未知分类","address":"上海南京西路1038号梅龙镇伊势丹2楼211-213号商铺(近江宁路)"},{"poiid":"B2094655D26CABFB4492","title":"花园公寓(北门)","lon":"121.45536","lat":"31.22732","category":"47","category_name":"住宅区","address":"南京西路1173弄1-93号"},{"poiid":"B2094753D56DA6FA499A","title":"梅陇镇广场","lon":"121.456451","lat":"31.229103","category":"500","category_name":"未知分类","address":"上海市 南京西路"},{"poiid":"B2094655D26DA7FD439A","title":"重华新邨(北门)","lon":"121.4569","lat":"31.22824","category":"47","category_name":"住宅区","address":"南京西路1081弄1-138号"},{"poiid":"B2094655D26DA5FB429D","title":"平安大楼","lon":"121.45501","lat":"31.227068","category":"47","category_name":"住宅区","address":"南京西路1191号"},{"poiid":"B2094655D26DA2FA499F","title":"平安大楼(东门)","lon":"121.4551","lat":"31.22706","category":"47","category_name":"住宅区","address":"陕西北路203"},{"poiid":"B2094753D368A0FD459A","title":"现代书店","lon":"121.456","lat":"31.22845","category":"125","category_name":"书店","address":"静安区南京西路1168号中信泰富广场518B-C单元(近陕西北路)"},{"poiid":"B2094757D064AAFA459F","title":"稻•绿洲泰式餐厅","lon":"121.45575273","lat":"31.228637266","category":"500","category_name":"未知分类","address":"上海吴江路269号湟普汇一楼"},{"poiid":"B2094750D269A0F9409C","title":"Min舞(静安店)","lon":"121.455337","lat":"31.229099","category":"190","category_name":"培训机构","address":"静安区江宁路81号5楼"},{"poiid":"B2094654DA6CA1FF469F","title":"欧米茄旗舰店","lon":"121.45667","lat":"31.22811","category":"135","category_name":"钟表店","address":"南京西路1111号"},{"poiid":"B2094757D069AAF94798","title":"南京西路石门一路","lon":"121.454765","lat":"31.228263","category":"500","category_name":"未知分类","address":"上海南京西路"},{"poiid":"B2094654DA6CA0FC4492","title":"欧舒丹","lon":"121.45503","lat":"31.22714","category":"122","category_name":"个人用品/化妆品店","address":"南京西路1189"},{"poiid":"B2094752D66CA2FE4799","title":"竹庭 TAKASADA","lon":"121.456711","lat":"31.228516","category":"500","category_name":"未知分类","address":"梅龙镇伊势丹广场"},{"poiid":"B2094757D16DA4FE4399","title":"espirt salon","lon":"121.45572098","lat":"31.227870779","category":"500","category_name":"未知分类","address":"上海中信3楼"},{"poiid":"B2094757DB64A3F8459F","title":"Y-3（上海金鹰国际购物广场店）","lon":"121.455","lat":"31.2284","category":"141","category_name":"服装鞋帽皮具店","address":"上海静安区陕西北路278号 上海金鹰国际购物广场一层"},{"poiid":"B2094757D16FA5FB499E","title":"Samantha Thavasa","lon":"121.45655973","lat":"31.229039774","category":"141","category_name":"服装鞋帽皮具店","address":"上海南京西路梅龙镇伊势丹"},{"poiid":"B2094655D26BA3FE459C","title":"Columbia梅陇镇店","lon":"121.45672","lat":"31.22862","category":"140","category_name":"体育用品店","address":"静安区南京西路1038号梅龙镇广场5楼近江宁路;;"},{"poiid":"B2094757D069A1FC4198","title":"Begins Pop-up","lon":"121.45686983","lat":"31.228516763","category":"141","category_name":"服装鞋帽皮具店","address":"上海南京西路梅龙镇伊势丹一楼中亭"},{"poiid":"B2094654DA6CA1FF4593","title":"新秀丽","lon":"121.45597","lat":"31.22764","category":"141","category_name":"服装鞋帽皮具店","address":"南京西路1145"},{"poiid":"B2094655D26DA3FA449B","title":"埃斯普利特(中信泰富广场)","lon":"121.45569","lat":"31.22796","category":"141","category_name":"服装鞋帽皮具店","address":"南京西路1168号中信泰富广场201B、118-120"},{"poiid":"B2094757D16FAAF8469D","title":"112路江宁路南京西路站","lon":"121.456329561","lat":"31.2284780905","category":"500","category_name":"未知分类","address":"上海静安区江宁路近南京西路北侧"},{"poiid":"B2094757D16DA1F9459B","title":"贝倚水疗生活馆(梅龙镇店)","lon":"121.4566","lat":"31.22891","category":"148","category_name":"美容美发店","address":"静安区南京西路1038号梅龙镇广场9楼01A室(近江宁路)"},{"poiid":"B2094757D06AA6FC4592","title":"耐克(南京路一店)","lon":"121.45676","lat":"31.22808","category":"140","category_name":"体育用品店","address":"静安区南京西路1089-1091号(近江宁路)"},{"poiid":"B2094654DA6CA0FC429B","title":"明夏桌球俱乐部","lon":"121.45555","lat":"31.22933","category":"171","category_name":"台球厅","address":"江宁路77号3层"},{"poiid":"B2094751DA6DA3FF4398","title":"绿茶餐厅","lon":"121.454823","lat":"31.228975","category":"500","category_name":"未知分类","address":null},{"poiid":"B2094654DB69A6FA4798","title":"探路者(陕西北路店)","lon":"121.45463","lat":"31.22855","category":"140","category_name":"体育用品店","address":"静安区陕西北路278号上海金鹰国际购物中心6楼专柜"},{"poiid":"B2094757D065A1FF489B","title":"上海市商业会计学校(市北校区)","lon":"121.455459738","lat":"31.2284462621","category":"500","category_name":"未知分类","address":"上海市普陀区交通路1918号"},{"poiid":"B2094757D164A5FF4498","title":"738路陕西北路南京西路终点站","lon":"121.454277586","lat":"31.2281863911","category":"500","category_name":"未知分类","address":"上海静安区陕西北路278号(对面)"},{"poiid":"B2094654DA6CA0FE499C","title":"毕马威华振会计师事务所","lon":"121.45423","lat":"31.22813","category":"252","category_name":"楼宇机构","address":"恒隆广场1号楼55层5501、5508-5512、47-52层"},{"poiid":"B2094757D165AAFD4599","title":"Golden Tulip","lon":"121.45456958","lat":"31.228498397","category":"500","category_name":"未知分类","address":"陕西北路 228号 上海市‎"},{"poiid":"B2094757D16DA4F4469C","title":"陝西路南京路738路","lon":"121.45440658","lat":"31.228224391","category":"500","category_name":"未知分类","address":"上海"},{"poiid":"B2094757D069A7FC4299","title":"Doki","lon":"121.45596173","lat":"31.22839326","category":"500","category_name":"未知分类","address":"上海市静安区静安别墅16号"},{"poiid":"B2094757D66CA0F94192","title":"健康煮大华虎城店","lon":"121.454791738","lat":"31.2282792585","category":"500","category_name":"未知分类","address":"上海大华路"},{"poiid":"B2094757D16AA3FD419C","title":"奥特宇宙港","lon":"121.45535173","lat":"31.229179277","category":"500","category_name":"未知分类","address":"上海M78星云"},{"poiid":"B2094757D065AAF4469B","title":"中信泰富五楼Jamaicablue","lon":"121.45549473","lat":"31.22790725","category":"500","category_name":"未知分类","address":"上海市静安区西康路"},{"poiid":"B2094757D66DA6FE4299","title":"毛胡子牛羊馆","lon":"121.45588673","lat":"31.228522263","category":"500","category_name":"未知分类","address":"上海武宁路杨柳青路"},{"poiid":"B2094751D36EA0FF4193","title":"娇韵诗美妍中心","lon":"121.455791","lat":"31.228453","category":"249","category_name":"购物服务","address":"恒隆广场3楼"},{"poiid":"B2094757D568A7F9439B","title":"LACOSTE中信泰富店","lon":"121.4554289","lat":"31.22736111","category":"249","category_name":"购物服务","address":"静安区南京西路1169号中信泰富(近陕西北路)"},{"poiid":"B2094757D66DA3FB4793","title":"辉瑞制药","lon":"121.45454926","lat":"31.227667335","category":"263","category_name":"公司","address":"上海南京西路1168号"},{"poiid":"B2094655D26BA7F5429B","title":"威氏健身馆","lon":"121.45467","lat":"31.22865","category":"221","category_name":"健身中心","address":"陕西北路288"},{"poiid":"B2094757D16DA3FD499C","title":"江宁路100号","lon":"121.45527","lat":"31.229212","category":"500","category_name":"未知分类","address":"上海北京西路江宁路100号"},{"poiid":"B2094757D165A3F9409D","title":"NATURA Salon","lon":"121.4545338","lat":"31.2284432","category":"500","category_name":"未知分类","address":"静安区陕西北路288号爱莎金煦酒店式公寓1632室(近中信泰富)"},{"poiid":"B2094757D16FA5FD449F","title":"美室造型","lon":"121.455516238","lat":"31.228491763","category":"148","category_name":"美容美发店","address":"上海陕西北路362号"},{"poiid":"B2094757D568AAFC4392","title":"芝柏表恒隆广场店","lon":"121.4542311","lat":"31.22810889","category":"255","category_name":"专卖店","address":"静安区南京西路1266号恒隆广场钟表珠宝廊B1(近陕西北路)"},{"poiid":"B2094757D66EA4FE4898","title":"ZUMA","lon":"121.45489673","lat":"31.227622244","category":"500","category_name":"未知分类","address":"静安区南京西路1266号恒隆广场2楼(近陕西北路)"},{"poiid":"B2094757D169A5F9429B","title":"宾利中国","lon":"121.45578085","lat":"31.227927111","category":"500","category_name":"未知分类","address":"上海中信泰富11楼"},{"poiid":"B2094757D16AA1F8419D","title":"TOUS(南京西路店)","lon":"121.45632","lat":"31.22778","category":"500","category_name":"未知分类","address":"静安区南京西路1141号(近江宁路)"},{"poiid":"B2094655D26EA5F4459E","title":"瑶池桑拿浴场","lon":"121.45597","lat":"31.22938","category":"149","category_name":"洗浴推拿场所","address":"静安区江宁路66号"},{"poiid":"B2094757D165AAFE499C","title":"Ermenegildo Zegna 梅陇店","lon":"121.456443738","lat":"31.2285142635","category":"500","category_name":"未知分类","address":"上海市静安区陕西北路"},{"poiid":"B2094757D164A1F8429D","title":"Wallstreet","lon":"121.45664973","lat":"31.228875271","category":"500","category_name":"未知分类","address":"上海市静安区陕西北路梅陇镇广场9楼"},{"poiid":"B2094655D26EA4F84799","title":"OMEGA","lon":"121.45673","lat":"31.22813","category":"248","category_name":"生活娱乐","address":"静安区南京西路1111号"},{"poiid":"B2094655D26CAAF4439D","title":"MIKIMOTO","lon":"121.45449","lat":"31.22784","category":"131","category_name":"珠宝首饰工艺品","address":"静安区南京西路1266号恒隆广场B108(近陕西北路)"},{"poiid":"B2094654DB69A7FF409C","title":"辉瑞投资有限公司","lon":"121.45577","lat":"31.22875","category":"263","category_name":"公司","address":"南京西路1168号中信泰富广场2303-05、3601-12"},{"poiid":"B2094654DA6CA0FC4292","title":"MONT BLANC","lon":"121.45518","lat":"31.22782","category":"135","category_name":"钟表店","address":"南京西路1168"},{"poiid":"B2094757D16EA6F94499","title":"vans(梅龙镇)","lon":"121.456348738","lat":"31.2285182636","category":"500","category_name":"未知分类","address":"静安区南京西路1038号梅龙镇广场七楼(南京西路)"},{"poiid":"B2094757D66CA2FF429F","title":"楚炫堂","lon":"121.45454513","lat":"31.227784948","category":"500","category_name":"未知分类","address":"上海金鹰"},{"poiid":"B2094757D66FA7F44999","title":"上海航天培训中心","lon":"121.45557273","lat":"31.228402561","category":"500","category_name":"未知分类","address":"上海桂林路408号"},{"poiid":"B2094757D16AABFF4592","title":"SHOWHAIR","lon":"121.45475112","lat":"31.227401469","category":"500","category_name":"未知分类","address":"上海南京西路(陕西北路)zara楼上"},{"poiid":"B2094757D16BABFF4598","title":"North America @34F CITIC Square","lon":"121.455327","lat":"31.227844","category":"500","category_name":"未知分类","address":"上海南京西路1168号中信泰富广场34楼"},{"poiid":"B2094757D164A6FD489B","title":"HIBANA","lon":"121.45619573","lat":"31.228266258","category":"500","category_name":"未知分类","address":"上海市静安区南京西路1025弄50号 静安别墅"},{"poiid":"B2094757D16AA6FC459D","title":"lancome美容中心","lon":"121.45461475","lat":"31.227606069","category":"500","category_name":"未知分类","address":"上海南京西路1181号"},{"poiid":"B2094757D66EA7F5489A","title":"露台","lon":"121.45481243","lat":"31.227699446","category":"500","category_name":"未知分类","address":"上海宣化路安西路附近"},{"poiid":"B2094757D16EA5F9409A","title":"愚园路安西路克里斯汀","lon":"121.4543991","lat":"31.227594375","category":"500","category_name":"未知分类","address":"上海愚园路安西路克里斯汀"},{"poiid":"B2094757D169A6F9479F","title":"金鹰 金焱","lon":"121.454816738","lat":"31.228398261","category":"500","category_name":"未知分类","address":"上海金鹰六楼"},{"poiid":"B2094654DA6CA1FA489F","title":"上海景德镇艺术瓷器有限公司","lon":"121.45531","lat":"31.22715","category":"131","category_name":"珠宝首饰工艺品","address":"陕西北路212"},{"poiid":"B2094757D568A0F84592","title":"佳达珠宝","lon":"121.4561","lat":"31.22768","category":"131","category_name":"珠宝首饰工艺品","address":"静安区南京西路1143号(江宁路南京西路)"},{"poiid":"B2094655D26DAAF4489E","title":"上海惠氏营养品有限公司","lon":"121.45577","lat":"31.22875","category":"263","category_name":"公司","address":"南京西路1168号中信泰富广场2707-11、2801-12"},{"poiid":"B2094655D26DA2FC469B","title":"利乐中国有限公司","lon":"121.45576","lat":"31.22875","category":"263","category_name":"公司","address":"南京西路1168号中信泰富广场2901-12"},{"poiid":"B2094751DA68A4F4479D","title":"库布里皮33号","lon":"121.455439","lat":"31.229118","category":"260","category_name":"其他","address":"静安区南京西路1025弄静安别墅33号前门(近伊势丹)"},{"poiid":"B2094757D16CA2FC4893","title":"TP","lon":"121.45545073","lat":"31.228755268","category":"249","category_name":"购物服务","address":"上海市南京西路1168号中信泰富"},{"poiid":"B2094655D26BA3FA449A","title":"Dreamsparkles","lon":"121.45672","lat":"31.22862","category":"131","category_name":"珠宝首饰工艺品","address":"静安区南京西路1038号梅龙镇广场1805室(近江宁路)"},{"poiid":"B2094757D568A4FA419F","title":"伊夫·圣·罗兰/YSL恒隆广场店","lon":"121.4542311","lat":"31.22810889","category":"249","category_name":"购物服务","address":"南京西路1266号恒隆广场2层"},{"poiid":"B2094757D568ABF44593","title":"BREITLING南京西路店","lon":"121.4552761","lat":"31.22728889","category":"249","category_name":"购物服务","address":"静安区南京西路1177号(近陕西北路)"},{"poiid":"B2094757D568A5FC4892","title":"Anya Hindmarch","lon":"121.4542311","lat":"31.22810889","category":"249","category_name":"购物服务","address":"南京西路1266号恒隆广场3层"},{"poiid":"B2094757D66DA5F4439E","title":"Franck Muller(恒隆店)","lon":"121.454608","lat":"31.22742","category":"131","category_name":"珠宝首饰工艺品","address":"上海静安区南京西路1266号恒隆广场B1"},{"poiid":"B2094757D569A3F94592","title":"MONTBELL","lon":"121.4557639","lat":"31.228755","category":"249","category_name":"购物服务","address":"南京西路1168号中信泰富广场407-408号"},{"poiid":"B2094757D569A0F8439C","title":"NATUZZI恒隆店","lon":"121.4542311","lat":"31.22810889","category":"249","category_name":"购物服务","address":"南京西路1266号恒隆广场4层"},{"poiid":"B2094757D569A7FC4898","title":"Bally中信泰富店","lon":"121.4557639","lat":"31.228755","category":"249","category_name":"购物服务","address":"静安区南京西路1168号中信泰富广场101号(近陕西北路)"},{"poiid":"B2094655D26EA3F4429A","title":"宝珀","lon":"121.4568","lat":"31.22817","category":"135","category_name":"钟表店","address":"黄浦区中山东一路19号斯沃琪和平饭店艺术中心1楼(滇池路中山东一路)"},{"poiid":"B2094655D26CAAF84892","title":"阿斯利康中国有限公司","lon":"121.45577","lat":"31.22875","category":"263","category_name":"公司","address":"南京西路1168号中信泰富广场4308"},{"poiid":"B2094655D26DA5F84498","title":"阿尔弗雷德登喜路(上海)贸易有限公司","lon":"121.45576","lat":"31.22875","category":"263","category_name":"公司","address":"南京西路1168号中信泰富广场3409-10"},{"poiid":"B2094655D26AA1FF419C","title":"365英语@咖啡","lon":"121.45672","lat":"31.22862","category":"260","category_name":"其他","address":"静安区南京西路1038号梅龙镇广场607-608(近江宁路)"},{"poiid":"B2094655D26EA3FC439F","title":"以色列马克特信聝甘工业有限公司上海代表处","lon":"121.45577","lat":"31.22875","category":"263","category_name":"公司","address":"南京西路1168号中信泰富广场2705"},{"poiid":"B2094655D26DA2FB469E","title":"富悦投资管理咨询(上海)有限公司","lon":"121.45577","lat":"31.22875","category":"263","category_name":"公司","address":"南京西路1168号中信泰富广场3412"},{"poiid":"B2094654DB69A0F44093","title":"中信泰富(中国)投资有限公司","lon":"121.45576","lat":"31.22875","category":"263","category_name":"公司","address":"南京西路1168号中信泰富广场4501-08"},{"poiid":"B2094655D26CABF44792","title":"中信泰富特钢有限公司","lon":"121.45577","lat":"31.22875","category":"263","category_name":"公司","address":"南京西路1168号中信泰富广场1502、1504-10"},{"poiid":"B2094757DA69A3F54792","title":"美津浓Mizuno官方微博","lon":"121.45425","lat":"31.22811","category":"640","category_name":"服装服饰类公司","address":"上海市闸北区广中西路355号 宝华中心5楼"},{"poiid":"B2094750D364A5F9479E","title":"GIVENCHY纪梵希美妆","lon":"121.45425","lat":"31.22811","category":"641","category_name":"化妆卫浴用品类公司","address":"南京西路1266号恒隆广场一期"},{"poiid":"B2094757D16DABF8409F","title":"瑶池棋牌","lon":"121.45673","lat":"31.228624","category":"248","category_name":"生活娱乐","address":"上海梅龙镇广场"},{"poiid":"B2094655D26CABF44999","title":"澳洲会计师公会-上海办事处","lon":"121.45577","lat":"31.22875","category":"633","category_name":"商务服务类公司","address":"南京西路1168号中信泰富广场1407"},{"poiid":"B2094655D26DA3FB479A","title":"中信泰富广场(东门)","lon":"121.45625","lat":"31.22843","category":"656","category_name":"大门","address":""},{"poiid":"B2094655D26DA7FE4299","title":"中信泰富广场(北门)","lon":"121.45542","lat":"31.22887","category":"656","category_name":"大门","address":""}]