[{"poiid":"B2094757D064A2FD4599","title":"虹火庄园","lon":"121.71668","lat":"31.14254","category":"76","category_name":"上海菜","address":"浦东新区川沙路7855号景观农业园(近川吴路)"},{"poiid":"B2094655D36CA1FF419E","title":"思凡小区","lon":"121.74662","lat":"31.14536","category":"47","category_name":"住宅区","address":"浦东新区施湾二路1026弄"},{"poiid":"B2094655D36CA1F8479C","title":"六团","lon":"121.72723","lat":"31.15438","category":"38","category_name":"公交车站","address":""},{"poiid":"B2094655D26BA1FC4299","title":"普新路(长桥路)","lon":"121.73107","lat":"31.14645","category":"38","category_name":"公交车站","address":""},{"poiid":"B2094655D36CA5FE479A","title":"储店","lon":"121.73247","lat":"31.13966","category":"38","category_name":"公交车站","address":""},{"poiid":"B2094654DB64A1FB469C","title":"上海如海","lon":"121.73342","lat":"31.14001","category":"119","category_name":"商场","address":"川沙镇"},{"poiid":"B2094655D36CA5FE479B","title":"储七路杨西路","lon":"121.72673","lat":"31.13789","category":"38","category_name":"公交车站","address":""},{"poiid":"B2094654DB6DA6FA489B","title":"六团中心小学","lon":"121.72935","lat":"31.15088","category":"56","category_name":"小学","address":"浦东新区川沙镇六团普新路150号"},{"poiid":"B2094654DB6DA7F54899","title":"上海浦东新区盛欣观赏鱼养殖场","lon":"121.73516","lat":"31.14071","category":"117","category_name":"便民商店/便利店","address":"六团镇储店村"},{"poiid":"B2094757D065ABFE4999","title":"沪渝农庄","lon":"121.74183","lat":"31.1569","category":"71","category_name":"四川菜","address":"浦东新区川六公路2386号尹塘路桥头"},{"poiid":"B2094654DB6DA6FC489B","title":"储店民沁园","lon":"121.73364","lat":"31.13791","category":"47","category_name":"住宅区","address":""},{"poiid":"B2094654DB6DA6F44599","title":"六团景园酒家 六团店","lon":"121.72707","lat":"31.15433","category":"76","category_name":"上海菜","address":"浦东新区川六公路1781号(近普新路)"},{"poiid":"B2094655D26BA1FC429B","title":"普新路(新浜)","lon":"121.73454","lat":"31.13638","category":"38","category_name":"公交车站","address":""},{"poiid":"B2094757D164A5F4469F","title":"百欧欢有机生态农场","lon":"121.717637","lat":"31.140046","category":"500","category_name":"未知分类","address":"浦东新区川沙镇六团川沙路8019号"},{"poiid":"B2094655D26BA2FD409F","title":"吴店路吴家店","lon":"121.71975","lat":"31.15093","category":"38","category_name":"公交车站","address":""},{"poiid":"B2094654DB6DA6FA479C","title":"龙馨华庭","lon":"121.7197","lat":"31.155319","category":"47","category_name":"住宅区","address":"上海普庆路115弄"},{"poiid":"B2094654DB6DA6FA4898","title":"上海市六团中学","lon":"121.7226","lat":"31.15365","category":"55","category_name":"中学","address":"川六公路1565"},{"poiid":"B2094757D06AAAF4489B","title":"PANDA'S HOME","lon":"121.729581085","lat":"31.152673379","category":"500","category_name":"未知分类","address":"上海浦东"},{"poiid":"B2094655D36CA5FE459B","title":"川六公路六陈路(八灶)","lon":"121.72047","lat":"31.15315","category":"38","category_name":"公交车站","address":""},{"poiid":"B2094654DB6DA6FB469B","title":"普陀新村","lon":"121.72952","lat":"31.15568","category":"47","category_name":"住宅区","address":"川六公路1937弄"},{"poiid":"B2094654DB6DA6FB419C","title":"东航观光景悦度假村","lon":"121.73538","lat":"31.15761","category":"250","category_name":"公园户外","address":"浦东新区川六公路2181弄1号(近川沙路)"},{"poiid":"B2094654DB6DA7F5499C","title":"影院小区","lon":"121.72487","lat":"31.15441","category":"47","category_name":"住宅区","address":"川六公路"},{"poiid":"B2094654DB6DA7F5469B","title":"菜场小区","lon":"121.72609","lat":"31.15466","category":"47","category_name":"住宅区","address":"川六公路"},{"poiid":"B2094654DB6DA6F44098","title":"川沙镇图书馆","lon":"121.72535","lat":"31.15488","category":"181","category_name":"图书馆","address":"普园路3号"},{"poiid":"B2094757D164A7F4439E","title":"小普陀寺","lon":"121.733620085","lat":"31.156459462","category":"607","category_name":"一般景点","address":"浦东新区川六公路2099号"},{"poiid":"B2094654DB69ABFF429C","title":"农工商超市(六团店)","lon":"121.72589","lat":"31.15512","category":"118","category_name":"超级市场","address":"浦东新区六团德兴街181号"},{"poiid":"B2094654DB6DA7F54699","title":"川沙县六团乡畜牧兽医站","lon":"121.72676","lat":"31.15557","category":"162","category_name":"医院","address":"川六公路"},{"poiid":"B2094655D264A0F8449A","title":"龙馨茗园","lon":"121.72972","lat":"31.156265","category":"47","category_name":"住宅区","address":"上海市浦东新区普庆路500弄"},{"poiid":"B2094654DB64ABF8499F","title":"上海市阳光海川学校","lon":"121.73616","lat":"31.13327","category":"56","category_name":"小学","address":"普新路1185"},{"poiid":"B2094654DB6DA7F5499B","title":"湾镇新村","lon":"121.73432","lat":"31.15551","category":"47","category_name":"住宅区","address":"川六公路"},{"poiid":"B2094654DB6DA6FB459C","title":"养和堂药业六团店","lon":"121.73052","lat":"31.15571","category":"162","category_name":"医院","address":"浦东新区川六公路1961号(川六公路川沙高桥路)"},{"poiid":"B2094655D26DA6FC4992","title":"六团中心村","lon":"121.72408","lat":"31.15579","category":"47","category_name":"住宅区","address":""},{"poiid":"B2094654DB6DA7F54793","title":"六团水景公园","lon":"121.72557","lat":"31.15643","category":"196","category_name":"公园","address":"川六公路"},{"poiid":"B2094757D16BA0F5489D","title":"景园大酒店","lon":"121.72759","lat":"31.154598","category":"217","category_name":"旅馆招待所","address":"上海浦东新区六团镇川六公路1781号"},{"poiid":"B2094655D36DA0FE4498","title":"新浜路(新浜仓库场)","lon":"121.73731","lat":"31.13189","category":"38","category_name":"公交车站","address":""},{"poiid":"B2094757D66DA7FC4793","title":"川芦专线","lon":"121.72904508","lat":"31.154877427","category":"500","category_name":"未知分类","address":"上海市浦东新区德兴街"},{"poiid":"B2094757D16AA6FD4393","title":"川六公路","lon":"121.72096036","lat":"31.156898851","category":"500","category_name":"未知分类","address":"上海川六公路"},{"poiid":"B2094757D66FA0FC409A","title":"中国电信六团天翼专营店","lon":"121.7275048","lat":"31.1552127","category":"500","category_name":"未知分类","address":"上海景园街66号"},{"poiid":"B2094654DB64A4FD479C","title":"上海市施湾中学","lon":"121.74745","lat":"31.14459","category":"55","category_name":"中学","address":"施湾二路850"},{"poiid":"B2094655D26BA2FE489B","title":"湾镇村","lon":"121.73632","lat":"31.15745","category":"38","category_name":"公交车站","address":""},{"poiid":"B2094757D169A3F9499A","title":"SalinHme","lon":"121.73077208","lat":"31.156422461","category":"500","category_name":"未知分类","address":"上海浦东新区德兴街"},{"poiid":"B2094655D36CA5FD499D","title":"川沙高桥村","lon":"121.73002","lat":"31.15821","category":"38","category_name":"公交车站","address":""},{"poiid":"B2094655D36DA2FE449B","title":"胜利桥","lon":"121.71481","lat":"31.13761","category":"250","category_name":"公园户外","address":""},{"poiid":"B2094655D26BA2F4439D","title":"七灶","lon":"121.71452","lat":"31.13431","category":"38","category_name":"公交车站","address":""},{"poiid":"B2094654DB6DA6FC469C","title":"八灶格邦公园","lon":"121.71756","lat":"31.15623","category":"196","category_name":"公园","address":"川六公路1185号"},{"poiid":"B2094655D36DA2FE449E","title":"邱家桥","lon":"121.74231","lat":"31.13563","category":"250","category_name":"公园户外","address":""},{"poiid":"B2094654DB6DA7F5499D","title":"渔民新村小区","lon":"121.72879","lat":"31.15849","category":"47","category_name":"住宅区","address":"川六公路"},{"poiid":"B2094654DB6DA6FB429B","title":"英发电子","lon":"121.73757","lat":"31.15751","category":"46","category_name":"楼宇","address":""},{"poiid":"B2094655D26BA2F44392","title":"七灶(招呼站)","lon":"121.70968","lat":"31.13922","category":"38","category_name":"公交车站","address":""},{"poiid":"B2094654DB6DA6F9499D","title":"川沙镇七灶村文化活动中心","lon":"121.71437","lat":"31.13792","category":"248","category_name":"生活娱乐","address":"七新路256"},{"poiid":"B2094655D36CA1FD419A","title":"施湾镇站","lon":"121.74805","lat":"31.14262","category":"38","category_name":"公交车站","address":""},{"poiid":"B2094757D66CA2F44092","title":"湾镇","lon":"121.736383","lat":"31.157454","category":"500","category_name":"未知分类","address":"上海湾镇村"},{"poiid":"B2094655D26FA4F84592","title":"八灶格邦公园(西门)","lon":"121.71746","lat":"31.1562","category":"680","category_name":"楼宇机构","address":"川六公路1185号"},{"poiid":"B2094757D568A4FF439B","title":"海中心","lon":"121.7136706","lat":"31.15572056","category":"47","category_name":"住宅区","address":"川图路300号"},{"poiid":"B2094750D56FA1F4439D","title":"虹桥火车站","lon":"121.73793","lat":"31.160854","category":"500","category_name":"未知分类","address":null}]