[{"poiid":"B2094655D26BA2F54698","title":"浦东机场","lon":"121.80565","lat":"31.15022","category":"21","category_name":"飞机场","address":"浦东新区启航路900号浦东国际机场内"},{"poiid":"B2094757D06EAAFF429A","title":"上海浦东国际机场T1航站楼","lon":"121.803742544","lat":"31.1519827455","category":"21","category_name":"飞机场","address":"浦东新区启航路900号浦东国际机场一号航站楼"},{"poiid":"B2094757D069A5F4479D","title":"浦東國際機場T2國際出發","lon":"121.806715692","lat":"31.1515566176","category":"21","category_name":"飞机场","address":"上海浦東"},{"poiid":"B2094757D06FA7FD4992","title":"浦东国际机场T1候机楼","lon":"121.80430099","lat":"31.149924682","category":"21","category_name":"飞机场","address":"上海市浦东新区浦东机场路"},{"poiid":"B2094654DB64A1FB4893","title":"浦东国际机场1号航站楼(到达)","lon":"121.80293","lat":"31.14983","category":"21","category_name":"飞机场","address":"上海浦东国际机场1号航站楼国内到达"},{"poiid":"B2094757D06EAAF84492","title":"浦东机场T1国内出发","lon":"121.80222231","lat":"31.1499032523","category":"21","category_name":"飞机场","address":"上海浦东国际机场1号航站楼国内出发"},{"poiid":"B2094757D66FA6FB419D","title":"浦东机场T1国际出发","lon":"121.801738087","lat":"31.1505004751","category":"21","category_name":"飞机场","address":"上海浦东国际机场1号航站楼国际出发"},{"poiid":"B2094655D26EA2FB479F","title":"上海浦东国际机场2号航站楼(出发)","lon":"121.809","lat":"31.1504","category":"21","category_name":"飞机场","address":"浦东新区迎宾大道6000号"},{"poiid":"B2094757D06FA2FD449B","title":"浦东机场T2国内到达","lon":"121.80737304","lat":"31.15092633","category":"21","category_name":"飞机场","address":"上海浦东国际机场2号航站楼国内到达"},{"poiid":"B2094757D06EAAFC409D","title":"浦东机场T2国际到达","lon":"121.808185603","lat":"31.1505426571","category":"21","category_name":"飞机场","address":"上海浦东国际机场2号航站楼国际到达"},{"poiid":"B2094757D06EAAF9419D","title":"浦东机场T2停机坪","lon":"121.80417871","lat":"31.1509691","category":"21","category_name":"飞机场","address":"上海浦东国际机场2号航站楼停机坪"},{"poiid":"B2094757D06EABF5409B","title":"上海浦东国际机场T2航站楼","lon":"121.80919526","lat":"31.151345391","category":"21","category_name":"飞机场","address":"上海浦东新区浦东机场路2号航站楼T2"},{"poiid":"B2094757D06FA0FB4298","title":"浦东机场T2国内出发","lon":"121.808987992","lat":"31.1517827225","category":"21","category_name":"飞机场","address":"上海浦东国际机场2号航站楼国内出发"},{"poiid":"B2094757D06EAAF5449A","title":"浦东机场T1国际到达","lon":"121.803197209","lat":"31.1495455568","category":"21","category_name":"飞机场","address":"上海浦东国际机场1号航站楼国际到达"},{"poiid":"B2094757D06EAAFA4598","title":"浦东机场T2国际出发","lon":"121.81086599","lat":"31.151086707","category":"21","category_name":"飞机场","address":"上海浦东国际机场2号航站楼国际出发"},{"poiid":"B2094757D069A3F84699","title":"浦东机场1号航站楼3号登机口","lon":"121.80034199","lat":"31.153230754","category":"21","category_name":"飞机场","address":"上海浦东国际机场"},{"poiid":"B2094757D06FA1FE4193","title":"上海浦东机场T1贵宾室","lon":"121.80031907","lat":"31.152765453","category":"21","category_name":"飞机场","address":"上海浦東机場"},{"poiid":"B2094757D064A2FE4793","title":"浦东国际机场国内到达","lon":"121.80095","lat":"31.148818","category":"21","category_name":"飞机场","address":"上海市,浦东新区,浦东机场路"},{"poiid":"B2094757D065A3FE449F","title":"浦东国际机场T2航站楼D61登机口","lon":"121.806751759","lat":"31.1560785159","category":"21","category_name":"飞机场","address":"上海浦东国际机场T2航站楼D61登机口"},{"poiid":"B2094757D16DA3FF489E","title":"浦东国际机场T2航站楼VIP69贵宾室","lon":"121.808766595","lat":"31.1528650127","category":"21","category_name":"飞机场","address":"上海浦东国际机场T2航站楼"},{"poiid":"B2094757D069A1F9439B","title":"浦东国际机场T2航站楼南航贵宾休息室70号","lon":"121.80950803","lat":"31.154599063","category":"21","category_name":"飞机场","address":"浦东新区启航路900号浦东机场第二航站楼(近机场中路)"},{"poiid":"B2094757D069A6FA4799","title":"浦東機埸跑道","lon":"121.800264992","lat":"31.1536167624","category":"500","category_name":"未知分类","address":"上海市速航路"},{"poiid":"B2094757D06FA3FF4699","title":"磁浮浦东国际机场站","lon":"121.805852085","lat":"31.1504579043","category":"36","category_name":"地铁站","address":"上海磁浮线 磁悬浮 浦东机场"},{"poiid":"B2094757D069A3F9449A","title":"浦东国际机场T1航站楼东航10号贵宾室","lon":"121.800532992","lat":"31.1520857291","category":"21","category_name":"飞机场","address":"上海市速航路"},{"poiid":"B2094757D06EAAFC449C","title":"日上免税行(浦东机场店)","lon":"121.81009699","lat":"31.151344713","category":"122","category_name":"个人用品/化妆品店","address":"上海浦东新区浦东国际机场1号2号航站楼  "},{"poiid":"B2094757D068ABFE439F","title":"浦东国际机场T1航站楼21号头等舱休息室","lon":"121.80338721","lat":"31.14506997","category":"21","category_name":"飞机场","address":"上海浦东"},{"poiid":"B2094757D16EA1F4409E","title":"浦东机场T1航站楼5号登机口","lon":"121.80026899","lat":"31.153318755","category":"21","category_name":"飞机场","address":"上海市速航路"},{"poiid":"B2094757D06FA2FE4192","title":"浦东机场T2航站楼上航贵宾休息室","lon":"121.81072526","lat":"31.151787182","category":"21","category_name":"飞机场","address":"上海浦东机场T2航站楼77号贵宾休息室"},{"poiid":"B2094757D06AA4FB429D","title":"浦东机场VVIP  H区贵宾室","lon":"121.807616092","lat":"31.1529869487","category":"21","category_name":"飞机场","address":"上海浦东机场t2航站楼到达"},{"poiid":"B2094757D16CA1FD4598","title":"浦东机场T1航站楼  2号登机口","lon":"121.800130152","lat":"31.1535348906","category":"21","category_name":"飞机场","address":"上海阳光透窗尽入，洒在脸上，柔软温暖的感觉真好!"},{"poiid":"B2094757D06BAAFC499C","title":"浦东机场T1航站楼4号登机口","lon":"121.800328992","lat":"31.1530987511","category":"21","category_name":"飞机场","address":"上海浦东国际机场T1航站楼"},{"poiid":"B2094757D06FA7F44893","title":"味千拉面(浦东机场店)","lon":"121.810311992","lat":"31.1511987098","category":"257","category_name":"中餐厅","address":"浦东新区浦东国际机场T2航站楼国际出发大厅2楼"},{"poiid":"B2094757D06BA1F54893","title":"大众空港宾馆","lon":"121.80261299","lat":"31.151113707","category":"217","category_name":"旅馆招待所","address":"上海市浦东机场迎宾大道6001号"},{"poiid":"B2094757D06FA0FD4598","title":"浦东国际机场地铁站","lon":"121.80582683","lat":"31.150475671","category":"36","category_name":"地铁站","address":"上海轨道交通 二号线 磁悬浮 轨交浦东国际机场站 2"},{"poiid":"B2094757DA6EA7F5459B","title":"汉堡王(浦东机场一店)","lon":"121.806964874265","lat":"31.1518543859263","category":"247","category_name":"餐饮美食","address":"浦东新区浦东国际机场T2航站楼国际到达2A"},{"poiid":"B2094655D265ABF4479D","title":"东方既白(浦东机场店)","lon":"121.80491","lat":"31.15276","category":"68","category_name":"快餐厅","address":"浦东新区浦东国际机场磁悬浮车站2楼(近肯德基)"},{"poiid":"B2094655D26BA2F5469A","title":"浦东机场侯机楼站","lon":"121.80533","lat":"31.1511","category":"38","category_name":"公交车站","address":"上海浦东新区浦东国际机场"},{"poiid":"B2094757D66FA6FE439A","title":"浦东机场T2港龙航空公司","lon":"121.808961992","lat":"31.1560118145","category":"21","category_name":"飞机场","address":"上海浦东"},{"poiid":"B2094757D06AA6F4449B","title":"豪普生达 Hope Star","lon":"121.80402569","lat":"31.15098163","category":"500","category_name":"未知分类","address":"上海浦东机场1号航站楼2层"},{"poiid":"B2094654DB64ABFE499B","title":"莫泰168连锁旅店(浦东机场店)","lon":"121.80595","lat":"31.15063","category":"216","category_name":"经济型连锁酒店","address":"浦东新区浦东迎宾大道6001号"},{"poiid":"B2094757D16DA3FA409B","title":"上海浦东国际机场T2航站楼V73贵宾室","lon":"121.804507","lat":"31.150777","category":"21","category_name":"飞机场","address":"上海浦东国际机场二号航站楼"},{"poiid":"B2094757D66EA2FC439E","title":"浦东机场一号航站楼16号登机口","lon":"121.801817499","lat":"31.1484420536","category":"21","category_name":"飞机场","address":"上海浦东机场"},{"poiid":"B2094757D068A7FA4293","title":"肯德基浦东机场店","lon":"121.805901","lat":"31.149949","category":"68","category_name":"快餐厅","address":"浦东新区浦东机场北步行道"},{"poiid":"B2094757D064A4FC439C","title":"浦东机场T2航站楼头等舱休息室","lon":"121.81071599","lat":"31.151278711","category":"21","category_name":"飞机场","address":"上海市浦东新区浦东机场路"},{"poiid":"B2094757D66DA5F44693","title":"上海浦东国际机场T1航站楼203登机口","lon":"121.80120799","lat":"31.149808679","category":"21","category_name":"飞机场","address":"上海市浦东新区浦东机场路"},{"poiid":"B2094757D06AA5FE449D","title":"浦东机场T1东航公务舱休息室","lon":"121.80450439","lat":"31.150777816","category":"21","category_name":"飞机场","address":"上海 浦东机场T1航站楼"},{"poiid":"B2094757D06FA5FF4793","title":"全家便利(浦东机场店)","lon":"121.80426025","lat":"31.150802612","category":"117","category_name":"便民商店/便利店","address":"上海浦东国际机场T1航站楼一楼"},{"poiid":"B2094757D165A7FB409C","title":"上海浦东机场2号航站楼73号vip休息厅","lon":"121.80964939","lat":"31.151076907","category":"21","category_name":"飞机场","address":"上海上海浦东机场2号航站楼73号vip休息厅"},{"poiid":"B2094757D064A2FD499A","title":"浦东国际机场一号航站楼15号登机口","lon":"121.80178265","lat":"31.14967671","category":"21","category_name":"飞机场","address":"上海浦东国际机场一号航站楼15号登机口"},{"poiid":"B2094757D06BAAFF489E","title":"浦东国际机场21号休息室","lon":"121.80315801","lat":"31.145282887","category":"21","category_name":"飞机场","address":"上海浦东国际机场T121号登机口"},{"poiid":"B2094757D16DA0FE4698","title":"浦东机场国内头等舱休息室","lon":"121.80515539","lat":"31.150923672","category":"21","category_name":"飞机场","address":"上海浦东国际机场"},{"poiid":"B2094757D16BA2F8499C","title":"浦东国际机场22号休息室","lon":"121.803817563","lat":"31.1448091687","category":"21","category_name":"飞机场","address":"上海浦东国际机场22号休息室"},{"poiid":"B2094655D26EA5F84893","title":"沙龙餐厅","lon":"121.80793","lat":"31.1502","category":"95","category_name":"日本料理","address":"浦东新区浦东国际机场T1航站楼2-3楼"},{"poiid":"B2094654DB69ABFA4293","title":"上海人家(浦东机场店)","lon":"121.80296","lat":"31.14986","category":"76","category_name":"上海菜","address":"浦东新区浦东机场第二航站楼(近出发办票大厅)"},{"poiid":"B2094757D66EA2FE479C","title":"浦东机场D67登机口","lon":"121.805892","lat":"31.150732","category":"21","category_name":"飞机场","address":"上海浦发国际机场"},{"poiid":"B2094757D66DA1FB459B","title":"浦东国际机场一号航站楼22号登机口","lon":"121.80220026","lat":"31.147435127","category":"21","category_name":"飞机场","address":"上海浦东国际机场"},{"poiid":"B2094750D665A4FC4993","title":"汉堡王(浦东机场二店)","lon":"121.802","lat":"31.1499","category":"68","category_name":"快餐厅","address":"浦东新区浦东国际机场T2航站楼国际出发厅2楼"},{"poiid":"B2094757D065ABFA429C","title":"浦东机场一号航站楼37号头等舱公务舱休息室","lon":"121.80212362","lat":"31.14765459","category":"21","category_name":"飞机场","address":"上海浦东机场"},{"poiid":"B2094757D66DA3FB409B","title":"上海浦东国际机场T2D59登机口","lon":"121.80799844","lat":"31.151659019","category":"21","category_name":"飞机场","address":"上海浦东"},{"poiid":"B2094757D16CA2F84699","title":"上海浦东国际机场T2航站楼B1F机场四线","lon":"121.806563992","lat":"31.1503516914","category":"21","category_name":"飞机场","address":"上海市浦东新区浦东机场路"},{"poiid":"B2094655D26FA2F5499F","title":"真功夫(浦东机场店)","lon":"121.80586","lat":"31.15041","category":"68","category_name":"快餐厅","address":"浦东新区启航路900号浦东国际机场内(近肯德基)"},{"poiid":"B2094757D168A6F8439A","title":"浦东国际机场T2航站楼C97号登机口","lon":"121.80608663","lat":"31.150823422","category":"21","category_name":"飞机场","address":"上海浦东国际机场T2航站楼C97号登机口"},{"poiid":"B2094757D568A7FA449A","title":"浦东机场长途客运站","lon":"121.805897000001","lat":"31.1507779999998","category":"35","category_name":"长途汽车站","address":"浦东新区启航路900号浦东机场第二航站楼大巴停车处(近机场中路)"},{"poiid":"B2094757D065A6FC469D","title":"浦东机场1号航站楼12号登机口","lon":"121.800949097","lat":"31.148815155","category":"21","category_name":"飞机场","address":"上海浦东机场"},{"poiid":"B2094757D164A5FE449C","title":"浦东机场T2国航头等舱休息室","lon":"121.80394245","lat":"31.149789588","category":"21","category_name":"飞机场","address":"上海浦东机场"},{"poiid":"B2094757D16CA7F5489F","title":"阿联酋航空","lon":"121.80393","lat":"31.15086","category":"21","category_name":"飞机场","address":"浦东新区启航路900号浦东机场内(近机场中路)"},{"poiid":"B2094757D169A1FB4399","title":"浦东机场T2候机楼D88登机口","lon":"121.81106299","lat":"31.1507547","category":"21","category_name":"飞机场","address":"上海市浦东新区浦东机场路"},{"poiid":"B2094750D364A7FA439C","title":"戴柏美发技术进修","lon":"121.80586","lat":"31.15111","category":"148","category_name":"美容美发店","address":"丽园路718号"},{"poiid":"B2094757D16FABFE489E","title":"粤菜小馆","lon":"121.80089","lat":"31.14873","category":"72","category_name":"广东菜","address":"浦东新区机场镇启航路900号浦东国际机场T1航站楼内"},{"poiid":"B2094757D065A4F4449E","title":"浦东机场1号航站楼3号行李转盘","lon":"121.80451965","lat":"31.150779724","category":"21","category_name":"飞机场","address":"上海浦东机场1号楼内"},{"poiid":"B2094757D069A3F4479D","title":"浦东机场VVIP D区贵宾室","lon":"121.809328992","lat":"31.1503976924","category":"21","category_name":"飞机场","address":"上海市浦东新区迎宾高速"},{"poiid":"B2094757D16EA5FD4399","title":"靓汤面馆","lon":"121.804410992","lat":"31.1501076861","category":"247","category_name":"餐饮美食","address":"上海市浦东机场T1到达15号门"},{"poiid":"B2094757D16AA7FD4499","title":"浦东机场T2到达区BURGER KING","lon":"121.808985992","lat":"31.1502966902","category":"21","category_name":"飞机场","address":"上海市浦东新区浦东机场路"},{"poiid":"B2094757D16CA5F8459C","title":"美林阁(浦东机场店)","lon":"121.80464","lat":"31.15332","category":"76","category_name":"上海菜","address":"浦东新区迎宾大道6001号(浦东机场1号2号航站楼间)"},{"poiid":"B2094757D164A3F8459F","title":"T2国际66号贵宾室","lon":"121.80515299","lat":"31.153413057","category":"500","category_name":"未知分类","address":"上海浦东国际机场T2航站楼国际出发66号贵宾室"},{"poiid":"B2094655D26EA6F4449D","title":"浦东机场免税店","lon":"121.80293","lat":"31.14983","category":"117","category_name":"便民商店/便利店","address":"浦东新区浦东国际机场"},{"poiid":"B2094757D164A4FC479D","title":"浦东国际机场T1航站楼213登机口","lon":"121.805574255","lat":"31.1471127869","category":"21","category_name":"飞机场","address":"上海市浦东新区启航路900号浦东国际机场"},{"poiid":"B2094654DA6BA1FA4492","title":"上海浦东国际机场第二餐厅","lon":"121.802268","lat":"31.149887","category":"68","category_name":"快餐厅","address":"浦东新区启航路900号浦东国际机场内"},{"poiid":"B2094757D164A2F4449F","title":"浦东国际机场T1航站楼16号登机口","lon":"121.806289673","lat":"31.145608902","category":"21","category_name":"飞机场","address":"上海浦东新区启航路900号T1航站楼"},{"poiid":"B2094757D16CA4FD449F","title":"浦东机场T1候机楼出发层香锅饭","lon":"121.80288699","lat":"31.150476694","category":"21","category_name":"飞机场","address":"上海浦东机场T1候机楼出发层香锅饭"},{"poiid":"B2094757D168A5FB439B","title":"机场三线","lon":"121.803681292","lat":"31.1508750027","category":"38","category_name":"公交车站","address":"上海浦东机场——银河宾馆"},{"poiid":"B2094655D36CA7FA409F","title":"航站楼2","lon":"121.80631","lat":"31.15096","category":"38","category_name":"公交车站","address":""},{"poiid":"B2094757D065AAFF419C","title":"浦东国际机场一号楼春秋航空","lon":"121.803747992","lat":"31.1497556784","category":"21","category_name":"飞机场","address":"上海市浦东新区浦东机场路"},{"poiid":"B2094757D169A5F9489D","title":"浦東機場 機場四線站頭","lon":"121.8047775","lat":"31.150597096","category":"500","category_name":"未知分类","address":"上海浦東機場T1航站樓"},{"poiid":"B2094757D168ABFD4598","title":"上海浦东机场T1 12号登机口延误候机室","lon":"121.80067699","lat":"31.15167772","category":"21","category_name":"飞机场","address":"上海市速航路"},{"poiid":"B2094757D66DA6FF489C","title":"浦东机场一号航站楼28号登机口","lon":"121.80099309","lat":"31.149078463","category":"21","category_name":"飞机场","address":"上海浦东机场一号航站楼28号登机口"},{"poiid":"B2094655D36CA7FA4099","title":"航站楼2(下客站)","lon":"121.80607","lat":"31.15146","category":"38","category_name":"公交车站","address":""},{"poiid":"B2094757D164A1FE469D","title":"浦东机场T2航站楼机场跑道","lon":"121.80910098","lat":"31.150643887","category":"21","category_name":"飞机场","address":"上海aa"},{"poiid":"B2094654DB6AA3FC4793","title":"豪普生达咖啡","lon":"121.80293","lat":"31.14983","category":"247","category_name":"餐饮美食","address":"浦东新区浦东国际机场候机楼二楼"},{"poiid":"B2094757D16FA6FF4699","title":"浦东T1东方即白……","lon":"121.805731992","lat":"31.1514047143","category":"500","category_name":"未知分类","address":"上海市浦东新区Ｓ１迎宾高速"},{"poiid":"B2094757D66FA1FC429A","title":"浦东机场T1航站楼清真餐厅","lon":"121.804366992","lat":"31.1511397085","category":"500","category_name":"未知分类","address":"浦东新区浦东国际机场T1航站楼"},{"poiid":"B2094757D06AAAF4479E","title":"罗天尼意大利西餐","lon":"121.80906899","lat":"31.151125208","category":"94","category_name":"西餐厅","address":"浦东新区浦东国际机场T2航站楼国际出发厅(安航路海天五路)"},{"poiid":"B2094750DA65A0FB439D","title":"磁悬浮浦东机场站","lon":"121.803939","lat":"31.154829","category":"251","category_name":"出行住宿","address":null},{"poiid":"B2094757D16AA1FE4098","title":"Acting cafe雅品连锁店","lon":"121.804504395","lat":"31.1507778168","category":"500","category_name":"未知分类","address":"浦东新区浦东国际机场航站楼T1楼"},{"poiid":"B2094654DB64ABFD479F","title":"驿居酒店连锁","lon":"121.80622","lat":"31.14996","category":"216","category_name":"经济型连锁酒店","address":"机场镇"},{"poiid":"B2094757D66EA4F94099","title":"维迪莎咖啡 浦东机场店 Caffe Ritazza","lon":"121.799816054","lat":"31.148583793","category":"65","category_name":"咖啡厅","address":"浦东新区启航路900号浦东国际机场航站楼3楼出发厅"},{"poiid":"B2094757D168A6FE4498","title":"夜宵线(浦东机场站)","lon":"121.806523492","lat":"31.153323256","category":"21","category_name":"飞机场","address":"上海1号航站楼一楼6号门口"},{"poiid":"B2094757D068AAF4469C","title":"CX &amp; KA Lounge","lon":"121.81046253","lat":"31.151406424","category":"21","category_name":"飞机场","address":"上海浦东国际机场二号航站楼，国际出发68号贵宾室"},{"poiid":"B2094757D16FABF4449C","title":"浦东机场T2航站楼 泰航办公室B7-503","lon":"121.803063","lat":"31.15643","category":"21","category_name":"飞机场","address":"上海浦东机场T2航站楼"},{"poiid":"B2094750D664A7F9469B","title":"大众空港宾馆空中酒吧","lon":"121.806","lat":"31.1507","category":"260","category_name":"其他","address":"浦东新区迎宾大道6001号"},{"poiid":"B2094757D064A2F54399","title":"上海浦东国际机场员工餐厅","lon":"121.806932992","lat":"31.1502126883","category":"500","category_name":"未知分类","address":"上海浦东机场PVG"},{"poiid":"B2094757D069A2FB419A","title":"靓汤面馆","lon":"121.80416399","lat":"31.148642654","category":"106","category_name":"葡国菜","address":"上海市浦东新区浦东机场路"},{"poiid":"B2094757D16AA6FC4192","title":"浦东机场T2Caffe Ritazza","lon":"121.808616992","lat":"31.1505286952","category":"21","category_name":"飞机场","address":"上海市浦东新区浦东机场2号航站楼出发A边上"},{"poiid":"B2094757D164A0FA429A","title":"永和大王 虹桥机场店","lon":"121.80251564","lat":"31.154372028","category":"247","category_name":"餐饮美食","address":"上海虹桥机场T1到达大厅"},{"poiid":"B2094757D164A6F9449A","title":"Hope Star","lon":"121.80315999","lat":"31.151158708","category":"500","category_name":"未知分类","address":"上海市浦东新区浦东机场路"},{"poiid":"B2094757D16FA5F8409F","title":"浦东机场阿联酋航空贵宾室","lon":"121.81024099","lat":"31.15120871","category":"21","category_name":"飞机场","address":"上海市浦东机场T2航站楼78号"},{"poiid":"B2094757D76EA2F44099","title":"香味轻食 Spices Light","lon":"121.802284","lat":"31.1499","category":"68","category_name":"快餐厅","address":"浦东新区启航路900号浦东机场二号航站楼2楼(近机场中路)"},{"poiid":"B2094757D16CA2F54693","title":"美食一条街 东方既白 真功夫 好戏连台 kfc","lon":"121.80296399","lat":"31.150281689","category":"500","category_name":"未知分类","address":"上海市浦东新区浦东机场路"},{"poiid":"B2094750D26FA1FC4398","title":"上海浦东国际机场T2航站楼D65登机口","lon":"121.809982","lat":"31.152404","category":"21","category_name":"飞机场","address":"浦东新区机场镇启航路900号浦东国际机场内"},{"poiid":"B2094757D66CA5F94499","title":"浦东机场1号航站楼VVIPA区贵宾室","lon":"121.80116199","lat":"31.151961726","category":"21","category_name":"飞机场","address":"上海市速航路"},{"poiid":"B2094757D16BA1FF409E","title":"上海浦东机场T2安检休息室","lon":"121.808946992","lat":"31.1516507196","category":"21","category_name":"飞机场","address":"上海ShanghaiPudong XinquS1 Yingbin Expy"},{"poiid":"B2094757D065A4FC4493","title":"机场二线(浦东国际机场)","lon":"121.80449899","lat":"31.151270811","category":"260","category_name":"其他","address":"上海浦东新区机场镇启航路900号，浦东国际机场T2航站楼"},{"poiid":"B2094757D064A5F9429E","title":"上海浦东国际机场T2 Delta Air Lines","lon":"121.80929424","lat":"31.151295974","category":"21","category_name":"飞机场","address":"上海PVG checkin island G"},{"poiid":"B2094757D66EA4FA449A","title":"浦东机场D69号登机口廊桥","lon":"121.809938992","lat":"31.1525357389","category":"21","category_name":"飞机场","address":"上海市浦东新区浦东机场路"},{"poiid":"B2094757D165AAFB4893","title":"上海浦东T1机场车库.秋秋专用车位.","lon":"121.80381699","lat":"31.150014684","category":"500","category_name":"未知分类","address":"上海市浦东新区浦东机场路"},{"poiid":"B2094757D06BA4FF489B","title":"杂技团最high关系办公室","lon":"121.80368199","lat":"31.150163687","category":"500","category_name":"未知分类","address":"上海市浦东新区浦东机场路"},{"poiid":"B2094753D56FA6FB4398","title":"韩国仁川机场","lon":"121.804016","lat":"31.148445","category":"500","category_name":"未知分类","address":"上海市 韩国首尔"},{"poiid":"B2094757D06AA5F44799","title":"Daisy哒蜗居","lon":"121.80352399","lat":"31.150387692","category":"217","category_name":"旅馆招待所","address":"上海开鲁六村"},{"poiid":"B2094757D66EABFB4399","title":"浦东机场边检","lon":"121.80208766","lat":"31.146065196","category":"21","category_name":"飞机场","address":"上海浦东机场T1航站楼"},{"poiid":"B2094757D065AAF5469A","title":"要货聚集地","lon":"121.80356299","lat":"31.150204688","category":"500","category_name":"未知分类","address":null},{"poiid":"B2094750DB6DA4FB4398","title":"浦东机场","lon":"121.806764","lat":"31.15262","category":"500","category_name":"未知分类","address":null},{"poiid":"B2094757D169A5FE4193","title":"日上茶餐厅","lon":"121.80315326","lat":"31.14533908","category":"257","category_name":"中餐厅","address":"浦东新区浦东国际机场航站楼T1楼"},{"poiid":"B2094757D169ABF54799","title":"上海市住宅建设发展中心","lon":"121.803126892","lat":"31.1508091013","category":"500","category_name":"未知分类","address":"上海北京西路95号"},{"poiid":"B2094757D16AA1FF489B","title":"浦东机场员工餐厅","lon":"121.806752992","lat":"31.1521557306","category":"500","category_name":"未知分类","address":"上海浦东机场中通道"},{"poiid":"B2094757D16AA7F5409D","title":"上海浦东国际机场T2航站楼AeroMexico","lon":"121.80917699","lat":"31.150361691","category":"21","category_name":"飞机场","address":"上海浦东国际机场"},{"poiid":"B2094757D06BA0FF469E","title":"浦发绿城2079弄","lon":"121.80331899","lat":"31.150236688","category":"252","category_name":"楼宇机构","address":"上海市浦东新区浦三路永泰路"},{"poiid":"B2094757D065A7FC489C","title":"H岛吉祥柜台","lon":"121.80320499","lat":"31.14984968","category":"500","category_name":"未知分类","address":"上海市浦东新区浦东机场路"},{"poiid":"B2094757D16AAAFA4093","title":"G1501高速","lon":"121.805911","lat":"31.14894","category":"500","category_name":"未知分类","address":"上海高速"},{"poiid":"B2094757D66FA6FF449F","title":"浦东国际机场T2航站楼D73登机口","lon":"121.809531992","lat":"31.1529197472","category":"500","category_name":"未知分类","address":"上海浦东"},{"poiid":"B2094757D06BA6FC489D","title":"浦东机场T2 D69","lon":"121.81062099","lat":"31.151405714","category":"21","category_name":"飞机场","address":"苏州上海浦东国际机场"},{"poiid":"B2094757D16CA2FC479B","title":"浦东国际机场T1-11号桥吉祥引导办公室","lon":"121.80057399","lat":"31.151774722","category":"21","category_name":"飞机场","address":"上海浦东国际机场T1航站楼"},{"poiid":"B2094757D065A2FB449D","title":"鲜而纯面馆","lon":"121.800723892","lat":"31.1517227212","category":"247","category_name":"餐饮美食","address":"上海浦东机场一号航站楼3号登机口旁"},{"poiid":"B2094757D569A3FF4899","title":"玛士高眼镜(机场店)","lon":"121.802935999998","lat":"31.1498929999998","category":"132","category_name":"眼镜店","address":"浦东国际机场列香百货2层"},{"poiid":"B2094757D164A2F54193","title":"上海浦东机场海韵餐厅","lon":"121.803854","lat":"31.150918","category":"260","category_name":"其他","address":"上海浦东机场T1"},{"poiid":"B2094757D66CA6F94698","title":"浦东机场621机位","lon":"121.808464492","lat":"31.1562116188","category":"21","category_name":"飞机场","address":"上海浦东机场6号机坪621机位"},{"poiid":"B2094750D66DA7F8489A","title":"浦东机场T1航站楼9号登机口","lon":"121.800445","lat":"31.152437","category":"500","category_name":"未知分类","address":null},{"poiid":"B2094757D66FA2F9499C","title":"梅龙镇广场costa","lon":"121.80526999","lat":"31.153373557","category":"500","category_name":"未知分类","address":"上海南京西路"},{"poiid":"B2094752D56DA7F8459F","title":"上海浦东机场","lon":"121.807398","lat":"31.152517","category":"500","category_name":"未知分类","address":null},{"poiid":"B2094757D06BA5F8499E","title":"机场二线","lon":"121.804434652","lat":"31.1501299665","category":"260","category_name":"其他","address":"上海浦东机场T1"},{"poiid":"B2094757D16DABFD459E","title":"上海浦东国际机场星空联盟成员贵宾厅","lon":"121.81100099","lat":"31.150934704","category":"21","category_name":"飞机场","address":"上海浦东国际机场77号登机口楼上"},{"poiid":"B2094757D068A1F8499F","title":"渔人湾","lon":"121.80122","lat":"31.14854","category":"500","category_name":"未知分类","address":"上海浦东新区浦东机场1号航站楼出发区  "},{"poiid":"B2094757D16FA7F94698","title":"上海浦东国际机场二号航站楼69号贵宾候机厅","lon":"121.810801161","lat":"31.1511419924","category":"21","category_name":"飞机场","address":"上海浦东国际机场T2"},{"poiid":"B2094757D66FA3FB479D","title":"玛莎美容","lon":"121.80481349","lat":"31.15353616","category":"148","category_name":"美容美发店","address":"上海普陀区志丹路198号"},{"poiid":"B2094751D06CA6F5449A","title":"浦东国际机场2号航站楼停车场","lon":"121.807089","lat":"31.151541","category":"262","category_name":"停车场","address":"上海市,浦东新区,浦东机场路"},{"poiid":"B2094757D16EA3FB4199","title":"浦东机场T2 ⑥⑥号贵宾厅","lon":"121.81053699","lat":"31.152001727","category":"21","category_name":"飞机场","address":"上海浦东国际机场"},{"poiid":"B2094757D76EA2FB489F","title":"香味居 Spices","lon":"121.80061","lat":"31.14641","category":"257","category_name":"中餐厅","address":"浦东新区启航路900号浦东机场二号航站楼2楼(近机场中路)"},{"poiid":"B2094753DA68A5F44999","title":"浦东机场T1航站楼12A头等舱休息室","lon":"121.800903","lat":"31.150709","category":"500","category_name":"未知分类","address":"上海市 浦东机场"},{"poiid":"B2094757D06AA7FC4693","title":"浦東機場貴賓公司","lon":"121.80808657","lat":"31.152091549","category":"500","category_name":"未知分类","address":"上海丅2出發25號門"},{"poiid":"B2094757D16DA3FF4098","title":"burgerking","lon":"121.810881992","lat":"31.151256711","category":"500","category_name":"未知分类","address":"上海浦东机场T2航站楼"},{"poiid":"B2094757D66EA5FA469F","title":"浦东机场D80","lon":"121.811532717","lat":"31.1500510967","category":"21","category_name":"飞机场","address":"上海浦东机场"},{"poiid":"B2094750DA65A7FA4299","title":"上海浦东机场","lon":"121.807907","lat":"31.147241","category":"500","category_name":"未知分类","address":"机场大道"},{"poiid":"B2094757D66DA3F4429F","title":"唐黄路","lon":"121.808627992","lat":"31.150564696","category":"500","category_name":"未知分类","address":"上海市浦东新区浦东机场路"},{"poiid":"B2094757D06AA3F8469A","title":"浦东机场T1吉祥信调312","lon":"121.80153443","lat":"31.150437443","category":"500","category_name":"未知分类","address":null},{"poiid":"B2094757D66FA7F5469D","title":"浦东机场20号头等舱休息室","lon":"121.802923263","lat":"31.1460200957","category":"500","category_name":"未知分类","address":"上海浦东机场"},{"poiid":"B2094757D66EA4F4479C","title":"巴厘岛","lon":"121.801147992","lat":"31.1496476761","category":"500","category_name":"未知分类","address":"巴厘岛"},{"poiid":"B2094757D16CA3FC489F","title":"机场五线","lon":"121.80523149","lat":"31.153325656","category":"260","category_name":"其他","address":"上海浦东国际机场"},{"poiid":"B2094757D164A3F9479A","title":"W206","lon":"121.80160779","lat":"31.149119964","category":"500","category_name":"未知分类","address":null},{"poiid":"B2094757D66DA2FC429B","title":"熺百巨自助烧烤","lon":"121.800188092","lat":"31.1532447543","category":"247","category_name":"餐饮美食","address":"大连东财东门"},{"poiid":"B2094757D665A3FD409A","title":"海韵餐厅","lon":"121.799816054","lat":"31.148583793","category":"68","category_name":"快餐厅","address":"浦东新区启航路900号浦东国际机场内"},{"poiid":"B2094750DA69A6FE4598","title":"上海浦东国际机场T1航站楼国际出发37号头等舱休息室","lon":"121.80207","lat":"31.14759","category":"500","category_name":"未知分类","address":null},{"poiid":"B2094757D069A7F84799","title":"香味轻食(浦东机场T2航站楼)","lon":"121.8059971","lat":"31.155168202","category":"260","category_name":"其他","address":"上海浦东新区启航路900号浦东国际机场T2候机楼国内到达层"},{"poiid":"B2094757D66CABFC479A","title":"卡塔尔航空公司","lon":"121.80937799","lat":"31.151942726","category":"500","category_name":"未知分类","address":"上海浦东国际机场"},{"poiid":"B2094750D26FA3F4469F","title":"上海浦東国際空港","lon":"121.809837","lat":"31.152252","category":"500","category_name":"未知分类","address":null},{"poiid":"B2094757D064A5F54093","title":"梦田园(浦东机场店)","lon":"121.80221685","lat":"31.149714144","category":"260","category_name":"其他","address":"上海T1航站楼"},{"poiid":"B2094752D36CA6F9449D","title":"浦东国际机场","lon":"121.808121","lat":"31.154694","category":"627","category_name":"一般地点标志","address":null},{"poiid":"B2094757D16EAAFE4199","title":"吴江路CUP PUDDING","lon":"121.80094909","lat":"31.148817062","category":"500","category_name":"未知分类","address":"上海cup pudding"},{"poiid":"B2094757D068AAF84798","title":"上航T2办公室2-B7-505","lon":"121.81022499","lat":"31.151141708","category":"500","category_name":"未知分类","address":"上海市浦东新区浦东机场路"},{"poiid":"B2094757D16BA0FB4392","title":"空中客车320","lon":"121.806472778","lat":"31.1452484131","category":"500","category_name":"未知分类","address":"上海浦东国际机场"},{"poiid":"B2094757D16EA3F4409D","title":"浦東機場T2 HOPE STAR CAFE","lon":"121.81153899","lat":"31.14984468","category":"500","category_name":"未知分类","address":"上海浦东新区浦东机场路"},{"poiid":"B2094757D66FA1FC459D","title":"浦东机场T2航站楼  UA办公室","lon":"121.809009992","lat":"31.1536082622","category":"500","category_name":"未知分类","address":null},{"poiid":"B2094757D169A4F44392","title":"8号桥","lon":"121.80022799","lat":"31.153412757","category":"500","category_name":"未知分类","address":"建国中路10号"},{"poiid":"B2094750DA65ABFF4798","title":"上海浦东机场T2航站楼D71候机厅","lon":"121.809463","lat":"31.152229","category":"627","category_name":"一般地点标志","address":null},{"poiid":"B2094757D66CA2FB419F","title":"维珍VS251航班(上海-＞伦敦)","lon":"121.81046199","lat":"31.152293733","category":"500","category_name":"未知分类","address":"上海空中"},{"poiid":"B2094750DB6CA3F94992","title":"上海浦东国际机场T2航站楼，C57登机口","lon":"121.809471","lat":"31.154924","category":"500","category_name":"未知分类","address":null},{"poiid":"B2094753D76AA2F54892","title":"日上免税店","lon":"121.806297","lat":"31.145898","category":"249","category_name":"购物服务","address":"上海市 上海浦东机场"},{"poiid":"B2094751D264A3F8489D","title":"Shanghai pudong international airport T2","lon":"121.807928","lat":"31.14697","category":"627","category_name":"一般地点标志","address":null},{"poiid":"B2094753DA6AA2FA4892","title":"浦东国际机场T1航站楼国际出发27号登机口","lon":"121.8031","lat":"31.145589","category":"500","category_name":"未知分类","address":"上海市 浦东国际机场T1航站楼国际出发27号登机口"},{"poiid":"B2094757D569A7FA4793","title":"屈臣氏(浦东机场国际店)","lon":"121.8029541","lat":"31.15654188","category":"118","category_name":"超级市场","address":"浦东新区启航路900号浦东机场国际出发厅2-3铺(近机场中路)"},{"poiid":"B2094757D16CA1F8459D","title":"3U8966灰机上","lon":"121.80063837","lat":"31.150351761","category":"260","category_name":"其他","address":"上海浦东机场"},{"poiid":"B2094757D66EABFD429A","title":"hote star","lon":"121.81131299","lat":"31.150699698","category":"500","category_name":"未知分类","address":"上海ShanghaiPudong XinquPudong Airport"},{"poiid":"B2094757D164AAFD4398","title":"浦东机场停车库2的1层G区","lon":"121.80094146","lat":"31.148815155","category":"260","category_name":"其他","address":"上海浦东机场停车库2号G区"},{"poiid":"B2094757D065A2F8479A","title":"渔人湾餐厅","lon":"121.803021","lat":"31.156559","category":"500","category_name":"未知分类","address":"上海浦东国际机场T1出发厅"},{"poiid":"B2094752D06EA6FF4998","title":"浦东机场","lon":"121.802514","lat":"31.155297","category":"500","category_name":"未知分类","address":null},{"poiid":"B2094757D069A2FF4298","title":"吉祥航空票台","lon":"121.8013","lat":"31.148181","category":"251","category_name":"出行住宿","address":"上海迎宾大道6000号浦东机场T1国内出发2号门"},{"poiid":"B2094750DA6CAAF54799","title":"上海浦东机场T2航站楼D65登机口","lon":"121.809646","lat":"31.154447","category":"627","category_name":"一般地点标志","address":null},{"poiid":"B2094750D268ABFC459C","title":"浦东国际机场T2航站楼D75","lon":"121.810935","lat":"31.150793","category":"251","category_name":"出行住宿","address":null},{"poiid":"B2094757D66CA7F8419B","title":"机场七线T1终点站","lon":"121.807117963","lat":"31.1460211957","category":"260","category_name":"其他","address":"上海T1国内到达4号门"},{"poiid":"B2094752D365A3FA4193","title":"永和大王浦东机场2号航站楼店","lon":"121.801721","lat":"31.15651","category":"500","category_name":"未知分类","address":null},{"poiid":"B2094757D16AA4FC459B","title":"浦东机场巴士七线","lon":"121.80335619","lat":"31.144999692","category":"260","category_name":"其他","address":"上海浦东国际机场"}]