[{"poiid":"B2094654DB6BA4FA4899","title":"好乐迪量贩KTV","lon":"121.47646","lat":"31.22161","category":"170","category_name":"KTV","address":"顺昌路2"},{"poiid":"B2094654DB69A0FA4998","title":"鹿港小镇(新天地店)","lon":"121.47697","lat":"31.22197","category":"91","category_name":"台湾菜","address":"卢湾区太仓路68号(近嵩山路)"},{"poiid":"B2094654DB6BA4FB4499","title":"兰亭餐厅","lon":"121.47562077847","lat":"31.222343552913","category":"76","category_name":"上海菜","address":"卢湾区嵩山路107号(近太仓路)"},{"poiid":"B2094753D76FAAFA449C","title":"上海滩国泰旗舰店","lon":"121.466011","lat":"31.216125","category":"249","category_name":"购物服务","address":"淮海中路868号"},{"poiid":"B209475CD564A7F84292","title":"上海滩新天地店","lon":"121.47463","lat":"31.22164","category":"119","category_name":"商场","address":"\"太仓路181弄新天地北里15号\r\n\""},{"poiid":"B209475CD564A7F8439E","title":"上海滩中信泰富店","lon":"121.45602","lat":"31.22851","category":"119","category_name":"商场","address":"\"南京西路1168号中信泰富广场，店铺号221.\r\n\""},{"poiid":"B209475CD564A7F84392","title":"上海滩浦东香格里拉店","lon":"121.50058","lat":"31.23634","category":"119","category_name":"商场","address":"浦东富成路33号香格里拉酒店内大堂层"},{"poiid":"B2094655D26FA4FE4099","title":"香啡缤 新天地店 Coffee Bean&Tea Leaf","lon":"121.474229054","lat":"31.221022793","category":"65","category_name":"咖啡厅","address":"卢湾区太仓路181弄新天地北里10号楼02-03单元(近马当路)"},{"poiid":"B2094757D06FA3F84399","title":"枣子树(淮海店)","lon":"121.47648","lat":"31.22225","category":"89","category_name":"中式素餐馆","address":"卢湾区嵩山路77号上海皇宫内(近淮海中路)"},{"poiid":"B2094757D06EAAF54498","title":"Fountain","lon":"121.47480011","lat":"31.220687866","category":"94","category_name":"西餐厅","address":"卢湾区太仓路181弄新天地北里10-12楼04单元(近马当路)"},{"poiid":"B2094757D06FAAF4469C","title":"上海安达仕酒店","lon":"121.475939667","lat":"31.2220295725","category":"217","category_name":"旅馆招待所","address":"卢湾区嵩山路88号(近香港广场)"},{"poiid":"B2094654DB65A3F5409D","title":"凯博西餐厅 新天地店 Kabb","lon":"121.474229054","lat":"31.221022793","category":"94","category_name":"西餐厅","address":"卢湾区太仓路181弄新天地北里5号楼(近马当路)"},{"poiid":"B2094757D06FABFD4393","title":"新天地太平湖","lon":"121.47574439","lat":"31.219562847","category":"500","category_name":"未知分类","address":"上海湖滨路222号"},{"poiid":"B2094654DA6FA3F4489A","title":"中共一大会址","lon":"121.47501","lat":"31.22045","category":"250","category_name":"公园户外","address":"上海市卢湾区黄陂南路374号"},{"poiid":"B2094757D06FAAF8449C","title":"T8 Restaurant &amp; Bar","lon":"121.475206764","lat":"31.2205712374","category":"94","category_name":"西餐厅","address":"卢湾区太仓路181弄新天地北里8单元1楼(近马当路)"},{"poiid":"B2094654DA6EABF5459F","title":"企业天地","lon":"121.47592","lat":"31.22109","category":"46","category_name":"楼宇","address":"上海市平凉路1398号"},{"poiid":"B2094757D069AAFE4598","title":"Andaz Shanghai","lon":"121.475196738","lat":"31.2218871223","category":"500","category_name":"未知分类","address":"上海88 Songshan Road"},{"poiid":"B2094757D06FA7FA439B","title":"大茴香(新天地店)","lon":"121.47511","lat":"31.22073","category":"99","category_name":"泰国／越南菜品餐厅","address":"卢湾区太仓路181弄新天地北里1号楼3单元(近马当路)"},{"poiid":"B2094757D06FA2FE429B","title":"企业天地1号楼","lon":"121.476076722","lat":"31.2208862618","category":"46","category_name":"楼宇","address":"上海市卢湾区湖滨路222号"},{"poiid":"B2094757D06FA2F44599","title":"蝶园(太仓路店)","lon":"121.47718","lat":"31.22167","category":"76","category_name":"上海菜","address":"卢湾区太仓路70号(近嵩山路)"},{"poiid":"B2094757D06FA2FA4292","title":"普华永道中心","lon":"121.47667706","lat":"31.2208910235","category":"46","category_name":"楼宇","address":"上海卢湾区湖滨路202号"},{"poiid":"B2094753D768A7FE489D","title":"甜品工房","lon":"121.477027","lat":"31.22192","category":"247","category_name":"餐饮美食","address":"上海市 济南路9号103商铺(近太仓路)"},{"poiid":"B2094757D069AAFF4593","title":"俏江南","lon":"121.475415738","lat":"31.2212311083","category":"71","category_name":"四川菜","address":"卢湾区太仓路181弄新天地北里235号02、05单元(近马当路)"},{"poiid":"B2094654DB6BA4FB4493","title":"天家 太仓路店","lon":"121.47643526081","lat":"31.221847695273","category":"95","category_name":"日本料理","address":"卢湾区太仓路68号(近嵩山路)"},{"poiid":"B2094757D06FA1F84593","title":"Enoterra红酒吧(太仓路店)","lon":"121.477109909","lat":"31.2219337278","category":"260","category_name":"其他","address":"卢湾区太仓路58号(近济南路)"},{"poiid":"B2094757D06FA1F8489D","title":"淮海公园","lon":"121.47755186","lat":"31.222709558","category":"196","category_name":"公园","address":"卢湾区淮海中路177号(近普安路)"},{"poiid":"B2094757D069A1F94699","title":"海逸海鲜酒家","lon":"121.474845738","lat":"31.2211241061","category":"88","category_name":"海鲜酒楼","address":"卢湾区太仓路181弄17号C01号店铺"},{"poiid":"B2094751D26DA3FB469A","title":"摩罗街","lon":"121.47544","lat":"31.219779","category":"72","category_name":"广东菜","address":"卢湾区兴业路123弄新天地南里6号3楼"},{"poiid":"B2094655D26EA5FE469C","title":"y+瑜伽馆(新天地店)","lon":"121.47625","lat":"31.22076","category":"148","category_name":"美容美发店","address":"黄浦区湖滨路202号企业天地2号2楼(新天地会所)"},{"poiid":"B2094753D76DA0FD4893","title":"查厘士港式餐厅","lon":"121.475654","lat":"31.220012","category":"247","category_name":"餐饮美食","address":"上海市 淮海中路438号4F"},{"poiid":"B2094757D06FA4F54793","title":"新吉士酒楼(新天地店)","lon":"121.4753","lat":"31.22102","category":"76","category_name":"上海菜","address":"卢湾区太仓路181弄新天地北里9号楼(近马当路)"},{"poiid":"B2094750D26EABFB4093","title":"庄源 La Finca","lon":"121.47557176192","lat":"31.219692862031","category":"100","category_name":"地中海风格菜品","address":"卢湾区黄陂南路373号(近兴业路)"},{"poiid":"B2094750D464AAFE449A","title":"1930酒吧","lon":"121.475028","lat":"31.220422","category":"247","category_name":"餐饮美食","address":"卢湾区太仓路181弄新天地北里广场23-03号(近太仓路)"},{"poiid":"B2094757D069A6FC4292","title":"新天地上海滩餐厅","lon":"121.475547","lat":"31.221403","category":"76","category_name":"上海菜","address":"上海黄陂路333号"},{"poiid":"B2094757D06FA6F8469C","title":"香港采蝶轩","lon":"121.47579","lat":"31.21958","category":"72","category_name":"广东菜","address":"卢湾区兴业路123弄新天地南里2号楼(近马当路)"},{"poiid":"B2094757D069A0FF4492","title":"Dr. Bar","lon":"121.47491502","lat":"31.221128392","category":"260","category_name":"其他","address":"卢湾区太仓路181弄新天地北里15号楼(近马当路)"},{"poiid":"B2094751D469A0FC4093","title":"浦东机场T2","lon":"121.475928","lat":"31.221897","category":"500","category_name":"未知分类","address":null},{"poiid":"B2094654DA6EA4FA4793","title":"中国共产党第一次全国代表大会会址纪念馆","lon":"121.47544","lat":"31.22021","category":"243","category_name":"纪念馆","address":"兴业路102-108"},{"poiid":"B2094757D06FA4F44093","title":"富民面馆","lon":"121.47687790213","lat":"31.221657822044","category":"68","category_name":"快餐厅","address":"卢湾区太仓路78号(顺昌路口)"},{"poiid":"B2094757D568A4FA4692","title":"Green Massage新天地店","lon":"121.4773631","lat":"31.22202611","category":"149","category_name":"洗浴推拿场所","address":"太仓路58号"},{"poiid":"B2094757D06BA7F54899","title":"瑞尔齿科(新天地店)","lon":"121.47636","lat":"31.2209","category":"162","category_name":"医院","address":"上海卢湾区湖滨路202号企业天地商业中心2号2楼(近济南路)  "},{"poiid":"B2094757D568A2F9489F","title":"湖庭","lon":"121.4757531","lat":"31.21993194","category":"74","category_name":"江苏菜","address":"卢湾区黄陂南路383号(兴业路口)"},{"poiid":"B2094757D06EAAFE4298","title":"石库门","lon":"121.47548675","lat":"31.220237731","category":"116","category_name":"特色商业街","address":"上海卢湾区兴业路123弄（黄陂南路马当路间）"},{"poiid":"B2094654DB65A7F5499E","title":"Y+瑜伽生活馆(新天地店)","lon":"121.4761","lat":"31.22175","category":"220","category_name":"运动场所","address":"卢湾区湖滨路202号企业天地2号楼2楼单元17-20室(近济南路)"},{"poiid":"B2094654DA6EABF5449A","title":"太平桥公园","lon":"121.47679","lat":"31.2197","category":"196","category_name":"公园","address":"淮海中路"},{"poiid":"B2094750D565A2F8489E","title":"庄源 喜娜","lon":"121.475532","lat":"31.220149","category":"247","category_name":"餐饮美食","address":"卢湾区黄陂南路373号(近兴业路)"},{"poiid":"B2094750D76DAAF94599","title":"Éclair","lon":"121.476","lat":"31.2228","category":"67","category_name":"甜品店","address":"卢湾区嵩山路88号上海安达仕酒店1楼"},{"poiid":"B2094757D66DA0FC409C","title":"舒适堡","lon":"121.476330738","lat":"31.2202470874","category":"500","category_name":"未知分类","address":"卢湾区淮海中路1号(近西藏南路)"},{"poiid":"B2094750D26FA5FA419D","title":"de Bellotas","lon":"121.474731","lat":"31.220932","category":"94","category_name":"西餐厅","address":"卢湾区太仓路68号(近顺昌路)"},{"poiid":"B2094752D16AA4F4409D","title":"楚楚园","lon":"121.475053","lat":"31.222129","category":"247","category_name":"餐饮美食","address":"嵩山路"},{"poiid":"B2094654DB6BA4FA4899","title":"好乐迪量贩KTV","lon":"121.47646","lat":"31.22161","category":"170","category_name":"KTV","address":"顺昌路2"},{"poiid":"B2094654DB69A0FA4998","title":"鹿港小镇(新天地店)","lon":"121.47697","lat":"31.22197","category":"91","category_name":"台湾菜","address":"卢湾区太仓路68号(近嵩山路)"},{"poiid":"B2094654DB6BA4FB4499","title":"兰亭餐厅","lon":"121.47562077847","lat":"31.222343552913","category":"76","category_name":"上海菜","address":"卢湾区嵩山路107号(近太仓路)"},{"poiid":"B2094753D76FAAFA449C","title":"上海滩国泰旗舰店","lon":"121.466011","lat":"31.216125","category":"249","category_name":"购物服务","address":"淮海中路868号"},{"poiid":"B209475CD564A7F84292","title":"上海滩新天地店","lon":"121.47463","lat":"31.22164","category":"119","category_name":"商场","address":"\"太仓路181弄新天地北里15号\r\n\""},{"poiid":"B209475CD564A7F8439E","title":"上海滩中信泰富店","lon":"121.45602","lat":"31.22851","category":"119","category_name":"商场","address":"\"南京西路1168号中信泰富广场，店铺号221.\r\n\""},{"poiid":"B209475CD564A7F84392","title":"上海滩浦东香格里拉店","lon":"121.50058","lat":"31.23634","category":"119","category_name":"商场","address":"浦东富成路33号香格里拉酒店内大堂层"},{"poiid":"B2094655D26FA4FE4099","title":"香啡缤 新天地店 Coffee Bean&Tea Leaf","lon":"121.474229054","lat":"31.221022793","category":"65","category_name":"咖啡厅","address":"卢湾区太仓路181弄新天地北里10号楼02-03单元(近马当路)"},{"poiid":"B2094757D06FA3F84399","title":"枣子树(淮海店)","lon":"121.47648","lat":"31.22225","category":"89","category_name":"中式素餐馆","address":"卢湾区嵩山路77号上海皇宫内(近淮海中路)"},{"poiid":"B2094757D06EAAF54498","title":"Fountain","lon":"121.47480011","lat":"31.220687866","category":"94","category_name":"西餐厅","address":"卢湾区太仓路181弄新天地北里10-12楼04单元(近马当路)"},{"poiid":"B2094757D06FAAF4469C","title":"上海安达仕酒店","lon":"121.475939667","lat":"31.2220295725","category":"217","category_name":"旅馆招待所","address":"卢湾区嵩山路88号(近香港广场)"},{"poiid":"B2094654DB65A3F5409D","title":"凯博西餐厅 新天地店 Kabb","lon":"121.474229054","lat":"31.221022793","category":"94","category_name":"西餐厅","address":"卢湾区太仓路181弄新天地北里5号楼(近马当路)"},{"poiid":"B2094757D06FABFD4393","title":"新天地太平湖","lon":"121.47574439","lat":"31.219562847","category":"500","category_name":"未知分类","address":"上海湖滨路222号"},{"poiid":"B2094654DA6FA3F4489A","title":"中共一大会址","lon":"121.47501","lat":"31.22045","category":"250","category_name":"公园户外","address":"上海市卢湾区黄陂南路374号"},{"poiid":"B2094757D06FAAF8449C","title":"T8 Restaurant &amp; Bar","lon":"121.475206764","lat":"31.2205712374","category":"94","category_name":"西餐厅","address":"卢湾区太仓路181弄新天地北里8单元1楼(近马当路)"},{"poiid":"B2094654DA6EABF5459F","title":"企业天地","lon":"121.47592","lat":"31.22109","category":"46","category_name":"楼宇","address":"上海市平凉路1398号"},{"poiid":"B2094757D069AAFE4598","title":"Andaz Shanghai","lon":"121.475196738","lat":"31.2218871223","category":"500","category_name":"未知分类","address":"上海88 Songshan Road"},{"poiid":"B2094757D06FA7FA439B","title":"大茴香(新天地店)","lon":"121.47511","lat":"31.22073","category":"99","category_name":"泰国／越南菜品餐厅","address":"卢湾区太仓路181弄新天地北里1号楼3单元(近马当路)"},{"poiid":"B2094757D06FA2FE429B","title":"企业天地1号楼","lon":"121.476076722","lat":"31.2208862618","category":"46","category_name":"楼宇","address":"上海市卢湾区湖滨路222号"},{"poiid":"B2094757D06FA2F44599","title":"蝶园(太仓路店)","lon":"121.47718","lat":"31.22167","category":"76","category_name":"上海菜","address":"卢湾区太仓路70号(近嵩山路)"},{"poiid":"B2094757D06FA2FA4292","title":"普华永道中心","lon":"121.47667706","lat":"31.2208910235","category":"46","category_name":"楼宇","address":"上海卢湾区湖滨路202号"},{"poiid":"B2094753D768A7FE489D","title":"甜品工房","lon":"121.477027","lat":"31.22192","category":"247","category_name":"餐饮美食","address":"上海市 济南路9号103商铺(近太仓路)"},{"poiid":"B2094757D069AAFF4593","title":"俏江南","lon":"121.475415738","lat":"31.2212311083","category":"71","category_name":"四川菜","address":"卢湾区太仓路181弄新天地北里235号02、05单元(近马当路)"},{"poiid":"B2094654DB6BA4FB4493","title":"天家 太仓路店","lon":"121.47643526081","lat":"31.221847695273","category":"95","category_name":"日本料理","address":"卢湾区太仓路68号(近嵩山路)"},{"poiid":"B2094757D06FA1F84593","title":"Enoterra红酒吧(太仓路店)","lon":"121.477109909","lat":"31.2219337278","category":"260","category_name":"其他","address":"卢湾区太仓路58号(近济南路)"},{"poiid":"B2094757D06FA1F8489D","title":"淮海公园","lon":"121.47755186","lat":"31.222709558","category":"196","category_name":"公园","address":"卢湾区淮海中路177号(近普安路)"},{"poiid":"B2094757D069A1F94699","title":"海逸海鲜酒家","lon":"121.474845738","lat":"31.2211241061","category":"88","category_name":"海鲜酒楼","address":"卢湾区太仓路181弄17号C01号店铺"},{"poiid":"B2094751D26DA3FB469A","title":"摩罗街","lon":"121.47544","lat":"31.219779","category":"72","category_name":"广东菜","address":"卢湾区兴业路123弄新天地南里6号3楼"},{"poiid":"B2094655D26EA5FE469C","title":"y+瑜伽馆(新天地店)","lon":"121.47625","lat":"31.22076","category":"148","category_name":"美容美发店","address":"黄浦区湖滨路202号企业天地2号2楼(新天地会所)"},{"poiid":"B2094753D76DA0FD4893","title":"查厘士港式餐厅","lon":"121.475654","lat":"31.220012","category":"247","category_name":"餐饮美食","address":"上海市 淮海中路438号4F"},{"poiid":"B2094757D06FA4F54793","title":"新吉士酒楼(新天地店)","lon":"121.4753","lat":"31.22102","category":"76","category_name":"上海菜","address":"卢湾区太仓路181弄新天地北里9号楼(近马当路)"},{"poiid":"B2094750D26EABFB4093","title":"庄源 La Finca","lon":"121.47557176192","lat":"31.219692862031","category":"100","category_name":"地中海风格菜品","address":"卢湾区黄陂南路373号(近兴业路)"},{"poiid":"B2094750D464AAFE449A","title":"1930酒吧","lon":"121.475028","lat":"31.220422","category":"247","category_name":"餐饮美食","address":"卢湾区太仓路181弄新天地北里广场23-03号(近太仓路)"},{"poiid":"B2094757D069A6FC4292","title":"新天地上海滩餐厅","lon":"121.475547","lat":"31.221403","category":"76","category_name":"上海菜","address":"上海黄陂路333号"},{"poiid":"B2094757D06FA6F8469C","title":"香港采蝶轩","lon":"121.47579","lat":"31.21958","category":"72","category_name":"广东菜","address":"卢湾区兴业路123弄新天地南里2号楼(近马当路)"},{"poiid":"B2094757D069A0FF4492","title":"Dr. Bar","lon":"121.47491502","lat":"31.221128392","category":"260","category_name":"其他","address":"卢湾区太仓路181弄新天地北里15号楼(近马当路)"},{"poiid":"B2094751D469A0FC4093","title":"浦东机场T2","lon":"121.475928","lat":"31.221897","category":"500","category_name":"未知分类","address":null},{"poiid":"B2094654DA6EA4FA4793","title":"中国共产党第一次全国代表大会会址纪念馆","lon":"121.47544","lat":"31.22021","category":"243","category_name":"纪念馆","address":"兴业路102-108"},{"poiid":"B2094757D06FA4F44093","title":"富民面馆","lon":"121.47687790213","lat":"31.221657822044","category":"68","category_name":"快餐厅","address":"卢湾区太仓路78号(顺昌路口)"},{"poiid":"B2094757D568A4FA4692","title":"Green Massage新天地店","lon":"121.4773631","lat":"31.22202611","category":"149","category_name":"洗浴推拿场所","address":"太仓路58号"},{"poiid":"B2094757D06BA7F54899","title":"瑞尔齿科(新天地店)","lon":"121.47636","lat":"31.2209","category":"162","category_name":"医院","address":"上海卢湾区湖滨路202号企业天地商业中心2号2楼(近济南路)  "},{"poiid":"B2094757D568A2F9489F","title":"湖庭","lon":"121.4757531","lat":"31.21993194","category":"74","category_name":"江苏菜","address":"卢湾区黄陂南路383号(兴业路口)"},{"poiid":"B2094757D06EAAFE4298","title":"石库门","lon":"121.47548675","lat":"31.220237731","category":"116","category_name":"特色商业街","address":"上海卢湾区兴业路123弄（黄陂南路马当路间）"},{"poiid":"B2094654DB65A7F5499E","title":"Y+瑜伽生活馆(新天地店)","lon":"121.4761","lat":"31.22175","category":"220","category_name":"运动场所","address":"卢湾区湖滨路202号企业天地2号楼2楼单元17-20室(近济南路)"},{"poiid":"B2094654DA6EABF5449A","title":"太平桥公园","lon":"121.47679","lat":"31.2197","category":"196","category_name":"公园","address":"淮海中路"},{"poiid":"B2094750D565A2F8489E","title":"庄源 喜娜","lon":"121.475532","lat":"31.220149","category":"247","category_name":"餐饮美食","address":"卢湾区黄陂南路373号(近兴业路)"},{"poiid":"B2094750D76DAAF94599","title":"Éclair","lon":"121.476","lat":"31.2228","category":"67","category_name":"甜品店","address":"卢湾区嵩山路88号上海安达仕酒店1楼"},{"poiid":"B2094757D66DA0FC409C","title":"舒适堡","lon":"121.476330738","lat":"31.2202470874","category":"500","category_name":"未知分类","address":"卢湾区淮海中路1号(近西藏南路)"},{"poiid":"B2094750D26FA5FA419D","title":"de Bellotas","lon":"121.474731","lat":"31.220932","category":"94","category_name":"西餐厅","address":"卢湾区太仓路68号(近顺昌路)"},{"poiid":"B2094752D16AA4F4409D","title":"楚楚园","lon":"121.475053","lat":"31.222129","category":"247","category_name":"餐饮美食","address":"嵩山路"},{"poiid":"B2094654DB6BA4FA4899","title":"好乐迪量贩KTV","lon":"121.47646","lat":"31.22161","category":"170","category_name":"KTV","address":"顺昌路2"},{"poiid":"B2094654DB69A0FA4998","title":"鹿港小镇(新天地店)","lon":"121.47697","lat":"31.22197","category":"91","category_name":"台湾菜","address":"卢湾区太仓路68号(近嵩山路)"},{"poiid":"B2094654DB6BA4FB4499","title":"兰亭餐厅","lon":"121.47562077847","lat":"31.222343552913","category":"76","category_name":"上海菜","address":"卢湾区嵩山路107号(近太仓路)"},{"poiid":"B2094753D76FAAFA449C","title":"上海滩国泰旗舰店","lon":"121.466011","lat":"31.216125","category":"249","category_name":"购物服务","address":"淮海中路868号"},{"poiid":"B209475CD564A7F84292","title":"上海滩新天地店","lon":"121.47463","lat":"31.22164","category":"119","category_name":"商场","address":"\"太仓路181弄新天地北里15号\r\n\""},{"poiid":"B209475CD564A7F8439E","title":"上海滩中信泰富店","lon":"121.45602","lat":"31.22851","category":"119","category_name":"商场","address":"\"南京西路1168号中信泰富广场，店铺号221.\r\n\""},{"poiid":"B209475CD564A7F84392","title":"上海滩浦东香格里拉店","lon":"121.50058","lat":"31.23634","category":"119","category_name":"商场","address":"浦东富成路33号香格里拉酒店内大堂层"},{"poiid":"B2094655D26FA4FE4099","title":"香啡缤 新天地店 Coffee Bean&Tea Leaf","lon":"121.474229054","lat":"31.221022793","category":"65","category_name":"咖啡厅","address":"卢湾区太仓路181弄新天地北里10号楼02-03单元(近马当路)"},{"poiid":"B2094757D06FA3F84399","title":"枣子树(淮海店)","lon":"121.47648","lat":"31.22225","category":"89","category_name":"中式素餐馆","address":"卢湾区嵩山路77号上海皇宫内(近淮海中路)"},{"poiid":"B2094757D06EAAF54498","title":"Fountain","lon":"121.47480011","lat":"31.220687866","category":"94","category_name":"西餐厅","address":"卢湾区太仓路181弄新天地北里10-12楼04单元(近马当路)"},{"poiid":"B2094757D06FAAF4469C","title":"上海安达仕酒店","lon":"121.475939667","lat":"31.2220295725","category":"217","category_name":"旅馆招待所","address":"卢湾区嵩山路88号(近香港广场)"},{"poiid":"B2094654DB65A3F5409D","title":"凯博西餐厅 新天地店 Kabb","lon":"121.474229054","lat":"31.221022793","category":"94","category_name":"西餐厅","address":"卢湾区太仓路181弄新天地北里5号楼(近马当路)"},{"poiid":"B2094757D06FABFD4393","title":"新天地太平湖","lon":"121.47574439","lat":"31.219562847","category":"500","category_name":"未知分类","address":"上海湖滨路222号"},{"poiid":"B2094654DA6FA3F4489A","title":"中共一大会址","lon":"121.47501","lat":"31.22045","category":"250","category_name":"公园户外","address":"上海市卢湾区黄陂南路374号"},{"poiid":"B2094757D06FAAF8449C","title":"T8 Restaurant &amp; Bar","lon":"121.475206764","lat":"31.2205712374","category":"94","category_name":"西餐厅","address":"卢湾区太仓路181弄新天地北里8单元1楼(近马当路)"},{"poiid":"B2094654DA6EABF5459F","title":"企业天地","lon":"121.47592","lat":"31.22109","category":"46","category_name":"楼宇","address":"上海市平凉路1398号"},{"poiid":"B2094757D069AAFE4598","title":"Andaz Shanghai","lon":"121.475196738","lat":"31.2218871223","category":"500","category_name":"未知分类","address":"上海88 Songshan Road"},{"poiid":"B2094757D06FA7FA439B","title":"大茴香(新天地店)","lon":"121.47511","lat":"31.22073","category":"99","category_name":"泰国／越南菜品餐厅","address":"卢湾区太仓路181弄新天地北里1号楼3单元(近马当路)"},{"poiid":"B2094757D06FA2FE429B","title":"企业天地1号楼","lon":"121.476076722","lat":"31.2208862618","category":"46","category_name":"楼宇","address":"上海市卢湾区湖滨路222号"},{"poiid":"B2094757D06FA2F44599","title":"蝶园(太仓路店)","lon":"121.47718","lat":"31.22167","category":"76","category_name":"上海菜","address":"卢湾区太仓路70号(近嵩山路)"},{"poiid":"B2094757D06FA2FA4292","title":"普华永道中心","lon":"121.47667706","lat":"31.2208910235","category":"46","category_name":"楼宇","address":"上海卢湾区湖滨路202号"},{"poiid":"B2094753D768A7FE489D","title":"甜品工房","lon":"121.477027","lat":"31.22192","category":"247","category_name":"餐饮美食","address":"上海市 济南路9号103商铺(近太仓路)"},{"poiid":"B2094757D069AAFF4593","title":"俏江南","lon":"121.475415738","lat":"31.2212311083","category":"71","category_name":"四川菜","address":"卢湾区太仓路181弄新天地北里235号02、05单元(近马当路)"},{"poiid":"B2094654DB6BA4FB4493","title":"天家 太仓路店","lon":"121.47643526081","lat":"31.221847695273","category":"95","category_name":"日本料理","address":"卢湾区太仓路68号(近嵩山路)"},{"poiid":"B2094757D06FA1F84593","title":"Enoterra红酒吧(太仓路店)","lon":"121.477109909","lat":"31.2219337278","category":"260","category_name":"其他","address":"卢湾区太仓路58号(近济南路)"},{"poiid":"B2094757D06FA1F8489D","title":"淮海公园","lon":"121.47755186","lat":"31.222709558","category":"196","category_name":"公园","address":"卢湾区淮海中路177号(近普安路)"},{"poiid":"B2094757D069A1F94699","title":"海逸海鲜酒家","lon":"121.474845738","lat":"31.2211241061","category":"88","category_name":"海鲜酒楼","address":"卢湾区太仓路181弄17号C01号店铺"},{"poiid":"B2094751D26DA3FB469A","title":"摩罗街","lon":"121.47544","lat":"31.219779","category":"72","category_name":"广东菜","address":"卢湾区兴业路123弄新天地南里6号3楼"},{"poiid":"B2094655D26EA5FE469C","title":"y+瑜伽馆(新天地店)","lon":"121.47625","lat":"31.22076","category":"148","category_name":"美容美发店","address":"黄浦区湖滨路202号企业天地2号2楼(新天地会所)"},{"poiid":"B2094753D76DA0FD4893","title":"查厘士港式餐厅","lon":"121.475654","lat":"31.220012","category":"247","category_name":"餐饮美食","address":"上海市 淮海中路438号4F"},{"poiid":"B2094757D06FA4F54793","title":"新吉士酒楼(新天地店)","lon":"121.4753","lat":"31.22102","category":"76","category_name":"上海菜","address":"卢湾区太仓路181弄新天地北里9号楼(近马当路)"},{"poiid":"B2094750D26EABFB4093","title":"庄源 La Finca","lon":"121.47557176192","lat":"31.219692862031","category":"100","category_name":"地中海风格菜品","address":"卢湾区黄陂南路373号(近兴业路)"},{"poiid":"B2094750D464AAFE449A","title":"1930酒吧","lon":"121.475028","lat":"31.220422","category":"247","category_name":"餐饮美食","address":"卢湾区太仓路181弄新天地北里广场23-03号(近太仓路)"},{"poiid":"B2094757D069A6FC4292","title":"新天地上海滩餐厅","lon":"121.475547","lat":"31.221403","category":"76","category_name":"上海菜","address":"上海黄陂路333号"},{"poiid":"B2094757D06FA6F8469C","title":"香港采蝶轩","lon":"121.47579","lat":"31.21958","category":"72","category_name":"广东菜","address":"卢湾区兴业路123弄新天地南里2号楼(近马当路)"},{"poiid":"B2094757D069A0FF4492","title":"Dr. Bar","lon":"121.47491502","lat":"31.221128392","category":"260","category_name":"其他","address":"卢湾区太仓路181弄新天地北里15号楼(近马当路)"},{"poiid":"B2094751D469A0FC4093","title":"浦东机场T2","lon":"121.475928","lat":"31.221897","category":"500","category_name":"未知分类","address":null},{"poiid":"B2094654DA6EA4FA4793","title":"中国共产党第一次全国代表大会会址纪念馆","lon":"121.47544","lat":"31.22021","category":"243","category_name":"纪念馆","address":"兴业路102-108"},{"poiid":"B2094757D06FA4F44093","title":"富民面馆","lon":"121.47687790213","lat":"31.221657822044","category":"68","category_name":"快餐厅","address":"卢湾区太仓路78号(顺昌路口)"},{"poiid":"B2094757D568A4FA4692","title":"Green Massage新天地店","lon":"121.4773631","lat":"31.22202611","category":"149","category_name":"洗浴推拿场所","address":"太仓路58号"},{"poiid":"B2094757D06BA7F54899","title":"瑞尔齿科(新天地店)","lon":"121.47636","lat":"31.2209","category":"162","category_name":"医院","address":"上海卢湾区湖滨路202号企业天地商业中心2号2楼(近济南路)  "},{"poiid":"B2094757D568A2F9489F","title":"湖庭","lon":"121.4757531","lat":"31.21993194","category":"74","category_name":"江苏菜","address":"卢湾区黄陂南路383号(兴业路口)"},{"poiid":"B2094757D06EAAFE4298","title":"石库门","lon":"121.47548675","lat":"31.220237731","category":"116","category_name":"特色商业街","address":"上海卢湾区兴业路123弄（黄陂南路马当路间）"},{"poiid":"B2094654DB65A7F5499E","title":"Y+瑜伽生活馆(新天地店)","lon":"121.4761","lat":"31.22175","category":"220","category_name":"运动场所","address":"卢湾区湖滨路202号企业天地2号楼2楼单元17-20室(近济南路)"},{"poiid":"B2094654DA6EABF5449A","title":"太平桥公园","lon":"121.47679","lat":"31.2197","category":"196","category_name":"公园","address":"淮海中路"},{"poiid":"B2094750D565A2F8489E","title":"庄源 喜娜","lon":"121.475532","lat":"31.220149","category":"247","category_name":"餐饮美食","address":"卢湾区黄陂南路373号(近兴业路)"},{"poiid":"B2094750D76DAAF94599","title":"Éclair","lon":"121.476","lat":"31.2228","category":"67","category_name":"甜品店","address":"卢湾区嵩山路88号上海安达仕酒店1楼"},{"poiid":"B2094757D66DA0FC409C","title":"舒适堡","lon":"121.476330738","lat":"31.2202470874","category":"500","category_name":"未知分类","address":"卢湾区淮海中路1号(近西藏南路)"},{"poiid":"B2094750D26FA5FA419D","title":"de Bellotas","lon":"121.474731","lat":"31.220932","category":"94","category_name":"西餐厅","address":"卢湾区太仓路68号(近顺昌路)"},{"poiid":"B2094752D16AA4F4409D","title":"楚楚园","lon":"121.475053","lat":"31.222129","category":"247","category_name":"餐饮美食","address":"嵩山路"},{"poiid":"B2094654DB6BA4FA4899","title":"好乐迪量贩KTV","lon":"121.47646","lat":"31.22161","category":"170","category_name":"KTV","address":"顺昌路2"},{"poiid":"B2094654DB69A0FA4998","title":"鹿港小镇(新天地店)","lon":"121.47697","lat":"31.22197","category":"91","category_name":"台湾菜","address":"卢湾区太仓路68号(近嵩山路)"},{"poiid":"B2094654DB6BA4FB4499","title":"兰亭餐厅","lon":"121.47562077847","lat":"31.222343552913","category":"76","category_name":"上海菜","address":"卢湾区嵩山路107号(近太仓路)"},{"poiid":"B2094753D76FAAFA449C","title":"上海滩国泰旗舰店","lon":"121.466011","lat":"31.216125","category":"249","category_name":"购物服务","address":"淮海中路868号"},{"poiid":"B209475CD564A7F84292","title":"上海滩新天地店","lon":"121.47463","lat":"31.22164","category":"119","category_name":"商场","address":"\"太仓路181弄新天地北里15号\r\n\""},{"poiid":"B209475CD564A7F8439E","title":"上海滩中信泰富店","lon":"121.45602","lat":"31.22851","category":"119","category_name":"商场","address":"\"南京西路1168号中信泰富广场，店铺号221.\r\n\""},{"poiid":"B209475CD564A7F84392","title":"上海滩浦东香格里拉店","lon":"121.50058","lat":"31.23634","category":"119","category_name":"商场","address":"浦东富成路33号香格里拉酒店内大堂层"},{"poiid":"B2094655D26FA4FE4099","title":"香啡缤 新天地店 Coffee Bean&Tea Leaf","lon":"121.474229054","lat":"31.221022793","category":"65","category_name":"咖啡厅","address":"卢湾区太仓路181弄新天地北里10号楼02-03单元(近马当路)"},{"poiid":"B2094757D06FA3F84399","title":"枣子树(淮海店)","lon":"121.47648","lat":"31.22225","category":"89","category_name":"中式素餐馆","address":"卢湾区嵩山路77号上海皇宫内(近淮海中路)"},{"poiid":"B2094757D06EAAF54498","title":"Fountain","lon":"121.47480011","lat":"31.220687866","category":"94","category_name":"西餐厅","address":"卢湾区太仓路181弄新天地北里10-12楼04单元(近马当路)"},{"poiid":"B2094757D06FAAF4469C","title":"上海安达仕酒店","lon":"121.475939667","lat":"31.2220295725","category":"217","category_name":"旅馆招待所","address":"卢湾区嵩山路88号(近香港广场)"},{"poiid":"B2094654DB65A3F5409D","title":"凯博西餐厅 新天地店 Kabb","lon":"121.474229054","lat":"31.221022793","category":"94","category_name":"西餐厅","address":"卢湾区太仓路181弄新天地北里5号楼(近马当路)"},{"poiid":"B2094757D06FABFD4393","title":"新天地太平湖","lon":"121.47574439","lat":"31.219562847","category":"500","category_name":"未知分类","address":"上海湖滨路222号"},{"poiid":"B2094654DA6FA3F4489A","title":"中共一大会址","lon":"121.47501","lat":"31.22045","category":"250","category_name":"公园户外","address":"上海市卢湾区黄陂南路374号"},{"poiid":"B2094757D06FAAF8449C","title":"T8 Restaurant &amp; Bar","lon":"121.475206764","lat":"31.2205712374","category":"94","category_name":"西餐厅","address":"卢湾区太仓路181弄新天地北里8单元1楼(近马当路)"},{"poiid":"B2094654DA6EABF5459F","title":"企业天地","lon":"121.47592","lat":"31.22109","category":"46","category_name":"楼宇","address":"上海市平凉路1398号"},{"poiid":"B2094757D069AAFE4598","title":"Andaz Shanghai","lon":"121.475196738","lat":"31.2218871223","category":"500","category_name":"未知分类","address":"上海88 Songshan Road"},{"poiid":"B2094757D06FA7FA439B","title":"大茴香(新天地店)","lon":"121.47511","lat":"31.22073","category":"99","category_name":"泰国／越南菜品餐厅","address":"卢湾区太仓路181弄新天地北里1号楼3单元(近马当路)"},{"poiid":"B2094757D06FA2FE429B","title":"企业天地1号楼","lon":"121.476076722","lat":"31.2208862618","category":"46","category_name":"楼宇","address":"上海市卢湾区湖滨路222号"},{"poiid":"B2094757D06FA2F44599","title":"蝶园(太仓路店)","lon":"121.47718","lat":"31.22167","category":"76","category_name":"上海菜","address":"卢湾区太仓路70号(近嵩山路)"},{"poiid":"B2094757D06FA2FA4292","title":"普华永道中心","lon":"121.47667706","lat":"31.2208910235","category":"46","category_name":"楼宇","address":"上海卢湾区湖滨路202号"},{"poiid":"B2094753D768A7FE489D","title":"甜品工房","lon":"121.477027","lat":"31.22192","category":"247","category_name":"餐饮美食","address":"上海市 济南路9号103商铺(近太仓路)"},{"poiid":"B2094757D069AAFF4593","title":"俏江南","lon":"121.475415738","lat":"31.2212311083","category":"71","category_name":"四川菜","address":"卢湾区太仓路181弄新天地北里235号02、05单元(近马当路)"},{"poiid":"B2094654DB6BA4FB4493","title":"天家 太仓路店","lon":"121.47643526081","lat":"31.221847695273","category":"95","category_name":"日本料理","address":"卢湾区太仓路68号(近嵩山路)"},{"poiid":"B2094757D06FA1F84593","title":"Enoterra红酒吧(太仓路店)","lon":"121.477109909","lat":"31.2219337278","category":"260","category_name":"其他","address":"卢湾区太仓路58号(近济南路)"},{"poiid":"B2094757D06FA1F8489D","title":"淮海公园","lon":"121.47755186","lat":"31.222709558","category":"196","category_name":"公园","address":"卢湾区淮海中路177号(近普安路)"},{"poiid":"B2094757D069A1F94699","title":"海逸海鲜酒家","lon":"121.474845738","lat":"31.2211241061","category":"88","category_name":"海鲜酒楼","address":"卢湾区太仓路181弄17号C01号店铺"},{"poiid":"B2094751D26DA3FB469A","title":"摩罗街","lon":"121.47544","lat":"31.219779","category":"72","category_name":"广东菜","address":"卢湾区兴业路123弄新天地南里6号3楼"},{"poiid":"B2094655D26EA5FE469C","title":"y+瑜伽馆(新天地店)","lon":"121.47625","lat":"31.22076","category":"148","category_name":"美容美发店","address":"黄浦区湖滨路202号企业天地2号2楼(新天地会所)"},{"poiid":"B2094753D76DA0FD4893","title":"查厘士港式餐厅","lon":"121.475654","lat":"31.220012","category":"247","category_name":"餐饮美食","address":"上海市 淮海中路438号4F"},{"poiid":"B2094757D06FA4F54793","title":"新吉士酒楼(新天地店)","lon":"121.4753","lat":"31.22102","category":"76","category_name":"上海菜","address":"卢湾区太仓路181弄新天地北里9号楼(近马当路)"},{"poiid":"B2094750D26EABFB4093","title":"庄源 La Finca","lon":"121.47557176192","lat":"31.219692862031","category":"100","category_name":"地中海风格菜品","address":"卢湾区黄陂南路373号(近兴业路)"},{"poiid":"B2094750D464AAFE449A","title":"1930酒吧","lon":"121.475028","lat":"31.220422","category":"247","category_name":"餐饮美食","address":"卢湾区太仓路181弄新天地北里广场23-03号(近太仓路)"},{"poiid":"B2094757D069A6FC4292","title":"新天地上海滩餐厅","lon":"121.475547","lat":"31.221403","category":"76","category_name":"上海菜","address":"上海黄陂路333号"},{"poiid":"B2094757D06FA6F8469C","title":"香港采蝶轩","lon":"121.47579","lat":"31.21958","category":"72","category_name":"广东菜","address":"卢湾区兴业路123弄新天地南里2号楼(近马当路)"},{"poiid":"B2094757D069A0FF4492","title":"Dr. Bar","lon":"121.47491502","lat":"31.221128392","category":"260","category_name":"其他","address":"卢湾区太仓路181弄新天地北里15号楼(近马当路)"},{"poiid":"B2094751D469A0FC4093","title":"浦东机场T2","lon":"121.475928","lat":"31.221897","category":"500","category_name":"未知分类","address":null},{"poiid":"B2094654DA6EA4FA4793","title":"中国共产党第一次全国代表大会会址纪念馆","lon":"121.47544","lat":"31.22021","category":"243","category_name":"纪念馆","address":"兴业路102-108"},{"poiid":"B2094757D06FA4F44093","title":"富民面馆","lon":"121.47687790213","lat":"31.221657822044","category":"68","category_name":"快餐厅","address":"卢湾区太仓路78号(顺昌路口)"},{"poiid":"B2094757D568A4FA4692","title":"Green Massage新天地店","lon":"121.4773631","lat":"31.22202611","category":"149","category_name":"洗浴推拿场所","address":"太仓路58号"},{"poiid":"B2094757D06BA7F54899","title":"瑞尔齿科(新天地店)","lon":"121.47636","lat":"31.2209","category":"162","category_name":"医院","address":"上海卢湾区湖滨路202号企业天地商业中心2号2楼(近济南路)  "},{"poiid":"B2094757D568A2F9489F","title":"湖庭","lon":"121.4757531","lat":"31.21993194","category":"74","category_name":"江苏菜","address":"卢湾区黄陂南路383号(兴业路口)"},{"poiid":"B2094757D06EAAFE4298","title":"石库门","lon":"121.47548675","lat":"31.220237731","category":"116","category_name":"特色商业街","address":"上海卢湾区兴业路123弄（黄陂南路马当路间）"},{"poiid":"B2094654DB65A7F5499E","title":"Y+瑜伽生活馆(新天地店)","lon":"121.4761","lat":"31.22175","category":"220","category_name":"运动场所","address":"卢湾区湖滨路202号企业天地2号楼2楼单元17-20室(近济南路)"},{"poiid":"B2094654DA6EABF5449A","title":"太平桥公园","lon":"121.47679","lat":"31.2197","category":"196","category_name":"公园","address":"淮海中路"},{"poiid":"B2094750D565A2F8489E","title":"庄源 喜娜","lon":"121.475532","lat":"31.220149","category":"247","category_name":"餐饮美食","address":"卢湾区黄陂南路373号(近兴业路)"},{"poiid":"B2094750D76DAAF94599","title":"Éclair","lon":"121.476","lat":"31.2228","category":"67","category_name":"甜品店","address":"卢湾区嵩山路88号上海安达仕酒店1楼"},{"poiid":"B2094757D66DA0FC409C","title":"舒适堡","lon":"121.476330738","lat":"31.2202470874","category":"500","category_name":"未知分类","address":"卢湾区淮海中路1号(近西藏南路)"},{"poiid":"B2094750D26FA5FA419D","title":"de Bellotas","lon":"121.474731","lat":"31.220932","category":"94","category_name":"西餐厅","address":"卢湾区太仓路68号(近顺昌路)"},{"poiid":"B2094752D16AA4F4409D","title":"楚楚园","lon":"121.475053","lat":"31.222129","category":"247","category_name":"餐饮美食","address":"嵩山路"},{"poiid":"B2094654DB6BA4FA4899","title":"好乐迪量贩KTV","lon":"121.47646","lat":"31.22161","category":"170","category_name":"KTV","address":"顺昌路2"},{"poiid":"B2094654DB69A0FA4998","title":"鹿港小镇(新天地店)","lon":"121.47697","lat":"31.22197","category":"91","category_name":"台湾菜","address":"卢湾区太仓路68号(近嵩山路)"},{"poiid":"B2094654DB6BA4FB4499","title":"兰亭餐厅","lon":"121.47562077847","lat":"31.222343552913","category":"76","category_name":"上海菜","address":"卢湾区嵩山路107号(近太仓路)"},{"poiid":"B2094753D76FAAFA449C","title":"上海滩国泰旗舰店","lon":"121.466011","lat":"31.216125","category":"249","category_name":"购物服务","address":"淮海中路868号"},{"poiid":"B209475CD564A7F84292","title":"上海滩新天地店","lon":"121.47463","lat":"31.22164","category":"119","category_name":"商场","address":"\"太仓路181弄新天地北里15号\r\n\""},{"poiid":"B209475CD564A7F8439E","title":"上海滩中信泰富店","lon":"121.45602","lat":"31.22851","category":"119","category_name":"商场","address":"\"南京西路1168号中信泰富广场，店铺号221.\r\n\""},{"poiid":"B209475CD564A7F84392","title":"上海滩浦东香格里拉店","lon":"121.50058","lat":"31.23634","category":"119","category_name":"商场","address":"浦东富成路33号香格里拉酒店内大堂层"},{"poiid":"B2094655D26FA4FE4099","title":"香啡缤 新天地店 Coffee Bean&Tea Leaf","lon":"121.474229054","lat":"31.221022793","category":"65","category_name":"咖啡厅","address":"卢湾区太仓路181弄新天地北里10号楼02-03单元(近马当路)"},{"poiid":"B2094757D06FA3F84399","title":"枣子树(淮海店)","lon":"121.47648","lat":"31.22225","category":"89","category_name":"中式素餐馆","address":"卢湾区嵩山路77号上海皇宫内(近淮海中路)"},{"poiid":"B2094757D06EAAF54498","title":"Fountain","lon":"121.47480011","lat":"31.220687866","category":"94","category_name":"西餐厅","address":"卢湾区太仓路181弄新天地北里10-12楼04单元(近马当路)"},{"poiid":"B2094757D06FAAF4469C","title":"上海安达仕酒店","lon":"121.475939667","lat":"31.2220295725","category":"217","category_name":"旅馆招待所","address":"卢湾区嵩山路88号(近香港广场)"},{"poiid":"B2094654DB65A3F5409D","title":"凯博西餐厅 新天地店 Kabb","lon":"121.474229054","lat":"31.221022793","category":"94","category_name":"西餐厅","address":"卢湾区太仓路181弄新天地北里5号楼(近马当路)"},{"poiid":"B2094757D06FABFD4393","title":"新天地太平湖","lon":"121.47574439","lat":"31.219562847","category":"500","category_name":"未知分类","address":"上海湖滨路222号"},{"poiid":"B2094654DA6FA3F4489A","title":"中共一大会址","lon":"121.47501","lat":"31.22045","category":"250","category_name":"公园户外","address":"上海市卢湾区黄陂南路374号"},{"poiid":"B2094757D06FAAF8449C","title":"T8 Restaurant &amp; Bar","lon":"121.475206764","lat":"31.2205712374","category":"94","category_name":"西餐厅","address":"卢湾区太仓路181弄新天地北里8单元1楼(近马当路)"},{"poiid":"B2094654DA6EABF5459F","title":"企业天地","lon":"121.47592","lat":"31.22109","category":"46","category_name":"楼宇","address":"上海市平凉路1398号"},{"poiid":"B2094757D069AAFE4598","title":"Andaz Shanghai","lon":"121.475196738","lat":"31.2218871223","category":"500","category_name":"未知分类","address":"上海88 Songshan Road"},{"poiid":"B2094757D06FA7FA439B","title":"大茴香(新天地店)","lon":"121.47511","lat":"31.22073","category":"99","category_name":"泰国／越南菜品餐厅","address":"卢湾区太仓路181弄新天地北里1号楼3单元(近马当路)"},{"poiid":"B2094757D06FA2FE429B","title":"企业天地1号楼","lon":"121.476076722","lat":"31.2208862618","category":"46","category_name":"楼宇","address":"上海市卢湾区湖滨路222号"},{"poiid":"B2094757D06FA2F44599","title":"蝶园(太仓路店)","lon":"121.47718","lat":"31.22167","category":"76","category_name":"上海菜","address":"卢湾区太仓路70号(近嵩山路)"},{"poiid":"B2094757D06FA2FA4292","title":"普华永道中心","lon":"121.47667706","lat":"31.2208910235","category":"46","category_name":"楼宇","address":"上海卢湾区湖滨路202号"},{"poiid":"B2094753D768A7FE489D","title":"甜品工房","lon":"121.477027","lat":"31.22192","category":"247","category_name":"餐饮美食","address":"上海市 济南路9号103商铺(近太仓路)"},{"poiid":"B2094757D069AAFF4593","title":"俏江南","lon":"121.475415738","lat":"31.2212311083","category":"71","category_name":"四川菜","address":"卢湾区太仓路181弄新天地北里235号02、05单元(近马当路)"},{"poiid":"B2094654DB6BA4FB4493","title":"天家 太仓路店","lon":"121.47643526081","lat":"31.221847695273","category":"95","category_name":"日本料理","address":"卢湾区太仓路68号(近嵩山路)"},{"poiid":"B2094757D06FA1F84593","title":"Enoterra红酒吧(太仓路店)","lon":"121.477109909","lat":"31.2219337278","category":"260","category_name":"其他","address":"卢湾区太仓路58号(近济南路)"},{"poiid":"B2094757D06FA1F8489D","title":"淮海公园","lon":"121.47755186","lat":"31.222709558","category":"196","category_name":"公园","address":"卢湾区淮海中路177号(近普安路)"},{"poiid":"B2094757D069A1F94699","title":"海逸海鲜酒家","lon":"121.474845738","lat":"31.2211241061","category":"88","category_name":"海鲜酒楼","address":"卢湾区太仓路181弄17号C01号店铺"},{"poiid":"B2094751D26DA3FB469A","title":"摩罗街","lon":"121.47544","lat":"31.219779","category":"72","category_name":"广东菜","address":"卢湾区兴业路123弄新天地南里6号3楼"},{"poiid":"B2094655D26EA5FE469C","title":"y+瑜伽馆(新天地店)","lon":"121.47625","lat":"31.22076","category":"148","category_name":"美容美发店","address":"黄浦区湖滨路202号企业天地2号2楼(新天地会所)"},{"poiid":"B2094753D76DA0FD4893","title":"查厘士港式餐厅","lon":"121.475654","lat":"31.220012","category":"247","category_name":"餐饮美食","address":"上海市 淮海中路438号4F"},{"poiid":"B2094757D06FA4F54793","title":"新吉士酒楼(新天地店)","lon":"121.4753","lat":"31.22102","category":"76","category_name":"上海菜","address":"卢湾区太仓路181弄新天地北里9号楼(近马当路)"},{"poiid":"B2094750D26EABFB4093","title":"庄源 La Finca","lon":"121.47557176192","lat":"31.219692862031","category":"100","category_name":"地中海风格菜品","address":"卢湾区黄陂南路373号(近兴业路)"},{"poiid":"B2094750D464AAFE449A","title":"1930酒吧","lon":"121.475028","lat":"31.220422","category":"247","category_name":"餐饮美食","address":"卢湾区太仓路181弄新天地北里广场23-03号(近太仓路)"},{"poiid":"B2094757D069A6FC4292","title":"新天地上海滩餐厅","lon":"121.475547","lat":"31.221403","category":"76","category_name":"上海菜","address":"上海黄陂路333号"},{"poiid":"B2094757D06FA6F8469C","title":"香港采蝶轩","lon":"121.47579","lat":"31.21958","category":"72","category_name":"广东菜","address":"卢湾区兴业路123弄新天地南里2号楼(近马当路)"},{"poiid":"B2094757D069A0FF4492","title":"Dr. Bar","lon":"121.47491502","lat":"31.221128392","category":"260","category_name":"其他","address":"卢湾区太仓路181弄新天地北里15号楼(近马当路)"},{"poiid":"B2094751D469A0FC4093","title":"浦东机场T2","lon":"121.475928","lat":"31.221897","category":"500","category_name":"未知分类","address":null},{"poiid":"B2094654DA6EA4FA4793","title":"中国共产党第一次全国代表大会会址纪念馆","lon":"121.47544","lat":"31.22021","category":"243","category_name":"纪念馆","address":"兴业路102-108"},{"poiid":"B2094757D06FA4F44093","title":"富民面馆","lon":"121.47687790213","lat":"31.221657822044","category":"68","category_name":"快餐厅","address":"卢湾区太仓路78号(顺昌路口)"},{"poiid":"B2094757D568A4FA4692","title":"Green Massage新天地店","lon":"121.4773631","lat":"31.22202611","category":"149","category_name":"洗浴推拿场所","address":"太仓路58号"},{"poiid":"B2094757D06BA7F54899","title":"瑞尔齿科(新天地店)","lon":"121.47636","lat":"31.2209","category":"162","category_name":"医院","address":"上海卢湾区湖滨路202号企业天地商业中心2号2楼(近济南路)  "},{"poiid":"B2094757D568A2F9489F","title":"湖庭","lon":"121.4757531","lat":"31.21993194","category":"74","category_name":"江苏菜","address":"卢湾区黄陂南路383号(兴业路口)"},{"poiid":"B2094757D06EAAFE4298","title":"石库门","lon":"121.47548675","lat":"31.220237731","category":"116","category_name":"特色商业街","address":"上海卢湾区兴业路123弄（黄陂南路马当路间）"},{"poiid":"B2094654DB65A7F5499E","title":"Y+瑜伽生活馆(新天地店)","lon":"121.4761","lat":"31.22175","category":"220","category_name":"运动场所","address":"卢湾区湖滨路202号企业天地2号楼2楼单元17-20室(近济南路)"},{"poiid":"B2094654DA6EABF5449A","title":"太平桥公园","lon":"121.47679","lat":"31.2197","category":"196","category_name":"公园","address":"淮海中路"},{"poiid":"B2094750D565A2F8489E","title":"庄源 喜娜","lon":"121.475532","lat":"31.220149","category":"247","category_name":"餐饮美食","address":"卢湾区黄陂南路373号(近兴业路)"},{"poiid":"B2094750D76DAAF94599","title":"Éclair","lon":"121.476","lat":"31.2228","category":"67","category_name":"甜品店","address":"卢湾区嵩山路88号上海安达仕酒店1楼"},{"poiid":"B2094757D66DA0FC409C","title":"舒适堡","lon":"121.476330738","lat":"31.2202470874","category":"500","category_name":"未知分类","address":"卢湾区淮海中路1号(近西藏南路)"},{"poiid":"B2094750D26FA5FA419D","title":"de Bellotas","lon":"121.474731","lat":"31.220932","category":"94","category_name":"西餐厅","address":"卢湾区太仓路68号(近顺昌路)"},{"poiid":"B2094752D16AA4F4409D","title":"楚楚园","lon":"121.475053","lat":"31.222129","category":"247","category_name":"餐饮美食","address":"嵩山路"}]