[{"poiid":"B2094654DA6FA7FF4699","title":"海龙海鲜舫","lon":"121.50199","lat":"31.23107","category":"72","category_name":"广东菜","address":"浦东新区东昌路1号(近富城路拾步街)"},{"poiid":"B2094757D06EAAFA489F","title":"上海外滩英迪格酒店 (Hotel Indigo)","lon":"121.499735","lat":"31.226432","category":"217","category_name":"旅馆招待所","address":"黄浦区中山东二路585号(近东门路)"},{"poiid":"B2094757D06FA6FC429D","title":"外滩新十六铺","lon":"121.498305","lat":"31.227433","category":"234","category_name":"海滨浴场","address":"上海中山东二路531号"},{"poiid":"B209475CD564A7F84292","title":"上海滩新天地店","lon":"121.47463","lat":"31.22164","category":"119","category_name":"商场","address":"\"太仓路181弄新天地北里15号\r\n\""},{"poiid":"B209475CD564A7F84392","title":"上海滩浦东香格里拉店","lon":"121.50058","lat":"31.23634","category":"119","category_name":"商场","address":"浦东富成路33号香格里拉酒店内大堂层"},{"poiid":"B2094757D06FA1FA4399","title":"外滩游艇会","lon":"121.50381","lat":"31.23071","category":"260","category_name":"其他","address":"浦东新区滨江大道3510号(近东昌路渡口)"},{"poiid":"B2094757D06FA7FC4598","title":"东昌路轮渡站","lon":"121.50315135","lat":"31.230164847","category":"35","category_name":"长途汽车站","address":"上海浦东新区东昌路1号"},{"poiid":"B2094757D06FA7FC4292","title":"浦江游轮","lon":"121.50081","lat":"31.22468","category":"260","category_name":"其他","address":"黄浦区十六铺站－公平路码头(会馆弄中山南路)查看地图"},{"poiid":"B2094757D06FA0FE479A","title":"汤臣一品","lon":"121.50127","lat":"31.233383","category":"47","category_name":"住宅区","address":"朝阳区东四环慈云寺桥东北角,向东400米路南"},{"poiid":"B2094757D068A5FA469B","title":"恰CHAR","lon":"121.50005411","lat":"31.225733464","category":"94","category_name":"西餐厅","address":"黄浦区中山东二路585号外滩英迪格酒店29-31楼(东门路)"},{"poiid":"B2094654DA6EABFF439B","title":"久事大厦","lon":"121.507","lat":"31.2307","category":"46","category_name":"楼宇","address":"上海市黄浦区中山南路28号"},{"poiid":"B2094757D568A6FE449D","title":"松鹤楼(外滩店)","lon":"121.49712782","lat":"31.22868273","category":"76","category_name":"上海菜","address":"黄浦区中山东二路505号(近外马路)"},{"poiid":"B2094757D068ABFD489C","title":"Kaefer滨江壹号","lon":"121.50282273","lat":"31.232060339","category":"47","category_name":"住宅区","address":"浦东新区滨江大道富城路拾步街由隆花园(近花园石桥路)"},{"poiid":"B2094757D16FA0FF4092","title":"小南国(十六铺店)","lon":"121.500050938","lat":"31.2274259403","category":"76","category_name":"上海菜","address":"黄浦区中山东二路565号A楼(近东门路)"},{"poiid":"B2094751DA64A4FF489F","title":"炉边谈情","lon":"121.5009","lat":"31.234146","category":"247","category_name":"餐饮美食","address":"正大广场六楼"},{"poiid":"B2094757D06FA6FC4993","title":"晶浦会","lon":"121.49999","lat":"31.23362","category":"72","category_name":"广东菜","address":"上海浦东新区花园石桥路33号花旗集团大厦4楼(近富城路)  "},{"poiid":"B2094757D165A7F54999","title":"花旗银行大厦","lon":"121.500979701","lat":"31.2332134973","category":"46","category_name":"楼宇","address":"上海浦东新区花园石桥路33号"},{"poiid":"B2094757D068A7F8459A","title":"仁恒滨江园(Yanlord Garden)","lon":"121.50641632","lat":"31.228860855","category":"47","category_name":"住宅区","address":"上海浦东新区浦明路99弄(近商城路)"},{"poiid":"B2094757D06AAAF9489E","title":"宏豪浦江一号","lon":"121.504989","lat":"31.228434","category":"72","category_name":"广东菜","address":"浦东新区滨江大道3788号(近商城路)"},{"poiid":"B2094757D06AA2FD4298","title":"龙皇酒家","lon":"121.49882273","lat":"31.227382239","category":"72","category_name":"广东菜","address":"黄浦区中山东二路535号十六铺B栋楼(外马路中山东二路)"},{"poiid":"B2094757D06FA0F8499E","title":"交通银行上海分行","lon":"121.50114678","lat":"31.225955549","category":"46","category_name":"楼宇","address":"上海中山南路99号"},{"poiid":"B2094757D068A6FE429C","title":"金外滩花园","lon":"121.507","lat":"31.228","category":"47","category_name":"住宅区","address":"上海市黄浦区中山南路222号"},{"poiid":"B2094757D16CA2F9439C","title":"浦之舟会所","lon":"121.503476638","lat":"31.2286266659","category":"500","category_name":"未知分类","address":"上海陆家嘴滨江大道3688号"},{"poiid":"B2094757D068A6F4499F","title":"君悦轩(花园石桥店)","lon":"121.50239","lat":"31.23334","category":"72","category_name":"广东菜","address":"浦东新区花园石桥路66号东亚银行金融大厦3楼(近陆家嘴环路)"},{"poiid":"B2094757D16CAAFB489F","title":"浦东金贸君悦酒店","lon":"121.50241173","lat":"31.230401303","category":"217","category_name":"旅馆招待所","address":"上海市浦东新区富城路"},{"poiid":"B2094654DA69A1F54292","title":"财富广场","lon":"121.5063","lat":"31.2279","category":"46","category_name":"楼宇","address":"上海市浦明路68号"},{"poiid":"B2094750D268A7F8449E","title":"滨江一号","lon":"121.501441","lat":"31.231658","category":"247","category_name":"餐饮美食","address":"浦东新区滨江一号滨江富城路拾步街由隆花园(近石桥路)"},{"poiid":"B2094757D06FA7FD4592","title":"网鱼网咖(张杨店)","lon":"121.49722426","lat":"31.229141715","category":"173","category_name":"游戏厅","address":"浦东新区张杨路640号3楼A座(近第一八佰伴)"},{"poiid":"B2094655D36CA1FD429C","title":"十六铺","lon":"121.507","lat":"31.2305","category":"38","category_name":"公交车站","address":"中山东二路88弄"},{"poiid":"B2094757D16BA4F54592","title":"STELLA LUNA(国金店)","lon":"121.501676738","lat":"31.2345953931","category":"500","category_name":"未知分类","address":"上海ifc国金商场"},{"poiid":"B2094757D06FA4F9449C","title":"轮渡线(东金线轮渡)","lon":"121.50343","lat":"31.22978","category":"260","category_name":"其他","address":"东昌路渡口－金陵东路渡口(滨江大道东昌路)"},{"poiid":"B2094757D16DA5FB459D","title":"MJ  club","lon":"121.499573738","lat":"31.2269042292","category":"500","category_name":"未知分类","address":"上海市黄浦区中山南二路501号"},{"poiid":"B2094757D065A7F9409F","title":"Pizzeria Alla Torre(陆家嘴店)","lon":"121.50102","lat":"31.23548","category":"94","category_name":"西餐厅","address":"上海浦东新区陆家嘴环路165号1楼(富城路名商路)"},{"poiid":"B2094757D16AA1FF429E","title":"满记甜品","lon":"121.501566738","lat":"31.2345643925","category":"247","category_name":"餐饮美食","address":"上海市浦东新区陆家嘴西路"},{"poiid":"B2094757D16BA3FA489E","title":"外滩酒吧","lon":"121.501479738","lat":"31.2253351958","category":"247","category_name":"餐饮美食","address":"上海市中山东二路575号"},{"poiid":"B2094757D069A3F4419C","title":"港泰风茶餐厅","lon":"121.50589822","lat":"31.230998536","category":"72","category_name":"广东菜","address":"浦东新区东昌路540号(近浦东南路)"},{"poiid":"B2094753DA6BA0F8469F","title":"MIZZI CAFE","lon":"121.500015","lat":"31.234008","category":"500","category_name":"未知分类","address":"上海市 富城路182号"},{"poiid":"B2094757DB6CA6FC4199","title":"好乐迪","lon":"121.5043331429361","lat":"31.22490214062436","category":"248","category_name":"生活娱乐","address":"八佰伴"},{"poiid":"B2094750DB69ABFC4298","title":"汇尊滨江酒店","lon":"121.502197","lat":"31.22969","category":"76","category_name":"上海菜","address":"浦东新区滨江大道3528号(近富城路)"},{"poiid":"B2094750DA68A5F4449D","title":"金贸君悦大酒店","lon":"121.502555","lat":"31.234514","category":"500","category_name":"未知分类","address":null},{"poiid":"B2094757D66CA0FD479E","title":"松鹤楼游船码头","lon":"121.502754738","lat":"31.2317393323","category":"500","category_name":"未知分类","address":"上海中山东二路505号"},{"poiid":"B2094757D16EA5FA4293","title":"安薇塔","lon":"121.502328738","lat":"31.2342943867","category":"500","category_name":"未知分类","address":"上海市 国金中心 LG2"},{"poiid":"B2094655D26BA1F4409A","title":"陆家嘴环路花园石桥路(汤臣一品)","lon":"121.50118","lat":"31.2345","category":"38","category_name":"公交车站","address":""},{"poiid":"B2094757D06BA1F5409E","title":"Red dot","lon":"121.50023266","lat":"31.23302297","category":"500","category_name":"未知分类","address":"上海滨江大道"},{"poiid":"B2094757D064A7F4449D","title":"葡丽蛋挞工坊","lon":"121.50174227","lat":"31.230888794","category":"67","category_name":"甜品店","address":"浦东新区世纪大道8号国金中心商场LG2-10号商铺(近东泰路)"},{"poiid":"B2094655D26FA3F9499C","title":"花旗银行(中国)上海分行","lon":"121.50032","lat":"31.23387","category":"150","category_name":"银行","address":"上海浦东新区花园石桥路33号花旗集团大厦1楼29到35楼"},{"poiid":"B2094757D06FA6FE499F","title":"肯德基 KFC (浦南店)","lon":"121.50421566","lat":"31.234155366","category":"68","category_name":"快餐厅","address":"浦东新区浦东南路800号(近东昌路)"},{"poiid":"B2094654DB6BABFC429E","title":"上海鹏利辉盛阁公寓(银城中路)","lon":"121.50334","lat":"31.23164","category":"47","category_name":"住宅区","address":"上海市浦东新区陆家嘴银城中路600弄1号（陆家嘴环路）"},{"poiid":"B2094654DA6EA4FC489D","title":"埃力生国际大厦","lon":"121.502","lat":"31.2333","category":"46","category_name":"楼宇","address":"上海市黄浦区南京东路409-459号"},{"poiid":"B2094655D268A2FD499E","title":"公馆77","lon":"121.505","lat":"31.228","category":"47","category_name":"住宅区","address":"上海市卢湾区济南路8号"},{"poiid":"B2094750DA6AAAFC459B","title":"广州蕉叶餐厅","lon":"121.501556","lat":"31.234323","category":"500","category_name":"未知分类","address":"浦東新區陸家嘴西路168號正大廣場西樓零"},{"poiid":"B2094655D36DA6FF449E","title":"东昌路","lon":"121.50382","lat":"31.23039","category":"38","category_name":"公交车站","address":""},{"poiid":"B2094757D164A3FB4699","title":"望香园（正大店）","lon":"121.50157181","lat":"31.233032489","category":"247","category_name":"餐饮美食","address":"上海正大广场四层"},{"poiid":"B209475DD16DA7FC479A","title":"Deli Leisure","lon":"121.50035","lat":"31.233242","category":"500","category_name":"未知分类","address":"上海市 富城路184号"},{"poiid":"B2094751D568A4FB499E","title":"莫尓顿牛排坊","lon":"121.501602","lat":"31.234329","category":"247","category_name":"餐饮美食","address":null},{"poiid":"B2094757D068A7FB439D","title":"盛大金磐","lon":"121.50597524","lat":"31.231531638","category":"500","category_name":"未知分类","address":"上海浦东新区东泰路200弄"},{"poiid":"B2094750DA6DA1F4419B","title":"上海泰康路 田子坊","lon":"121.500495","lat":"31.225341","category":"248","category_name":"生活娱乐","address":null},{"poiid":"B2094757D065A2FB459F","title":"浦城路商城路","lon":"121.50125223","lat":"31.228805336","category":"500","category_name":"未知分类","address":"上海浦东新区"},{"poiid":"B2094757D064A6FB429E","title":"拜耳中国","lon":"121.500485","lat":"31.233757","category":"46","category_name":"楼宇","address":"上海花园石桥路33号花旗大厦18F"},{"poiid":"B2094654DB65A4FE4693","title":"轮渡广场","lon":"121.50301","lat":"31.23069","category":"201","category_name":"城市广场","address":""},{"poiid":"B2094757D16FA1F44199","title":"国家开发银行上海市分行","lon":"121.50561077","lat":"31.229097597","category":"46","category_name":"楼宇","address":"上海浦东新区浦明路68号"},{"poiid":"B2094757D069A3F8489B","title":"烟波亭 花旗大厦店","lon":"121.500050054","lat":"31.234238793","category":"68","category_name":"快餐厅","address":"浦东新区花园石桥路33号花旗大厦B1楼(近富城路)"},{"poiid":"B2094757D06FA4FC499E","title":"安联中心","lon":"121.506704808","lat":"31.227666206","category":"46","category_name":"楼宇","address":"上海浦明路132号"},{"poiid":"B2094757D065A7F9469C","title":"花旗大厦花旗银行","lon":"121.50367547","lat":"31.231474696","category":"500","category_name":"未知分类","address":"上海市"},{"poiid":"B2094757D064ABF94193","title":"THE RITZ CARLTON HOTEL PUDONG","lon":"121.49812147","lat":"31.23062966","category":"500","category_name":"未知分类","address":"上海浦东陆家嘴世纪大道8号上海国金中心"},{"poiid":"B2094757D064AAFF459E","title":"HELLO KITTY主题纪念展","lon":"121.501556738","lat":"31.2344773906","category":"500","category_name":"未知分类","address":"上海正大广场4楼"},{"poiid":"B2094655D26AA7FD439C","title":"玫瑰公主号游轮","lon":"121.50117","lat":"31.22559","category":"247","category_name":"餐饮美食","address":"黄浦区外马路19号十六铺旅游集散中心内(近复兴路)查看地图"},{"poiid":"B2094655D36DA0FB419A","title":"银城中路陆家嘴环路(环球中心)","lon":"121.50436","lat":"31.23193","category":"38","category_name":"公交车站","address":""},{"poiid":"B2094655D36CA6FF4198","title":"富城路东昌路(渡口)","lon":"121.50296","lat":"31.23103","category":"38","category_name":"公交车站","address":""},{"poiid":"B2094757D66DAAFE419E","title":"筷食通","lon":"121.501685738","lat":"31.2343513879","category":"68","category_name":"快餐厅","address":"浦东新区世纪大道8号上海国金中心LG2楼(近东泰路)"},{"poiid":"B2094654DA69A1F54299","title":"东昌滨江绿地(北门)","lon":"121.50666","lat":"31.22709","category":"202","category_name":"公园广场","address":""},{"poiid":"B2094757D168A4FD4592","title":"船长2号","lon":"121.50327773","lat":"31.23165333","category":"247","category_name":"餐饮美食","address":"黄浦区延安东路外滩船长号游轮码头(中山东二路中山东一路)"},{"poiid":"B2094757D16DA5FC439D","title":"莎莎咖啡厅","lon":"121.50290714","lat":"31.227360288","category":"65","category_name":"咖啡厅","address":"浦东新区商城路335号2楼(浦城路口)"},{"poiid":"B2094757D568AAFF469D","title":"金外滩国际广场","lon":"121.5010639","lat":"31.22469278","category":"46","category_name":"楼宇","address":"黄浦中山南路,复兴路口"},{"poiid":"B2094757DA65A7FA4793","title":"喜多屋正大广场店","lon":"121.5021563796351","lat":"31.22654869585129","category":"500","category_name":"未知分类","address":"正大广场"},{"poiid":"B2094757DB6CA5F5489D","title":"联通陆家嘴旗舰厅","lon":"121.4996290791505","lat":"31.2285919943293","category":"249","category_name":"购物服务","address":"世纪大道55号东方浮庭3层"},{"poiid":"B2094752D06EAAFC409E","title":"大光明电影院","lon":"121.499716","lat":"31.227753","category":"178","category_name":"电影院","address":"西藏北路"},{"poiid":"B2094757D569A1F5489B","title":"上海外滩商城","lon":"121.4990039","lat":"31.22648778","category":"46","category_name":"楼宇","address":"行宫位于沈河北站一路41号"},{"poiid":"B2094753D66BA0FF459D","title":"东方明珠","lon":"121.501342","lat":"31.230253","category":"500","category_name":"未知分类","address":"上海市 上海外滩"},{"poiid":"B209475CD46DABF44992","title":"上海东方艺术中心","lon":"121.501998","lat":"31.230325","category":"500","category_name":"未知分类","address":"上海市 丁香路425号"},{"poiid":"B2094655D26DA7FB489D","title":"财富广场(南二门)","lon":"121.5056","lat":"31.2291","category":"46","category_name":"楼宇","address":"浦明路8-198"},{"poiid":"B2094654DB69ABF5469F","title":"新元素(花旗大厦店)","lon":"121.50052","lat":"31.23405","category":"111","category_name":"休闲餐饮场所","address":"花园石桥路33号花旗集团大厦1楼城市超市专柜近银城中路"},{"poiid":"B2094757D568A5F44292","title":"鹏利海景公寓","lon":"121.5034558","lat":"31.23157278","category":"47","category_name":"住宅区","address":"上海浦东新区东昌路、银城路交界处"},{"poiid":"B2094750DB68A1F84699","title":"滨江大道  哈根达斯","lon":"121.497482","lat":"31.227943","category":"247","category_name":"餐饮美食","address":null},{"poiid":"B2094757D065A7FA409B","title":"东方航空花旗大厦营业厅","lon":"121.50066073","lat":"31.23352937","category":"150","category_name":"银行","address":"上海市浦东新区花旗大厦二楼"},{"poiid":"B2094757D164A1F94699","title":"ifc 苏浙汇","lon":"121.505637108","lat":"31.2294649138","category":"500","category_name":"未知分类","address":"上海银城中路"},{"poiid":"B2094757D66CABFA4898","title":"上海银行总行","lon":"121.504295","lat":"31.233946","category":"150","category_name":"银行","address":"浦东新区银城中路168号(近东园路)"},{"poiid":"B2094757D169A3FD4899","title":"烟波亭(东亚银行)","lon":"121.50180473","lat":"31.23399238","category":"68","category_name":"快餐厅","address":"浦东新区花园石桥路66号东亚银行大厦2楼(近陆家嘴环路)"},{"poiid":"B2094752D165A2FD4998","title":"滨江一号Kafer","lon":"121.501466","lat":"31.231733","category":"500","category_name":"未知分类","address":null},{"poiid":"B2094757D065A4F44998","title":"上海轮渡","lon":"121.50332107","lat":"31.230911647","category":"260","category_name":"其他","address":"上海浦东--浦西"},{"poiid":"B2094750D768A6F4439D","title":"SnowBar","lon":"121.502","lat":"31.2318","category":"269","category_name":"烧烤","address":"滨江一号滨江富城路拾步街由隆花园(近石桥路)"},{"poiid":"B2094655D26DA2FE4499","title":"空调渡轮候船室","lon":"121.50301","lat":"31.23036","category":"208","category_name":"休闲场所","address":""},{"poiid":"B2094753DA6BA5FF4299","title":"东方明珠","lon":"121.504028","lat":"31.230518","category":"500","category_name":"未知分类","address":"上海市 上海市外滩"},{"poiid":"B2094757D56EA0FF439A","title":"宁波汤团馆","lon":"121.5064287","lat":"31.22784861","category":"247","category_name":"餐饮美食","address":"浦区豫园路112号(豫园九曲桥旁绿波廊对面)"},{"poiid":"B2094757D06FAAFB409B","title":"洲际酒店集团IHG大中华区总部","lon":"121.500273","lat":"31.233868","category":"46","category_name":"楼宇","address":"上海浦东新区花园石桥路33号花旗集团大厦22楼"},{"poiid":"B2094752DB6AAAFF4793","title":"黄浦江上","lon":"121.5022","lat":"31.227974","category":"500","category_name":"未知分类","address":"上海市 黄浦江上"},{"poiid":"B2094757D468A6FF409D","title":"赛百味 花旗大厦店 Subway","lon":"121.5009738616","lat":"31.23419426575","category":"94","category_name":"西餐厅","address":"浦东新区花园石桥路33号花旗集团大厦1楼(近富城路)"},{"poiid":"B2094751DB65A2FF429E","title":"檬泰泰国餐厅","lon":"121.4998","lat":"31.23369","category":"99","category_name":"泰国／越南菜品餐厅","address":"浦东新区花园石桥路33号花旗集团大厦2楼(近陆家嘴环路)"},{"poiid":"B2094757D569A2FC419E","title":"张杨滨江大厦","lon":"121.50458","lat":"31.22687","category":"46","category_name":"楼宇","address":"浦明路258弄"},{"poiid":"B2094654DB65A7F94092","title":"城市超市(滨江店)","lon":"121.50001","lat":"31.2339","category":"118","category_name":"超级市场","address":"浦东新区陆家嘴花园石桥路33号(近富城路)"},{"poiid":"B2094757DA64A1F54393","title":"上海中心大厦","lon":"121.504746","lat":"31.233757","category":"252","category_name":"楼宇机构","address":"浦东新区银城中路501号(近花园石桥路)"},{"poiid":"B2094654DB69A7FE489C","title":"交银大厦","lon":"121.5019","lat":"31.22428","category":"46","category_name":"楼宇","address":"中山南路99"},{"poiid":"B2094654DB6BAAFD479E","title":"上海通用汽车金融有限责任公司","lon":"121.5064","lat":"31.22793","category":"263","category_name":"公司","address":"浦明路160号财富广场F座"},{"poiid":"B2094655D26EA7FB429B","title":"东门路渡口","lon":"121.50077","lat":"31.22607","category":"34","category_name":"港口码头","address":""},{"poiid":"B2094655D26BA0FF4093","title":"汤臣海景","lon":"121.50141","lat":"31.23313","category":"47","category_name":"住宅区","address":"花园石桥路28弄"},{"poiid":"B2094750DA64A0FE4299","title":"正大广场 避风塘","lon":"121.50164","lat":"31.23439","category":"247","category_name":"餐饮美食","address":"陆家嘴"},{"poiid":"B2094757DB6EAAFA479A","title":"上上谦","lon":"121.5066610161229","lat":"31.23174329398022","category":"500","category_name":"未知分类","address":"新梅"},{"poiid":"B2094750DA6CA2FD409D","title":"浦東正大廣場","lon":"121.500061","lat":"31.226211","category":"500","category_name":"未知分类","address":null},{"poiid":"B2094750D26EAAFB499B","title":"金灿灿游轮 宴会厅","lon":"121.500245","lat":"31.226056","category":"76","category_name":"上海菜","address":"中山南路171号上海十六铺水上旅游中心近盐码头街"},{"poiid":"B2094757D069A3FC429E","title":"Nice Club","lon":"121.49956973","lat":"31.227036232","category":"172","category_name":"酒吧","address":"上海市黄浦区中山东二路575号"},{"poiid":"B2094654DA6EABFF439C","title":"久事大厦会议中心","lon":"121.49965","lat":"31.22504","category":"185","category_name":"会展中心","address":"中山南路28号久事大厦30层"},{"poiid":"B2094655D36CA7FD4399","title":"花园石桥路富城路","lon":"121.5005","lat":"31.23337","category":"38","category_name":"公交车站","address":""},{"poiid":"B2094655D26DA7FB4799","title":"财富广场(南一门)","lon":"121.50675","lat":"31.22777","category":"46","category_name":"楼宇","address":"浦明路8-198"},{"poiid":"B2094753D46BA2F94399","title":"广州蕉叶","lon":"121.505943","lat":"31.232324","category":"247","category_name":"餐饮美食","address":"上海市 陆家嘴西路168号正大广场7楼"},{"poiid":"B2094757D464AAFB4193","title":"新外滩酒家 龙园店","lon":"121.501211054","lat":"31.224453793","category":"76","category_name":"上海菜","address":"黄浦区中山南路77号(近十六铺码头)"},{"poiid":"B2094757D16CA3FF419F","title":"Starbucks 滨江店","lon":"121.50144373","lat":"31.224821184","category":"500","category_name":"未知分类","address":"上海陆家嘴"},{"poiid":"B2094757D16AA6F9499B","title":"秋风之墩主题录音棚","lon":"121.50322853","lat":"31.230609408","category":"500","category_name":"未知分类","address":"上海南京西路580号南证大厦3007室"},{"poiid":"B209475CD265ABF44099","title":"RIVIERA 松鹤楼  RIVIERA SONGHELOU","lon":"121.49907","lat":"31.22677","category":"95","category_name":"日本料理","address":"中山东二路505号C幢近新开河路"},{"poiid":"B2094757D065A1FB409D","title":"懒洋洋的午休时间","lon":"121.50024952","lat":"31.226373487","category":"247","category_name":"餐饮美食","address":"上海不是在打瞌睡就是在等待瞌睡虫…嗷～"},{"poiid":"B2094753D765AAF44193","title":"悠乐餐厅","lon":"121.500236","lat":"31.233409","category":"500","category_name":"未知分类","address":"上海市 富城路148号"},{"poiid":"B2094757D06AA3FF4292","title":"E.Excel international group","lon":"121.50695073","lat":"31.227464241","category":"46","category_name":"楼宇","address":"上海市浦东新区浦明路198号"},{"poiid":"B2094752DB69A4FC439B","title":"陆家嘴太平金融大厦","lon":"121.502619","lat":"31.234456","category":"500","category_name":"未知分类","address":"上海市 银城中路488号"},{"poiid":"B2094757D165A6FE409D","title":"富城路拾步街","lon":"121.50227","lat":"31.231618","category":"500","category_name":"未知分类","address":"上海富城路拾步街"},{"poiid":"B2094654DB65A2FD489D","title":"良良商务楼","lon":"121.50183","lat":"31.22473","category":"46","category_name":"楼宇","address":"外马路80"},{"poiid":"B2094757D66EA5FD459D","title":"申迪集团","lon":"121.504628738","lat":"31.2300922972","category":"500","category_name":"未知分类","address":"上海浦明路8号"},{"poiid":"B2094655D26BA1F44092","title":"陆家嘴环路东泰路","lon":"121.5062","lat":"31.23263","category":"38","category_name":"公交车站","address":""},{"poiid":"B2094757D66EA4FE479E","title":"浦江游览龙船","lon":"121.501307738","lat":"31.2254801989","category":"500","category_name":"未知分类","address":"上海市人民路"},{"poiid":"B2094757D16AA6FA4698","title":"泓叶精菜馆","lon":"121.498124446","lat":"31.2285007716","category":"247","category_name":"餐饮美食","address":"上海金桥国际"},{"poiid":"B2094757D165A7F8469C","title":"十六铺美食美客","lon":"121.497693738","lat":"31.228069254","category":"247","category_name":"餐饮美食","address":"上海十六铺地下美食美客"},{"poiid":"B2094655D26BA7FA4398","title":"汤臣一品(西北一门)","lon":"121.50121","lat":"31.23371","category":"48","category_name":"楼宇大门","address":""},{"poiid":"B2094753DA64A2FB409D","title":"mizzi","lon":"121.504486","lat":"31.23162","category":"500","category_name":"未知分类","address":"上海市 滨江大道"},{"poiid":"B2094753D46AA6F4429E","title":"中国海关","lon":"121.504631","lat":"31.232267","category":"500","category_name":"未知分类","address":"上海市 陆家嘴西路"},{"poiid":"B2094757D568A1F84799","title":"财富公馆","lon":"121.5062989","lat":"31.22790194","category":"47","category_name":"住宅区","address":"曹安路1558号"},{"poiid":"B2094752DA6AAAF8499F","title":"上海环球金融大厦","lon":"121.504135","lat":"31.231482","category":"252","category_name":"楼宇机构","address":"上海市 上海市陆家嘴Z4-1号"},{"poiid":"B2094655D268A6FF4892","title":"寿司","lon":"121.5003","lat":"31.23388","category":"95","category_name":"日本料理","address":"花园石桥路33号花旗大厦2楼近陆家嘴环路"},{"poiid":"B209475CD765A6FA469B","title":"华公馆","lon":"121.502799","lat":"31.234403","category":"247","category_name":"餐饮美食","address":"上海市 国金"},{"poiid":"B2094750D365A0FC4399","title":"碧云路","lon":"121.502601","lat":"31.225599","category":"500","category_name":"未知分类","address":null},{"poiid":"B209475DD668A3F8489A","title":"Blue Frog","lon":"121.502326","lat":"31.234304","category":"247","category_name":"餐饮美食","address":"上海市 陆家嘴"},{"poiid":"B2094757D16BA0FC419A","title":"十六浦面料市场","lon":"121.500525348","lat":"31.2273779893","category":"249","category_name":"购物服务","address":"上海十六浦"},{"poiid":"B2094752D46FA6FC4492","title":"炉边情谈","lon":"121.499578","lat":"31.231521","category":"500","category_name":"未知分类","address":"正大广场"},{"poiid":"B2094757D169AAF54599","title":"haagen dazs","lon":"121.49856567","lat":"31.231763839","category":"500","category_name":"未知分类","address":"上海滨江大道"},{"poiid":"B2094655D26BA5FA4799","title":"中德安联","lon":"121.50587","lat":"31.22836","category":"219","category_name":"其他","address":"浦明路132"},{"poiid":"B2094654DB64A6F8479A","title":"浦东夜上海","lon":"121.50029","lat":"31.23388","category":"257","category_name":"中餐厅","address":"花园石桥路33号花旗集团大厦3层"},{"poiid":"B2094757D065A1FF469C","title":"中国工商银行(正大广场支行)","lon":"121.4997843","lat":"31.229258146","category":"260","category_name":"其他","address":"浦东新区陆家嘴西路168号正大广场B1楼09-10号铺(近东方明珠)"},{"poiid":"B2094757D66DAAF44893","title":"工行私人银行上海分部","lon":"121.50577073","lat":"31.228433261","category":"500","category_name":"未知分类","address":"上海浦明路168号"},{"poiid":"B2094757D66CA0FF489A","title":"圣火纹身","lon":"121.498955738","lat":"31.2272672369","category":"148","category_name":"美容美发店","address":"上海方浜中路104号"},{"poiid":"B2094757D16EA3FE409B","title":"中国人寿号游轮","lon":"121.50243305","lat":"31.225174062","category":"500","category_name":"未知分类","address":"上海中山南路171号"},{"poiid":"B2094655D269AAFA4498","title":"9519名酒坊","lon":"121.50052","lat":"31.23405","category":"247","category_name":"餐饮美食","address":"浦东新区花园石桥路33号花旗集团大厦1楼(近富城路)"},{"poiid":"B2094654DA6FA7FF4593","title":"汤臣一品(西北门)","lon":"121.50096","lat":"31.23358","category":"656","category_name":"大门","address":"花园石桥路28"},{"poiid":"B2094757D06BA7F8489A","title":"大达码头食堂","lon":"121.502324","lat":"31.224343","category":"247","category_name":"餐饮美食","address":"上海外马路129号"},{"poiid":"B2094654DB65AAF4479D","title":"中恒公寓","lon":"121.504459","lat":"31.224852","category":"47","category_name":"住宅区","address":"黄浦区巡道街99号"},{"poiid":"B209475CD76FA0F8489F","title":"mizzi","lon":"121.500045","lat":"31.233633","category":"500","category_name":"未知分类","address":"上海市 滨江富城路182号"},{"poiid":"B2094655D268A4F9409D","title":"东亚银行(中国)(陆家嘴环路)","lon":"121.50238","lat":"31.2339","category":"150","category_name":"银行","address":""},{"poiid":"B209475CDA65ABFF429C","title":"Friday星期五餐厅","lon":"121.500343","lat":"31.23402","category":"500","category_name":"未知分类","address":"上海市 富城路16号"},{"poiid":"B2094753D46AA0F4479A","title":"米子mizzi","lon":"121.50605","lat":"31.232311","category":"500","category_name":"未知分类","address":"上海市 浦东新区富城路182号"},{"poiid":"B2094757D66FA1FA459F","title":"大达码头","lon":"121.501336","lat":"31.225613","category":"500","category_name":"未知分类","address":"上海黄浦区外马路19号"},{"poiid":"B209475CD66BA0F4489E","title":"Ashley","lon":"121.50283","lat":"31.234369","category":"500","category_name":"未知分类","address":"上海市 正大广场8F"},{"poiid":"B2094751D264ABF8489C","title":"谷歌广告上海有限公司","lon":"121.50266","lat":"31.2339101","category":"252","category_name":"楼宇机构","address":"浦东新区世纪大道100号环球金融中心"},{"poiid":"B2094757D16AAAF8409A","title":"C 车","lon":"121.504373738","lat":"31.2322783437","category":"249","category_name":"购物服务","address":null},{"poiid":"B2094654DA6FA7FF469E","title":"汤臣一品(东门)","lon":"121.50225","lat":"31.23289","category":"656","category_name":"大门","address":""},{"poiid":"B2094752D269A2FB4993","title":"蜀菜行家","lon":"121.498585","lat":"31.226035","category":"500","category_name":"未知分类","address":"南京东路830号第一百货5楼"},{"poiid":"B2094757D16FA1FA4693","title":"安居客","lon":"121.50455474","lat":"31.233558654","category":"500","category_name":"未知分类","address":"上海浦东陆家嘴环路166号未来资产大厦11楼"},{"poiid":"B2094757D169A2FF429B","title":"coco都可茶饮","lon":"121.50297673","lat":"31.225201192","category":"500","category_name":"未知分类","address":"上海市浦东新区浦电路世纪联华旁"},{"poiid":"B2094757D16FA5FC4992","title":"东亚银行金融大厦前台","lon":"121.50287273","lat":"31.23446739","category":"500","category_name":"未知分类","address":"上海花园石桥66号东亚银行金融大厦大堂前台。"},{"poiid":"B209475CDB6CA1FD429C","title":"Ashley","lon":"121.50016","lat":"31.233819","category":"500","category_name":"未知分类","address":"上海市 正大廣場8F"},{"poiid":"B209475CD26DA4F4479C","title":"黄浦江上","lon":"121.498931","lat":"31.233236","category":"500","category_name":"未知分类","address":"上海市 外滩"},{"poiid":"B2094757D16FA2FC419C","title":"华一银行","lon":"121.50234813","lat":"31.233630952","category":"150","category_name":"银行","address":"浦东新区浦东南路360号新上海国际大厦1楼(东城路浦东南路)"},{"poiid":"B209475DD26EA1F4489D","title":"PASTA MANIA","lon":"121.501869","lat":"31.234209","category":"500","category_name":"未知分类","address":"上海市 正大广场3F"},{"poiid":"B2094750D76CA1F8429E","title":"卡西巴咖啡(浦东店)","lon":"121.50651","lat":"31.2308","category":"260","category_name":"其他","address":"浦东新区浦城路172号(近商城路)"},{"poiid":"B2094753D56CA7FD4293","title":"TGI Fridays","lon":"121.502578","lat":"31.234197","category":"500","category_name":"未知分类","address":"上海市 富城路16号"},{"poiid":"B2094655D264A7FA439E","title":"中粮·海景壹号(西门)","lon":"121.5029","lat":"31.23202","category":"656","category_name":"大门","address":""},{"poiid":"B2094654DA69A1F5429F","title":"上汽开发物业财富广场管理处(浦明路)","lon":"121.5063","lat":"31.2279","category":"263","category_name":"公司","address":"浦明路160号财富广场6号楼B1"},{"poiid":"B2094757D16DA6F5489F","title":"中国出口信用保险公司上海分公司","lon":"121.50113573","lat":"31.225327195","category":"500","category_name":"未知分类","address":"上海市黄浦区中山南路28号久事大厦14楼"},{"poiid":"B2094757D165A4F9489E","title":"上海徐汇职业高级中学","lon":"121.507119338","lat":"31.2281853565","category":"500","category_name":"未知分类","address":"上海徐汇区天等路208号"},{"poiid":"B2094757D16EA2FB479B","title":"富都世博停车场","lon":"121.5014274","lat":"31.234136883","category":"500","category_name":"未知分类","address":"上海富城路"},{"poiid":"B209475CD665AAF4429E","title":"震旦博物馆","lon":"121.50151","lat":"31.23442","category":"500","category_name":"未知分类","address":"上海市 富城路99"},{"poiid":"B2094654DA6FA7FF469D","title":"上海鹏利辉盛阁公寓(西门)","lon":"121.50294","lat":"31.23202","category":"656","category_name":"大门","address":"上海市浦东新区陆家嘴银城中路600弄1号（陆家嘴环路）"},{"poiid":"B2094654DB69AAF5449E","title":"交行第一支行","lon":"121.5019","lat":"31.22428","category":"150","category_name":"银行","address":"上海市黄浦区中山南路99号"},{"poiid":"B2094654DA6EABFF4593","title":"上海浦东发展银行外滩支行","lon":"121.49965","lat":"31.22504","category":"150","category_name":"银行","address":"黄浦区中山南路28号久事大厦24楼"},{"poiid":"B2094757D164A6FF449F","title":"罗森便利（东亚金融大厦）","lon":"121.50611447","lat":"31.232377734","category":"249","category_name":"购物服务","address":"上海花园石桥路66号"},{"poiid":"B2094654DA6FA7FF4292","title":"拜耳(中国)有限公司","lon":"121.5003","lat":"31.23388","category":"263","category_name":"公司","address":"花园石桥路33号花旗集团大厦18层"},{"poiid":"B2094757D66CA6FE429F","title":"交通银行上海市分行十七楼会议室","lon":"121.501798","lat":"31.224205","category":"500","category_name":"未知分类","address":"上海中山南路99号"},{"poiid":"B2094654DA6FA7FF479B","title":"上海鹏利辉盛阁公寓(东门)","lon":"121.50374","lat":"31.23191","category":"656","category_name":"大门","address":"上海市浦东新区陆家嘴银城中路600弄1号（陆家嘴环路）"},{"poiid":"B2094752D06BA4FE469A","title":"金茂大夏","lon":"121.505967","lat":"31.229992","category":"248","category_name":"生活娱乐","address":"上海陆家嘴世纪大道"},{"poiid":"B2094751D56FABFD4393","title":"百度营销体验中心","lon":"121.5045327090454","lat":"31.233885419266173","category":"263","category_name":"公司","address":"浦东新区银城中路太平洋金融大厦22楼"},{"poiid":"B2094757D66EA2FB4899","title":"久事大厦中信银行","lon":"121.49975406","lat":"31.224923837","category":"500","category_name":"未知分类","address":"上海中山南路28号"},{"poiid":"B2094654DA6EABFF459A","title":"De Well(Group)","lon":"121.49965","lat":"31.22504","category":"263","category_name":"公司","address":"中山南路28号久事大厦18层"},{"poiid":"B2094654DA6EABFF429D","title":"上海市十六铺旅游中心(4号门)","lon":"121.50241","lat":"31.22438","category":"248","category_name":"生活娱乐","address":"外马路129号"},{"poiid":"B2094654DA6FA7FF459C","title":"花旗环球金融亚洲有限公司上海代表处","lon":"121.5003","lat":"31.23388","category":"263","category_name":"公司","address":"花园石桥路33号花旗集团大厦34层"},{"poiid":"B2094654DA6FA7FF4293","title":"拜耳医药保健有限公司上海办事处","lon":"121.50029","lat":"31.23388","category":"263","category_name":"公司","address":"花园石桥路33号花旗集团大厦18层"},{"poiid":"B2094757D66FA7F84492","title":"5楼AKB专柜","lon":"121.50162473","lat":"31.234576392","category":"500","category_name":"未知分类","address":null},{"poiid":"B2094654DA6FA7FF459F","title":"金元比联基金管理有限公司","lon":"121.50029","lat":"31.23388","category":"263","category_name":"公司","address":"花园石桥路33号花旗集团大厦3608"},{"poiid":"B2094654DA6FA7FF439C","title":"洲际酒店集团","lon":"121.50028","lat":"31.23388","category":"263","category_name":"公司","address":"花园石桥路33号花旗集团大厦22层"},{"poiid":"B2094654DA6FA7FF4198","title":"中国东方航空公司上海售票处","lon":"121.50029","lat":"31.23388","category":"28","category_name":"飞机票代售点","address":"浦东新区花园石桥路33号花旗大厦2楼(近富城路)"},{"poiid":"B2094655D26AA7F5419A","title":"中信游船","lon":"121.50117","lat":"31.22559","category":"219","category_name":"其他","address":"黄浦区外马路19号(近东门路)"},{"poiid":"B2094654DA69A1F5439A","title":"盛大金磐(西门)","lon":"121.50459","lat":"31.23167","category":"656","category_name":"大门","address":"东泰路200弄"},{"poiid":"B2094654DA6EABFF4699","title":"上海思纳史密斯建筑设计咨询有限公司","lon":"121.49965","lat":"31.22504","category":"263","category_name":"公司","address":"中山南路28号久事大厦7层"},{"poiid":"B2094751D06CA6FF4699","title":"汤臣一品停车场","lon":"121.501181","lat":"31.23357","category":"262","category_name":"停车场","address":"上海市,浦东新区,花园石桥路"},{"poiid":"B2094752D068A7FA4598","title":"正大广场","lon":"121.501646","lat":"31.23448","category":"500","category_name":"未知分类","address":null},{"poiid":"B2094757D169AAFD429C","title":"中国建设银行(南外滩支行)","lon":"121.499781738","lat":"31.2261034455","category":"260","category_name":"其他","address":"上海黄浦区中山南路1068号  "},{"poiid":"B2094654DB6BAAFD469D","title":"仁恒滨江园(西二门)","lon":"121.50629","lat":"31.22912","category":"656","category_name":"大门","address":"浦明路99弄"},{"poiid":"B2094654DB6BAAFD469C","title":"仁恒滨江园(西一门)","lon":"121.50654","lat":"31.22867","category":"656","category_name":"大门","address":"浦明路99弄"}]