[{"poiid":"B2094757D068A3FD409A","title":"上海迪斯尼乐园","lon":"121.65279471","lat":"31.143728456","category":"195","category_name":"游乐场","address":"上海浦东新区沪芦高速秀浦路下匝道处"},{"poiid":"B2094757D065A4FE469F","title":"上海迪士尼项目工地","lon":"121.66061608","lat":"31.15002032","category":"500","category_name":"未知分类","address":"上海市浦东新区Ｓ２沪芦高速"},{"poiid":"B2094757D06FAAF94492","title":"S2沪芦高速公路康桥收费站","lon":"121.64817484","lat":"31.145233933","category":"267","category_name":"收费站","address":"上海浦东新区康桥(S2沪芦高速公路)"},{"poiid":"B2094750D26AA4FA4393","title":"浦东绿地铂骊酒店","lon":"121.646163","lat":"31.151405","category":"247","category_name":"餐饮美食","address":"川沙路5500号"},{"poiid":"B2094757D069A0FD439D","title":"上海市民政第二精神病院","lon":"121.643251","lat":"31.153094","category":"162","category_name":"医院","address":"上海市南汇区川周公路2607号"},{"poiid":"B2094757D069A6FA409B","title":"A20","lon":"121.64606797","lat":"31.15749936","category":"500","category_name":"未知分类","address":"上海市浦东新区康桥路"},{"poiid":"B2094654DB6DA7F54993","title":"上海市第二精神病医院","lon":"121.63709","lat":"31.15025","category":"162","category_name":"医院","address":"南汇区川周公路"},{"poiid":"B2094655D36CA7F9419C","title":"横沔","lon":"121.63975","lat":"31.15187","category":"38","category_name":"公交车站","address":""},{"poiid":"B2094654DB6DA6FD439D","title":"康桥工业区(康桥东路)","lon":"121.63565","lat":"31.16045","category":"45","category_name":"产业园区","address":"康桥东路1365弄1-32号"},{"poiid":"B2094655D26BABF5419C","title":"S2沪芦高速康桥收费站","lon":"121.6483","lat":"31.14526","category":"267","category_name":"收费站","address":""},{"poiid":"B2094655D268ABFF4199","title":"环东二大道立交桥","lon":"121.64802","lat":"31.15553","category":"250","category_name":"公园户外","address":""},{"poiid":"B2094655D268ABFF4792","title":"Ａ２康桥收费站","lon":"121.64829","lat":"31.14526","category":"267","category_name":"收费站","address":""},{"poiid":"B2094655D36DA2FE4598","title":"横沔港桥","lon":"121.64047","lat":"31.15221","category":"250","category_name":"公园户外","address":""},{"poiid":"B2094654DB6DA6FD4493","title":"华联超市No.1870(沔青村)","lon":"121.63825","lat":"31.15132","category":"118","category_name":"超级市场","address":""},{"poiid":"B2094654DB6DA6FF4098","title":"上海嘉毓华工艺礼品有限公司","lon":"121.65405","lat":"31.14354","category":"263","category_name":"公司","address":"浦东川沙镇赵行村庙桥队"},{"poiid":"B2094757D065ABF5439D","title":"上海电力公司康桥220kv变电站","lon":"121.643841","lat":"31.155828","category":"500","category_name":"未知分类","address":"上海浦东川周公路4032号"},{"poiid":"B2094655D36CA6F94992","title":"杜甫亭","lon":"121.65655","lat":"31.15997","category":"38","category_name":"公交车站","address":""},{"poiid":"B2094655D36CA2FE489F","title":"旗杆","lon":"121.66084","lat":"31.15209","category":"38","category_name":"公交车站","address":""},{"poiid":"B2094654DB6DA5FC409B","title":"上海峥嵘工程机械配件厂","lon":"121.63864","lat":"31.15113","category":"263","category_name":"公司","address":""},{"poiid":"B2094654DB6DA5FC4092","title":"上海共业制刷有限公司","lon":"121.65267","lat":"31.15852","category":"263","category_name":"公司","address":"川周公路5380"},{"poiid":"B2094757D66FA1F44892","title":"乐天幼儿园","lon":"121.63379995","lat":"31.151112474","category":"57","category_name":"幼儿园","address":"长沙德馨园"},{"poiid":"B2094655D36DA2FE459E","title":"沔青桥","lon":"121.63151","lat":"31.14659","category":"250","category_name":"公园户外","address":""},{"poiid":"B2094757D16FA2F84898","title":"康桥东路1300","lon":"121.635722","lat":"31.156165","category":"500","category_name":"未知分类","address":"上海康桥东路1300号"},{"poiid":"B2094655D26DA6FD419B","title":"赵行公园(黄赵路)","lon":"121.66418","lat":"31.14142","category":"196","category_name":"公园","address":"赵行中心村"},{"poiid":"B2094654DB6DA7F5479F","title":"宏福商场","lon":"121.66027","lat":"31.16101","category":"119","category_name":"商场","address":"黄镇栏学路"},{"poiid":"B2094757D16DABF5449B","title":"哈挺机床(上海)有限公司","lon":"121.63733497","lat":"31.158612386","category":"249","category_name":"购物服务","address":"上海市南汇区康桥东路3880号"},{"poiid":"B2094654DB6DA5FC4193","title":"上海华新乐器有限公司","lon":"121.65557","lat":"31.16143","category":"263","category_name":"公司","address":""},{"poiid":"B2094654DB6DA6F5479E","title":"上海江森自控汽车电子有限公司","lon":"121.63281","lat":"31.15745","category":"263","category_name":"公司","address":""},{"poiid":"B2094654DB6DA6FC4399","title":"上海川湘食品厂","lon":"121.63511","lat":"31.1583","category":"263","category_name":"公司","address":""},{"poiid":"B2094654DB6DA6FD4099","title":"上海西美工具进出口有限公司","lon":"121.63589","lat":"31.15974","category":"263","category_name":"公司","address":"康桥东路1369号"},{"poiid":"B2094654DB6DA6FC4398","title":"上海东风泰利福莫尔斯","lon":"121.63439","lat":"31.15755","category":"248","category_name":"生活娱乐","address":"康桥东路1288"},{"poiid":"B2094654DB6DA6FC439B","title":"同济大学耐候实验室","lon":"121.63333","lat":"31.15796","category":"253","category_name":"校园生活","address":"康桥东路1221号"},{"poiid":"B2094654DB6DA6FD4098","title":"上海汇洋机械制造有限公司","lon":"121.6359","lat":"31.15975","category":"263","category_name":"公司","address":"康桥东路1369号"},{"poiid":"B2094654DB64A1FB4499","title":"上海浦新砌块厂(横沔江路)","lon":"121.63937","lat":"31.1622","category":"263","category_name":"公司","address":""},{"poiid":"B2094757D16BA6FA479D","title":"康桥东路","lon":"121.63665797","lat":"31.162679481","category":"500","category_name":"未知分类","address":"上海市浦东新区康桥东路1365弄"},{"poiid":"B2094654DB6DA6FC499B","title":"上海科泰运输制冷设备有限公司","lon":"121.63213","lat":"31.15554","category":"263","category_name":"公司","address":""},{"poiid":"B2094654DB6DA6F5469D","title":"上海神火铝箔有限公司","lon":"121.63079","lat":"31.13998","category":"263","category_name":"公司","address":"秀沿路3699号"},{"poiid":"B2094654DB6DA6FD4392","title":"金旅客车上海基地","lon":"121.63206","lat":"31.16007","category":"263","category_name":"公司","address":"康桥东路1159弄105"},{"poiid":"B2094654DB6DA6FD4393","title":"上海申龙客车有限公司","lon":"121.63185","lat":"31.16004","category":"263","category_name":"公司","address":"康桥东路1159弄105"}]