[{"poiid":"B2094654DA6FAAF5479E","title":"上海长征医院","lon":"121.46721","lat":"31.23279","category":"162","category_name":"医院","address":"黄浦区凤阳路415号(近成都北路)"},{"poiid":"B2094757D06FA3F4449B","title":"泰廊","lon":"121.46409","lat":"31.2338","category":"99","category_name":"泰国／越南菜品餐厅","address":"静安区大田路127号(近北京西路)"},{"poiid":"B2094655D26CAAFF4992","title":"静安别墅","lon":"121.464","lat":"31.2349","category":"47","category_name":"住宅区","address":"静安区南京西路1025弄静安别墅81号(近茂名北路)"},{"poiid":"B2094753D76FAAFA449C","title":"上海滩国泰旗舰店","lon":"121.466011","lat":"31.216125","category":"249","category_name":"购物服务","address":"淮海中路868号"},{"poiid":"B209475CD564A7F84292","title":"上海滩新天地店","lon":"121.47463","lat":"31.22164","category":"119","category_name":"商场","address":"\"太仓路181弄新天地北里15号\r\n\""},{"poiid":"B209475CD564A7F8439E","title":"上海滩中信泰富店","lon":"121.45602","lat":"31.22851","category":"119","category_name":"商场","address":"\"南京西路1168号中信泰富广场，店铺号221.\r\n\""},{"poiid":"B2094655D26FA6FB4892","title":"文新报业大厦","lon":"121.464","lat":"31.2318","category":"46","category_name":"楼宇","address":"上海市静安区威海路755号"},{"poiid":"B2094757D06FA0F44298","title":"WINDOWS(青海路店)","lon":"121.46414","lat":"31.2309","category":"260","category_name":"其他","address":"静安区南京西路698号(上海电视台对面)"},{"poiid":"B2094757D06FA2F54492","title":"沪上一家辣肉面馆(成都北路店)","lon":"121.46618","lat":"31.23239","category":"68","category_name":"快餐厅","address":"黄浦区凤阳路535号(近成都北路)"},{"poiid":"B2094751DA69A6FB499A","title":"王品  仙乐斯广场","lon":"121.465452","lat":"31.233329","category":"247","category_name":"餐饮美食","address":"南京西路338号"},{"poiid":"B2094757D16EA2FB419D","title":"长征医院门诊部","lon":"121.466702738","lat":"31.2317713329","category":"162","category_name":"医院","address":"上海成都北路480号"},{"poiid":"B2094655D26BA1FF479B","title":"南京西路成都北路","lon":"121.46601","lat":"31.23086","category":"38","category_name":"公交车站","address":""},{"poiid":"B2094750DB6CA1F8439B","title":"人民公园","lon":"121.466559","lat":"31.233402","category":"196","category_name":"公园","address":"黄浦区南京西路75号人民公园内(近黄陂北路)"},{"poiid":"B2094757D068A3FB429B","title":"上海市东方公证处","lon":"121.4634585","lat":"31.231949636","category":"46","category_name":"楼宇","address":"上海静安区凤阳路660号（接待大厅 凤阳路598号）"},{"poiid":"B2094757D06FAAF8499A","title":"嘉发大厦","lon":"121.4627151","lat":"31.23285293","category":"46","category_name":"楼宇","address":"新华都商务花园位于长宁定西路685号"},{"poiid":"B2094757DA6EAAFD429A","title":"御景轩凯宾斯基酒店","lon":"121.465211999998","lat":"31.2323450000001","category":"251","category_name":"出行住宿","address":"静安区凤阳路601号"},{"poiid":"B2094757D468A1F8489E","title":"萨莉亚 南京西路店 Saizeriya","lon":"121.46567196065","lat":"31.230538512976","category":"94","category_name":"西餐厅","address":"静安区南京西路555号三五大厦B1楼(近成都北路)"},{"poiid":"B2094751D56FA4F4419B","title":"木有鸭梨餐吧","lon":"121.4664323","lat":"31.2333259","category":"247","category_name":"餐饮美食","address":"南京西路456号4楼"},{"poiid":"B2094654DA6CA1FD499D","title":"韶山冲湘菜馆(南京西路)","lon":"121.4654","lat":"31.23068","category":"77","category_name":"湖南菜","address":"静安区南京西路702号(近成都北路)"},{"poiid":"B2094757D06FA0FA4992","title":"上海壹街区","lon":"121.465136","lat":"31.232562","category":"47","category_name":"住宅区","address":"静安区凤阳路588弄"},{"poiid":"B2094757D16FAAFA429B","title":"长征医院住院部","lon":"121.466941738","lat":"31.2327763544","category":"162","category_name":"医院","address":"上海凤阳路415号"},{"poiid":"B2094757D065A7F44593","title":"日月光中心 OLIVE DES OLIVE","lon":"121.46757623","lat":"31.232956358","category":"500","category_name":"未知分类","address":"上海打浦桥"},{"poiid":"B2094752D069A5FA4393","title":"上海国际时尚中心","lon":"121.465475","lat":"31.233833","category":"249","category_name":"购物服务","address":"上海市杨树浦路2866号"},{"poiid":"B2094752DA65A2FD439E","title":"上海明天广场JW万豪酒店","lon":"121.46729","lat":"31.233113","category":"500","category_name":"未知分类","address":"上海市 南京西路399号"},{"poiid":"B2094654DA6FAAF5489C","title":"中华保险华盛大厦","lon":"121.46685","lat":"31.23415","category":"46","category_name":"楼宇","address":"成都北路600"},{"poiid":"B2094757D06AA7F8439F","title":"上海科勒设计中心","lon":"121.46708813","lat":"31.231715631","category":"260","category_name":"其他","address":"静安区南京西路456号(近仙乐斯广场)"},{"poiid":"B2094752D06FA4FA499D","title":"MOCA ON THE PARK","lon":"121.465445","lat":"31.233023","category":"247","category_name":"餐饮美食","address":"南京西路231号人民公园内上海当代艺术馆3楼"},{"poiid":"B2094757DA68A1F84099","title":"Starbucks","lon":"121.4661986","lat":"31.2337571","category":"247","category_name":"餐饮美食","address":"People square"},{"poiid":"B2094757D06FA5FB449D","title":"Windows Underground","lon":"121.46417286","lat":"31.231047915","category":"172","category_name":"酒吧","address":"上海静安区南京西路698号"},{"poiid":"B2094757D068A6FD469D","title":"盛贺美 三五广场店","lon":"121.465672054","lat":"31.230538793","category":"95","category_name":"日本料理","address":"静安区南京西路555号三五大厦B1楼(近成都北路)"},{"poiid":"B2094750D76DA5F8499F","title":"阿宝面馆","lon":"121.465","lat":"31.2308","category":"68","category_name":"快餐厅","address":"静安区南京西路580号南证大厦4楼(近成都路)"},{"poiid":"B2094757D068A0F4469E","title":"韩膳宫","lon":"121.4661986","lat":"31.2337571","category":"46","category_name":"楼宇","address":"上海静安区成都北路333号"},{"poiid":"B2094757D064A7FA499D","title":"上海电视台17楼东方卫视","lon":"121.46445823","lat":"31.232827705","category":"500","category_name":"未知分类","address":"上海威海路298号"},{"poiid":"B2094750D164ABFC419E","title":"凯宾斯基御锦轩(The One Shanghai)","lon":"121.46516923247","lat":"31.232415869772","category":"215","category_name":"三星级宾馆","address":"上海市静安区凤阳路601号"},{"poiid":"B2094757D66DA7F9469E","title":"先乐施广场","lon":"121.46722173","lat":"31.232177341","category":"500","category_name":"未知分类","address":"上海南京西路388号"},{"poiid":"B2094757D068A3F5439A","title":"中国建设银行(南京西路支行)","lon":"121.46604156","lat":"31.230787277","category":"150","category_name":"银行","address":"静安区南京西路577-587号(近上海电视台)"},{"poiid":"B2094757D069A0F8499D","title":"味之都 南京路旗舰店 Wish Doing","lon":"121.466702229","lat":"31.231038929722","category":"68","category_name":"快餐厅","address":"静安区南京西路580号南证大厦1楼(近成都北路)"},{"poiid":"B2094655D269ABFF469A","title":"鼎中鼎澳门豆捞 南京西路店","lon":"121.466702229","lat":"31.231038929722","category":"247","category_name":"餐饮美食","address":"南京西路580号南证大厦淘宝城2楼近成都北路"},{"poiid":"B2094752D36DA6F5489E","title":"老丰阁品珍轩酒店","lon":"121.466232","lat":"31.232044","category":"247","category_name":"餐饮美食","address":"黄浦区南京西路388号仙乐斯广场"},{"poiid":"B2094757D164A7F94899","title":"上海理工大学停尸房","lon":"121.46705813","lat":"31.231867635","category":"500","category_name":"未知分类","address":"上海杨浦区军工路516号，毛像北"},{"poiid":"B2094655D26CABF84298","title":"嘉发大厦A栋","lon":"121.46391","lat":"31.23291","category":"46","category_name":"楼宇","address":"大田路129弄1号"},{"poiid":"B2094757D469A0FB449C","title":"京城日本烧烤","lon":"121.4661399","lat":"31.2307753","category":"95","category_name":"日本料理","address":"静安区南京西路555号三五商厦B1楼(近成都北路)"},{"poiid":"B2094655D26CABFE489A","title":"威海别墅","lon":"121.464","lat":"31.2322","category":"47","category_name":"住宅区","address":"威海路727弄2-40号"},{"poiid":"B2094654DA6FAAF5479A","title":"峻岭广场一期","lon":"121.46722","lat":"31.23218","category":"46","category_name":"楼宇","address":"成都北路500"},{"poiid":"B2094757D56CA1FB4593","title":"汉堡王 吴江路店 Burger King","lon":"121.46583","lat":"31.23111","category":"68","category_name":"快餐厅","address":"静安区南京西路580号南证大厦1楼(近成都北路)"},{"poiid":"B2094752D76FAAFE4192","title":"Lingo餐厅","lon":"121.466171","lat":"31.234406","category":"247","category_name":"餐饮美食","address":"南京西路仙乐斯"},{"poiid":"B2094655D269A4FA4393","title":"淘宝城","lon":"121.46615","lat":"31.23114","category":"247","category_name":"餐饮美食","address":"静安区南京西路580号南证大厦1-3楼(近成都北路)"},{"poiid":"B2094757D068AAF4429D","title":"峻岭大厦","lon":"121.467391968","lat":"31.232170105","category":"46","category_name":"楼宇","address":"上海成都北路500号"},{"poiid":"B2094751D565A7F4479A","title":"佳家湯包","lon":"121.466453","lat":"31.234724","category":"247","category_name":"餐饮美食","address":"黄河路店"},{"poiid":"B2094753D26EA3FE499A","title":"The Cookery酷瑞西餐馆","lon":"121.464401","lat":"31.233083","category":"247","category_name":"餐饮美食","address":"上海市 南京西路388号仙乐斯广场108单元(近黄陂北路)"},{"poiid":"B2094654DA6FAAF5479E","title":"上海长征医院","lon":"121.46721","lat":"31.23279","category":"162","category_name":"医院","address":"黄浦区凤阳路415号(近成都北路)"},{"poiid":"B2094757D06FA3F4449B","title":"泰廊","lon":"121.46409","lat":"31.2338","category":"99","category_name":"泰国／越南菜品餐厅","address":"静安区大田路127号(近北京西路)"},{"poiid":"B2094655D26CAAFF4992","title":"静安别墅","lon":"121.464","lat":"31.2349","category":"47","category_name":"住宅区","address":"静安区南京西路1025弄静安别墅81号(近茂名北路)"},{"poiid":"B2094753D76FAAFA449C","title":"上海滩国泰旗舰店","lon":"121.466011","lat":"31.216125","category":"249","category_name":"购物服务","address":"淮海中路868号"},{"poiid":"B209475CD564A7F84292","title":"上海滩新天地店","lon":"121.47463","lat":"31.22164","category":"119","category_name":"商场","address":"\"太仓路181弄新天地北里15号\r\n\""},{"poiid":"B209475CD564A7F8439E","title":"上海滩中信泰富店","lon":"121.45602","lat":"31.22851","category":"119","category_name":"商场","address":"\"南京西路1168号中信泰富广场，店铺号221.\r\n\""},{"poiid":"B2094655D26FA6FB4892","title":"文新报业大厦","lon":"121.464","lat":"31.2318","category":"46","category_name":"楼宇","address":"上海市静安区威海路755号"},{"poiid":"B2094757D06FA0F44298","title":"WINDOWS(青海路店)","lon":"121.46414","lat":"31.2309","category":"260","category_name":"其他","address":"静安区南京西路698号(上海电视台对面)"},{"poiid":"B2094757D06FA2F54492","title":"沪上一家辣肉面馆(成都北路店)","lon":"121.46618","lat":"31.23239","category":"68","category_name":"快餐厅","address":"黄浦区凤阳路535号(近成都北路)"},{"poiid":"B2094751DA69A6FB499A","title":"王品  仙乐斯广场","lon":"121.465452","lat":"31.233329","category":"247","category_name":"餐饮美食","address":"南京西路338号"},{"poiid":"B2094757D16EA2FB419D","title":"长征医院门诊部","lon":"121.466702738","lat":"31.2317713329","category":"162","category_name":"医院","address":"上海成都北路480号"},{"poiid":"B2094655D26BA1FF479B","title":"南京西路成都北路","lon":"121.46601","lat":"31.23086","category":"38","category_name":"公交车站","address":""},{"poiid":"B2094750DB6CA1F8439B","title":"人民公园","lon":"121.466559","lat":"31.233402","category":"196","category_name":"公园","address":"黄浦区南京西路75号人民公园内(近黄陂北路)"},{"poiid":"B2094757D068A3FB429B","title":"上海市东方公证处","lon":"121.4634585","lat":"31.231949636","category":"46","category_name":"楼宇","address":"上海静安区凤阳路660号（接待大厅 凤阳路598号）"},{"poiid":"B2094757D06FAAF8499A","title":"嘉发大厦","lon":"121.4627151","lat":"31.23285293","category":"46","category_name":"楼宇","address":"新华都商务花园位于长宁定西路685号"},{"poiid":"B2094757DA6EAAFD429A","title":"御景轩凯宾斯基酒店","lon":"121.465211999998","lat":"31.2323450000001","category":"251","category_name":"出行住宿","address":"静安区凤阳路601号"},{"poiid":"B2094757D468A1F8489E","title":"萨莉亚 南京西路店 Saizeriya","lon":"121.46567196065","lat":"31.230538512976","category":"94","category_name":"西餐厅","address":"静安区南京西路555号三五大厦B1楼(近成都北路)"},{"poiid":"B2094751D56FA4F4419B","title":"木有鸭梨餐吧","lon":"121.4664323","lat":"31.2333259","category":"247","category_name":"餐饮美食","address":"南京西路456号4楼"},{"poiid":"B2094654DA6CA1FD499D","title":"韶山冲湘菜馆(南京西路)","lon":"121.4654","lat":"31.23068","category":"77","category_name":"湖南菜","address":"静安区南京西路702号(近成都北路)"},{"poiid":"B2094757D06FA0FA4992","title":"上海壹街区","lon":"121.465136","lat":"31.232562","category":"47","category_name":"住宅区","address":"静安区凤阳路588弄"},{"poiid":"B2094757D16FAAFA429B","title":"长征医院住院部","lon":"121.466941738","lat":"31.2327763544","category":"162","category_name":"医院","address":"上海凤阳路415号"},{"poiid":"B2094757D065A7F44593","title":"日月光中心 OLIVE DES OLIVE","lon":"121.46757623","lat":"31.232956358","category":"500","category_name":"未知分类","address":"上海打浦桥"},{"poiid":"B2094752D069A5FA4393","title":"上海国际时尚中心","lon":"121.465475","lat":"31.233833","category":"249","category_name":"购物服务","address":"上海市杨树浦路2866号"},{"poiid":"B2094752DA65A2FD439E","title":"上海明天广场JW万豪酒店","lon":"121.46729","lat":"31.233113","category":"500","category_name":"未知分类","address":"上海市 南京西路399号"},{"poiid":"B2094654DA6FAAF5489C","title":"中华保险华盛大厦","lon":"121.46685","lat":"31.23415","category":"46","category_name":"楼宇","address":"成都北路600"},{"poiid":"B2094757D06AA7F8439F","title":"上海科勒设计中心","lon":"121.46708813","lat":"31.231715631","category":"260","category_name":"其他","address":"静安区南京西路456号(近仙乐斯广场)"},{"poiid":"B2094752D06FA4FA499D","title":"MOCA ON THE PARK","lon":"121.465445","lat":"31.233023","category":"247","category_name":"餐饮美食","address":"南京西路231号人民公园内上海当代艺术馆3楼"},{"poiid":"B2094757DA68A1F84099","title":"Starbucks","lon":"121.4661986","lat":"31.2337571","category":"247","category_name":"餐饮美食","address":"People square"},{"poiid":"B2094757D06FA5FB449D","title":"Windows Underground","lon":"121.46417286","lat":"31.231047915","category":"172","category_name":"酒吧","address":"上海静安区南京西路698号"},{"poiid":"B2094757D068A6FD469D","title":"盛贺美 三五广场店","lon":"121.465672054","lat":"31.230538793","category":"95","category_name":"日本料理","address":"静安区南京西路555号三五大厦B1楼(近成都北路)"},{"poiid":"B2094750D76DA5F8499F","title":"阿宝面馆","lon":"121.465","lat":"31.2308","category":"68","category_name":"快餐厅","address":"静安区南京西路580号南证大厦4楼(近成都路)"},{"poiid":"B2094757D068A0F4469E","title":"韩膳宫","lon":"121.4661986","lat":"31.2337571","category":"46","category_name":"楼宇","address":"上海静安区成都北路333号"},{"poiid":"B2094757D064A7FA499D","title":"上海电视台17楼东方卫视","lon":"121.46445823","lat":"31.232827705","category":"500","category_name":"未知分类","address":"上海威海路298号"},{"poiid":"B2094750D164ABFC419E","title":"凯宾斯基御锦轩(The One Shanghai)","lon":"121.46516923247","lat":"31.232415869772","category":"215","category_name":"三星级宾馆","address":"上海市静安区凤阳路601号"},{"poiid":"B2094757D66DA7F9469E","title":"先乐施广场","lon":"121.46722173","lat":"31.232177341","category":"500","category_name":"未知分类","address":"上海南京西路388号"},{"poiid":"B2094757D068A3F5439A","title":"中国建设银行(南京西路支行)","lon":"121.46604156","lat":"31.230787277","category":"150","category_name":"银行","address":"静安区南京西路577-587号(近上海电视台)"},{"poiid":"B2094757D069A0F8499D","title":"味之都 南京路旗舰店 Wish Doing","lon":"121.466702229","lat":"31.231038929722","category":"68","category_name":"快餐厅","address":"静安区南京西路580号南证大厦1楼(近成都北路)"},{"poiid":"B2094655D269ABFF469A","title":"鼎中鼎澳门豆捞 南京西路店","lon":"121.466702229","lat":"31.231038929722","category":"247","category_name":"餐饮美食","address":"南京西路580号南证大厦淘宝城2楼近成都北路"},{"poiid":"B2094752D36DA6F5489E","title":"老丰阁品珍轩酒店","lon":"121.466232","lat":"31.232044","category":"247","category_name":"餐饮美食","address":"黄浦区南京西路388号仙乐斯广场"},{"poiid":"B2094757D164A7F94899","title":"上海理工大学停尸房","lon":"121.46705813","lat":"31.231867635","category":"500","category_name":"未知分类","address":"上海杨浦区军工路516号，毛像北"},{"poiid":"B2094655D26CABF84298","title":"嘉发大厦A栋","lon":"121.46391","lat":"31.23291","category":"46","category_name":"楼宇","address":"大田路129弄1号"},{"poiid":"B2094757D469A0FB449C","title":"京城日本烧烤","lon":"121.4661399","lat":"31.2307753","category":"95","category_name":"日本料理","address":"静安区南京西路555号三五商厦B1楼(近成都北路)"},{"poiid":"B2094655D26CABFE489A","title":"威海别墅","lon":"121.464","lat":"31.2322","category":"47","category_name":"住宅区","address":"威海路727弄2-40号"},{"poiid":"B2094654DA6FAAF5479A","title":"峻岭广场一期","lon":"121.46722","lat":"31.23218","category":"46","category_name":"楼宇","address":"成都北路500"},{"poiid":"B2094757D56CA1FB4593","title":"汉堡王 吴江路店 Burger King","lon":"121.46583","lat":"31.23111","category":"68","category_name":"快餐厅","address":"静安区南京西路580号南证大厦1楼(近成都北路)"},{"poiid":"B2094752D76FAAFE4192","title":"Lingo餐厅","lon":"121.466171","lat":"31.234406","category":"247","category_name":"餐饮美食","address":"南京西路仙乐斯"},{"poiid":"B2094655D269A4FA4393","title":"淘宝城","lon":"121.46615","lat":"31.23114","category":"247","category_name":"餐饮美食","address":"静安区南京西路580号南证大厦1-3楼(近成都北路)"},{"poiid":"B2094757D068AAF4429D","title":"峻岭大厦","lon":"121.467391968","lat":"31.232170105","category":"46","category_name":"楼宇","address":"上海成都北路500号"},{"poiid":"B2094751D565A7F4479A","title":"佳家湯包","lon":"121.466453","lat":"31.234724","category":"247","category_name":"餐饮美食","address":"黄河路店"},{"poiid":"B2094753D26EA3FE499A","title":"The Cookery酷瑞西餐馆","lon":"121.464401","lat":"31.233083","category":"247","category_name":"餐饮美食","address":"上海市 南京西路388号仙乐斯广场108单元(近黄陂北路)"},{"poiid":"B2094654DA6FAAF5479E","title":"上海长征医院","lon":"121.46721","lat":"31.23279","category":"162","category_name":"医院","address":"黄浦区凤阳路415号(近成都北路)"},{"poiid":"B2094757D06FA3F4449B","title":"泰廊","lon":"121.46409","lat":"31.2338","category":"99","category_name":"泰国／越南菜品餐厅","address":"静安区大田路127号(近北京西路)"},{"poiid":"B2094655D26CAAFF4992","title":"静安别墅","lon":"121.464","lat":"31.2349","category":"47","category_name":"住宅区","address":"静安区南京西路1025弄静安别墅81号(近茂名北路)"},{"poiid":"B2094753D76FAAFA449C","title":"上海滩国泰旗舰店","lon":"121.466011","lat":"31.216125","category":"249","category_name":"购物服务","address":"淮海中路868号"},{"poiid":"B209475CD564A7F84292","title":"上海滩新天地店","lon":"121.47463","lat":"31.22164","category":"119","category_name":"商场","address":"\"太仓路181弄新天地北里15号\r\n\""},{"poiid":"B209475CD564A7F8439E","title":"上海滩中信泰富店","lon":"121.45602","lat":"31.22851","category":"119","category_name":"商场","address":"\"南京西路1168号中信泰富广场，店铺号221.\r\n\""},{"poiid":"B2094655D26FA6FB4892","title":"文新报业大厦","lon":"121.464","lat":"31.2318","category":"46","category_name":"楼宇","address":"上海市静安区威海路755号"},{"poiid":"B2094757D06FA0F44298","title":"WINDOWS(青海路店)","lon":"121.46414","lat":"31.2309","category":"260","category_name":"其他","address":"静安区南京西路698号(上海电视台对面)"},{"poiid":"B2094757D06FA2F54492","title":"沪上一家辣肉面馆(成都北路店)","lon":"121.46618","lat":"31.23239","category":"68","category_name":"快餐厅","address":"黄浦区凤阳路535号(近成都北路)"},{"poiid":"B2094751DA69A6FB499A","title":"王品  仙乐斯广场","lon":"121.465452","lat":"31.233329","category":"247","category_name":"餐饮美食","address":"南京西路338号"},{"poiid":"B2094757D16EA2FB419D","title":"长征医院门诊部","lon":"121.466702738","lat":"31.2317713329","category":"162","category_name":"医院","address":"上海成都北路480号"},{"poiid":"B2094655D26BA1FF479B","title":"南京西路成都北路","lon":"121.46601","lat":"31.23086","category":"38","category_name":"公交车站","address":""},{"poiid":"B2094750DB6CA1F8439B","title":"人民公园","lon":"121.466559","lat":"31.233402","category":"196","category_name":"公园","address":"黄浦区南京西路75号人民公园内(近黄陂北路)"},{"poiid":"B2094757D068A3FB429B","title":"上海市东方公证处","lon":"121.4634585","lat":"31.231949636","category":"46","category_name":"楼宇","address":"上海静安区凤阳路660号（接待大厅 凤阳路598号）"},{"poiid":"B2094757D06FAAF8499A","title":"嘉发大厦","lon":"121.4627151","lat":"31.23285293","category":"46","category_name":"楼宇","address":"新华都商务花园位于长宁定西路685号"},{"poiid":"B2094757DA6EAAFD429A","title":"御景轩凯宾斯基酒店","lon":"121.465211999998","lat":"31.2323450000001","category":"251","category_name":"出行住宿","address":"静安区凤阳路601号"},{"poiid":"B2094757D468A1F8489E","title":"萨莉亚 南京西路店 Saizeriya","lon":"121.46567196065","lat":"31.230538512976","category":"94","category_name":"西餐厅","address":"静安区南京西路555号三五大厦B1楼(近成都北路)"},{"poiid":"B2094751D56FA4F4419B","title":"木有鸭梨餐吧","lon":"121.4664323","lat":"31.2333259","category":"247","category_name":"餐饮美食","address":"南京西路456号4楼"},{"poiid":"B2094654DA6CA1FD499D","title":"韶山冲湘菜馆(南京西路)","lon":"121.4654","lat":"31.23068","category":"77","category_name":"湖南菜","address":"静安区南京西路702号(近成都北路)"},{"poiid":"B2094757D06FA0FA4992","title":"上海壹街区","lon":"121.465136","lat":"31.232562","category":"47","category_name":"住宅区","address":"静安区凤阳路588弄"},{"poiid":"B2094757D16FAAFA429B","title":"长征医院住院部","lon":"121.466941738","lat":"31.2327763544","category":"162","category_name":"医院","address":"上海凤阳路415号"},{"poiid":"B2094757D065A7F44593","title":"日月光中心 OLIVE DES OLIVE","lon":"121.46757623","lat":"31.232956358","category":"500","category_name":"未知分类","address":"上海打浦桥"},{"poiid":"B2094752D069A5FA4393","title":"上海国际时尚中心","lon":"121.465475","lat":"31.233833","category":"249","category_name":"购物服务","address":"上海市杨树浦路2866号"},{"poiid":"B2094752DA65A2FD439E","title":"上海明天广场JW万豪酒店","lon":"121.46729","lat":"31.233113","category":"500","category_name":"未知分类","address":"上海市 南京西路399号"},{"poiid":"B2094654DA6FAAF5489C","title":"中华保险华盛大厦","lon":"121.46685","lat":"31.23415","category":"46","category_name":"楼宇","address":"成都北路600"},{"poiid":"B2094757D06AA7F8439F","title":"上海科勒设计中心","lon":"121.46708813","lat":"31.231715631","category":"260","category_name":"其他","address":"静安区南京西路456号(近仙乐斯广场)"},{"poiid":"B2094752D06FA4FA499D","title":"MOCA ON THE PARK","lon":"121.465445","lat":"31.233023","category":"247","category_name":"餐饮美食","address":"南京西路231号人民公园内上海当代艺术馆3楼"},{"poiid":"B2094757DA68A1F84099","title":"Starbucks","lon":"121.4661986","lat":"31.2337571","category":"247","category_name":"餐饮美食","address":"People square"},{"poiid":"B2094757D06FA5FB449D","title":"Windows Underground","lon":"121.46417286","lat":"31.231047915","category":"172","category_name":"酒吧","address":"上海静安区南京西路698号"},{"poiid":"B2094757D068A6FD469D","title":"盛贺美 三五广场店","lon":"121.465672054","lat":"31.230538793","category":"95","category_name":"日本料理","address":"静安区南京西路555号三五大厦B1楼(近成都北路)"},{"poiid":"B2094750D76DA5F8499F","title":"阿宝面馆","lon":"121.465","lat":"31.2308","category":"68","category_name":"快餐厅","address":"静安区南京西路580号南证大厦4楼(近成都路)"},{"poiid":"B2094757D068A0F4469E","title":"韩膳宫","lon":"121.4661986","lat":"31.2337571","category":"46","category_name":"楼宇","address":"上海静安区成都北路333号"},{"poiid":"B2094757D064A7FA499D","title":"上海电视台17楼东方卫视","lon":"121.46445823","lat":"31.232827705","category":"500","category_name":"未知分类","address":"上海威海路298号"},{"poiid":"B2094750D164ABFC419E","title":"凯宾斯基御锦轩(The One Shanghai)","lon":"121.46516923247","lat":"31.232415869772","category":"215","category_name":"三星级宾馆","address":"上海市静安区凤阳路601号"},{"poiid":"B2094757D66DA7F9469E","title":"先乐施广场","lon":"121.46722173","lat":"31.232177341","category":"500","category_name":"未知分类","address":"上海南京西路388号"},{"poiid":"B2094757D068A3F5439A","title":"中国建设银行(南京西路支行)","lon":"121.46604156","lat":"31.230787277","category":"150","category_name":"银行","address":"静安区南京西路577-587号(近上海电视台)"},{"poiid":"B2094757D069A0F8499D","title":"味之都 南京路旗舰店 Wish Doing","lon":"121.466702229","lat":"31.231038929722","category":"68","category_name":"快餐厅","address":"静安区南京西路580号南证大厦1楼(近成都北路)"},{"poiid":"B2094655D269ABFF469A","title":"鼎中鼎澳门豆捞 南京西路店","lon":"121.466702229","lat":"31.231038929722","category":"247","category_name":"餐饮美食","address":"南京西路580号南证大厦淘宝城2楼近成都北路"},{"poiid":"B2094752D36DA6F5489E","title":"老丰阁品珍轩酒店","lon":"121.466232","lat":"31.232044","category":"247","category_name":"餐饮美食","address":"黄浦区南京西路388号仙乐斯广场"},{"poiid":"B2094757D164A7F94899","title":"上海理工大学停尸房","lon":"121.46705813","lat":"31.231867635","category":"500","category_name":"未知分类","address":"上海杨浦区军工路516号，毛像北"},{"poiid":"B2094655D26CABF84298","title":"嘉发大厦A栋","lon":"121.46391","lat":"31.23291","category":"46","category_name":"楼宇","address":"大田路129弄1号"},{"poiid":"B2094757D469A0FB449C","title":"京城日本烧烤","lon":"121.4661399","lat":"31.2307753","category":"95","category_name":"日本料理","address":"静安区南京西路555号三五商厦B1楼(近成都北路)"},{"poiid":"B2094655D26CABFE489A","title":"威海别墅","lon":"121.464","lat":"31.2322","category":"47","category_name":"住宅区","address":"威海路727弄2-40号"},{"poiid":"B2094654DA6FAAF5479A","title":"峻岭广场一期","lon":"121.46722","lat":"31.23218","category":"46","category_name":"楼宇","address":"成都北路500"},{"poiid":"B2094757D56CA1FB4593","title":"汉堡王 吴江路店 Burger King","lon":"121.46583","lat":"31.23111","category":"68","category_name":"快餐厅","address":"静安区南京西路580号南证大厦1楼(近成都北路)"},{"poiid":"B2094752D76FAAFE4192","title":"Lingo餐厅","lon":"121.466171","lat":"31.234406","category":"247","category_name":"餐饮美食","address":"南京西路仙乐斯"},{"poiid":"B2094655D269A4FA4393","title":"淘宝城","lon":"121.46615","lat":"31.23114","category":"247","category_name":"餐饮美食","address":"静安区南京西路580号南证大厦1-3楼(近成都北路)"},{"poiid":"B2094757D068AAF4429D","title":"峻岭大厦","lon":"121.467391968","lat":"31.232170105","category":"46","category_name":"楼宇","address":"上海成都北路500号"},{"poiid":"B2094751D565A7F4479A","title":"佳家湯包","lon":"121.466453","lat":"31.234724","category":"247","category_name":"餐饮美食","address":"黄河路店"},{"poiid":"B2094753D26EA3FE499A","title":"The Cookery酷瑞西餐馆","lon":"121.464401","lat":"31.233083","category":"247","category_name":"餐饮美食","address":"上海市 南京西路388号仙乐斯广场108单元(近黄陂北路)"},{"poiid":"B2094654DA6FAAF5479E","title":"上海长征医院","lon":"121.46721","lat":"31.23279","category":"162","category_name":"医院","address":"黄浦区凤阳路415号(近成都北路)"},{"poiid":"B2094757D06FA3F4449B","title":"泰廊","lon":"121.46409","lat":"31.2338","category":"99","category_name":"泰国／越南菜品餐厅","address":"静安区大田路127号(近北京西路)"},{"poiid":"B2094655D26CAAFF4992","title":"静安别墅","lon":"121.464","lat":"31.2349","category":"47","category_name":"住宅区","address":"静安区南京西路1025弄静安别墅81号(近茂名北路)"},{"poiid":"B2094753D76FAAFA449C","title":"上海滩国泰旗舰店","lon":"121.466011","lat":"31.216125","category":"249","category_name":"购物服务","address":"淮海中路868号"},{"poiid":"B209475CD564A7F84292","title":"上海滩新天地店","lon":"121.47463","lat":"31.22164","category":"119","category_name":"商场","address":"\"太仓路181弄新天地北里15号\r\n\""},{"poiid":"B209475CD564A7F8439E","title":"上海滩中信泰富店","lon":"121.45602","lat":"31.22851","category":"119","category_name":"商场","address":"\"南京西路1168号中信泰富广场，店铺号221.\r\n\""},{"poiid":"B2094655D26FA6FB4892","title":"文新报业大厦","lon":"121.464","lat":"31.2318","category":"46","category_name":"楼宇","address":"上海市静安区威海路755号"},{"poiid":"B2094757D06FA0F44298","title":"WINDOWS(青海路店)","lon":"121.46414","lat":"31.2309","category":"260","category_name":"其他","address":"静安区南京西路698号(上海电视台对面)"},{"poiid":"B2094757D06FA2F54492","title":"沪上一家辣肉面馆(成都北路店)","lon":"121.46618","lat":"31.23239","category":"68","category_name":"快餐厅","address":"黄浦区凤阳路535号(近成都北路)"},{"poiid":"B2094751DA69A6FB499A","title":"王品  仙乐斯广场","lon":"121.465452","lat":"31.233329","category":"247","category_name":"餐饮美食","address":"南京西路338号"},{"poiid":"B2094757D16EA2FB419D","title":"长征医院门诊部","lon":"121.466702738","lat":"31.2317713329","category":"162","category_name":"医院","address":"上海成都北路480号"},{"poiid":"B2094655D26BA1FF479B","title":"南京西路成都北路","lon":"121.46601","lat":"31.23086","category":"38","category_name":"公交车站","address":""},{"poiid":"B2094750DB6CA1F8439B","title":"人民公园","lon":"121.466559","lat":"31.233402","category":"196","category_name":"公园","address":"黄浦区南京西路75号人民公园内(近黄陂北路)"},{"poiid":"B2094757D068A3FB429B","title":"上海市东方公证处","lon":"121.4634585","lat":"31.231949636","category":"46","category_name":"楼宇","address":"上海静安区凤阳路660号（接待大厅 凤阳路598号）"},{"poiid":"B2094757D06FAAF8499A","title":"嘉发大厦","lon":"121.4627151","lat":"31.23285293","category":"46","category_name":"楼宇","address":"新华都商务花园位于长宁定西路685号"},{"poiid":"B2094757DA6EAAFD429A","title":"御景轩凯宾斯基酒店","lon":"121.465211999998","lat":"31.2323450000001","category":"251","category_name":"出行住宿","address":"静安区凤阳路601号"},{"poiid":"B2094757D468A1F8489E","title":"萨莉亚 南京西路店 Saizeriya","lon":"121.46567196065","lat":"31.230538512976","category":"94","category_name":"西餐厅","address":"静安区南京西路555号三五大厦B1楼(近成都北路)"},{"poiid":"B2094751D56FA4F4419B","title":"木有鸭梨餐吧","lon":"121.4664323","lat":"31.2333259","category":"247","category_name":"餐饮美食","address":"南京西路456号4楼"},{"poiid":"B2094654DA6CA1FD499D","title":"韶山冲湘菜馆(南京西路)","lon":"121.4654","lat":"31.23068","category":"77","category_name":"湖南菜","address":"静安区南京西路702号(近成都北路)"},{"poiid":"B2094757D06FA0FA4992","title":"上海壹街区","lon":"121.465136","lat":"31.232562","category":"47","category_name":"住宅区","address":"静安区凤阳路588弄"},{"poiid":"B2094757D16FAAFA429B","title":"长征医院住院部","lon":"121.466941738","lat":"31.2327763544","category":"162","category_name":"医院","address":"上海凤阳路415号"},{"poiid":"B2094757D065A7F44593","title":"日月光中心 OLIVE DES OLIVE","lon":"121.46757623","lat":"31.232956358","category":"500","category_name":"未知分类","address":"上海打浦桥"},{"poiid":"B2094752D069A5FA4393","title":"上海国际时尚中心","lon":"121.465475","lat":"31.233833","category":"249","category_name":"购物服务","address":"上海市杨树浦路2866号"},{"poiid":"B2094752DA65A2FD439E","title":"上海明天广场JW万豪酒店","lon":"121.46729","lat":"31.233113","category":"500","category_name":"未知分类","address":"上海市 南京西路399号"},{"poiid":"B2094654DA6FAAF5489C","title":"中华保险华盛大厦","lon":"121.46685","lat":"31.23415","category":"46","category_name":"楼宇","address":"成都北路600"},{"poiid":"B2094757D06AA7F8439F","title":"上海科勒设计中心","lon":"121.46708813","lat":"31.231715631","category":"260","category_name":"其他","address":"静安区南京西路456号(近仙乐斯广场)"},{"poiid":"B2094752D06FA4FA499D","title":"MOCA ON THE PARK","lon":"121.465445","lat":"31.233023","category":"247","category_name":"餐饮美食","address":"南京西路231号人民公园内上海当代艺术馆3楼"},{"poiid":"B2094757DA68A1F84099","title":"Starbucks","lon":"121.4661986","lat":"31.2337571","category":"247","category_name":"餐饮美食","address":"People square"},{"poiid":"B2094757D06FA5FB449D","title":"Windows Underground","lon":"121.46417286","lat":"31.231047915","category":"172","category_name":"酒吧","address":"上海静安区南京西路698号"},{"poiid":"B2094757D068A6FD469D","title":"盛贺美 三五广场店","lon":"121.465672054","lat":"31.230538793","category":"95","category_name":"日本料理","address":"静安区南京西路555号三五大厦B1楼(近成都北路)"},{"poiid":"B2094750D76DA5F8499F","title":"阿宝面馆","lon":"121.465","lat":"31.2308","category":"68","category_name":"快餐厅","address":"静安区南京西路580号南证大厦4楼(近成都路)"},{"poiid":"B2094757D068A0F4469E","title":"韩膳宫","lon":"121.4661986","lat":"31.2337571","category":"46","category_name":"楼宇","address":"上海静安区成都北路333号"},{"poiid":"B2094757D064A7FA499D","title":"上海电视台17楼东方卫视","lon":"121.46445823","lat":"31.232827705","category":"500","category_name":"未知分类","address":"上海威海路298号"},{"poiid":"B2094750D164ABFC419E","title":"凯宾斯基御锦轩(The One Shanghai)","lon":"121.46516923247","lat":"31.232415869772","category":"215","category_name":"三星级宾馆","address":"上海市静安区凤阳路601号"},{"poiid":"B2094757D66DA7F9469E","title":"先乐施广场","lon":"121.46722173","lat":"31.232177341","category":"500","category_name":"未知分类","address":"上海南京西路388号"},{"poiid":"B2094757D068A3F5439A","title":"中国建设银行(南京西路支行)","lon":"121.46604156","lat":"31.230787277","category":"150","category_name":"银行","address":"静安区南京西路577-587号(近上海电视台)"},{"poiid":"B2094757D069A0F8499D","title":"味之都 南京路旗舰店 Wish Doing","lon":"121.466702229","lat":"31.231038929722","category":"68","category_name":"快餐厅","address":"静安区南京西路580号南证大厦1楼(近成都北路)"},{"poiid":"B2094655D269ABFF469A","title":"鼎中鼎澳门豆捞 南京西路店","lon":"121.466702229","lat":"31.231038929722","category":"247","category_name":"餐饮美食","address":"南京西路580号南证大厦淘宝城2楼近成都北路"},{"poiid":"B2094752D36DA6F5489E","title":"老丰阁品珍轩酒店","lon":"121.466232","lat":"31.232044","category":"247","category_name":"餐饮美食","address":"黄浦区南京西路388号仙乐斯广场"},{"poiid":"B2094757D164A7F94899","title":"上海理工大学停尸房","lon":"121.46705813","lat":"31.231867635","category":"500","category_name":"未知分类","address":"上海杨浦区军工路516号，毛像北"},{"poiid":"B2094655D26CABF84298","title":"嘉发大厦A栋","lon":"121.46391","lat":"31.23291","category":"46","category_name":"楼宇","address":"大田路129弄1号"},{"poiid":"B2094757D469A0FB449C","title":"京城日本烧烤","lon":"121.4661399","lat":"31.2307753","category":"95","category_name":"日本料理","address":"静安区南京西路555号三五商厦B1楼(近成都北路)"},{"poiid":"B2094655D26CABFE489A","title":"威海别墅","lon":"121.464","lat":"31.2322","category":"47","category_name":"住宅区","address":"威海路727弄2-40号"},{"poiid":"B2094654DA6FAAF5479A","title":"峻岭广场一期","lon":"121.46722","lat":"31.23218","category":"46","category_name":"楼宇","address":"成都北路500"},{"poiid":"B2094757D56CA1FB4593","title":"汉堡王 吴江路店 Burger King","lon":"121.46583","lat":"31.23111","category":"68","category_name":"快餐厅","address":"静安区南京西路580号南证大厦1楼(近成都北路)"},{"poiid":"B2094752D76FAAFE4192","title":"Lingo餐厅","lon":"121.466171","lat":"31.234406","category":"247","category_name":"餐饮美食","address":"南京西路仙乐斯"},{"poiid":"B2094655D269A4FA4393","title":"淘宝城","lon":"121.46615","lat":"31.23114","category":"247","category_name":"餐饮美食","address":"静安区南京西路580号南证大厦1-3楼(近成都北路)"},{"poiid":"B2094757D068AAF4429D","title":"峻岭大厦","lon":"121.467391968","lat":"31.232170105","category":"46","category_name":"楼宇","address":"上海成都北路500号"},{"poiid":"B2094751D565A7F4479A","title":"佳家湯包","lon":"121.466453","lat":"31.234724","category":"247","category_name":"餐饮美食","address":"黄河路店"},{"poiid":"B2094753D26EA3FE499A","title":"The Cookery酷瑞西餐馆","lon":"121.464401","lat":"31.233083","category":"247","category_name":"餐饮美食","address":"上海市 南京西路388号仙乐斯广场108单元(近黄陂北路)"}]