[{"poiid":"B2094757D06FA2F8449B","title":"东郊宾馆","lon":"121.603","lat":"31.2321","category":"213","category_name":"五星级宾馆","address":"浦东新区金科路1800号东郊宾馆内(近龙东大道)"},{"poiid":"B2094757D06FA7F94193","title":"中欧国际工商学院","lon":"121.59654","lat":"31.23702","category":"671","category_name":"高校中心点","address":"上海浦东新区红枫路699号  "},{"poiid":"B2094654DA6AA1FB429E","title":"浦东妇幼保健医院","lon":"121.59606","lat":"31.23841","category":"162","category_name":"医院","address":"浦东新区红枫路599号(近锦绣东路)"},{"poiid":"B2094757D068A7F8499C","title":"佳友维景大酒店","lon":"121.59724729","lat":"31.247203359","category":"217","category_name":"旅馆招待所","address":"上海市浦东新区新金桥路159号(近金桥路)"},{"poiid":"B2094757D06FA7F4419A","title":"新金桥路金藏路","lon":"121.5987091","lat":"31.248832702","category":"38","category_name":"公交车站","address":"上海新金桥路金藏路"},{"poiid":"B2094757D06FA5F44398","title":"COSTA COFFEE (红枫路店)","lon":"121.5930128","lat":"31.2414766","category":"65","category_name":"咖啡厅","address":"浦东新区红枫路399号B区(近碧云国际社区)"},{"poiid":"B2094757D068A1F54492","title":"Big Bamboo (金桥店)","lon":"121.59329","lat":"31.24155","category":"260","category_name":"其他","address":"浦东新区红枫路381号(近碧云路)"},{"poiid":"B2094757D06FA5FF419E","title":"华山医院(浦东分院)","lon":"121.59548897","lat":"31.240324381","category":"162","category_name":"医院","address":"上海浦东新区红枫路525号(近明月路)"},{"poiid":"B2094655D36CA0FE489B","title":"金桥路三桥","lon":"121.6054","lat":"31.23201","category":"38","category_name":"公交车站","address":""},{"poiid":"B2094655D26EA6FD409D","title":"Johnny Moo 红枫店","lon":"121.59057274914","lat":"31.243509593747","category":"94","category_name":"西餐厅","address":"浦东新区红枫路228号(近碧云路)"},{"poiid":"B2094757D069A5F4489C","title":"可口可乐博物馆","lon":"121.61253","lat":"31.24342","category":"182","category_name":"博物馆","address":"浦东新区桂桥路539号(桂桥路金湘路)"},{"poiid":"B2094655D36CA0FE489C","title":"金桥路锦绣东路","lon":"121.60284","lat":"31.23674","category":"38","category_name":"公交车站","address":""},{"poiid":"B2094757D065A6FC4393","title":"上海东昌金桥汽车服务有限公司","lon":"121.609598975","lat":"31.2402032941","category":"500","category_name":"未知分类","address":"上海市锦绣东路2069号"},{"poiid":"B2094757D16DA0FB469B","title":"东昌奥迪4S店","lon":"121.608646205","lat":"31.2316367036","category":"500","category_name":"未知分类","address":"上海锦绣东路2053"},{"poiid":"B2094757DB6DA5FE419F","title":"上海瑞邦公寓式酒店","lon":"121.608149","lat":"31.240339","category":"214","category_name":"四星级宾馆","address":"上海市浦东新区金滇路176号(近锦绣东路)"},{"poiid":"B2094654DA6AA7F8409D","title":"高旺橱柜浦东基地","lon":"121.6067","lat":"31.23863","category":"45","category_name":"产业园区","address":""},{"poiid":"B2094757D064A1FC489D","title":"金桥创科园","lon":"121.60805511","lat":"31.242076873","category":"500","category_name":"未知分类","address":"松江区荣乐东路1133弄"},{"poiid":"B2094750D364A3F94298","title":"东昌奥迪金桥店","lon":"121.60872900665","lat":"31.23981648373","category":"639","category_name":"汽车交通类公司","address":"锦绣东路2053号(川桥路金滇路口)"},{"poiid":"B2094757D66CA2FE4192","title":"三桥","lon":"121.60319487","lat":"31.23579119","category":"500","category_name":"未知分类","address":"上海市浦东新区金桥路龙东大道"},{"poiid":"B2094757D164A7FA429C","title":"华阳大酒店","lon":"121.60411697","lat":"31.235689188","category":"217","category_name":"旅馆招待所","address":"浦东新区金桥路2556号"},{"poiid":"B2094757DA65AAF5469A","title":"格林联盟（上海锦绣东路酒店）","lon":"121.601422","lat":"31.237809","category":"216","category_name":"经济型连锁酒店","address":"浦东新区金桥路2346号(近锦绣东路)"},{"poiid":"B2094757D06BA6FB459B","title":"福特汽车福银4S店","lon":"121.60238097","lat":"31.243333367","category":"500","category_name":"未知分类","address":"上海市浦东新区川桥路200号"},{"poiid":"B2094654DA6AA0FB4492","title":"金浦小区(金桥路)","lon":"121.60314","lat":"31.23409","category":"47","category_name":"住宅区","address":""},{"poiid":"B2094654DA6AA1F94599","title":"诺一公寓","lon":"121.60809","lat":"31.24021","category":"47","category_name":"住宅区","address":"金滇路176号"},{"poiid":"B2094757D06BA2FB4792","title":"金桥软件园","lon":"121.59910211","lat":"31.2423372779","category":"46","category_name":"楼宇","address":"上海浦东新区明月路1257号"},{"poiid":"B2094757D169AAFF499E","title":"上海金桥高尔夫俱乐部","lon":"121.602146339","lat":"31.2494287843","category":"500","category_name":"未知分类","address":"浦东新区新金桥路775号"},{"poiid":"B2094654DA6AA1F94193","title":"上海申美饮料食品有限公司(桂桥路)","lon":"121.6126","lat":"31.24386","category":"263","category_name":"公司","address":"桂桥路539"},{"poiid":"B2094654DA6AA0FB419B","title":"灏讯通讯传送产品制造(上海)有限公司","lon":"121.60406","lat":"31.23908","category":"263","category_name":"公司","address":"金沪路1330"},{"poiid":"B2094757D069A3FD4199","title":"中国移动上海视频基地(云桥路)","lon":"121.61323547","lat":"31.248184204","category":"182","category_name":"博物馆","address":"上海浦东新区云桥路636号"},{"poiid":"B2094654DA6AA7F8459D","title":"金金公寓职工宿舍","lon":"121.60277","lat":"31.24122","category":"47","category_name":"住宅区","address":"金沪路1218弄1-4号"},{"poiid":"B2094655D36CA5FE419C","title":"川桥路金滇路","lon":"121.60637","lat":"31.2441","category":"38","category_name":"公交车站","address":""},{"poiid":"B2094750D26AABF54299","title":"格里芬汽车电影广场","lon":"121.598869","lat":"31.234691","category":"500","category_name":"未知分类","address":null},{"poiid":"B2094655D26CA5FD499F","title":"华高新苑","lon":"121.593","lat":"31.2321","category":"47","category_name":"住宅区","address":"金高路1058弄1-40号"},{"poiid":"B2094757DA6EAAFB4692","title":"上海石田电子衡器有限公司","lon":"121.603708499999","lat":"31.2398936999998","category":"263","category_name":"公司","address":"浦东新区金沪路1228号"},{"poiid":"B2094654DA6AA7F8459A","title":"上海吉威电子系统工程有限公司","lon":"121.60399","lat":"31.24014","category":"263","category_name":"公司","address":""},{"poiid":"B2094757D66EAAF8499A","title":"上海绿地徐捷汽车销售服务有限公司","lon":"121.60602897","lat":"31.243979382","category":"500","category_name":"未知分类","address":"浦东新区川桥路350号(近金桥路)"},{"poiid":"B2094655D26AA1F84898","title":"绿地浦成汽车销售有限公司","lon":"121.60524","lat":"31.24341","category":"247","category_name":"餐饮美食","address":"浦东新区川桥路350号(罗山路张杨路)"},{"poiid":"B2094757D16FA7FA4292","title":"张江路","lon":"121.60532912","lat":"31.241646352","category":"500","category_name":"未知分类","address":"上海张江路"},{"poiid":"B2094757D169A7F5429F","title":"马自达4S","lon":"121.605248","lat":"31.243437","category":"500","category_name":"未知分类","address":"上海川桥路350号"},{"poiid":"B2094757D16DA5FB4493","title":"中欧国际工商学院食堂","lon":"121.59655","lat":"31.23702","category":"68","category_name":"快餐厅","address":"浦东新区红枫路699号"},{"poiid":"B2094654DA6AA0FB4093","title":"上海金运服饰有限公司(金沪路)","lon":"121.60328","lat":"31.24007","category":"263","category_name":"公司","address":"金沪路1222"},{"poiid":"B2094654DA6AA1F4419B","title":"金桥幼儿园(三桥分部)","lon":"121.60479","lat":"31.2319","category":"57","category_name":"幼儿园","address":"金桥路2688"},{"poiid":"B2094757D66DA3F84792","title":"金滇路　桂桥路","lon":"121.607121975","lat":"31.2419573352","category":"500","category_name":"未知分类","address":"上海交岔口"},{"poiid":"B2094654DA6AA0FB419D","title":"金桥出口加工区48号","lon":"121.60958","lat":"31.24232","category":"45","category_name":"产业园区","address":"桂桥路290"},{"poiid":"B2094654DA6AA7F44099","title":"世纪华联超市三桥店","lon":"121.6033","lat":"31.2318","category":"118","category_name":"超级市场","address":"金桥镇"},{"poiid":"B2094655D26BA7F94992","title":"惠普综合大楼","lon":"121.59994","lat":"31.2463","category":"46","category_name":"楼宇","address":"金藏路351号"},{"poiid":"B2094654DA6AA1F94492","title":"上海嘉诺液压技术有限公司(桂桥路)","lon":"121.60401","lat":"31.24118","category":"263","category_name":"公司","address":"桂桥路25"},{"poiid":"B2094654DA6AA7F8489D","title":"灏讯中国","lon":"121.60767","lat":"31.24135","category":"263","category_name":"公司","address":"金滇路150"},{"poiid":"B2094757D169A6F84799","title":"吉祥馄饨(金桥路店)","lon":"121.60561","lat":"31.2308","category":"247","category_name":"餐饮美食","address":"上海浦东新区金桥路1298号(近金台路)  "},{"poiid":"B2094655D26AA4F44198","title":"陆风汽车销售服务有限公司","lon":"121.60524","lat":"31.24341","category":"247","category_name":"餐饮美食","address":"浦东新区川桥路350号(罗山路张杨路)"},{"poiid":"B2094757D06FA2F8449B","title":"东郊宾馆","lon":"121.603","lat":"31.2321","category":"213","category_name":"五星级宾馆","address":"浦东新区金科路1800号东郊宾馆内(近龙东大道)"},{"poiid":"B2094757D06FA7F94193","title":"中欧国际工商学院","lon":"121.59654","lat":"31.23702","category":"671","category_name":"高校中心点","address":"上海浦东新区红枫路699号  "},{"poiid":"B2094654DA6AA1FB429E","title":"浦东妇幼保健医院","lon":"121.59606","lat":"31.23841","category":"162","category_name":"医院","address":"浦东新区红枫路599号(近锦绣东路)"},{"poiid":"B2094757D068A7F8499C","title":"佳友维景大酒店","lon":"121.59724729","lat":"31.247203359","category":"217","category_name":"旅馆招待所","address":"上海市浦东新区新金桥路159号(近金桥路)"},{"poiid":"B2094757D06FA7F4419A","title":"新金桥路金藏路","lon":"121.5987091","lat":"31.248832702","category":"38","category_name":"公交车站","address":"上海新金桥路金藏路"},{"poiid":"B2094757D06FA5F44398","title":"COSTA COFFEE (红枫路店)","lon":"121.5930128","lat":"31.2414766","category":"65","category_name":"咖啡厅","address":"浦东新区红枫路399号B区(近碧云国际社区)"},{"poiid":"B2094757D068A1F54492","title":"Big Bamboo (金桥店)","lon":"121.59329","lat":"31.24155","category":"260","category_name":"其他","address":"浦东新区红枫路381号(近碧云路)"},{"poiid":"B2094757D06FA5FF419E","title":"华山医院(浦东分院)","lon":"121.59548897","lat":"31.240324381","category":"162","category_name":"医院","address":"上海浦东新区红枫路525号(近明月路)"},{"poiid":"B2094655D36CA0FE489B","title":"金桥路三桥","lon":"121.6054","lat":"31.23201","category":"38","category_name":"公交车站","address":""},{"poiid":"B2094655D26EA6FD409D","title":"Johnny Moo 红枫店","lon":"121.59057274914","lat":"31.243509593747","category":"94","category_name":"西餐厅","address":"浦东新区红枫路228号(近碧云路)"},{"poiid":"B2094757D069A5F4489C","title":"可口可乐博物馆","lon":"121.61253","lat":"31.24342","category":"182","category_name":"博物馆","address":"浦东新区桂桥路539号(桂桥路金湘路)"},{"poiid":"B2094655D36CA0FE489C","title":"金桥路锦绣东路","lon":"121.60284","lat":"31.23674","category":"38","category_name":"公交车站","address":""},{"poiid":"B2094757D065A6FC4393","title":"上海东昌金桥汽车服务有限公司","lon":"121.609598975","lat":"31.2402032941","category":"500","category_name":"未知分类","address":"上海市锦绣东路2069号"},{"poiid":"B2094757D16DA0FB469B","title":"东昌奥迪4S店","lon":"121.608646205","lat":"31.2316367036","category":"500","category_name":"未知分类","address":"上海锦绣东路2053"},{"poiid":"B2094757DB6DA5FE419F","title":"上海瑞邦公寓式酒店","lon":"121.608149","lat":"31.240339","category":"214","category_name":"四星级宾馆","address":"上海市浦东新区金滇路176号(近锦绣东路)"},{"poiid":"B2094654DA6AA7F8409D","title":"高旺橱柜浦东基地","lon":"121.6067","lat":"31.23863","category":"45","category_name":"产业园区","address":""},{"poiid":"B2094757D064A1FC489D","title":"金桥创科园","lon":"121.60805511","lat":"31.242076873","category":"500","category_name":"未知分类","address":"松江区荣乐东路1133弄"},{"poiid":"B2094750D364A3F94298","title":"东昌奥迪金桥店","lon":"121.60872900665","lat":"31.23981648373","category":"639","category_name":"汽车交通类公司","address":"锦绣东路2053号(川桥路金滇路口)"},{"poiid":"B2094757D66CA2FE4192","title":"三桥","lon":"121.60319487","lat":"31.23579119","category":"500","category_name":"未知分类","address":"上海市浦东新区金桥路龙东大道"},{"poiid":"B2094757D164A7FA429C","title":"华阳大酒店","lon":"121.60411697","lat":"31.235689188","category":"217","category_name":"旅馆招待所","address":"浦东新区金桥路2556号"},{"poiid":"B2094757DA65AAF5469A","title":"格林联盟（上海锦绣东路酒店）","lon":"121.601422","lat":"31.237809","category":"216","category_name":"经济型连锁酒店","address":"浦东新区金桥路2346号(近锦绣东路)"},{"poiid":"B2094757D06BA6FB459B","title":"福特汽车福银4S店","lon":"121.60238097","lat":"31.243333367","category":"500","category_name":"未知分类","address":"上海市浦东新区川桥路200号"},{"poiid":"B2094654DA6AA0FB4492","title":"金浦小区(金桥路)","lon":"121.60314","lat":"31.23409","category":"47","category_name":"住宅区","address":""},{"poiid":"B2094654DA6AA1F94599","title":"诺一公寓","lon":"121.60809","lat":"31.24021","category":"47","category_name":"住宅区","address":"金滇路176号"},{"poiid":"B2094757D06BA2FB4792","title":"金桥软件园","lon":"121.59910211","lat":"31.2423372779","category":"46","category_name":"楼宇","address":"上海浦东新区明月路1257号"},{"poiid":"B2094757D169AAFF499E","title":"上海金桥高尔夫俱乐部","lon":"121.602146339","lat":"31.2494287843","category":"500","category_name":"未知分类","address":"浦东新区新金桥路775号"},{"poiid":"B2094654DA6AA1F94193","title":"上海申美饮料食品有限公司(桂桥路)","lon":"121.6126","lat":"31.24386","category":"263","category_name":"公司","address":"桂桥路539"},{"poiid":"B2094654DA6AA0FB419B","title":"灏讯通讯传送产品制造(上海)有限公司","lon":"121.60406","lat":"31.23908","category":"263","category_name":"公司","address":"金沪路1330"},{"poiid":"B2094757D069A3FD4199","title":"中国移动上海视频基地(云桥路)","lon":"121.61323547","lat":"31.248184204","category":"182","category_name":"博物馆","address":"上海浦东新区云桥路636号"},{"poiid":"B2094654DA6AA7F8459D","title":"金金公寓职工宿舍","lon":"121.60277","lat":"31.24122","category":"47","category_name":"住宅区","address":"金沪路1218弄1-4号"},{"poiid":"B2094655D36CA5FE419C","title":"川桥路金滇路","lon":"121.60637","lat":"31.2441","category":"38","category_name":"公交车站","address":""},{"poiid":"B2094750D26AABF54299","title":"格里芬汽车电影广场","lon":"121.598869","lat":"31.234691","category":"500","category_name":"未知分类","address":null},{"poiid":"B2094655D26CA5FD499F","title":"华高新苑","lon":"121.593","lat":"31.2321","category":"47","category_name":"住宅区","address":"金高路1058弄1-40号"},{"poiid":"B2094757DA6EAAFB4692","title":"上海石田电子衡器有限公司","lon":"121.603708499999","lat":"31.2398936999998","category":"263","category_name":"公司","address":"浦东新区金沪路1228号"},{"poiid":"B2094654DA6AA7F8459A","title":"上海吉威电子系统工程有限公司","lon":"121.60399","lat":"31.24014","category":"263","category_name":"公司","address":""},{"poiid":"B2094757D66EAAF8499A","title":"上海绿地徐捷汽车销售服务有限公司","lon":"121.60602897","lat":"31.243979382","category":"500","category_name":"未知分类","address":"浦东新区川桥路350号(近金桥路)"},{"poiid":"B2094655D26AA1F84898","title":"绿地浦成汽车销售有限公司","lon":"121.60524","lat":"31.24341","category":"247","category_name":"餐饮美食","address":"浦东新区川桥路350号(罗山路张杨路)"},{"poiid":"B2094757D16FA7FA4292","title":"张江路","lon":"121.60532912","lat":"31.241646352","category":"500","category_name":"未知分类","address":"上海张江路"},{"poiid":"B2094757D169A7F5429F","title":"马自达4S","lon":"121.605248","lat":"31.243437","category":"500","category_name":"未知分类","address":"上海川桥路350号"},{"poiid":"B2094757D16DA5FB4493","title":"中欧国际工商学院食堂","lon":"121.59655","lat":"31.23702","category":"68","category_name":"快餐厅","address":"浦东新区红枫路699号"},{"poiid":"B2094654DA6AA0FB4093","title":"上海金运服饰有限公司(金沪路)","lon":"121.60328","lat":"31.24007","category":"263","category_name":"公司","address":"金沪路1222"},{"poiid":"B2094654DA6AA1F4419B","title":"金桥幼儿园(三桥分部)","lon":"121.60479","lat":"31.2319","category":"57","category_name":"幼儿园","address":"金桥路2688"},{"poiid":"B2094757D66DA3F84792","title":"金滇路　桂桥路","lon":"121.607121975","lat":"31.2419573352","category":"500","category_name":"未知分类","address":"上海交岔口"},{"poiid":"B2094654DA6AA0FB419D","title":"金桥出口加工区48号","lon":"121.60958","lat":"31.24232","category":"45","category_name":"产业园区","address":"桂桥路290"},{"poiid":"B2094654DA6AA7F44099","title":"世纪华联超市三桥店","lon":"121.6033","lat":"31.2318","category":"118","category_name":"超级市场","address":"金桥镇"},{"poiid":"B2094655D26BA7F94992","title":"惠普综合大楼","lon":"121.59994","lat":"31.2463","category":"46","category_name":"楼宇","address":"金藏路351号"},{"poiid":"B2094654DA6AA1F94492","title":"上海嘉诺液压技术有限公司(桂桥路)","lon":"121.60401","lat":"31.24118","category":"263","category_name":"公司","address":"桂桥路25"},{"poiid":"B2094654DA6AA7F8489D","title":"灏讯中国","lon":"121.60767","lat":"31.24135","category":"263","category_name":"公司","address":"金滇路150"},{"poiid":"B2094757D169A6F84799","title":"吉祥馄饨(金桥路店)","lon":"121.60561","lat":"31.2308","category":"247","category_name":"餐饮美食","address":"上海浦东新区金桥路1298号(近金台路)  "},{"poiid":"B2094655D26AA4F44198","title":"陆风汽车销售服务有限公司","lon":"121.60524","lat":"31.24341","category":"247","category_name":"餐饮美食","address":"浦东新区川桥路350号(罗山路张杨路)"},{"poiid":"B2094757D06FA2F8449B","title":"东郊宾馆","lon":"121.603","lat":"31.2321","category":"213","category_name":"五星级宾馆","address":"浦东新区金科路1800号东郊宾馆内(近龙东大道)"},{"poiid":"B2094757D06FA7F94193","title":"中欧国际工商学院","lon":"121.59654","lat":"31.23702","category":"671","category_name":"高校中心点","address":"上海浦东新区红枫路699号  "},{"poiid":"B2094654DA6AA1FB429E","title":"浦东妇幼保健医院","lon":"121.59606","lat":"31.23841","category":"162","category_name":"医院","address":"浦东新区红枫路599号(近锦绣东路)"},{"poiid":"B2094757D068A7F8499C","title":"佳友维景大酒店","lon":"121.59724729","lat":"31.247203359","category":"217","category_name":"旅馆招待所","address":"上海市浦东新区新金桥路159号(近金桥路)"},{"poiid":"B2094757D06FA7F4419A","title":"新金桥路金藏路","lon":"121.5987091","lat":"31.248832702","category":"38","category_name":"公交车站","address":"上海新金桥路金藏路"},{"poiid":"B2094757D06FA5F44398","title":"COSTA COFFEE (红枫路店)","lon":"121.5930128","lat":"31.2414766","category":"65","category_name":"咖啡厅","address":"浦东新区红枫路399号B区(近碧云国际社区)"},{"poiid":"B2094757D068A1F54492","title":"Big Bamboo (金桥店)","lon":"121.59329","lat":"31.24155","category":"260","category_name":"其他","address":"浦东新区红枫路381号(近碧云路)"},{"poiid":"B2094757D06FA5FF419E","title":"华山医院(浦东分院)","lon":"121.59548897","lat":"31.240324381","category":"162","category_name":"医院","address":"上海浦东新区红枫路525号(近明月路)"},{"poiid":"B2094655D36CA0FE489B","title":"金桥路三桥","lon":"121.6054","lat":"31.23201","category":"38","category_name":"公交车站","address":""},{"poiid":"B2094655D26EA6FD409D","title":"Johnny Moo 红枫店","lon":"121.59057274914","lat":"31.243509593747","category":"94","category_name":"西餐厅","address":"浦东新区红枫路228号(近碧云路)"},{"poiid":"B2094757D069A5F4489C","title":"可口可乐博物馆","lon":"121.61253","lat":"31.24342","category":"182","category_name":"博物馆","address":"浦东新区桂桥路539号(桂桥路金湘路)"},{"poiid":"B2094655D36CA0FE489C","title":"金桥路锦绣东路","lon":"121.60284","lat":"31.23674","category":"38","category_name":"公交车站","address":""},{"poiid":"B2094757D065A6FC4393","title":"上海东昌金桥汽车服务有限公司","lon":"121.609598975","lat":"31.2402032941","category":"500","category_name":"未知分类","address":"上海市锦绣东路2069号"},{"poiid":"B2094757D16DA0FB469B","title":"东昌奥迪4S店","lon":"121.608646205","lat":"31.2316367036","category":"500","category_name":"未知分类","address":"上海锦绣东路2053"},{"poiid":"B2094757DB6DA5FE419F","title":"上海瑞邦公寓式酒店","lon":"121.608149","lat":"31.240339","category":"214","category_name":"四星级宾馆","address":"上海市浦东新区金滇路176号(近锦绣东路)"},{"poiid":"B2094654DA6AA7F8409D","title":"高旺橱柜浦东基地","lon":"121.6067","lat":"31.23863","category":"45","category_name":"产业园区","address":""},{"poiid":"B2094757D064A1FC489D","title":"金桥创科园","lon":"121.60805511","lat":"31.242076873","category":"500","category_name":"未知分类","address":"松江区荣乐东路1133弄"},{"poiid":"B2094750D364A3F94298","title":"东昌奥迪金桥店","lon":"121.60872900665","lat":"31.23981648373","category":"639","category_name":"汽车交通类公司","address":"锦绣东路2053号(川桥路金滇路口)"},{"poiid":"B2094757D66CA2FE4192","title":"三桥","lon":"121.60319487","lat":"31.23579119","category":"500","category_name":"未知分类","address":"上海市浦东新区金桥路龙东大道"},{"poiid":"B2094757D164A7FA429C","title":"华阳大酒店","lon":"121.60411697","lat":"31.235689188","category":"217","category_name":"旅馆招待所","address":"浦东新区金桥路2556号"},{"poiid":"B2094757DA65AAF5469A","title":"格林联盟（上海锦绣东路酒店）","lon":"121.601422","lat":"31.237809","category":"216","category_name":"经济型连锁酒店","address":"浦东新区金桥路2346号(近锦绣东路)"},{"poiid":"B2094757D06BA6FB459B","title":"福特汽车福银4S店","lon":"121.60238097","lat":"31.243333367","category":"500","category_name":"未知分类","address":"上海市浦东新区川桥路200号"},{"poiid":"B2094654DA6AA0FB4492","title":"金浦小区(金桥路)","lon":"121.60314","lat":"31.23409","category":"47","category_name":"住宅区","address":""},{"poiid":"B2094654DA6AA1F94599","title":"诺一公寓","lon":"121.60809","lat":"31.24021","category":"47","category_name":"住宅区","address":"金滇路176号"},{"poiid":"B2094757D06BA2FB4792","title":"金桥软件园","lon":"121.59910211","lat":"31.2423372779","category":"46","category_name":"楼宇","address":"上海浦东新区明月路1257号"},{"poiid":"B2094757D169AAFF499E","title":"上海金桥高尔夫俱乐部","lon":"121.602146339","lat":"31.2494287843","category":"500","category_name":"未知分类","address":"浦东新区新金桥路775号"},{"poiid":"B2094654DA6AA1F94193","title":"上海申美饮料食品有限公司(桂桥路)","lon":"121.6126","lat":"31.24386","category":"263","category_name":"公司","address":"桂桥路539"},{"poiid":"B2094654DA6AA0FB419B","title":"灏讯通讯传送产品制造(上海)有限公司","lon":"121.60406","lat":"31.23908","category":"263","category_name":"公司","address":"金沪路1330"},{"poiid":"B2094757D069A3FD4199","title":"中国移动上海视频基地(云桥路)","lon":"121.61323547","lat":"31.248184204","category":"182","category_name":"博物馆","address":"上海浦东新区云桥路636号"},{"poiid":"B2094654DA6AA7F8459D","title":"金金公寓职工宿舍","lon":"121.60277","lat":"31.24122","category":"47","category_name":"住宅区","address":"金沪路1218弄1-4号"},{"poiid":"B2094655D36CA5FE419C","title":"川桥路金滇路","lon":"121.60637","lat":"31.2441","category":"38","category_name":"公交车站","address":""},{"poiid":"B2094750D26AABF54299","title":"格里芬汽车电影广场","lon":"121.598869","lat":"31.234691","category":"500","category_name":"未知分类","address":null},{"poiid":"B2094655D26CA5FD499F","title":"华高新苑","lon":"121.593","lat":"31.2321","category":"47","category_name":"住宅区","address":"金高路1058弄1-40号"},{"poiid":"B2094757DA6EAAFB4692","title":"上海石田电子衡器有限公司","lon":"121.603708499999","lat":"31.2398936999998","category":"263","category_name":"公司","address":"浦东新区金沪路1228号"},{"poiid":"B2094654DA6AA7F8459A","title":"上海吉威电子系统工程有限公司","lon":"121.60399","lat":"31.24014","category":"263","category_name":"公司","address":""},{"poiid":"B2094757D66EAAF8499A","title":"上海绿地徐捷汽车销售服务有限公司","lon":"121.60602897","lat":"31.243979382","category":"500","category_name":"未知分类","address":"浦东新区川桥路350号(近金桥路)"},{"poiid":"B2094655D26AA1F84898","title":"绿地浦成汽车销售有限公司","lon":"121.60524","lat":"31.24341","category":"247","category_name":"餐饮美食","address":"浦东新区川桥路350号(罗山路张杨路)"},{"poiid":"B2094757D16FA7FA4292","title":"张江路","lon":"121.60532912","lat":"31.241646352","category":"500","category_name":"未知分类","address":"上海张江路"},{"poiid":"B2094757D169A7F5429F","title":"马自达4S","lon":"121.605248","lat":"31.243437","category":"500","category_name":"未知分类","address":"上海川桥路350号"},{"poiid":"B2094757D16DA5FB4493","title":"中欧国际工商学院食堂","lon":"121.59655","lat":"31.23702","category":"68","category_name":"快餐厅","address":"浦东新区红枫路699号"},{"poiid":"B2094654DA6AA0FB4093","title":"上海金运服饰有限公司(金沪路)","lon":"121.60328","lat":"31.24007","category":"263","category_name":"公司","address":"金沪路1222"},{"poiid":"B2094654DA6AA1F4419B","title":"金桥幼儿园(三桥分部)","lon":"121.60479","lat":"31.2319","category":"57","category_name":"幼儿园","address":"金桥路2688"},{"poiid":"B2094757D66DA3F84792","title":"金滇路　桂桥路","lon":"121.607121975","lat":"31.2419573352","category":"500","category_name":"未知分类","address":"上海交岔口"},{"poiid":"B2094654DA6AA0FB419D","title":"金桥出口加工区48号","lon":"121.60958","lat":"31.24232","category":"45","category_name":"产业园区","address":"桂桥路290"},{"poiid":"B2094654DA6AA7F44099","title":"世纪华联超市三桥店","lon":"121.6033","lat":"31.2318","category":"118","category_name":"超级市场","address":"金桥镇"},{"poiid":"B2094655D26BA7F94992","title":"惠普综合大楼","lon":"121.59994","lat":"31.2463","category":"46","category_name":"楼宇","address":"金藏路351号"},{"poiid":"B2094654DA6AA1F94492","title":"上海嘉诺液压技术有限公司(桂桥路)","lon":"121.60401","lat":"31.24118","category":"263","category_name":"公司","address":"桂桥路25"},{"poiid":"B2094654DA6AA7F8489D","title":"灏讯中国","lon":"121.60767","lat":"31.24135","category":"263","category_name":"公司","address":"金滇路150"},{"poiid":"B2094757D169A6F84799","title":"吉祥馄饨(金桥路店)","lon":"121.60561","lat":"31.2308","category":"247","category_name":"餐饮美食","address":"上海浦东新区金桥路1298号(近金台路)  "},{"poiid":"B2094655D26AA4F44198","title":"陆风汽车销售服务有限公司","lon":"121.60524","lat":"31.24341","category":"247","category_name":"餐饮美食","address":"浦东新区川桥路350号(罗山路张杨路)"},{"poiid":"B2094757D06FA2F8449B","title":"东郊宾馆","lon":"121.603","lat":"31.2321","category":"213","category_name":"五星级宾馆","address":"浦东新区金科路1800号东郊宾馆内(近龙东大道)"},{"poiid":"B2094757D06FA7F94193","title":"中欧国际工商学院","lon":"121.59654","lat":"31.23702","category":"671","category_name":"高校中心点","address":"上海浦东新区红枫路699号  "},{"poiid":"B2094654DA6AA1FB429E","title":"浦东妇幼保健医院","lon":"121.59606","lat":"31.23841","category":"162","category_name":"医院","address":"浦东新区红枫路599号(近锦绣东路)"},{"poiid":"B2094757D068A7F8499C","title":"佳友维景大酒店","lon":"121.59724729","lat":"31.247203359","category":"217","category_name":"旅馆招待所","address":"上海市浦东新区新金桥路159号(近金桥路)"},{"poiid":"B2094757D06FA7F4419A","title":"新金桥路金藏路","lon":"121.5987091","lat":"31.248832702","category":"38","category_name":"公交车站","address":"上海新金桥路金藏路"},{"poiid":"B2094757D06FA5F44398","title":"COSTA COFFEE (红枫路店)","lon":"121.5930128","lat":"31.2414766","category":"65","category_name":"咖啡厅","address":"浦东新区红枫路399号B区(近碧云国际社区)"},{"poiid":"B2094757D068A1F54492","title":"Big Bamboo (金桥店)","lon":"121.59329","lat":"31.24155","category":"260","category_name":"其他","address":"浦东新区红枫路381号(近碧云路)"},{"poiid":"B2094757D06FA5FF419E","title":"华山医院(浦东分院)","lon":"121.59548897","lat":"31.240324381","category":"162","category_name":"医院","address":"上海浦东新区红枫路525号(近明月路)"},{"poiid":"B2094655D36CA0FE489B","title":"金桥路三桥","lon":"121.6054","lat":"31.23201","category":"38","category_name":"公交车站","address":""},{"poiid":"B2094655D26EA6FD409D","title":"Johnny Moo 红枫店","lon":"121.59057274914","lat":"31.243509593747","category":"94","category_name":"西餐厅","address":"浦东新区红枫路228号(近碧云路)"},{"poiid":"B2094757D069A5F4489C","title":"可口可乐博物馆","lon":"121.61253","lat":"31.24342","category":"182","category_name":"博物馆","address":"浦东新区桂桥路539号(桂桥路金湘路)"},{"poiid":"B2094655D36CA0FE489C","title":"金桥路锦绣东路","lon":"121.60284","lat":"31.23674","category":"38","category_name":"公交车站","address":""},{"poiid":"B2094757D065A6FC4393","title":"上海东昌金桥汽车服务有限公司","lon":"121.609598975","lat":"31.2402032941","category":"500","category_name":"未知分类","address":"上海市锦绣东路2069号"},{"poiid":"B2094757D16DA0FB469B","title":"东昌奥迪4S店","lon":"121.608646205","lat":"31.2316367036","category":"500","category_name":"未知分类","address":"上海锦绣东路2053"},{"poiid":"B2094757DB6DA5FE419F","title":"上海瑞邦公寓式酒店","lon":"121.608149","lat":"31.240339","category":"214","category_name":"四星级宾馆","address":"上海市浦东新区金滇路176号(近锦绣东路)"},{"poiid":"B2094654DA6AA7F8409D","title":"高旺橱柜浦东基地","lon":"121.6067","lat":"31.23863","category":"45","category_name":"产业园区","address":""},{"poiid":"B2094757D064A1FC489D","title":"金桥创科园","lon":"121.60805511","lat":"31.242076873","category":"500","category_name":"未知分类","address":"松江区荣乐东路1133弄"},{"poiid":"B2094750D364A3F94298","title":"东昌奥迪金桥店","lon":"121.60872900665","lat":"31.23981648373","category":"639","category_name":"汽车交通类公司","address":"锦绣东路2053号(川桥路金滇路口)"},{"poiid":"B2094757D66CA2FE4192","title":"三桥","lon":"121.60319487","lat":"31.23579119","category":"500","category_name":"未知分类","address":"上海市浦东新区金桥路龙东大道"},{"poiid":"B2094757D164A7FA429C","title":"华阳大酒店","lon":"121.60411697","lat":"31.235689188","category":"217","category_name":"旅馆招待所","address":"浦东新区金桥路2556号"},{"poiid":"B2094757DA65AAF5469A","title":"格林联盟（上海锦绣东路酒店）","lon":"121.601422","lat":"31.237809","category":"216","category_name":"经济型连锁酒店","address":"浦东新区金桥路2346号(近锦绣东路)"},{"poiid":"B2094757D06BA6FB459B","title":"福特汽车福银4S店","lon":"121.60238097","lat":"31.243333367","category":"500","category_name":"未知分类","address":"上海市浦东新区川桥路200号"},{"poiid":"B2094654DA6AA0FB4492","title":"金浦小区(金桥路)","lon":"121.60314","lat":"31.23409","category":"47","category_name":"住宅区","address":""},{"poiid":"B2094654DA6AA1F94599","title":"诺一公寓","lon":"121.60809","lat":"31.24021","category":"47","category_name":"住宅区","address":"金滇路176号"},{"poiid":"B2094757D06BA2FB4792","title":"金桥软件园","lon":"121.59910211","lat":"31.2423372779","category":"46","category_name":"楼宇","address":"上海浦东新区明月路1257号"},{"poiid":"B2094757D169AAFF499E","title":"上海金桥高尔夫俱乐部","lon":"121.602146339","lat":"31.2494287843","category":"500","category_name":"未知分类","address":"浦东新区新金桥路775号"},{"poiid":"B2094654DA6AA1F94193","title":"上海申美饮料食品有限公司(桂桥路)","lon":"121.6126","lat":"31.24386","category":"263","category_name":"公司","address":"桂桥路539"},{"poiid":"B2094654DA6AA0FB419B","title":"灏讯通讯传送产品制造(上海)有限公司","lon":"121.60406","lat":"31.23908","category":"263","category_name":"公司","address":"金沪路1330"},{"poiid":"B2094757D069A3FD4199","title":"中国移动上海视频基地(云桥路)","lon":"121.61323547","lat":"31.248184204","category":"182","category_name":"博物馆","address":"上海浦东新区云桥路636号"},{"poiid":"B2094654DA6AA7F8459D","title":"金金公寓职工宿舍","lon":"121.60277","lat":"31.24122","category":"47","category_name":"住宅区","address":"金沪路1218弄1-4号"},{"poiid":"B2094655D36CA5FE419C","title":"川桥路金滇路","lon":"121.60637","lat":"31.2441","category":"38","category_name":"公交车站","address":""},{"poiid":"B2094750D26AABF54299","title":"格里芬汽车电影广场","lon":"121.598869","lat":"31.234691","category":"500","category_name":"未知分类","address":null},{"poiid":"B2094655D26CA5FD499F","title":"华高新苑","lon":"121.593","lat":"31.2321","category":"47","category_name":"住宅区","address":"金高路1058弄1-40号"},{"poiid":"B2094757DA6EAAFB4692","title":"上海石田电子衡器有限公司","lon":"121.603708499999","lat":"31.2398936999998","category":"263","category_name":"公司","address":"浦东新区金沪路1228号"},{"poiid":"B2094654DA6AA7F8459A","title":"上海吉威电子系统工程有限公司","lon":"121.60399","lat":"31.24014","category":"263","category_name":"公司","address":""},{"poiid":"B2094757D66EAAF8499A","title":"上海绿地徐捷汽车销售服务有限公司","lon":"121.60602897","lat":"31.243979382","category":"500","category_name":"未知分类","address":"浦东新区川桥路350号(近金桥路)"},{"poiid":"B2094655D26AA1F84898","title":"绿地浦成汽车销售有限公司","lon":"121.60524","lat":"31.24341","category":"247","category_name":"餐饮美食","address":"浦东新区川桥路350号(罗山路张杨路)"},{"poiid":"B2094757D16FA7FA4292","title":"张江路","lon":"121.60532912","lat":"31.241646352","category":"500","category_name":"未知分类","address":"上海张江路"},{"poiid":"B2094757D169A7F5429F","title":"马自达4S","lon":"121.605248","lat":"31.243437","category":"500","category_name":"未知分类","address":"上海川桥路350号"},{"poiid":"B2094757D16DA5FB4493","title":"中欧国际工商学院食堂","lon":"121.59655","lat":"31.23702","category":"68","category_name":"快餐厅","address":"浦东新区红枫路699号"},{"poiid":"B2094654DA6AA0FB4093","title":"上海金运服饰有限公司(金沪路)","lon":"121.60328","lat":"31.24007","category":"263","category_name":"公司","address":"金沪路1222"},{"poiid":"B2094654DA6AA1F4419B","title":"金桥幼儿园(三桥分部)","lon":"121.60479","lat":"31.2319","category":"57","category_name":"幼儿园","address":"金桥路2688"},{"poiid":"B2094757D66DA3F84792","title":"金滇路　桂桥路","lon":"121.607121975","lat":"31.2419573352","category":"500","category_name":"未知分类","address":"上海交岔口"},{"poiid":"B2094654DA6AA0FB419D","title":"金桥出口加工区48号","lon":"121.60958","lat":"31.24232","category":"45","category_name":"产业园区","address":"桂桥路290"},{"poiid":"B2094654DA6AA7F44099","title":"世纪华联超市三桥店","lon":"121.6033","lat":"31.2318","category":"118","category_name":"超级市场","address":"金桥镇"},{"poiid":"B2094655D26BA7F94992","title":"惠普综合大楼","lon":"121.59994","lat":"31.2463","category":"46","category_name":"楼宇","address":"金藏路351号"},{"poiid":"B2094654DA6AA1F94492","title":"上海嘉诺液压技术有限公司(桂桥路)","lon":"121.60401","lat":"31.24118","category":"263","category_name":"公司","address":"桂桥路25"},{"poiid":"B2094654DA6AA7F8489D","title":"灏讯中国","lon":"121.60767","lat":"31.24135","category":"263","category_name":"公司","address":"金滇路150"},{"poiid":"B2094757D169A6F84799","title":"吉祥馄饨(金桥路店)","lon":"121.60561","lat":"31.2308","category":"247","category_name":"餐饮美食","address":"上海浦东新区金桥路1298号(近金台路)  "},{"poiid":"B2094655D26AA4F44198","title":"陆风汽车销售服务有限公司","lon":"121.60524","lat":"31.24341","category":"247","category_name":"餐饮美食","address":"浦东新区川桥路350号(罗山路张杨路)"}]