[{"poiid":"B2094757D568A5F8479C","title":"上大宝山校区","lon":"121.38943","lat":"31.31433","category":"52","category_name":"高等院校","address":"上大路99号"},{"poiid":"B2094757D568AAF54493","title":"上海大学宝山校区","lon":"121.395081","lat":"31.31339561","category":"52","category_name":"高等院校","address":"宝山区上大路99号(近南陈路)"},{"poiid":"B2094757D06FA3FC449A","title":"上海大学图书馆","lon":"121.39222717","lat":"31.316808771","category":"253","category_name":"校园生活","address":"宝山区上大路99号上海大学内(近南陈路)"},{"poiid":"B2094757D06FA1F44898","title":"上海大学宏基黑暗料理街","lon":"121.38597869","lat":"31.315303802","category":"111","category_name":"休闲餐饮场所","address":"宝山区聚丰园路5弄31号宏基广场附近(近上海大学)"},{"poiid":"B2094757D06EAAF44498","title":"上海大学地铁站","lon":"121.38904727","lat":"31.320612748","category":"36","category_name":"地铁站","address":"上海轨道交通 七号线 轨交上海大学站 7"},{"poiid":"B2094654DB6AA6FF419A","title":"上海大学A楼","lon":"121.39508","lat":"31.31339","category":"253","category_name":"校园生活","address":"上海市宝山区上大路99号"},{"poiid":"B2094757D06FA4FD4198","title":"上海大学体育馆(宝山校区)","lon":"121.39534807","lat":"31.319450285","category":"253","category_name":"校园生活","address":"宝山区上大路99号上海大学内(近南陈路)"},{"poiid":"B2094757D06FA2FA499B","title":"上海大学 D楼","lon":"121.39454084","lat":"31.314822947","category":"253","category_name":"校园生活","address":"上海宝山区上大路99号"},{"poiid":"B2094757D06FA0FF419F","title":"大地数字影院(弘基店)","lon":"121.38606388","lat":"31.315299962","category":"178","category_name":"电影院","address":"宝山区聚丰园路57弄3号弘基文化休闲广场1号楼商场3楼(近上海大学)"},{"poiid":"B2094757D06FA2F5429B","title":"锦秋花园","lon":"121.39028","lat":"31.321571","category":"47","category_name":"住宅区","address":"上海市宝山区锦秋路699弄"},{"poiid":"B2094654DB6AABF5419C","title":"新世纪大学生村","lon":"121.38644","lat":"31.314575","category":"47","category_name":"住宅区","address":"上大路1259号"},{"poiid":"B2094757D06FA7FA449F","title":"上海大学(宝山区校区)南区宿舍","lon":"121.38853115","lat":"31.310028861","category":"253","category_name":"校园生活","address":"上海宝山区上大路98号上海大学内"},{"poiid":"B2094757D068A4FB469D","title":"上海大学北门","lon":"121.3890661","lat":"31.3204244008","category":"52","category_name":"高等院校","address":"上海上大北门"},{"poiid":"B2094654D465A4FE4893","title":"弘基文化休闲广场","lon":"121.38684","lat":"31.31571","category":"248","category_name":"生活娱乐","address":"宝山区聚丰园路55号弘基广场31号(近祁连山路)"},{"poiid":"B2094757D06FA2FA419F","title":"上海大学 C楼","lon":"121.39499145","lat":"31.314401314","category":"253","category_name":"校园生活","address":"上海宝山区上大路99号"},{"poiid":"B2094757D06FABFD499B","title":"上海大学 B楼","lon":"121.39523821","lat":"31.31397968","category":"253","category_name":"校园生活","address":"上海宝山区上大路99号"},{"poiid":"B2094757D064A0FA4299","title":"上海大学东区","lon":"121.39891213","lat":"31.313104353","category":"500","category_name":"未知分类","address":"上海上大路599号"},{"poiid":"B2094757D064A0F9469E","title":"上海大学J楼","lon":"121.391373","lat":"31.313517","category":"253","category_name":"校园生活","address":"上海大学宝山校区J楼"},{"poiid":"B2094757D06FA4F4489A","title":"上海大学美术学院","lon":"121.39380055","lat":"31.312705599","category":"671","category_name":"高校中心点","address":"上海宝山区上大路99号上海大学宝山校区"},{"poiid":"B2094757D06FA6FC479B","title":"上海大学食堂益新餐厅","lon":"121.389242649","lat":"31.3161704631","category":"68","category_name":"快餐厅","address":"宝山区上大路99号上海大学内(近南陈路)"},{"poiid":"B2094757D06FA1FE409F","title":"上海大学食堂尔美餐厅","lon":"121.39132595","lat":"31.319344868","category":"68","category_name":"快餐厅","address":"宝山区上大路99号上海大学内(近南陈路)"},{"poiid":"B2094757D068A2F9429E","title":"上海大学 E楼","lon":"121.39420824","lat":"31.316014507","category":"500","category_name":"未知分类","address":"上海宝山区上大路99号"},{"poiid":"B2094757D06AA1FF4298","title":"上海大学伟长楼","lon":"121.39533525","lat":"31.3177140575","category":"500","category_name":"未知分类","address":"上大路99号近上海大学东门"},{"poiid":"B2094757D06FABFE4598","title":"三村米线","lon":"121.38589477","lat":"31.315925598","category":"83","category_name":"云贵菜","address":"上海聚丰园路43号"},{"poiid":"B2094757D06FABF84198","title":"上海大学食堂山明餐厅","lon":"121.38868475","lat":"31.317655307","category":"68","category_name":"快餐厅","address":"宝山区上大路99号上海大学内(近南陈路)"},{"poiid":"B2094757D068A1F4439B","title":"上海大学 F楼","lon":"121.393703992","lat":"31.3164544647","category":"253","category_name":"校园生活","address":"上海宝山区上大路99号"},{"poiid":"B2094757D065A5F5459F","title":"巨麦KTV(聚丰园路弘基广场)","lon":"121.386626974","lat":"31.3150604313","category":"170","category_name":"KTV","address":"宝山区聚丰园路55号弘基广场3楼(近上海大学)"},{"poiid":"B2094757D168A0F84699","title":"当代高邸","lon":"121.3907191527","lat":"31.322065402205","category":"500","category_name":"未知分类","address":"上海聚丰园路95弄和105弄"},{"poiid":"B2094757D06AA3F4499C","title":"上海大学G楼","lon":"121.39340358","lat":"31.316885253","category":"500","category_name":"未知分类","address":"上海宝山区上大路99号"},{"poiid":"B2094654D465A6F8409C","title":"学林苑","lon":"121.38508","lat":"31.314762","category":"47","category_name":"住宅区","address":"聚丰园路188弄"},{"poiid":"B2094654D465A5F84793","title":"上大南区","lon":"121.38874","lat":"31.31081","category":"47","category_name":"住宅区","address":"上大路98"},{"poiid":"B2094757D06AA2FF4198","title":"上海大学游泳馆(上大路馆)","lon":"121.3939042","lat":"31.319477768","category":"253","category_name":"校园生活","address":"宝山区上大路99号上海大学内(近南陈路)"},{"poiid":"B2094757D06AA1F4459D","title":"上海大学AJ楼","lon":"121.3967886","lat":"31.313536392","category":"253","category_name":"校园生活","address":"上海大学宝山校区"},{"poiid":"B2094757D06FA6FD429E","title":"上海大学食堂水秀餐厅","lon":"121.39508","lat":"31.31339","category":"68","category_name":"快餐厅","address":"宝山区上大路99号上海大学内(近南陈路)"},{"poiid":"B2094654D465A6FE4698","title":"上大附中","lon":"121.39102","lat":"31.30986","category":"55","category_name":"中学","address":"宝山区上大路88号(近上海大学)"},{"poiid":"B2094757D068A2FF429D","title":"上海大学南区第五食堂","lon":"121.38922894","lat":"31.31063311","category":"68","category_name":"快餐厅","address":"宝山区上大路89号上海大学宿舍南区内(近南陈路)"},{"poiid":"B2094654D465A5FD489B","title":"上大阳光乾宁园","lon":"121.40256","lat":"31.31156","category":"47","category_name":"住宅区","address":"上大路218弄1-67边门"},{"poiid":"B2094757D16DABFE479B","title":"慧华苑","lon":"121.39795","lat":"31.308802","category":"252","category_name":"楼宇机构","address":"上海市宝山区南陈路"},{"poiid":"B2094757D66AA4F54198","title":"瑞香阁 上大路店","lon":"121.3932","lat":"31.31143","category":"77","category_name":"湖南菜","address":"宝山区上大路680号(上海大学正门对面)"},{"poiid":"B2094757D16CABFA4893","title":"上海大学乐乎新楼","lon":"121.39066489","lat":"31.320437101","category":"500","category_name":"未知分类","address":"上海宝山区上大路99号上海大学宝山校区"},{"poiid":"B2094654D465A5FE469F","title":"永福庵","lon":"121.39812","lat":"31.31739","category":"244","category_name":"寺庙道观","address":"南陈路三五一弄2"},{"poiid":"B2094750D769A2FD4999","title":"在汉城(弘基店)","lon":"121.386","lat":"31.3152","category":"96","category_name":"韩国料理","address":"宝山区聚丰园路55号弘基广场2楼(近祁连山路)"},{"poiid":"B2094654D465A6FF429B","title":"上海大学工程技术训练中心","lon":"121.39618","lat":"31.31575","category":"52","category_name":"高等院校","address":""},{"poiid":"B2094757D068A3F94598","title":"南陈路地铁站","lon":"121.39719667","lat":"31.3213151126","category":"36","category_name":"地铁站","address":"上海轨道交通 七号线 轨交南陈路站 7"},{"poiid":"B2094757D568ABFF4193","title":"上大聚丰园一期","lon":"121.393464","lat":"31.315965","category":"47","category_name":"住宅区","address":"上海市宝山区上大路518号"},{"poiid":"B2094757D06AA2FE4399","title":"上海大学艺术中心","lon":"121.394165332","lat":"31.3184342454","category":"500","category_name":"未知分类","address":"宝山区上大路99号上海大学(近南陈路)"},{"poiid":"B2094655D26AA4FA459C","title":"上海大学外国专家食堂","lon":"121.39508","lat":"31.31339","category":"68","category_name":"快餐厅","address":"宝山区上大路99号上海大学内(近南陈路)"},{"poiid":"B2094757D06AAAF5479C","title":"水晶石教育(上大路中心)","lon":"121.39625","lat":"31.31091","category":"46","category_name":"楼宇","address":"宝山区上大路668号(上海大学南门对面)"},{"poiid":"B2094655D26AA2FE4293","title":"上大美院小吃吧","lon":"121.39508","lat":"31.31339","category":"68","category_name":"快餐厅","address":"宝山区上大路99号上大美院2楼(近南陈路)"},{"poiid":"B2094757D169A3F9479A","title":"上海大学篮球场","lon":"121.39508056","lat":"31.313390731","category":"220","category_name":"运动场所","address":"宝山区上大路99号上海大学内(近南陈路)"},{"poiid":"B2094757D568A5F8479C","title":"上大宝山校区","lon":"121.38943","lat":"31.31433","category":"52","category_name":"高等院校","address":"上大路99号"},{"poiid":"B2094757D568AAF54493","title":"上海大学宝山校区","lon":"121.395081","lat":"31.31339561","category":"52","category_name":"高等院校","address":"宝山区上大路99号(近南陈路)"},{"poiid":"B2094757D06FA3FC449A","title":"上海大学图书馆","lon":"121.39222717","lat":"31.316808771","category":"253","category_name":"校园生活","address":"宝山区上大路99号上海大学内(近南陈路)"},{"poiid":"B2094757D06FA1F44898","title":"上海大学宏基黑暗料理街","lon":"121.38597869","lat":"31.315303802","category":"111","category_name":"休闲餐饮场所","address":"宝山区聚丰园路5弄31号宏基广场附近(近上海大学)"},{"poiid":"B2094757D06EAAF44498","title":"上海大学地铁站","lon":"121.38904727","lat":"31.320612748","category":"36","category_name":"地铁站","address":"上海轨道交通 七号线 轨交上海大学站 7"},{"poiid":"B2094654DB6AA6FF419A","title":"上海大学A楼","lon":"121.39508","lat":"31.31339","category":"253","category_name":"校园生活","address":"上海市宝山区上大路99号"},{"poiid":"B2094757D06FA4FD4198","title":"上海大学体育馆(宝山校区)","lon":"121.39534807","lat":"31.319450285","category":"253","category_name":"校园生活","address":"宝山区上大路99号上海大学内(近南陈路)"},{"poiid":"B2094757D06FA2FA499B","title":"上海大学 D楼","lon":"121.39454084","lat":"31.314822947","category":"253","category_name":"校园生活","address":"上海宝山区上大路99号"},{"poiid":"B2094757D06FA0FF419F","title":"大地数字影院(弘基店)","lon":"121.38606388","lat":"31.315299962","category":"178","category_name":"电影院","address":"宝山区聚丰园路57弄3号弘基文化休闲广场1号楼商场3楼(近上海大学)"},{"poiid":"B2094757D06FA2F5429B","title":"锦秋花园","lon":"121.39028","lat":"31.321571","category":"47","category_name":"住宅区","address":"上海市宝山区锦秋路699弄"},{"poiid":"B2094654DB6AABF5419C","title":"新世纪大学生村","lon":"121.38644","lat":"31.314575","category":"47","category_name":"住宅区","address":"上大路1259号"},{"poiid":"B2094757D06FA7FA449F","title":"上海大学(宝山区校区)南区宿舍","lon":"121.38853115","lat":"31.310028861","category":"253","category_name":"校园生活","address":"上海宝山区上大路98号上海大学内"},{"poiid":"B2094757D068A4FB469D","title":"上海大学北门","lon":"121.3890661","lat":"31.3204244008","category":"52","category_name":"高等院校","address":"上海上大北门"},{"poiid":"B2094654D465A4FE4893","title":"弘基文化休闲广场","lon":"121.38684","lat":"31.31571","category":"248","category_name":"生活娱乐","address":"宝山区聚丰园路55号弘基广场31号(近祁连山路)"},{"poiid":"B2094757D06FA2FA419F","title":"上海大学 C楼","lon":"121.39499145","lat":"31.314401314","category":"253","category_name":"校园生活","address":"上海宝山区上大路99号"},{"poiid":"B2094757D06FABFD499B","title":"上海大学 B楼","lon":"121.39523821","lat":"31.31397968","category":"253","category_name":"校园生活","address":"上海宝山区上大路99号"},{"poiid":"B2094757D064A0FA4299","title":"上海大学东区","lon":"121.39891213","lat":"31.313104353","category":"500","category_name":"未知分类","address":"上海上大路599号"},{"poiid":"B2094757D064A0F9469E","title":"上海大学J楼","lon":"121.391373","lat":"31.313517","category":"253","category_name":"校园生活","address":"上海大学宝山校区J楼"},{"poiid":"B2094757D06FA4F4489A","title":"上海大学美术学院","lon":"121.39380055","lat":"31.312705599","category":"671","category_name":"高校中心点","address":"上海宝山区上大路99号上海大学宝山校区"},{"poiid":"B2094757D06FA6FC479B","title":"上海大学食堂益新餐厅","lon":"121.389242649","lat":"31.3161704631","category":"68","category_name":"快餐厅","address":"宝山区上大路99号上海大学内(近南陈路)"},{"poiid":"B2094757D06FA1FE409F","title":"上海大学食堂尔美餐厅","lon":"121.39132595","lat":"31.319344868","category":"68","category_name":"快餐厅","address":"宝山区上大路99号上海大学内(近南陈路)"},{"poiid":"B2094757D068A2F9429E","title":"上海大学 E楼","lon":"121.39420824","lat":"31.316014507","category":"500","category_name":"未知分类","address":"上海宝山区上大路99号"},{"poiid":"B2094757D06AA1FF4298","title":"上海大学伟长楼","lon":"121.39533525","lat":"31.3177140575","category":"500","category_name":"未知分类","address":"上大路99号近上海大学东门"},{"poiid":"B2094757D06FABFE4598","title":"三村米线","lon":"121.38589477","lat":"31.315925598","category":"83","category_name":"云贵菜","address":"上海聚丰园路43号"},{"poiid":"B2094757D06FABF84198","title":"上海大学食堂山明餐厅","lon":"121.38868475","lat":"31.317655307","category":"68","category_name":"快餐厅","address":"宝山区上大路99号上海大学内(近南陈路)"},{"poiid":"B2094757D068A1F4439B","title":"上海大学 F楼","lon":"121.393703992","lat":"31.3164544647","category":"253","category_name":"校园生活","address":"上海宝山区上大路99号"},{"poiid":"B2094757D065A5F5459F","title":"巨麦KTV(聚丰园路弘基广场)","lon":"121.386626974","lat":"31.3150604313","category":"170","category_name":"KTV","address":"宝山区聚丰园路55号弘基广场3楼(近上海大学)"},{"poiid":"B2094757D168A0F84699","title":"当代高邸","lon":"121.3907191527","lat":"31.322065402205","category":"500","category_name":"未知分类","address":"上海聚丰园路95弄和105弄"},{"poiid":"B2094757D06AA3F4499C","title":"上海大学G楼","lon":"121.39340358","lat":"31.316885253","category":"500","category_name":"未知分类","address":"上海宝山区上大路99号"},{"poiid":"B2094654D465A6F8409C","title":"学林苑","lon":"121.38508","lat":"31.314762","category":"47","category_name":"住宅区","address":"聚丰园路188弄"},{"poiid":"B2094654D465A5F84793","title":"上大南区","lon":"121.38874","lat":"31.31081","category":"47","category_name":"住宅区","address":"上大路98"},{"poiid":"B2094757D06AA2FF4198","title":"上海大学游泳馆(上大路馆)","lon":"121.3939042","lat":"31.319477768","category":"253","category_name":"校园生活","address":"宝山区上大路99号上海大学内(近南陈路)"},{"poiid":"B2094757D06AA1F4459D","title":"上海大学AJ楼","lon":"121.3967886","lat":"31.313536392","category":"253","category_name":"校园生活","address":"上海大学宝山校区"},{"poiid":"B2094757D06FA6FD429E","title":"上海大学食堂水秀餐厅","lon":"121.39508","lat":"31.31339","category":"68","category_name":"快餐厅","address":"宝山区上大路99号上海大学内(近南陈路)"},{"poiid":"B2094654D465A6FE4698","title":"上大附中","lon":"121.39102","lat":"31.30986","category":"55","category_name":"中学","address":"宝山区上大路88号(近上海大学)"},{"poiid":"B2094757D068A2FF429D","title":"上海大学南区第五食堂","lon":"121.38922894","lat":"31.31063311","category":"68","category_name":"快餐厅","address":"宝山区上大路89号上海大学宿舍南区内(近南陈路)"},{"poiid":"B2094654D465A5FD489B","title":"上大阳光乾宁园","lon":"121.40256","lat":"31.31156","category":"47","category_name":"住宅区","address":"上大路218弄1-67边门"},{"poiid":"B2094757D16DABFE479B","title":"慧华苑","lon":"121.39795","lat":"31.308802","category":"252","category_name":"楼宇机构","address":"上海市宝山区南陈路"},{"poiid":"B2094757D66AA4F54198","title":"瑞香阁 上大路店","lon":"121.3932","lat":"31.31143","category":"77","category_name":"湖南菜","address":"宝山区上大路680号(上海大学正门对面)"},{"poiid":"B2094757D16CABFA4893","title":"上海大学乐乎新楼","lon":"121.39066489","lat":"31.320437101","category":"500","category_name":"未知分类","address":"上海宝山区上大路99号上海大学宝山校区"},{"poiid":"B2094654D465A5FE469F","title":"永福庵","lon":"121.39812","lat":"31.31739","category":"244","category_name":"寺庙道观","address":"南陈路三五一弄2"},{"poiid":"B2094750D769A2FD4999","title":"在汉城(弘基店)","lon":"121.386","lat":"31.3152","category":"96","category_name":"韩国料理","address":"宝山区聚丰园路55号弘基广场2楼(近祁连山路)"},{"poiid":"B2094654D465A6FF429B","title":"上海大学工程技术训练中心","lon":"121.39618","lat":"31.31575","category":"52","category_name":"高等院校","address":""},{"poiid":"B2094757D068A3F94598","title":"南陈路地铁站","lon":"121.39719667","lat":"31.3213151126","category":"36","category_name":"地铁站","address":"上海轨道交通 七号线 轨交南陈路站 7"},{"poiid":"B2094757D568ABFF4193","title":"上大聚丰园一期","lon":"121.393464","lat":"31.315965","category":"47","category_name":"住宅区","address":"上海市宝山区上大路518号"},{"poiid":"B2094757D06AA2FE4399","title":"上海大学艺术中心","lon":"121.394165332","lat":"31.3184342454","category":"500","category_name":"未知分类","address":"宝山区上大路99号上海大学(近南陈路)"},{"poiid":"B2094655D26AA4FA459C","title":"上海大学外国专家食堂","lon":"121.39508","lat":"31.31339","category":"68","category_name":"快餐厅","address":"宝山区上大路99号上海大学内(近南陈路)"},{"poiid":"B2094757D06AAAF5479C","title":"水晶石教育(上大路中心)","lon":"121.39625","lat":"31.31091","category":"46","category_name":"楼宇","address":"宝山区上大路668号(上海大学南门对面)"},{"poiid":"B2094655D26AA2FE4293","title":"上大美院小吃吧","lon":"121.39508","lat":"31.31339","category":"68","category_name":"快餐厅","address":"宝山区上大路99号上大美院2楼(近南陈路)"},{"poiid":"B2094757D169A3F9479A","title":"上海大学篮球场","lon":"121.39508056","lat":"31.313390731","category":"220","category_name":"运动场所","address":"宝山区上大路99号上海大学内(近南陈路)"},{"poiid":"B2094757D568A5F8479C","title":"上大宝山校区","lon":"121.38943","lat":"31.31433","category":"52","category_name":"高等院校","address":"上大路99号"},{"poiid":"B2094757D568AAF54493","title":"上海大学宝山校区","lon":"121.395081","lat":"31.31339561","category":"52","category_name":"高等院校","address":"宝山区上大路99号(近南陈路)"},{"poiid":"B2094757D06FA3FC449A","title":"上海大学图书馆","lon":"121.39222717","lat":"31.316808771","category":"253","category_name":"校园生活","address":"宝山区上大路99号上海大学内(近南陈路)"},{"poiid":"B2094757D06FA1F44898","title":"上海大学宏基黑暗料理街","lon":"121.38597869","lat":"31.315303802","category":"111","category_name":"休闲餐饮场所","address":"宝山区聚丰园路5弄31号宏基广场附近(近上海大学)"},{"poiid":"B2094757D06EAAF44498","title":"上海大学地铁站","lon":"121.38904727","lat":"31.320612748","category":"36","category_name":"地铁站","address":"上海轨道交通 七号线 轨交上海大学站 7"},{"poiid":"B2094654DB6AA6FF419A","title":"上海大学A楼","lon":"121.39508","lat":"31.31339","category":"253","category_name":"校园生活","address":"上海市宝山区上大路99号"},{"poiid":"B2094757D06FA4FD4198","title":"上海大学体育馆(宝山校区)","lon":"121.39534807","lat":"31.319450285","category":"253","category_name":"校园生活","address":"宝山区上大路99号上海大学内(近南陈路)"},{"poiid":"B2094757D06FA2FA499B","title":"上海大学 D楼","lon":"121.39454084","lat":"31.314822947","category":"253","category_name":"校园生活","address":"上海宝山区上大路99号"},{"poiid":"B2094757D06FA0FF419F","title":"大地数字影院(弘基店)","lon":"121.38606388","lat":"31.315299962","category":"178","category_name":"电影院","address":"宝山区聚丰园路57弄3号弘基文化休闲广场1号楼商场3楼(近上海大学)"},{"poiid":"B2094757D06FA2F5429B","title":"锦秋花园","lon":"121.39028","lat":"31.321571","category":"47","category_name":"住宅区","address":"上海市宝山区锦秋路699弄"},{"poiid":"B2094654DB6AABF5419C","title":"新世纪大学生村","lon":"121.38644","lat":"31.314575","category":"47","category_name":"住宅区","address":"上大路1259号"},{"poiid":"B2094757D06FA7FA449F","title":"上海大学(宝山区校区)南区宿舍","lon":"121.38853115","lat":"31.310028861","category":"253","category_name":"校园生活","address":"上海宝山区上大路98号上海大学内"},{"poiid":"B2094757D068A4FB469D","title":"上海大学北门","lon":"121.3890661","lat":"31.3204244008","category":"52","category_name":"高等院校","address":"上海上大北门"},{"poiid":"B2094654D465A4FE4893","title":"弘基文化休闲广场","lon":"121.38684","lat":"31.31571","category":"248","category_name":"生活娱乐","address":"宝山区聚丰园路55号弘基广场31号(近祁连山路)"},{"poiid":"B2094757D06FA2FA419F","title":"上海大学 C楼","lon":"121.39499145","lat":"31.314401314","category":"253","category_name":"校园生活","address":"上海宝山区上大路99号"},{"poiid":"B2094757D06FABFD499B","title":"上海大学 B楼","lon":"121.39523821","lat":"31.31397968","category":"253","category_name":"校园生活","address":"上海宝山区上大路99号"},{"poiid":"B2094757D064A0FA4299","title":"上海大学东区","lon":"121.39891213","lat":"31.313104353","category":"500","category_name":"未知分类","address":"上海上大路599号"},{"poiid":"B2094757D064A0F9469E","title":"上海大学J楼","lon":"121.391373","lat":"31.313517","category":"253","category_name":"校园生活","address":"上海大学宝山校区J楼"},{"poiid":"B2094757D06FA4F4489A","title":"上海大学美术学院","lon":"121.39380055","lat":"31.312705599","category":"671","category_name":"高校中心点","address":"上海宝山区上大路99号上海大学宝山校区"},{"poiid":"B2094757D06FA6FC479B","title":"上海大学食堂益新餐厅","lon":"121.389242649","lat":"31.3161704631","category":"68","category_name":"快餐厅","address":"宝山区上大路99号上海大学内(近南陈路)"},{"poiid":"B2094757D06FA1FE409F","title":"上海大学食堂尔美餐厅","lon":"121.39132595","lat":"31.319344868","category":"68","category_name":"快餐厅","address":"宝山区上大路99号上海大学内(近南陈路)"},{"poiid":"B2094757D068A2F9429E","title":"上海大学 E楼","lon":"121.39420824","lat":"31.316014507","category":"500","category_name":"未知分类","address":"上海宝山区上大路99号"},{"poiid":"B2094757D06AA1FF4298","title":"上海大学伟长楼","lon":"121.39533525","lat":"31.3177140575","category":"500","category_name":"未知分类","address":"上大路99号近上海大学东门"},{"poiid":"B2094757D06FABFE4598","title":"三村米线","lon":"121.38589477","lat":"31.315925598","category":"83","category_name":"云贵菜","address":"上海聚丰园路43号"},{"poiid":"B2094757D06FABF84198","title":"上海大学食堂山明餐厅","lon":"121.38868475","lat":"31.317655307","category":"68","category_name":"快餐厅","address":"宝山区上大路99号上海大学内(近南陈路)"},{"poiid":"B2094757D068A1F4439B","title":"上海大学 F楼","lon":"121.393703992","lat":"31.3164544647","category":"253","category_name":"校园生活","address":"上海宝山区上大路99号"},{"poiid":"B2094757D065A5F5459F","title":"巨麦KTV(聚丰园路弘基广场)","lon":"121.386626974","lat":"31.3150604313","category":"170","category_name":"KTV","address":"宝山区聚丰园路55号弘基广场3楼(近上海大学)"},{"poiid":"B2094757D168A0F84699","title":"当代高邸","lon":"121.3907191527","lat":"31.322065402205","category":"500","category_name":"未知分类","address":"上海聚丰园路95弄和105弄"},{"poiid":"B2094757D06AA3F4499C","title":"上海大学G楼","lon":"121.39340358","lat":"31.316885253","category":"500","category_name":"未知分类","address":"上海宝山区上大路99号"},{"poiid":"B2094654D465A6F8409C","title":"学林苑","lon":"121.38508","lat":"31.314762","category":"47","category_name":"住宅区","address":"聚丰园路188弄"},{"poiid":"B2094654D465A5F84793","title":"上大南区","lon":"121.38874","lat":"31.31081","category":"47","category_name":"住宅区","address":"上大路98"},{"poiid":"B2094757D06AA2FF4198","title":"上海大学游泳馆(上大路馆)","lon":"121.3939042","lat":"31.319477768","category":"253","category_name":"校园生活","address":"宝山区上大路99号上海大学内(近南陈路)"},{"poiid":"B2094757D06AA1F4459D","title":"上海大学AJ楼","lon":"121.3967886","lat":"31.313536392","category":"253","category_name":"校园生活","address":"上海大学宝山校区"},{"poiid":"B2094757D06FA6FD429E","title":"上海大学食堂水秀餐厅","lon":"121.39508","lat":"31.31339","category":"68","category_name":"快餐厅","address":"宝山区上大路99号上海大学内(近南陈路)"},{"poiid":"B2094654D465A6FE4698","title":"上大附中","lon":"121.39102","lat":"31.30986","category":"55","category_name":"中学","address":"宝山区上大路88号(近上海大学)"},{"poiid":"B2094757D068A2FF429D","title":"上海大学南区第五食堂","lon":"121.38922894","lat":"31.31063311","category":"68","category_name":"快餐厅","address":"宝山区上大路89号上海大学宿舍南区内(近南陈路)"},{"poiid":"B2094654D465A5FD489B","title":"上大阳光乾宁园","lon":"121.40256","lat":"31.31156","category":"47","category_name":"住宅区","address":"上大路218弄1-67边门"},{"poiid":"B2094757D16DABFE479B","title":"慧华苑","lon":"121.39795","lat":"31.308802","category":"252","category_name":"楼宇机构","address":"上海市宝山区南陈路"},{"poiid":"B2094757D66AA4F54198","title":"瑞香阁 上大路店","lon":"121.3932","lat":"31.31143","category":"77","category_name":"湖南菜","address":"宝山区上大路680号(上海大学正门对面)"},{"poiid":"B2094757D16CABFA4893","title":"上海大学乐乎新楼","lon":"121.39066489","lat":"31.320437101","category":"500","category_name":"未知分类","address":"上海宝山区上大路99号上海大学宝山校区"},{"poiid":"B2094654D465A5FE469F","title":"永福庵","lon":"121.39812","lat":"31.31739","category":"244","category_name":"寺庙道观","address":"南陈路三五一弄2"},{"poiid":"B2094750D769A2FD4999","title":"在汉城(弘基店)","lon":"121.386","lat":"31.3152","category":"96","category_name":"韩国料理","address":"宝山区聚丰园路55号弘基广场2楼(近祁连山路)"},{"poiid":"B2094654D465A6FF429B","title":"上海大学工程技术训练中心","lon":"121.39618","lat":"31.31575","category":"52","category_name":"高等院校","address":""},{"poiid":"B2094757D068A3F94598","title":"南陈路地铁站","lon":"121.39719667","lat":"31.3213151126","category":"36","category_name":"地铁站","address":"上海轨道交通 七号线 轨交南陈路站 7"},{"poiid":"B2094757D568ABFF4193","title":"上大聚丰园一期","lon":"121.393464","lat":"31.315965","category":"47","category_name":"住宅区","address":"上海市宝山区上大路518号"},{"poiid":"B2094757D06AA2FE4399","title":"上海大学艺术中心","lon":"121.394165332","lat":"31.3184342454","category":"500","category_name":"未知分类","address":"宝山区上大路99号上海大学(近南陈路)"},{"poiid":"B2094655D26AA4FA459C","title":"上海大学外国专家食堂","lon":"121.39508","lat":"31.31339","category":"68","category_name":"快餐厅","address":"宝山区上大路99号上海大学内(近南陈路)"},{"poiid":"B2094757D06AAAF5479C","title":"水晶石教育(上大路中心)","lon":"121.39625","lat":"31.31091","category":"46","category_name":"楼宇","address":"宝山区上大路668号(上海大学南门对面)"},{"poiid":"B2094655D26AA2FE4293","title":"上大美院小吃吧","lon":"121.39508","lat":"31.31339","category":"68","category_name":"快餐厅","address":"宝山区上大路99号上大美院2楼(近南陈路)"},{"poiid":"B2094757D169A3F9479A","title":"上海大学篮球场","lon":"121.39508056","lat":"31.313390731","category":"220","category_name":"运动场所","address":"宝山区上大路99号上海大学内(近南陈路)"},{"poiid":"B2094757D568A5F8479C","title":"上大宝山校区","lon":"121.38943","lat":"31.31433","category":"52","category_name":"高等院校","address":"上大路99号"},{"poiid":"B2094757D568AAF54493","title":"上海大学宝山校区","lon":"121.395081","lat":"31.31339561","category":"52","category_name":"高等院校","address":"宝山区上大路99号(近南陈路)"},{"poiid":"B2094757D06FA3FC449A","title":"上海大学图书馆","lon":"121.39222717","lat":"31.316808771","category":"253","category_name":"校园生活","address":"宝山区上大路99号上海大学内(近南陈路)"},{"poiid":"B2094757D06FA1F44898","title":"上海大学宏基黑暗料理街","lon":"121.38597869","lat":"31.315303802","category":"111","category_name":"休闲餐饮场所","address":"宝山区聚丰园路5弄31号宏基广场附近(近上海大学)"},{"poiid":"B2094757D06EAAF44498","title":"上海大学地铁站","lon":"121.38904727","lat":"31.320612748","category":"36","category_name":"地铁站","address":"上海轨道交通 七号线 轨交上海大学站 7"},{"poiid":"B2094654DB6AA6FF419A","title":"上海大学A楼","lon":"121.39508","lat":"31.31339","category":"253","category_name":"校园生活","address":"上海市宝山区上大路99号"},{"poiid":"B2094757D06FA4FD4198","title":"上海大学体育馆(宝山校区)","lon":"121.39534807","lat":"31.319450285","category":"253","category_name":"校园生活","address":"宝山区上大路99号上海大学内(近南陈路)"},{"poiid":"B2094757D06FA2FA499B","title":"上海大学 D楼","lon":"121.39454084","lat":"31.314822947","category":"253","category_name":"校园生活","address":"上海宝山区上大路99号"},{"poiid":"B2094757D06FA0FF419F","title":"大地数字影院(弘基店)","lon":"121.38606388","lat":"31.315299962","category":"178","category_name":"电影院","address":"宝山区聚丰园路57弄3号弘基文化休闲广场1号楼商场3楼(近上海大学)"},{"poiid":"B2094757D06FA2F5429B","title":"锦秋花园","lon":"121.39028","lat":"31.321571","category":"47","category_name":"住宅区","address":"上海市宝山区锦秋路699弄"},{"poiid":"B2094654DB6AABF5419C","title":"新世纪大学生村","lon":"121.38644","lat":"31.314575","category":"47","category_name":"住宅区","address":"上大路1259号"},{"poiid":"B2094757D06FA7FA449F","title":"上海大学(宝山区校区)南区宿舍","lon":"121.38853115","lat":"31.310028861","category":"253","category_name":"校园生活","address":"上海宝山区上大路98号上海大学内"},{"poiid":"B2094757D068A4FB469D","title":"上海大学北门","lon":"121.3890661","lat":"31.3204244008","category":"52","category_name":"高等院校","address":"上海上大北门"},{"poiid":"B2094654D465A4FE4893","title":"弘基文化休闲广场","lon":"121.38684","lat":"31.31571","category":"248","category_name":"生活娱乐","address":"宝山区聚丰园路55号弘基广场31号(近祁连山路)"},{"poiid":"B2094757D06FA2FA419F","title":"上海大学 C楼","lon":"121.39499145","lat":"31.314401314","category":"253","category_name":"校园生活","address":"上海宝山区上大路99号"},{"poiid":"B2094757D06FABFD499B","title":"上海大学 B楼","lon":"121.39523821","lat":"31.31397968","category":"253","category_name":"校园生活","address":"上海宝山区上大路99号"},{"poiid":"B2094757D064A0FA4299","title":"上海大学东区","lon":"121.39891213","lat":"31.313104353","category":"500","category_name":"未知分类","address":"上海上大路599号"},{"poiid":"B2094757D064A0F9469E","title":"上海大学J楼","lon":"121.391373","lat":"31.313517","category":"253","category_name":"校园生活","address":"上海大学宝山校区J楼"},{"poiid":"B2094757D06FA4F4489A","title":"上海大学美术学院","lon":"121.39380055","lat":"31.312705599","category":"671","category_name":"高校中心点","address":"上海宝山区上大路99号上海大学宝山校区"},{"poiid":"B2094757D06FA6FC479B","title":"上海大学食堂益新餐厅","lon":"121.389242649","lat":"31.3161704631","category":"68","category_name":"快餐厅","address":"宝山区上大路99号上海大学内(近南陈路)"},{"poiid":"B2094757D06FA1FE409F","title":"上海大学食堂尔美餐厅","lon":"121.39132595","lat":"31.319344868","category":"68","category_name":"快餐厅","address":"宝山区上大路99号上海大学内(近南陈路)"},{"poiid":"B2094757D068A2F9429E","title":"上海大学 E楼","lon":"121.39420824","lat":"31.316014507","category":"500","category_name":"未知分类","address":"上海宝山区上大路99号"},{"poiid":"B2094757D06AA1FF4298","title":"上海大学伟长楼","lon":"121.39533525","lat":"31.3177140575","category":"500","category_name":"未知分类","address":"上大路99号近上海大学东门"},{"poiid":"B2094757D06FABFE4598","title":"三村米线","lon":"121.38589477","lat":"31.315925598","category":"83","category_name":"云贵菜","address":"上海聚丰园路43号"},{"poiid":"B2094757D06FABF84198","title":"上海大学食堂山明餐厅","lon":"121.38868475","lat":"31.317655307","category":"68","category_name":"快餐厅","address":"宝山区上大路99号上海大学内(近南陈路)"},{"poiid":"B2094757D068A1F4439B","title":"上海大学 F楼","lon":"121.393703992","lat":"31.3164544647","category":"253","category_name":"校园生活","address":"上海宝山区上大路99号"},{"poiid":"B2094757D065A5F5459F","title":"巨麦KTV(聚丰园路弘基广场)","lon":"121.386626974","lat":"31.3150604313","category":"170","category_name":"KTV","address":"宝山区聚丰园路55号弘基广场3楼(近上海大学)"},{"poiid":"B2094757D168A0F84699","title":"当代高邸","lon":"121.3907191527","lat":"31.322065402205","category":"500","category_name":"未知分类","address":"上海聚丰园路95弄和105弄"},{"poiid":"B2094757D06AA3F4499C","title":"上海大学G楼","lon":"121.39340358","lat":"31.316885253","category":"500","category_name":"未知分类","address":"上海宝山区上大路99号"},{"poiid":"B2094654D465A6F8409C","title":"学林苑","lon":"121.38508","lat":"31.314762","category":"47","category_name":"住宅区","address":"聚丰园路188弄"},{"poiid":"B2094654D465A5F84793","title":"上大南区","lon":"121.38874","lat":"31.31081","category":"47","category_name":"住宅区","address":"上大路98"},{"poiid":"B2094757D06AA2FF4198","title":"上海大学游泳馆(上大路馆)","lon":"121.3939042","lat":"31.319477768","category":"253","category_name":"校园生活","address":"宝山区上大路99号上海大学内(近南陈路)"},{"poiid":"B2094757D06AA1F4459D","title":"上海大学AJ楼","lon":"121.3967886","lat":"31.313536392","category":"253","category_name":"校园生活","address":"上海大学宝山校区"},{"poiid":"B2094757D06FA6FD429E","title":"上海大学食堂水秀餐厅","lon":"121.39508","lat":"31.31339","category":"68","category_name":"快餐厅","address":"宝山区上大路99号上海大学内(近南陈路)"},{"poiid":"B2094654D465A6FE4698","title":"上大附中","lon":"121.39102","lat":"31.30986","category":"55","category_name":"中学","address":"宝山区上大路88号(近上海大学)"},{"poiid":"B2094757D068A2FF429D","title":"上海大学南区第五食堂","lon":"121.38922894","lat":"31.31063311","category":"68","category_name":"快餐厅","address":"宝山区上大路89号上海大学宿舍南区内(近南陈路)"},{"poiid":"B2094654D465A5FD489B","title":"上大阳光乾宁园","lon":"121.40256","lat":"31.31156","category":"47","category_name":"住宅区","address":"上大路218弄1-67边门"},{"poiid":"B2094757D16DABFE479B","title":"慧华苑","lon":"121.39795","lat":"31.308802","category":"252","category_name":"楼宇机构","address":"上海市宝山区南陈路"},{"poiid":"B2094757D66AA4F54198","title":"瑞香阁 上大路店","lon":"121.3932","lat":"31.31143","category":"77","category_name":"湖南菜","address":"宝山区上大路680号(上海大学正门对面)"},{"poiid":"B2094757D16CABFA4893","title":"上海大学乐乎新楼","lon":"121.39066489","lat":"31.320437101","category":"500","category_name":"未知分类","address":"上海宝山区上大路99号上海大学宝山校区"},{"poiid":"B2094654D465A5FE469F","title":"永福庵","lon":"121.39812","lat":"31.31739","category":"244","category_name":"寺庙道观","address":"南陈路三五一弄2"},{"poiid":"B2094750D769A2FD4999","title":"在汉城(弘基店)","lon":"121.386","lat":"31.3152","category":"96","category_name":"韩国料理","address":"宝山区聚丰园路55号弘基广场2楼(近祁连山路)"},{"poiid":"B2094654D465A6FF429B","title":"上海大学工程技术训练中心","lon":"121.39618","lat":"31.31575","category":"52","category_name":"高等院校","address":""},{"poiid":"B2094757D068A3F94598","title":"南陈路地铁站","lon":"121.39719667","lat":"31.3213151126","category":"36","category_name":"地铁站","address":"上海轨道交通 七号线 轨交南陈路站 7"},{"poiid":"B2094757D568ABFF4193","title":"上大聚丰园一期","lon":"121.393464","lat":"31.315965","category":"47","category_name":"住宅区","address":"上海市宝山区上大路518号"},{"poiid":"B2094757D06AA2FE4399","title":"上海大学艺术中心","lon":"121.394165332","lat":"31.3184342454","category":"500","category_name":"未知分类","address":"宝山区上大路99号上海大学(近南陈路)"},{"poiid":"B2094655D26AA4FA459C","title":"上海大学外国专家食堂","lon":"121.39508","lat":"31.31339","category":"68","category_name":"快餐厅","address":"宝山区上大路99号上海大学内(近南陈路)"},{"poiid":"B2094757D06AAAF5479C","title":"水晶石教育(上大路中心)","lon":"121.39625","lat":"31.31091","category":"46","category_name":"楼宇","address":"宝山区上大路668号(上海大学南门对面)"},{"poiid":"B2094655D26AA2FE4293","title":"上大美院小吃吧","lon":"121.39508","lat":"31.31339","category":"68","category_name":"快餐厅","address":"宝山区上大路99号上大美院2楼(近南陈路)"},{"poiid":"B2094757D169A3F9479A","title":"上海大学篮球场","lon":"121.39508056","lat":"31.313390731","category":"220","category_name":"运动场所","address":"宝山区上大路99号上海大学内(近南陈路)"}]