[{"poiid":"B2094757D164A7FC469E","title":"虹口龍之夢","lon":"121.472817403","lat":"31.2643187947","category":"119","category_name":"商场","address":"上海東江灣路444號龍之夢5樓"},{"poiid":"B2094654D56EA1F8449B","title":"上海市中医医院","lon":"121.47148","lat":"31.25943","category":"162","category_name":"医院","address":"闸北区芷江中路274"},{"poiid":"B2094757D068A1FE4498","title":"尚一汤(虹口龙之梦店)","lon":"121.476666388","lat":"31.263169685","category":"72","category_name":"广东菜","address":"虹口区西江湾路388号虹口凯德龙之梦购物中心620室(近虹口足球场)"},{"poiid":"B2094655D36CA6F44492","title":"东宝兴路中兴路","lon":"121.47758","lat":"31.26081","category":"38","category_name":"公交车站","address":"上海东宝兴路中兴路"},{"poiid":"B2094757D068A1F54499","title":"德克士(东宝兴路店)","lon":"121.47531","lat":"31.26272","category":"68","category_name":"快餐厅","address":"闸北区东宝兴路777号世纪联华1楼(近芷江中路)"},{"poiid":"B2094750D665A3F9469C","title":"鼎中鼎澳门豆捞(东宝兴路店)","lon":"121.475","lat":"31.263","category":"86","category_name":"火锅店","address":"虹口区东宝兴路777号世纪联华1楼(近芷江中路)"},{"poiid":"B2094757D06FA7F8439B","title":"世纪联华(东宝店)","lon":"121.47573","lat":"31.26202","category":"118","category_name":"超级市场","address":"上海闸北区东宝兴路777号(近芷江中路)"},{"poiid":"B2094757D16DA0F9499B","title":"东宝兴路芷江中路","lon":"121.4746851","lat":"31.262402254","category":"500","category_name":"未知分类","address":"上海市闸北区"},{"poiid":"B2094757D068A5F94799","title":"健康煮(虹口凯德龙之梦店)","lon":"121.475750003","lat":"31.2635136779","category":"86","category_name":"火锅店","address":"上海东江湾路444号凯德龙之梦B栋2楼"},{"poiid":"B2094757D06FA1FB4799","title":"天通庵路客服中心","lon":"121.475173","lat":"31.260955","category":"253","category_name":"校园生活","address":"上海天通庵路423号"},{"poiid":"B2094757D068A1FE449C","title":"开泰眼镜批发市场","lon":"121.47137","lat":"31.2622","category":"132","category_name":"眼镜店","address":"闸北区青云路452号(宝昌路口)"},{"poiid":"B2094654D56CA6F4459A","title":"胖子大排档","lon":"121.47555","lat":"31.2627","category":"68","category_name":"快餐厅","address":"闸北区芷江支路(东宝兴路芷江中路)"},{"poiid":"B2094757D068AAFA499E","title":"绿洲雅宾利二期","lon":"121.47327287","lat":"31.259555091","category":"47","category_name":"住宅区","address":"上海市闸北区宝昌路399弄"},{"poiid":"B2094752D665A2F54098","title":"食之秘（嘉杰国际店）","lon":"121.475081","lat":"31.25984","category":"247","category_name":"餐饮美食","address":"嘉杰国际广场"},{"poiid":"B2094654D56EA1FF4592","title":"上海市第六十中学","lon":"121.47238","lat":"31.26368","category":"55","category_name":"中学","address":"闸北区青云路323号(宝昌路青云路)"},{"poiid":"B209475CD169A3F9449B","title":"东方明珠","lon":"121.474914","lat":"31.261812","category":"500","category_name":"未知分类","address":"上海市 上海外滩"},{"poiid":"B2094757D069A6F54498","title":"小东北烧烤","lon":"121.47581","lat":"31.26189","category":"257","category_name":"中餐厅","address":"闸北区东宝兴路714号(近天通庵路)"},{"poiid":"B2094757D068ABFD429A","title":"再回首烧烤","lon":"121.47187","lat":"31.26296","category":"269","category_name":"烧烤","address":"闸北区青云路381号(近宝昌路)"},{"poiid":"B2094752D565A1FB4993","title":"虹口足球场","lon":"121.473479","lat":"31.261634","category":"220","category_name":"运动场所","address":null},{"poiid":"B2094654D56EA1F44399","title":"和颐苑","lon":"121.472375","lat":"31.262044","category":"47","category_name":"住宅区","address":"闸北区宝昌路659弄"},{"poiid":"B2094757D064A3FC4199","title":"上海基督教 闸北堂","lon":"121.474071","lat":"31.260398","category":"500","category_name":"未知分类","address":"上海宝通路340号(近中兴路)"},{"poiid":"B2094757D66BA1F8419A","title":"凯司令西点房 芷江店","lon":"121.472313054","lat":"31.260348793","category":"67","category_name":"甜品店","address":"闸北区芷江中路270号(近通阁路)"},{"poiid":"B2094757D169AAFB4792","title":"好友大排档","lon":"121.4758901","lat":"31.26315927","category":"68","category_name":"快餐厅","address":"闸北区东宝兴路681号(近世纪联华)"},{"poiid":"B2094753D66CA6F5499D","title":"上海市中医院","lon":"121.474791","lat":"31.261484","category":"162","category_name":"医院","address":"上海市 通阁路芷江中路"},{"poiid":"B2094757D16DA0FE4292","title":"天天大排档","lon":"121.47586","lat":"31.26252","category":"68","category_name":"快餐厅","address":"闸北区芷江支路(东宝兴路芷江中路)"},{"poiid":"B2094751DB6CA3FD459A","title":"海底捞火锅店(逸仙路店)","lon":"121.475008","lat":"31.262","category":"247","category_name":"餐饮美食","address":null},{"poiid":"B2094757D16EA0F5469D","title":"天通庵路","lon":"121.476906103","lat":"31.2635822793","category":"500","category_name":"未知分类","address":"上海天通庵路"},{"poiid":"B2094655D26FA6F8419A","title":"恒业公寓","lon":"121.47356","lat":"31.265381","category":"47","category_name":"住宅区","address":"上海恒业路388弄"},{"poiid":"B2094752D565A3F5499A","title":"和平影都","lon":"121.474892","lat":"31.262791","category":"178","category_name":"电影院","address":"西藏南路209号"},{"poiid":"B2094757D66BA4FC429E","title":"忠忠饮食店","lon":"121.475731054","lat":"31.262285793","category":"68","category_name":"快餐厅","address":"闸北区东宝兴路709号(近天通庵路)"},{"poiid":"B2094655D26CA0FD459B","title":"上海移动通信公司(天通庵路)","lon":"121.47517","lat":"31.26095","category":"263","category_name":"公司","address":"天通庵路423号"},{"poiid":"B2094757D065A2F5439B","title":"鲜鲜大排档","lon":"121.47588","lat":"31.26252","category":"257","category_name":"中餐厅","address":"闸北区芷江支路(东宝兴路芷江中路)"},{"poiid":"B2094757D16BAAFB439B","title":"南京鸭血粉丝汤","lon":"121.47139","lat":"31.26599","category":"68","category_name":"快餐厅","address":"闸北区东宝兴路753弄1号(近世纪联华)"},{"poiid":"B2094757D069A3FC479E","title":"梦影酒楼","lon":"121.47551","lat":"31.2594","category":"68","category_name":"快餐厅","address":"闸北区宝通路449号(宝通路中华新路)"},{"poiid":"B2094655D36DA7FB479C","title":"芷江中路","lon":"121.4739","lat":"31.26367","category":"38","category_name":"公交车站","address":""},{"poiid":"B2094654D56CA5FC4592","title":"广中路街道社区卫生服务中心口腔科","lon":"121.47419","lat":"31.26358","category":"162","category_name":"医院","address":"东宝兴路831"},{"poiid":"B209475CD36DA1FA4492","title":"小东烧烤 东宝兴路店","lon":"121.47561","lat":"31.26218","category":"87","category_name":"特色／地方风味餐厅","address":"东宝兴路714号(近天通庵路)"},{"poiid":"B2094654D56CA5FC469D","title":"永琪美容美发(东宝兴路)","lon":"121.47473","lat":"31.26323","category":"148","category_name":"美容美发店","address":"闸北区东宝兴路801号(近芷江中路)"},{"poiid":"B2094654DB69A4FB489E","title":"重庆鸡公煲 天通庵路店","lon":"121.47672","lat":"31.26331","category":"71","category_name":"四川菜","address":"虹口区天通庵路746号(横浜路天通庵路)"},{"poiid":"B2094654DB6BA3FB429E","title":"中国移动营业厅(天通庵路)","lon":"121.47527","lat":"31.2611","category":"151","category_name":"电讯营业厅","address":"天通庵路439号"},{"poiid":"B2094757D06AA3F8489F","title":"宝山社区文化活动中心","lon":"121.472676","lat":"31.259981","category":"500","category_name":"未知分类","address":"上海宝昌路533号。"},{"poiid":"B2094757D06AA3FF4992","title":"五木亭拉面 虹口足球场店","lon":"121.47333666","lat":"31.260626575","category":"247","category_name":"餐饮美食","address":"上海东江湾路444号5号门106室"},{"poiid":"B2094757D16EABF9469B","title":"路边烧烤摊","lon":"121.47628","lat":"31.26301","category":"68","category_name":"快餐厅","address":"虹口区天通庵路华昌路口(世纪联华对面)"},{"poiid":"B2094757D16BA6F9459C","title":"半夜","lon":"121.47328186","lat":"31.260614395","category":"247","category_name":"餐饮美食","address":"上海未知"},{"poiid":"B2094757D16CA6FE4198","title":"虹口青云别墅","lon":"121.47436475","lat":"31.262608975","category":"500","category_name":"未知分类","address":"上海青云路东宝兴路"},{"poiid":"B2094654D56EA1F9469F","title":"严家阁菜市场(天通庵路)","lon":"121.47543","lat":"31.26146","category":"117","category_name":"便民商店/便利店","address":""},{"poiid":"B2094654D56EA1FA449D","title":"紫光苑","lon":"121.47391","lat":"31.260046","category":"47","category_name":"住宅区","address":"上海市闸北区宝通路486号"},{"poiid":"B2094757D464A6F8439C","title":"洛鼎鸡 青云路店","lon":"121.473596054","lat":"31.264185793","category":"68","category_name":"快餐厅","address":"闸北区青云路321号六十中学旁(东宝兴路青云路)"},{"poiid":"B2094654D56EA1F9499E","title":"吉祥咸肉菜饭骨头汤(东宝兴路)","lon":"121.47659","lat":"31.26146","category":"68","category_name":"快餐厅","address":"闸北区东宝兴路618号(近中兴路)"},{"poiid":"B2094752D36DA5FB409B","title":"觅糖记meetdessert","lon":"121.4766484607424","lat":"31.2635149841269","category":"247","category_name":"餐饮美食","address":"甜爱路11号"},{"poiid":"B2094757D164A7FC469E","title":"虹口龍之夢","lon":"121.472817403","lat":"31.2643187947","category":"119","category_name":"商场","address":"上海東江灣路444號龍之夢5樓"},{"poiid":"B2094654D56EA1F8449B","title":"上海市中医医院","lon":"121.47148","lat":"31.25943","category":"162","category_name":"医院","address":"闸北区芷江中路274"},{"poiid":"B2094757D068A1FE4498","title":"尚一汤(虹口龙之梦店)","lon":"121.476666388","lat":"31.263169685","category":"72","category_name":"广东菜","address":"虹口区西江湾路388号虹口凯德龙之梦购物中心620室(近虹口足球场)"},{"poiid":"B2094655D36CA6F44492","title":"东宝兴路中兴路","lon":"121.47758","lat":"31.26081","category":"38","category_name":"公交车站","address":"上海东宝兴路中兴路"},{"poiid":"B2094757D068A1F54499","title":"德克士(东宝兴路店)","lon":"121.47531","lat":"31.26272","category":"68","category_name":"快餐厅","address":"闸北区东宝兴路777号世纪联华1楼(近芷江中路)"},{"poiid":"B2094750D665A3F9469C","title":"鼎中鼎澳门豆捞(东宝兴路店)","lon":"121.475","lat":"31.263","category":"86","category_name":"火锅店","address":"虹口区东宝兴路777号世纪联华1楼(近芷江中路)"},{"poiid":"B2094757D06FA7F8439B","title":"世纪联华(东宝店)","lon":"121.47573","lat":"31.26202","category":"118","category_name":"超级市场","address":"上海闸北区东宝兴路777号(近芷江中路)"},{"poiid":"B2094757D16DA0F9499B","title":"东宝兴路芷江中路","lon":"121.4746851","lat":"31.262402254","category":"500","category_name":"未知分类","address":"上海市闸北区"},{"poiid":"B2094757D068A5F94799","title":"健康煮(虹口凯德龙之梦店)","lon":"121.475750003","lat":"31.2635136779","category":"86","category_name":"火锅店","address":"上海东江湾路444号凯德龙之梦B栋2楼"},{"poiid":"B2094757D06FA1FB4799","title":"天通庵路客服中心","lon":"121.475173","lat":"31.260955","category":"253","category_name":"校园生活","address":"上海天通庵路423号"},{"poiid":"B2094757D068A1FE449C","title":"开泰眼镜批发市场","lon":"121.47137","lat":"31.2622","category":"132","category_name":"眼镜店","address":"闸北区青云路452号(宝昌路口)"},{"poiid":"B2094654D56CA6F4459A","title":"胖子大排档","lon":"121.47555","lat":"31.2627","category":"68","category_name":"快餐厅","address":"闸北区芷江支路(东宝兴路芷江中路)"},{"poiid":"B2094757D068AAFA499E","title":"绿洲雅宾利二期","lon":"121.47327287","lat":"31.259555091","category":"47","category_name":"住宅区","address":"上海市闸北区宝昌路399弄"},{"poiid":"B2094752D665A2F54098","title":"食之秘（嘉杰国际店）","lon":"121.475081","lat":"31.25984","category":"247","category_name":"餐饮美食","address":"嘉杰国际广场"},{"poiid":"B2094654D56EA1FF4592","title":"上海市第六十中学","lon":"121.47238","lat":"31.26368","category":"55","category_name":"中学","address":"闸北区青云路323号(宝昌路青云路)"},{"poiid":"B209475CD169A3F9449B","title":"东方明珠","lon":"121.474914","lat":"31.261812","category":"500","category_name":"未知分类","address":"上海市 上海外滩"},{"poiid":"B2094757D069A6F54498","title":"小东北烧烤","lon":"121.47581","lat":"31.26189","category":"257","category_name":"中餐厅","address":"闸北区东宝兴路714号(近天通庵路)"},{"poiid":"B2094757D068ABFD429A","title":"再回首烧烤","lon":"121.47187","lat":"31.26296","category":"269","category_name":"烧烤","address":"闸北区青云路381号(近宝昌路)"},{"poiid":"B2094752D565A1FB4993","title":"虹口足球场","lon":"121.473479","lat":"31.261634","category":"220","category_name":"运动场所","address":null},{"poiid":"B2094654D56EA1F44399","title":"和颐苑","lon":"121.472375","lat":"31.262044","category":"47","category_name":"住宅区","address":"闸北区宝昌路659弄"},{"poiid":"B2094757D064A3FC4199","title":"上海基督教 闸北堂","lon":"121.474071","lat":"31.260398","category":"500","category_name":"未知分类","address":"上海宝通路340号(近中兴路)"},{"poiid":"B2094757D66BA1F8419A","title":"凯司令西点房 芷江店","lon":"121.472313054","lat":"31.260348793","category":"67","category_name":"甜品店","address":"闸北区芷江中路270号(近通阁路)"},{"poiid":"B2094757D169AAFB4792","title":"好友大排档","lon":"121.4758901","lat":"31.26315927","category":"68","category_name":"快餐厅","address":"闸北区东宝兴路681号(近世纪联华)"},{"poiid":"B2094753D66CA6F5499D","title":"上海市中医院","lon":"121.474791","lat":"31.261484","category":"162","category_name":"医院","address":"上海市 通阁路芷江中路"},{"poiid":"B2094757D16DA0FE4292","title":"天天大排档","lon":"121.47586","lat":"31.26252","category":"68","category_name":"快餐厅","address":"闸北区芷江支路(东宝兴路芷江中路)"},{"poiid":"B2094751DB6CA3FD459A","title":"海底捞火锅店(逸仙路店)","lon":"121.475008","lat":"31.262","category":"247","category_name":"餐饮美食","address":null},{"poiid":"B2094757D16EA0F5469D","title":"天通庵路","lon":"121.476906103","lat":"31.2635822793","category":"500","category_name":"未知分类","address":"上海天通庵路"},{"poiid":"B2094655D26FA6F8419A","title":"恒业公寓","lon":"121.47356","lat":"31.265381","category":"47","category_name":"住宅区","address":"上海恒业路388弄"},{"poiid":"B2094752D565A3F5499A","title":"和平影都","lon":"121.474892","lat":"31.262791","category":"178","category_name":"电影院","address":"西藏南路209号"},{"poiid":"B2094757D66BA4FC429E","title":"忠忠饮食店","lon":"121.475731054","lat":"31.262285793","category":"68","category_name":"快餐厅","address":"闸北区东宝兴路709号(近天通庵路)"},{"poiid":"B2094655D26CA0FD459B","title":"上海移动通信公司(天通庵路)","lon":"121.47517","lat":"31.26095","category":"263","category_name":"公司","address":"天通庵路423号"},{"poiid":"B2094757D065A2F5439B","title":"鲜鲜大排档","lon":"121.47588","lat":"31.26252","category":"257","category_name":"中餐厅","address":"闸北区芷江支路(东宝兴路芷江中路)"},{"poiid":"B2094757D16BAAFB439B","title":"南京鸭血粉丝汤","lon":"121.47139","lat":"31.26599","category":"68","category_name":"快餐厅","address":"闸北区东宝兴路753弄1号(近世纪联华)"},{"poiid":"B2094757D069A3FC479E","title":"梦影酒楼","lon":"121.47551","lat":"31.2594","category":"68","category_name":"快餐厅","address":"闸北区宝通路449号(宝通路中华新路)"},{"poiid":"B2094655D36DA7FB479C","title":"芷江中路","lon":"121.4739","lat":"31.26367","category":"38","category_name":"公交车站","address":""},{"poiid":"B2094654D56CA5FC4592","title":"广中路街道社区卫生服务中心口腔科","lon":"121.47419","lat":"31.26358","category":"162","category_name":"医院","address":"东宝兴路831"},{"poiid":"B209475CD36DA1FA4492","title":"小东烧烤 东宝兴路店","lon":"121.47561","lat":"31.26218","category":"87","category_name":"特色／地方风味餐厅","address":"东宝兴路714号(近天通庵路)"},{"poiid":"B2094654D56CA5FC469D","title":"永琪美容美发(东宝兴路)","lon":"121.47473","lat":"31.26323","category":"148","category_name":"美容美发店","address":"闸北区东宝兴路801号(近芷江中路)"},{"poiid":"B2094654DB69A4FB489E","title":"重庆鸡公煲 天通庵路店","lon":"121.47672","lat":"31.26331","category":"71","category_name":"四川菜","address":"虹口区天通庵路746号(横浜路天通庵路)"},{"poiid":"B2094654DB6BA3FB429E","title":"中国移动营业厅(天通庵路)","lon":"121.47527","lat":"31.2611","category":"151","category_name":"电讯营业厅","address":"天通庵路439号"},{"poiid":"B2094757D06AA3F8489F","title":"宝山社区文化活动中心","lon":"121.472676","lat":"31.259981","category":"500","category_name":"未知分类","address":"上海宝昌路533号。"},{"poiid":"B2094757D06AA3FF4992","title":"五木亭拉面 虹口足球场店","lon":"121.47333666","lat":"31.260626575","category":"247","category_name":"餐饮美食","address":"上海东江湾路444号5号门106室"},{"poiid":"B2094757D16EABF9469B","title":"路边烧烤摊","lon":"121.47628","lat":"31.26301","category":"68","category_name":"快餐厅","address":"虹口区天通庵路华昌路口(世纪联华对面)"},{"poiid":"B2094757D16BA6F9459C","title":"半夜","lon":"121.47328186","lat":"31.260614395","category":"247","category_name":"餐饮美食","address":"上海未知"},{"poiid":"B2094757D16CA6FE4198","title":"虹口青云别墅","lon":"121.47436475","lat":"31.262608975","category":"500","category_name":"未知分类","address":"上海青云路东宝兴路"},{"poiid":"B2094654D56EA1F9469F","title":"严家阁菜市场(天通庵路)","lon":"121.47543","lat":"31.26146","category":"117","category_name":"便民商店/便利店","address":""},{"poiid":"B2094654D56EA1FA449D","title":"紫光苑","lon":"121.47391","lat":"31.260046","category":"47","category_name":"住宅区","address":"上海市闸北区宝通路486号"},{"poiid":"B2094757D464A6F8439C","title":"洛鼎鸡 青云路店","lon":"121.473596054","lat":"31.264185793","category":"68","category_name":"快餐厅","address":"闸北区青云路321号六十中学旁(东宝兴路青云路)"},{"poiid":"B2094654D56EA1F9499E","title":"吉祥咸肉菜饭骨头汤(东宝兴路)","lon":"121.47659","lat":"31.26146","category":"68","category_name":"快餐厅","address":"闸北区东宝兴路618号(近中兴路)"},{"poiid":"B2094752D36DA5FB409B","title":"觅糖记meetdessert","lon":"121.4766484607424","lat":"31.2635149841269","category":"247","category_name":"餐饮美食","address":"甜爱路11号"},{"poiid":"B2094757D164A7FC469E","title":"虹口龍之夢","lon":"121.472817403","lat":"31.2643187947","category":"119","category_name":"商场","address":"上海東江灣路444號龍之夢5樓"},{"poiid":"B2094654D56EA1F8449B","title":"上海市中医医院","lon":"121.47148","lat":"31.25943","category":"162","category_name":"医院","address":"闸北区芷江中路274"},{"poiid":"B2094757D068A1FE4498","title":"尚一汤(虹口龙之梦店)","lon":"121.476666388","lat":"31.263169685","category":"72","category_name":"广东菜","address":"虹口区西江湾路388号虹口凯德龙之梦购物中心620室(近虹口足球场)"},{"poiid":"B2094655D36CA6F44492","title":"东宝兴路中兴路","lon":"121.47758","lat":"31.26081","category":"38","category_name":"公交车站","address":"上海东宝兴路中兴路"},{"poiid":"B2094757D068A1F54499","title":"德克士(东宝兴路店)","lon":"121.47531","lat":"31.26272","category":"68","category_name":"快餐厅","address":"闸北区东宝兴路777号世纪联华1楼(近芷江中路)"},{"poiid":"B2094750D665A3F9469C","title":"鼎中鼎澳门豆捞(东宝兴路店)","lon":"121.475","lat":"31.263","category":"86","category_name":"火锅店","address":"虹口区东宝兴路777号世纪联华1楼(近芷江中路)"},{"poiid":"B2094757D06FA7F8439B","title":"世纪联华(东宝店)","lon":"121.47573","lat":"31.26202","category":"118","category_name":"超级市场","address":"上海闸北区东宝兴路777号(近芷江中路)"},{"poiid":"B2094757D16DA0F9499B","title":"东宝兴路芷江中路","lon":"121.4746851","lat":"31.262402254","category":"500","category_name":"未知分类","address":"上海市闸北区"},{"poiid":"B2094757D068A5F94799","title":"健康煮(虹口凯德龙之梦店)","lon":"121.475750003","lat":"31.2635136779","category":"86","category_name":"火锅店","address":"上海东江湾路444号凯德龙之梦B栋2楼"},{"poiid":"B2094757D06FA1FB4799","title":"天通庵路客服中心","lon":"121.475173","lat":"31.260955","category":"253","category_name":"校园生活","address":"上海天通庵路423号"},{"poiid":"B2094757D068A1FE449C","title":"开泰眼镜批发市场","lon":"121.47137","lat":"31.2622","category":"132","category_name":"眼镜店","address":"闸北区青云路452号(宝昌路口)"},{"poiid":"B2094654D56CA6F4459A","title":"胖子大排档","lon":"121.47555","lat":"31.2627","category":"68","category_name":"快餐厅","address":"闸北区芷江支路(东宝兴路芷江中路)"},{"poiid":"B2094757D068AAFA499E","title":"绿洲雅宾利二期","lon":"121.47327287","lat":"31.259555091","category":"47","category_name":"住宅区","address":"上海市闸北区宝昌路399弄"},{"poiid":"B2094752D665A2F54098","title":"食之秘（嘉杰国际店）","lon":"121.475081","lat":"31.25984","category":"247","category_name":"餐饮美食","address":"嘉杰国际广场"},{"poiid":"B2094654D56EA1FF4592","title":"上海市第六十中学","lon":"121.47238","lat":"31.26368","category":"55","category_name":"中学","address":"闸北区青云路323号(宝昌路青云路)"},{"poiid":"B209475CD169A3F9449B","title":"东方明珠","lon":"121.474914","lat":"31.261812","category":"500","category_name":"未知分类","address":"上海市 上海外滩"},{"poiid":"B2094757D069A6F54498","title":"小东北烧烤","lon":"121.47581","lat":"31.26189","category":"257","category_name":"中餐厅","address":"闸北区东宝兴路714号(近天通庵路)"},{"poiid":"B2094757D068ABFD429A","title":"再回首烧烤","lon":"121.47187","lat":"31.26296","category":"269","category_name":"烧烤","address":"闸北区青云路381号(近宝昌路)"},{"poiid":"B2094752D565A1FB4993","title":"虹口足球场","lon":"121.473479","lat":"31.261634","category":"220","category_name":"运动场所","address":null},{"poiid":"B2094654D56EA1F44399","title":"和颐苑","lon":"121.472375","lat":"31.262044","category":"47","category_name":"住宅区","address":"闸北区宝昌路659弄"},{"poiid":"B2094757D064A3FC4199","title":"上海基督教 闸北堂","lon":"121.474071","lat":"31.260398","category":"500","category_name":"未知分类","address":"上海宝通路340号(近中兴路)"},{"poiid":"B2094757D66BA1F8419A","title":"凯司令西点房 芷江店","lon":"121.472313054","lat":"31.260348793","category":"67","category_name":"甜品店","address":"闸北区芷江中路270号(近通阁路)"},{"poiid":"B2094757D169AAFB4792","title":"好友大排档","lon":"121.4758901","lat":"31.26315927","category":"68","category_name":"快餐厅","address":"闸北区东宝兴路681号(近世纪联华)"},{"poiid":"B2094753D66CA6F5499D","title":"上海市中医院","lon":"121.474791","lat":"31.261484","category":"162","category_name":"医院","address":"上海市 通阁路芷江中路"},{"poiid":"B2094757D16DA0FE4292","title":"天天大排档","lon":"121.47586","lat":"31.26252","category":"68","category_name":"快餐厅","address":"闸北区芷江支路(东宝兴路芷江中路)"},{"poiid":"B2094751DB6CA3FD459A","title":"海底捞火锅店(逸仙路店)","lon":"121.475008","lat":"31.262","category":"247","category_name":"餐饮美食","address":null},{"poiid":"B2094757D16EA0F5469D","title":"天通庵路","lon":"121.476906103","lat":"31.2635822793","category":"500","category_name":"未知分类","address":"上海天通庵路"},{"poiid":"B2094655D26FA6F8419A","title":"恒业公寓","lon":"121.47356","lat":"31.265381","category":"47","category_name":"住宅区","address":"上海恒业路388弄"},{"poiid":"B2094752D565A3F5499A","title":"和平影都","lon":"121.474892","lat":"31.262791","category":"178","category_name":"电影院","address":"西藏南路209号"},{"poiid":"B2094757D66BA4FC429E","title":"忠忠饮食店","lon":"121.475731054","lat":"31.262285793","category":"68","category_name":"快餐厅","address":"闸北区东宝兴路709号(近天通庵路)"},{"poiid":"B2094655D26CA0FD459B","title":"上海移动通信公司(天通庵路)","lon":"121.47517","lat":"31.26095","category":"263","category_name":"公司","address":"天通庵路423号"},{"poiid":"B2094757D065A2F5439B","title":"鲜鲜大排档","lon":"121.47588","lat":"31.26252","category":"257","category_name":"中餐厅","address":"闸北区芷江支路(东宝兴路芷江中路)"},{"poiid":"B2094757D16BAAFB439B","title":"南京鸭血粉丝汤","lon":"121.47139","lat":"31.26599","category":"68","category_name":"快餐厅","address":"闸北区东宝兴路753弄1号(近世纪联华)"},{"poiid":"B2094757D069A3FC479E","title":"梦影酒楼","lon":"121.47551","lat":"31.2594","category":"68","category_name":"快餐厅","address":"闸北区宝通路449号(宝通路中华新路)"},{"poiid":"B2094655D36DA7FB479C","title":"芷江中路","lon":"121.4739","lat":"31.26367","category":"38","category_name":"公交车站","address":""},{"poiid":"B2094654D56CA5FC4592","title":"广中路街道社区卫生服务中心口腔科","lon":"121.47419","lat":"31.26358","category":"162","category_name":"医院","address":"东宝兴路831"},{"poiid":"B209475CD36DA1FA4492","title":"小东烧烤 东宝兴路店","lon":"121.47561","lat":"31.26218","category":"87","category_name":"特色／地方风味餐厅","address":"东宝兴路714号(近天通庵路)"},{"poiid":"B2094654D56CA5FC469D","title":"永琪美容美发(东宝兴路)","lon":"121.47473","lat":"31.26323","category":"148","category_name":"美容美发店","address":"闸北区东宝兴路801号(近芷江中路)"},{"poiid":"B2094654DB69A4FB489E","title":"重庆鸡公煲 天通庵路店","lon":"121.47672","lat":"31.26331","category":"71","category_name":"四川菜","address":"虹口区天通庵路746号(横浜路天通庵路)"},{"poiid":"B2094654DB6BA3FB429E","title":"中国移动营业厅(天通庵路)","lon":"121.47527","lat":"31.2611","category":"151","category_name":"电讯营业厅","address":"天通庵路439号"},{"poiid":"B2094757D06AA3F8489F","title":"宝山社区文化活动中心","lon":"121.472676","lat":"31.259981","category":"500","category_name":"未知分类","address":"上海宝昌路533号。"},{"poiid":"B2094757D06AA3FF4992","title":"五木亭拉面 虹口足球场店","lon":"121.47333666","lat":"31.260626575","category":"247","category_name":"餐饮美食","address":"上海东江湾路444号5号门106室"},{"poiid":"B2094757D16EABF9469B","title":"路边烧烤摊","lon":"121.47628","lat":"31.26301","category":"68","category_name":"快餐厅","address":"虹口区天通庵路华昌路口(世纪联华对面)"},{"poiid":"B2094757D16BA6F9459C","title":"半夜","lon":"121.47328186","lat":"31.260614395","category":"247","category_name":"餐饮美食","address":"上海未知"},{"poiid":"B2094757D16CA6FE4198","title":"虹口青云别墅","lon":"121.47436475","lat":"31.262608975","category":"500","category_name":"未知分类","address":"上海青云路东宝兴路"},{"poiid":"B2094654D56EA1F9469F","title":"严家阁菜市场(天通庵路)","lon":"121.47543","lat":"31.26146","category":"117","category_name":"便民商店/便利店","address":""},{"poiid":"B2094654D56EA1FA449D","title":"紫光苑","lon":"121.47391","lat":"31.260046","category":"47","category_name":"住宅区","address":"上海市闸北区宝通路486号"},{"poiid":"B2094757D464A6F8439C","title":"洛鼎鸡 青云路店","lon":"121.473596054","lat":"31.264185793","category":"68","category_name":"快餐厅","address":"闸北区青云路321号六十中学旁(东宝兴路青云路)"},{"poiid":"B2094654D56EA1F9499E","title":"吉祥咸肉菜饭骨头汤(东宝兴路)","lon":"121.47659","lat":"31.26146","category":"68","category_name":"快餐厅","address":"闸北区东宝兴路618号(近中兴路)"},{"poiid":"B2094752D36DA5FB409B","title":"觅糖记meetdessert","lon":"121.4766484607424","lat":"31.2635149841269","category":"247","category_name":"餐饮美食","address":"甜爱路11号"},{"poiid":"B2094757D164A7FC469E","title":"虹口龍之夢","lon":"121.472817403","lat":"31.2643187947","category":"119","category_name":"商场","address":"上海東江灣路444號龍之夢5樓"},{"poiid":"B2094654D56EA1F8449B","title":"上海市中医医院","lon":"121.47148","lat":"31.25943","category":"162","category_name":"医院","address":"闸北区芷江中路274"},{"poiid":"B2094757D068A1FE4498","title":"尚一汤(虹口龙之梦店)","lon":"121.476666388","lat":"31.263169685","category":"72","category_name":"广东菜","address":"虹口区西江湾路388号虹口凯德龙之梦购物中心620室(近虹口足球场)"},{"poiid":"B2094655D36CA6F44492","title":"东宝兴路中兴路","lon":"121.47758","lat":"31.26081","category":"38","category_name":"公交车站","address":"上海东宝兴路中兴路"},{"poiid":"B2094757D068A1F54499","title":"德克士(东宝兴路店)","lon":"121.47531","lat":"31.26272","category":"68","category_name":"快餐厅","address":"闸北区东宝兴路777号世纪联华1楼(近芷江中路)"},{"poiid":"B2094750D665A3F9469C","title":"鼎中鼎澳门豆捞(东宝兴路店)","lon":"121.475","lat":"31.263","category":"86","category_name":"火锅店","address":"虹口区东宝兴路777号世纪联华1楼(近芷江中路)"},{"poiid":"B2094757D06FA7F8439B","title":"世纪联华(东宝店)","lon":"121.47573","lat":"31.26202","category":"118","category_name":"超级市场","address":"上海闸北区东宝兴路777号(近芷江中路)"},{"poiid":"B2094757D16DA0F9499B","title":"东宝兴路芷江中路","lon":"121.4746851","lat":"31.262402254","category":"500","category_name":"未知分类","address":"上海市闸北区"},{"poiid":"B2094757D068A5F94799","title":"健康煮(虹口凯德龙之梦店)","lon":"121.475750003","lat":"31.2635136779","category":"86","category_name":"火锅店","address":"上海东江湾路444号凯德龙之梦B栋2楼"},{"poiid":"B2094757D06FA1FB4799","title":"天通庵路客服中心","lon":"121.475173","lat":"31.260955","category":"253","category_name":"校园生活","address":"上海天通庵路423号"},{"poiid":"B2094757D068A1FE449C","title":"开泰眼镜批发市场","lon":"121.47137","lat":"31.2622","category":"132","category_name":"眼镜店","address":"闸北区青云路452号(宝昌路口)"},{"poiid":"B2094654D56CA6F4459A","title":"胖子大排档","lon":"121.47555","lat":"31.2627","category":"68","category_name":"快餐厅","address":"闸北区芷江支路(东宝兴路芷江中路)"},{"poiid":"B2094757D068AAFA499E","title":"绿洲雅宾利二期","lon":"121.47327287","lat":"31.259555091","category":"47","category_name":"住宅区","address":"上海市闸北区宝昌路399弄"},{"poiid":"B2094752D665A2F54098","title":"食之秘（嘉杰国际店）","lon":"121.475081","lat":"31.25984","category":"247","category_name":"餐饮美食","address":"嘉杰国际广场"},{"poiid":"B2094654D56EA1FF4592","title":"上海市第六十中学","lon":"121.47238","lat":"31.26368","category":"55","category_name":"中学","address":"闸北区青云路323号(宝昌路青云路)"},{"poiid":"B209475CD169A3F9449B","title":"东方明珠","lon":"121.474914","lat":"31.261812","category":"500","category_name":"未知分类","address":"上海市 上海外滩"},{"poiid":"B2094757D069A6F54498","title":"小东北烧烤","lon":"121.47581","lat":"31.26189","category":"257","category_name":"中餐厅","address":"闸北区东宝兴路714号(近天通庵路)"},{"poiid":"B2094757D068ABFD429A","title":"再回首烧烤","lon":"121.47187","lat":"31.26296","category":"269","category_name":"烧烤","address":"闸北区青云路381号(近宝昌路)"},{"poiid":"B2094752D565A1FB4993","title":"虹口足球场","lon":"121.473479","lat":"31.261634","category":"220","category_name":"运动场所","address":null},{"poiid":"B2094654D56EA1F44399","title":"和颐苑","lon":"121.472375","lat":"31.262044","category":"47","category_name":"住宅区","address":"闸北区宝昌路659弄"},{"poiid":"B2094757D064A3FC4199","title":"上海基督教 闸北堂","lon":"121.474071","lat":"31.260398","category":"500","category_name":"未知分类","address":"上海宝通路340号(近中兴路)"},{"poiid":"B2094757D66BA1F8419A","title":"凯司令西点房 芷江店","lon":"121.472313054","lat":"31.260348793","category":"67","category_name":"甜品店","address":"闸北区芷江中路270号(近通阁路)"},{"poiid":"B2094757D169AAFB4792","title":"好友大排档","lon":"121.4758901","lat":"31.26315927","category":"68","category_name":"快餐厅","address":"闸北区东宝兴路681号(近世纪联华)"},{"poiid":"B2094753D66CA6F5499D","title":"上海市中医院","lon":"121.474791","lat":"31.261484","category":"162","category_name":"医院","address":"上海市 通阁路芷江中路"},{"poiid":"B2094757D16DA0FE4292","title":"天天大排档","lon":"121.47586","lat":"31.26252","category":"68","category_name":"快餐厅","address":"闸北区芷江支路(东宝兴路芷江中路)"},{"poiid":"B2094751DB6CA3FD459A","title":"海底捞火锅店(逸仙路店)","lon":"121.475008","lat":"31.262","category":"247","category_name":"餐饮美食","address":null},{"poiid":"B2094757D16EA0F5469D","title":"天通庵路","lon":"121.476906103","lat":"31.2635822793","category":"500","category_name":"未知分类","address":"上海天通庵路"},{"poiid":"B2094655D26FA6F8419A","title":"恒业公寓","lon":"121.47356","lat":"31.265381","category":"47","category_name":"住宅区","address":"上海恒业路388弄"},{"poiid":"B2094752D565A3F5499A","title":"和平影都","lon":"121.474892","lat":"31.262791","category":"178","category_name":"电影院","address":"西藏南路209号"},{"poiid":"B2094757D66BA4FC429E","title":"忠忠饮食店","lon":"121.475731054","lat":"31.262285793","category":"68","category_name":"快餐厅","address":"闸北区东宝兴路709号(近天通庵路)"},{"poiid":"B2094655D26CA0FD459B","title":"上海移动通信公司(天通庵路)","lon":"121.47517","lat":"31.26095","category":"263","category_name":"公司","address":"天通庵路423号"},{"poiid":"B2094757D065A2F5439B","title":"鲜鲜大排档","lon":"121.47588","lat":"31.26252","category":"257","category_name":"中餐厅","address":"闸北区芷江支路(东宝兴路芷江中路)"},{"poiid":"B2094757D16BAAFB439B","title":"南京鸭血粉丝汤","lon":"121.47139","lat":"31.26599","category":"68","category_name":"快餐厅","address":"闸北区东宝兴路753弄1号(近世纪联华)"},{"poiid":"B2094757D069A3FC479E","title":"梦影酒楼","lon":"121.47551","lat":"31.2594","category":"68","category_name":"快餐厅","address":"闸北区宝通路449号(宝通路中华新路)"},{"poiid":"B2094655D36DA7FB479C","title":"芷江中路","lon":"121.4739","lat":"31.26367","category":"38","category_name":"公交车站","address":""},{"poiid":"B2094654D56CA5FC4592","title":"广中路街道社区卫生服务中心口腔科","lon":"121.47419","lat":"31.26358","category":"162","category_name":"医院","address":"东宝兴路831"},{"poiid":"B209475CD36DA1FA4492","title":"小东烧烤 东宝兴路店","lon":"121.47561","lat":"31.26218","category":"87","category_name":"特色／地方风味餐厅","address":"东宝兴路714号(近天通庵路)"},{"poiid":"B2094654D56CA5FC469D","title":"永琪美容美发(东宝兴路)","lon":"121.47473","lat":"31.26323","category":"148","category_name":"美容美发店","address":"闸北区东宝兴路801号(近芷江中路)"},{"poiid":"B2094654DB69A4FB489E","title":"重庆鸡公煲 天通庵路店","lon":"121.47672","lat":"31.26331","category":"71","category_name":"四川菜","address":"虹口区天通庵路746号(横浜路天通庵路)"},{"poiid":"B2094654DB6BA3FB429E","title":"中国移动营业厅(天通庵路)","lon":"121.47527","lat":"31.2611","category":"151","category_name":"电讯营业厅","address":"天通庵路439号"},{"poiid":"B2094757D06AA3F8489F","title":"宝山社区文化活动中心","lon":"121.472676","lat":"31.259981","category":"500","category_name":"未知分类","address":"上海宝昌路533号。"},{"poiid":"B2094757D06AA3FF4992","title":"五木亭拉面 虹口足球场店","lon":"121.47333666","lat":"31.260626575","category":"247","category_name":"餐饮美食","address":"上海东江湾路444号5号门106室"},{"poiid":"B2094757D16EABF9469B","title":"路边烧烤摊","lon":"121.47628","lat":"31.26301","category":"68","category_name":"快餐厅","address":"虹口区天通庵路华昌路口(世纪联华对面)"},{"poiid":"B2094757D16BA6F9459C","title":"半夜","lon":"121.47328186","lat":"31.260614395","category":"247","category_name":"餐饮美食","address":"上海未知"},{"poiid":"B2094757D16CA6FE4198","title":"虹口青云别墅","lon":"121.47436475","lat":"31.262608975","category":"500","category_name":"未知分类","address":"上海青云路东宝兴路"},{"poiid":"B2094654D56EA1F9469F","title":"严家阁菜市场(天通庵路)","lon":"121.47543","lat":"31.26146","category":"117","category_name":"便民商店/便利店","address":""},{"poiid":"B2094654D56EA1FA449D","title":"紫光苑","lon":"121.47391","lat":"31.260046","category":"47","category_name":"住宅区","address":"上海市闸北区宝通路486号"},{"poiid":"B2094757D464A6F8439C","title":"洛鼎鸡 青云路店","lon":"121.473596054","lat":"31.264185793","category":"68","category_name":"快餐厅","address":"闸北区青云路321号六十中学旁(东宝兴路青云路)"},{"poiid":"B2094654D56EA1F9499E","title":"吉祥咸肉菜饭骨头汤(东宝兴路)","lon":"121.47659","lat":"31.26146","category":"68","category_name":"快餐厅","address":"闸北区东宝兴路618号(近中兴路)"},{"poiid":"B2094752D36DA5FB409B","title":"觅糖记meetdessert","lon":"121.4766484607424","lat":"31.2635149841269","category":"247","category_name":"餐饮美食","address":"甜爱路11号"}]