[{"poiid":"B2094757D06FA1FE469B","title":"淞南公园","lon":"121.486744987","lat":"31.3410313325","category":"196","category_name":"公园","address":"上海宝山区淞良路300号(近淞发路)"},{"poiid":"B2094757D06FA1FA4492","title":"建配龙家居商城","lon":"121.49426833","lat":"31.339484868","category":"123","category_name":"家具建材市场","address":"宝山区长逸路15号建配龙市场内(近逸仙路)"},{"poiid":"B2094757D06FA4F8409B","title":"盛世宝邸","lon":"121.48964","lat":"31.33531","category":"47","category_name":"住宅区","address":"宝山区长江南路109号"},{"poiid":"B2094655D36DA7F5489E","title":"淞南镇","lon":"121.4843","lat":"31.34131","category":"38","category_name":"公交车站","address":"上海宝山区淞南镇"},{"poiid":"B2094757D66EA6FB459F","title":"♥HÖmЁ♥","lon":"121.490882603","lat":"31.339821674","category":"500","category_name":"未知分类","address":null},{"poiid":"B2094757D465A3FE4699","title":"宏亮海鲜大酒楼 淞发路店","lon":"121.483641054","lat":"31.341974793","category":"88","category_name":"海鲜酒楼","address":"宝山区淞发路918号世纪联华3楼(近长江南路)"},{"poiid":"B2094757D064A6FE459F","title":"淞南七村","lon":"121.4885992726","lat":"31.339706632077","category":"500","category_name":"未知分类","address":"长逸路50弄"},{"poiid":"B2094757D06FA6FC439E","title":"华浜新村","lon":"121.49277","lat":"31.350016","category":"47","category_name":"住宅区","address":"上海长江路军工路"},{"poiid":"B2094757D66BA3FA439F","title":"一崎碳烧 海伦生活广场店","lon":"121.4918308","lat":"31.3381991","category":"68","category_name":"快餐厅","address":"宝山区长逸路258号海伦精品生活广场1楼(近凇良路)"},{"poiid":"B2094757D06BA3FE499C","title":"淞南八村","lon":"121.487","lat":"31.3413","category":"252","category_name":"楼宇机构","address":"长江南路143号"},{"poiid":"B2094757D069A2FD439F","title":"新梅淞南苑","lon":"121.49153","lat":"31.33849","category":"47","category_name":"住宅区","address":"上海市宝山区长逸路301弄"},{"poiid":"B2094654D469AAFC4592","title":"凇南三村","lon":"121.49083","lat":"31.34357","category":"47","category_name":"住宅区","address":"淞南镇"},{"poiid":"B2094654D469AAFC4798","title":"长宏新苑","lon":"121.49244","lat":"31.342192","category":"47","category_name":"住宅区","address":"上海市普陀区武宁路492号"},{"poiid":"B2094757D465A1F84198","title":"豪皇海鲜大酒店","lon":"121.498222","lat":"31.340973","category":"72","category_name":"广东菜","address":"逸仙路3000号近长逸路"},{"poiid":"B2094757D069AAF4479A","title":"淞南镇社区卫生服务中心","lon":"121.48908448","lat":"31.342121041","category":"162","category_name":"医院","address":"宝山区淞良路301号(近淞南公园)"},{"poiid":"B2094757D569A6FF4098","title":"万临家园","lon":"121.48648","lat":"31.342659","category":"47","category_name":"住宅区","address":"淞发路500弄"},{"poiid":"B2094757D068A0FA429E","title":"淞南三村","lon":"121.498","lat":"31.3495","category":"47","category_name":"住宅区","address":"淞南路301号"},{"poiid":"B2094757D66BA7F5499A","title":"老北京热气涮羊肉","lon":"121.48841","lat":"31.3422","category":"86","category_name":"火锅店","address":"杨浦区国和路971号"},{"poiid":"B2094757D069A6FB4793","title":"新城尚景","lon":"121.4817034","lat":"31.343563222","category":"47","category_name":"住宅区","address":"上海宝山区淞肇路333弄"},{"poiid":"B2094757D06AA2FF449D","title":"乐翻天KTV(淞南店)","lon":"121.483616","lat":"31.341068","category":"170","category_name":"KTV","address":"上海长江南路淞发路(祥腾生活广场)"},{"poiid":"B2094750DA6EA6F8469E","title":"炫音KTV(淞南店)","lon":"121.490638","lat":"31.337848","category":"170","category_name":"KTV","address":"宝山区长逸路258号3幢海伦精致生活广场3楼01-14室"},{"poiid":"B2094757D064A1FE489A","title":"淞南六村","lon":"121.491","lat":"31.3424","category":"500","category_name":"未知分类","address":"上海市宝山区长逸路"},{"poiid":"B2094757D06BA2FC479B","title":"逸居苑","lon":"121.49728386","lat":"31.33884357","category":"47","category_name":"住宅区","address":"上海宝山区淞南路111弄"},{"poiid":"B2094757D16AA3FB459B","title":"永顺和苏州汤包馆","lon":"121.490074103","lat":"31.345169986","category":"68","category_name":"快餐厅","address":"宝山区淞南路338号(近淞南三村门口)"},{"poiid":"B2094757D06AA1FB499E","title":"永琪美容美发(淞南店)","lon":"121.49165","lat":"31.34391","category":"148","category_name":"美容美发店","address":"上海宝山区淞南路(近淞发路)"},{"poiid":"B2094757D068AAFA4792","title":"复旦软件园","lon":"121.494193","lat":"31.339586","category":"500","category_name":"未知分类","address":"上海宝山区长逸路15号"},{"poiid":"B2094655D36DA0FD4792","title":"新新五村","lon":"121.48773","lat":"31.33809","category":"38","category_name":"公交车站","address":""},{"poiid":"B2094655D265A0F8489B","title":"鎏园·中星新城","lon":"121.4983","lat":"31.34419","category":"47","category_name":"住宅区","address":"淞发路25号"},{"poiid":"B2094750D26BABF94598","title":"上海国际工业设计中心","lon":"121.496185","lat":"31.342046","category":"263","category_name":"公司","address":"宝山区逸仙路3000号(近长逸路)"},{"poiid":"B2094654D469AAFC459E","title":"上海市宝山区一钢医院","lon":"121.48574","lat":"31.34455","category":"162","category_name":"医院","address":"宝山区卫生科路111号"},{"poiid":"B2094654D46AA1FE429E","title":"上海仕迪百货","lon":"121.49149","lat":"31.34444","category":"119","category_name":"商场","address":""},{"poiid":"B2094654D469ABF5489C","title":"凇南地段医院","lon":"121.48909","lat":"31.34213","category":"162","category_name":"医院","address":"宝山区淞良路301号"},{"poiid":"B2094751D26BA2F8409E","title":"虹口龙之梦","lon":"121.487635","lat":"31.345108","category":"247","category_name":"餐饮美食","address":null},{"poiid":"B2094757D168AAF44499","title":"本山大酒店","lon":"121.49062","lat":"31.34702","category":"76","category_name":"上海菜","address":"宝山区淞南路360号(近三号线淞发路站)"},{"poiid":"B2094757D66AABFD429E","title":"品宴轩","lon":"121.481266054","lat":"31.343886793","category":"72","category_name":"广东菜","address":"宝山区长江南路717号(近淞发路)"},{"poiid":"B2094757D064AAF44199","title":"农工商(长逸路店)","lon":"121.490206803","lat":"31.3378116319","category":"118","category_name":"超级市场","address":"宝山区长逸路258号(近建配龙)"},{"poiid":"B2094757D064A1F8429C","title":"长江路","lon":"121.48506004","lat":"31.346489545","category":"500","category_name":"未知分类","address":"上海市宝山区长江路848弄"},{"poiid":"B2094655D36DA7F54899","title":"淞南医院","lon":"121.48751","lat":"31.34235","category":"162","category_name":"医院","address":""},{"poiid":"B2094654D46AA1FF409D","title":"良友金伴NO.151","lon":"121.49109","lat":"31.34523","category":"117","category_name":"便民商店/便利店","address":"淞南镇"},{"poiid":"B2094654D46AA1FE4298","title":"宝山社区协作网淞南镇图书馆","lon":"121.49168","lat":"31.34395","category":"181","category_name":"图书馆","address":"淞南路345"},{"poiid":"B2094654D46AA1FE409C","title":"可的(淞南路)","lon":"121.49173","lat":"31.34245","category":"117","category_name":"便民商店/便利店","address":""},{"poiid":"B2094655D26FA4FC499E","title":"好德","lon":"121.49105","lat":"31.34551","category":"117","category_name":"便民商店/便利店","address":""},{"poiid":"B2094757D06AA3F54792","title":"鹏程花苑","lon":"121.495","lat":"31.3436","category":"252","category_name":"楼宇机构","address":"上海长逸路388弄"},{"poiid":"B2094757D068A5FC429C","title":"Leungの屋企","lon":"121.48834548","lat":"31.343200584","category":"247","category_name":"餐饮美食","address":null},{"poiid":"B2094757D169AAFD409A","title":"混沌粉丝王","lon":"121.48614265","lat":"31.342688584","category":"68","category_name":"快餐厅","address":"宝山区淞良路(近淞发路)"},{"poiid":"B2094750D565A1FB419F","title":"蔡阿姨面馆","lon":"121.48883","lat":"31.34501","category":"68","category_name":"快餐厅","address":"宝山区淞南路427号"},{"poiid":"B2094654D46AA1FF4199","title":"新逸仙公寓","lon":"121.49521","lat":"31.346046","category":"47","category_name":"住宅区","address":"新逸仙公寓位于宝山逸仙路靠近长江路"},{"poiid":"B2094750D76DAAF8429F","title":"家香饭店","lon":"121.486","lat":"31.3465","category":"68","category_name":"快餐厅","address":"宝山区淞良路539号(近长江路)"},{"poiid":"B2094757D16CA3F44098","title":"713终点站","lon":"121.489205103","lat":"31.3424659294","category":"500","category_name":"未知分类","address":"上海淞南新村"},{"poiid":"B2094750D664A4FE4299","title":"大富贵酒楼小吃部(长逸路店)","lon":"121.491","lat":"31.3381","category":"68","category_name":"快餐厅","address":"宝山区长逸路(近淞良路)"},{"poiid":"B2094757D06FA1FE469B","title":"淞南公园","lon":"121.486744987","lat":"31.3410313325","category":"196","category_name":"公园","address":"上海宝山区淞良路300号(近淞发路)"},{"poiid":"B2094757D06FA1FA4492","title":"建配龙家居商城","lon":"121.49426833","lat":"31.339484868","category":"123","category_name":"家具建材市场","address":"宝山区长逸路15号建配龙市场内(近逸仙路)"},{"poiid":"B2094757D06FA4F8409B","title":"盛世宝邸","lon":"121.48964","lat":"31.33531","category":"47","category_name":"住宅区","address":"宝山区长江南路109号"},{"poiid":"B2094655D36DA7F5489E","title":"淞南镇","lon":"121.4843","lat":"31.34131","category":"38","category_name":"公交车站","address":"上海宝山区淞南镇"},{"poiid":"B2094757D66EA6FB459F","title":"♥HÖmЁ♥","lon":"121.490882603","lat":"31.339821674","category":"500","category_name":"未知分类","address":null},{"poiid":"B2094757D465A3FE4699","title":"宏亮海鲜大酒楼 淞发路店","lon":"121.483641054","lat":"31.341974793","category":"88","category_name":"海鲜酒楼","address":"宝山区淞发路918号世纪联华3楼(近长江南路)"},{"poiid":"B2094757D064A6FE459F","title":"淞南七村","lon":"121.4885992726","lat":"31.339706632077","category":"500","category_name":"未知分类","address":"长逸路50弄"},{"poiid":"B2094757D06FA6FC439E","title":"华浜新村","lon":"121.49277","lat":"31.350016","category":"47","category_name":"住宅区","address":"上海长江路军工路"},{"poiid":"B2094757D66BA3FA439F","title":"一崎碳烧 海伦生活广场店","lon":"121.4918308","lat":"31.3381991","category":"68","category_name":"快餐厅","address":"宝山区长逸路258号海伦精品生活广场1楼(近凇良路)"},{"poiid":"B2094757D06BA3FE499C","title":"淞南八村","lon":"121.487","lat":"31.3413","category":"252","category_name":"楼宇机构","address":"长江南路143号"},{"poiid":"B2094757D069A2FD439F","title":"新梅淞南苑","lon":"121.49153","lat":"31.33849","category":"47","category_name":"住宅区","address":"上海市宝山区长逸路301弄"},{"poiid":"B2094654D469AAFC4592","title":"凇南三村","lon":"121.49083","lat":"31.34357","category":"47","category_name":"住宅区","address":"淞南镇"},{"poiid":"B2094654D469AAFC4798","title":"长宏新苑","lon":"121.49244","lat":"31.342192","category":"47","category_name":"住宅区","address":"上海市普陀区武宁路492号"},{"poiid":"B2094757D465A1F84198","title":"豪皇海鲜大酒店","lon":"121.498222","lat":"31.340973","category":"72","category_name":"广东菜","address":"逸仙路3000号近长逸路"},{"poiid":"B2094757D069AAF4479A","title":"淞南镇社区卫生服务中心","lon":"121.48908448","lat":"31.342121041","category":"162","category_name":"医院","address":"宝山区淞良路301号(近淞南公园)"},{"poiid":"B2094757D569A6FF4098","title":"万临家园","lon":"121.48648","lat":"31.342659","category":"47","category_name":"住宅区","address":"淞发路500弄"},{"poiid":"B2094757D068A0FA429E","title":"淞南三村","lon":"121.498","lat":"31.3495","category":"47","category_name":"住宅区","address":"淞南路301号"},{"poiid":"B2094757D66BA7F5499A","title":"老北京热气涮羊肉","lon":"121.48841","lat":"31.3422","category":"86","category_name":"火锅店","address":"杨浦区国和路971号"},{"poiid":"B2094757D069A6FB4793","title":"新城尚景","lon":"121.4817034","lat":"31.343563222","category":"47","category_name":"住宅区","address":"上海宝山区淞肇路333弄"},{"poiid":"B2094757D06AA2FF449D","title":"乐翻天KTV(淞南店)","lon":"121.483616","lat":"31.341068","category":"170","category_name":"KTV","address":"上海长江南路淞发路(祥腾生活广场)"},{"poiid":"B2094750DA6EA6F8469E","title":"炫音KTV(淞南店)","lon":"121.490638","lat":"31.337848","category":"170","category_name":"KTV","address":"宝山区长逸路258号3幢海伦精致生活广场3楼01-14室"},{"poiid":"B2094757D064A1FE489A","title":"淞南六村","lon":"121.491","lat":"31.3424","category":"500","category_name":"未知分类","address":"上海市宝山区长逸路"},{"poiid":"B2094757D06BA2FC479B","title":"逸居苑","lon":"121.49728386","lat":"31.33884357","category":"47","category_name":"住宅区","address":"上海宝山区淞南路111弄"},{"poiid":"B2094757D16AA3FB459B","title":"永顺和苏州汤包馆","lon":"121.490074103","lat":"31.345169986","category":"68","category_name":"快餐厅","address":"宝山区淞南路338号(近淞南三村门口)"},{"poiid":"B2094757D06AA1FB499E","title":"永琪美容美发(淞南店)","lon":"121.49165","lat":"31.34391","category":"148","category_name":"美容美发店","address":"上海宝山区淞南路(近淞发路)"},{"poiid":"B2094757D068AAFA4792","title":"复旦软件园","lon":"121.494193","lat":"31.339586","category":"500","category_name":"未知分类","address":"上海宝山区长逸路15号"},{"poiid":"B2094655D36DA0FD4792","title":"新新五村","lon":"121.48773","lat":"31.33809","category":"38","category_name":"公交车站","address":""},{"poiid":"B2094655D265A0F8489B","title":"鎏园·中星新城","lon":"121.4983","lat":"31.34419","category":"47","category_name":"住宅区","address":"淞发路25号"},{"poiid":"B2094750D26BABF94598","title":"上海国际工业设计中心","lon":"121.496185","lat":"31.342046","category":"263","category_name":"公司","address":"宝山区逸仙路3000号(近长逸路)"},{"poiid":"B2094654D469AAFC459E","title":"上海市宝山区一钢医院","lon":"121.48574","lat":"31.34455","category":"162","category_name":"医院","address":"宝山区卫生科路111号"},{"poiid":"B2094654D46AA1FE429E","title":"上海仕迪百货","lon":"121.49149","lat":"31.34444","category":"119","category_name":"商场","address":""},{"poiid":"B2094654D469ABF5489C","title":"凇南地段医院","lon":"121.48909","lat":"31.34213","category":"162","category_name":"医院","address":"宝山区淞良路301号"},{"poiid":"B2094751D26BA2F8409E","title":"虹口龙之梦","lon":"121.487635","lat":"31.345108","category":"247","category_name":"餐饮美食","address":null},{"poiid":"B2094757D168AAF44499","title":"本山大酒店","lon":"121.49062","lat":"31.34702","category":"76","category_name":"上海菜","address":"宝山区淞南路360号(近三号线淞发路站)"},{"poiid":"B2094757D66AABFD429E","title":"品宴轩","lon":"121.481266054","lat":"31.343886793","category":"72","category_name":"广东菜","address":"宝山区长江南路717号(近淞发路)"},{"poiid":"B2094757D064AAF44199","title":"农工商(长逸路店)","lon":"121.490206803","lat":"31.3378116319","category":"118","category_name":"超级市场","address":"宝山区长逸路258号(近建配龙)"},{"poiid":"B2094757D064A1F8429C","title":"长江路","lon":"121.48506004","lat":"31.346489545","category":"500","category_name":"未知分类","address":"上海市宝山区长江路848弄"},{"poiid":"B2094655D36DA7F54899","title":"淞南医院","lon":"121.48751","lat":"31.34235","category":"162","category_name":"医院","address":""},{"poiid":"B2094654D46AA1FF409D","title":"良友金伴NO.151","lon":"121.49109","lat":"31.34523","category":"117","category_name":"便民商店/便利店","address":"淞南镇"},{"poiid":"B2094654D46AA1FE4298","title":"宝山社区协作网淞南镇图书馆","lon":"121.49168","lat":"31.34395","category":"181","category_name":"图书馆","address":"淞南路345"},{"poiid":"B2094654D46AA1FE409C","title":"可的(淞南路)","lon":"121.49173","lat":"31.34245","category":"117","category_name":"便民商店/便利店","address":""},{"poiid":"B2094655D26FA4FC499E","title":"好德","lon":"121.49105","lat":"31.34551","category":"117","category_name":"便民商店/便利店","address":""},{"poiid":"B2094757D06AA3F54792","title":"鹏程花苑","lon":"121.495","lat":"31.3436","category":"252","category_name":"楼宇机构","address":"上海长逸路388弄"},{"poiid":"B2094757D068A5FC429C","title":"Leungの屋企","lon":"121.48834548","lat":"31.343200584","category":"247","category_name":"餐饮美食","address":null},{"poiid":"B2094757D169AAFD409A","title":"混沌粉丝王","lon":"121.48614265","lat":"31.342688584","category":"68","category_name":"快餐厅","address":"宝山区淞良路(近淞发路)"},{"poiid":"B2094750D565A1FB419F","title":"蔡阿姨面馆","lon":"121.48883","lat":"31.34501","category":"68","category_name":"快餐厅","address":"宝山区淞南路427号"},{"poiid":"B2094654D46AA1FF4199","title":"新逸仙公寓","lon":"121.49521","lat":"31.346046","category":"47","category_name":"住宅区","address":"新逸仙公寓位于宝山逸仙路靠近长江路"},{"poiid":"B2094750D76DAAF8429F","title":"家香饭店","lon":"121.486","lat":"31.3465","category":"68","category_name":"快餐厅","address":"宝山区淞良路539号(近长江路)"},{"poiid":"B2094757D16CA3F44098","title":"713终点站","lon":"121.489205103","lat":"31.3424659294","category":"500","category_name":"未知分类","address":"上海淞南新村"},{"poiid":"B2094750D664A4FE4299","title":"大富贵酒楼小吃部(长逸路店)","lon":"121.491","lat":"31.3381","category":"68","category_name":"快餐厅","address":"宝山区长逸路(近淞良路)"},{"poiid":"B2094757D06FA1FE469B","title":"淞南公园","lon":"121.486744987","lat":"31.3410313325","category":"196","category_name":"公园","address":"上海宝山区淞良路300号(近淞发路)"},{"poiid":"B2094757D06FA1FA4492","title":"建配龙家居商城","lon":"121.49426833","lat":"31.339484868","category":"123","category_name":"家具建材市场","address":"宝山区长逸路15号建配龙市场内(近逸仙路)"},{"poiid":"B2094757D06FA4F8409B","title":"盛世宝邸","lon":"121.48964","lat":"31.33531","category":"47","category_name":"住宅区","address":"宝山区长江南路109号"},{"poiid":"B2094655D36DA7F5489E","title":"淞南镇","lon":"121.4843","lat":"31.34131","category":"38","category_name":"公交车站","address":"上海宝山区淞南镇"},{"poiid":"B2094757D66EA6FB459F","title":"♥HÖmЁ♥","lon":"121.490882603","lat":"31.339821674","category":"500","category_name":"未知分类","address":null},{"poiid":"B2094757D465A3FE4699","title":"宏亮海鲜大酒楼 淞发路店","lon":"121.483641054","lat":"31.341974793","category":"88","category_name":"海鲜酒楼","address":"宝山区淞发路918号世纪联华3楼(近长江南路)"},{"poiid":"B2094757D064A6FE459F","title":"淞南七村","lon":"121.4885992726","lat":"31.339706632077","category":"500","category_name":"未知分类","address":"长逸路50弄"},{"poiid":"B2094757D06FA6FC439E","title":"华浜新村","lon":"121.49277","lat":"31.350016","category":"47","category_name":"住宅区","address":"上海长江路军工路"},{"poiid":"B2094757D66BA3FA439F","title":"一崎碳烧 海伦生活广场店","lon":"121.4918308","lat":"31.3381991","category":"68","category_name":"快餐厅","address":"宝山区长逸路258号海伦精品生活广场1楼(近凇良路)"},{"poiid":"B2094757D06BA3FE499C","title":"淞南八村","lon":"121.487","lat":"31.3413","category":"252","category_name":"楼宇机构","address":"长江南路143号"},{"poiid":"B2094757D069A2FD439F","title":"新梅淞南苑","lon":"121.49153","lat":"31.33849","category":"47","category_name":"住宅区","address":"上海市宝山区长逸路301弄"},{"poiid":"B2094654D469AAFC4592","title":"凇南三村","lon":"121.49083","lat":"31.34357","category":"47","category_name":"住宅区","address":"淞南镇"},{"poiid":"B2094654D469AAFC4798","title":"长宏新苑","lon":"121.49244","lat":"31.342192","category":"47","category_name":"住宅区","address":"上海市普陀区武宁路492号"},{"poiid":"B2094757D465A1F84198","title":"豪皇海鲜大酒店","lon":"121.498222","lat":"31.340973","category":"72","category_name":"广东菜","address":"逸仙路3000号近长逸路"},{"poiid":"B2094757D069AAF4479A","title":"淞南镇社区卫生服务中心","lon":"121.48908448","lat":"31.342121041","category":"162","category_name":"医院","address":"宝山区淞良路301号(近淞南公园)"},{"poiid":"B2094757D569A6FF4098","title":"万临家园","lon":"121.48648","lat":"31.342659","category":"47","category_name":"住宅区","address":"淞发路500弄"},{"poiid":"B2094757D068A0FA429E","title":"淞南三村","lon":"121.498","lat":"31.3495","category":"47","category_name":"住宅区","address":"淞南路301号"},{"poiid":"B2094757D66BA7F5499A","title":"老北京热气涮羊肉","lon":"121.48841","lat":"31.3422","category":"86","category_name":"火锅店","address":"杨浦区国和路971号"},{"poiid":"B2094757D069A6FB4793","title":"新城尚景","lon":"121.4817034","lat":"31.343563222","category":"47","category_name":"住宅区","address":"上海宝山区淞肇路333弄"},{"poiid":"B2094757D06AA2FF449D","title":"乐翻天KTV(淞南店)","lon":"121.483616","lat":"31.341068","category":"170","category_name":"KTV","address":"上海长江南路淞发路(祥腾生活广场)"},{"poiid":"B2094750DA6EA6F8469E","title":"炫音KTV(淞南店)","lon":"121.490638","lat":"31.337848","category":"170","category_name":"KTV","address":"宝山区长逸路258号3幢海伦精致生活广场3楼01-14室"},{"poiid":"B2094757D064A1FE489A","title":"淞南六村","lon":"121.491","lat":"31.3424","category":"500","category_name":"未知分类","address":"上海市宝山区长逸路"},{"poiid":"B2094757D06BA2FC479B","title":"逸居苑","lon":"121.49728386","lat":"31.33884357","category":"47","category_name":"住宅区","address":"上海宝山区淞南路111弄"},{"poiid":"B2094757D16AA3FB459B","title":"永顺和苏州汤包馆","lon":"121.490074103","lat":"31.345169986","category":"68","category_name":"快餐厅","address":"宝山区淞南路338号(近淞南三村门口)"},{"poiid":"B2094757D06AA1FB499E","title":"永琪美容美发(淞南店)","lon":"121.49165","lat":"31.34391","category":"148","category_name":"美容美发店","address":"上海宝山区淞南路(近淞发路)"},{"poiid":"B2094757D068AAFA4792","title":"复旦软件园","lon":"121.494193","lat":"31.339586","category":"500","category_name":"未知分类","address":"上海宝山区长逸路15号"},{"poiid":"B2094655D36DA0FD4792","title":"新新五村","lon":"121.48773","lat":"31.33809","category":"38","category_name":"公交车站","address":""},{"poiid":"B2094655D265A0F8489B","title":"鎏园·中星新城","lon":"121.4983","lat":"31.34419","category":"47","category_name":"住宅区","address":"淞发路25号"},{"poiid":"B2094750D26BABF94598","title":"上海国际工业设计中心","lon":"121.496185","lat":"31.342046","category":"263","category_name":"公司","address":"宝山区逸仙路3000号(近长逸路)"},{"poiid":"B2094654D469AAFC459E","title":"上海市宝山区一钢医院","lon":"121.48574","lat":"31.34455","category":"162","category_name":"医院","address":"宝山区卫生科路111号"},{"poiid":"B2094654D46AA1FE429E","title":"上海仕迪百货","lon":"121.49149","lat":"31.34444","category":"119","category_name":"商场","address":""},{"poiid":"B2094654D469ABF5489C","title":"凇南地段医院","lon":"121.48909","lat":"31.34213","category":"162","category_name":"医院","address":"宝山区淞良路301号"},{"poiid":"B2094751D26BA2F8409E","title":"虹口龙之梦","lon":"121.487635","lat":"31.345108","category":"247","category_name":"餐饮美食","address":null},{"poiid":"B2094757D168AAF44499","title":"本山大酒店","lon":"121.49062","lat":"31.34702","category":"76","category_name":"上海菜","address":"宝山区淞南路360号(近三号线淞发路站)"},{"poiid":"B2094757D66AABFD429E","title":"品宴轩","lon":"121.481266054","lat":"31.343886793","category":"72","category_name":"广东菜","address":"宝山区长江南路717号(近淞发路)"},{"poiid":"B2094757D064AAF44199","title":"农工商(长逸路店)","lon":"121.490206803","lat":"31.3378116319","category":"118","category_name":"超级市场","address":"宝山区长逸路258号(近建配龙)"},{"poiid":"B2094757D064A1F8429C","title":"长江路","lon":"121.48506004","lat":"31.346489545","category":"500","category_name":"未知分类","address":"上海市宝山区长江路848弄"},{"poiid":"B2094655D36DA7F54899","title":"淞南医院","lon":"121.48751","lat":"31.34235","category":"162","category_name":"医院","address":""},{"poiid":"B2094654D46AA1FF409D","title":"良友金伴NO.151","lon":"121.49109","lat":"31.34523","category":"117","category_name":"便民商店/便利店","address":"淞南镇"},{"poiid":"B2094654D46AA1FE4298","title":"宝山社区协作网淞南镇图书馆","lon":"121.49168","lat":"31.34395","category":"181","category_name":"图书馆","address":"淞南路345"},{"poiid":"B2094654D46AA1FE409C","title":"可的(淞南路)","lon":"121.49173","lat":"31.34245","category":"117","category_name":"便民商店/便利店","address":""},{"poiid":"B2094655D26FA4FC499E","title":"好德","lon":"121.49105","lat":"31.34551","category":"117","category_name":"便民商店/便利店","address":""},{"poiid":"B2094757D06AA3F54792","title":"鹏程花苑","lon":"121.495","lat":"31.3436","category":"252","category_name":"楼宇机构","address":"上海长逸路388弄"},{"poiid":"B2094757D068A5FC429C","title":"Leungの屋企","lon":"121.48834548","lat":"31.343200584","category":"247","category_name":"餐饮美食","address":null},{"poiid":"B2094757D169AAFD409A","title":"混沌粉丝王","lon":"121.48614265","lat":"31.342688584","category":"68","category_name":"快餐厅","address":"宝山区淞良路(近淞发路)"},{"poiid":"B2094750D565A1FB419F","title":"蔡阿姨面馆","lon":"121.48883","lat":"31.34501","category":"68","category_name":"快餐厅","address":"宝山区淞南路427号"},{"poiid":"B2094654D46AA1FF4199","title":"新逸仙公寓","lon":"121.49521","lat":"31.346046","category":"47","category_name":"住宅区","address":"新逸仙公寓位于宝山逸仙路靠近长江路"},{"poiid":"B2094750D76DAAF8429F","title":"家香饭店","lon":"121.486","lat":"31.3465","category":"68","category_name":"快餐厅","address":"宝山区淞良路539号(近长江路)"},{"poiid":"B2094757D16CA3F44098","title":"713终点站","lon":"121.489205103","lat":"31.3424659294","category":"500","category_name":"未知分类","address":"上海淞南新村"},{"poiid":"B2094750D664A4FE4299","title":"大富贵酒楼小吃部(长逸路店)","lon":"121.491","lat":"31.3381","category":"68","category_name":"快餐厅","address":"宝山区长逸路(近淞良路)"},{"poiid":"B2094757D06FA1FE469B","title":"淞南公园","lon":"121.486744987","lat":"31.3410313325","category":"196","category_name":"公园","address":"上海宝山区淞良路300号(近淞发路)"},{"poiid":"B2094757D06FA1FA4492","title":"建配龙家居商城","lon":"121.49426833","lat":"31.339484868","category":"123","category_name":"家具建材市场","address":"宝山区长逸路15号建配龙市场内(近逸仙路)"},{"poiid":"B2094757D06FA4F8409B","title":"盛世宝邸","lon":"121.48964","lat":"31.33531","category":"47","category_name":"住宅区","address":"宝山区长江南路109号"},{"poiid":"B2094655D36DA7F5489E","title":"淞南镇","lon":"121.4843","lat":"31.34131","category":"38","category_name":"公交车站","address":"上海宝山区淞南镇"},{"poiid":"B2094757D66EA6FB459F","title":"♥HÖmЁ♥","lon":"121.490882603","lat":"31.339821674","category":"500","category_name":"未知分类","address":null},{"poiid":"B2094757D465A3FE4699","title":"宏亮海鲜大酒楼 淞发路店","lon":"121.483641054","lat":"31.341974793","category":"88","category_name":"海鲜酒楼","address":"宝山区淞发路918号世纪联华3楼(近长江南路)"},{"poiid":"B2094757D064A6FE459F","title":"淞南七村","lon":"121.4885992726","lat":"31.339706632077","category":"500","category_name":"未知分类","address":"长逸路50弄"},{"poiid":"B2094757D06FA6FC439E","title":"华浜新村","lon":"121.49277","lat":"31.350016","category":"47","category_name":"住宅区","address":"上海长江路军工路"},{"poiid":"B2094757D66BA3FA439F","title":"一崎碳烧 海伦生活广场店","lon":"121.4918308","lat":"31.3381991","category":"68","category_name":"快餐厅","address":"宝山区长逸路258号海伦精品生活广场1楼(近凇良路)"},{"poiid":"B2094757D06BA3FE499C","title":"淞南八村","lon":"121.487","lat":"31.3413","category":"252","category_name":"楼宇机构","address":"长江南路143号"},{"poiid":"B2094757D069A2FD439F","title":"新梅淞南苑","lon":"121.49153","lat":"31.33849","category":"47","category_name":"住宅区","address":"上海市宝山区长逸路301弄"},{"poiid":"B2094654D469AAFC4592","title":"凇南三村","lon":"121.49083","lat":"31.34357","category":"47","category_name":"住宅区","address":"淞南镇"},{"poiid":"B2094654D469AAFC4798","title":"长宏新苑","lon":"121.49244","lat":"31.342192","category":"47","category_name":"住宅区","address":"上海市普陀区武宁路492号"},{"poiid":"B2094757D465A1F84198","title":"豪皇海鲜大酒店","lon":"121.498222","lat":"31.340973","category":"72","category_name":"广东菜","address":"逸仙路3000号近长逸路"},{"poiid":"B2094757D069AAF4479A","title":"淞南镇社区卫生服务中心","lon":"121.48908448","lat":"31.342121041","category":"162","category_name":"医院","address":"宝山区淞良路301号(近淞南公园)"},{"poiid":"B2094757D569A6FF4098","title":"万临家园","lon":"121.48648","lat":"31.342659","category":"47","category_name":"住宅区","address":"淞发路500弄"},{"poiid":"B2094757D068A0FA429E","title":"淞南三村","lon":"121.498","lat":"31.3495","category":"47","category_name":"住宅区","address":"淞南路301号"},{"poiid":"B2094757D66BA7F5499A","title":"老北京热气涮羊肉","lon":"121.48841","lat":"31.3422","category":"86","category_name":"火锅店","address":"杨浦区国和路971号"},{"poiid":"B2094757D069A6FB4793","title":"新城尚景","lon":"121.4817034","lat":"31.343563222","category":"47","category_name":"住宅区","address":"上海宝山区淞肇路333弄"},{"poiid":"B2094757D06AA2FF449D","title":"乐翻天KTV(淞南店)","lon":"121.483616","lat":"31.341068","category":"170","category_name":"KTV","address":"上海长江南路淞发路(祥腾生活广场)"},{"poiid":"B2094750DA6EA6F8469E","title":"炫音KTV(淞南店)","lon":"121.490638","lat":"31.337848","category":"170","category_name":"KTV","address":"宝山区长逸路258号3幢海伦精致生活广场3楼01-14室"},{"poiid":"B2094757D064A1FE489A","title":"淞南六村","lon":"121.491","lat":"31.3424","category":"500","category_name":"未知分类","address":"上海市宝山区长逸路"},{"poiid":"B2094757D06BA2FC479B","title":"逸居苑","lon":"121.49728386","lat":"31.33884357","category":"47","category_name":"住宅区","address":"上海宝山区淞南路111弄"},{"poiid":"B2094757D16AA3FB459B","title":"永顺和苏州汤包馆","lon":"121.490074103","lat":"31.345169986","category":"68","category_name":"快餐厅","address":"宝山区淞南路338号(近淞南三村门口)"},{"poiid":"B2094757D06AA1FB499E","title":"永琪美容美发(淞南店)","lon":"121.49165","lat":"31.34391","category":"148","category_name":"美容美发店","address":"上海宝山区淞南路(近淞发路)"},{"poiid":"B2094757D068AAFA4792","title":"复旦软件园","lon":"121.494193","lat":"31.339586","category":"500","category_name":"未知分类","address":"上海宝山区长逸路15号"},{"poiid":"B2094655D36DA0FD4792","title":"新新五村","lon":"121.48773","lat":"31.33809","category":"38","category_name":"公交车站","address":""},{"poiid":"B2094655D265A0F8489B","title":"鎏园·中星新城","lon":"121.4983","lat":"31.34419","category":"47","category_name":"住宅区","address":"淞发路25号"},{"poiid":"B2094750D26BABF94598","title":"上海国际工业设计中心","lon":"121.496185","lat":"31.342046","category":"263","category_name":"公司","address":"宝山区逸仙路3000号(近长逸路)"},{"poiid":"B2094654D469AAFC459E","title":"上海市宝山区一钢医院","lon":"121.48574","lat":"31.34455","category":"162","category_name":"医院","address":"宝山区卫生科路111号"},{"poiid":"B2094654D46AA1FE429E","title":"上海仕迪百货","lon":"121.49149","lat":"31.34444","category":"119","category_name":"商场","address":""},{"poiid":"B2094654D469ABF5489C","title":"凇南地段医院","lon":"121.48909","lat":"31.34213","category":"162","category_name":"医院","address":"宝山区淞良路301号"},{"poiid":"B2094751D26BA2F8409E","title":"虹口龙之梦","lon":"121.487635","lat":"31.345108","category":"247","category_name":"餐饮美食","address":null},{"poiid":"B2094757D168AAF44499","title":"本山大酒店","lon":"121.49062","lat":"31.34702","category":"76","category_name":"上海菜","address":"宝山区淞南路360号(近三号线淞发路站)"},{"poiid":"B2094757D66AABFD429E","title":"品宴轩","lon":"121.481266054","lat":"31.343886793","category":"72","category_name":"广东菜","address":"宝山区长江南路717号(近淞发路)"},{"poiid":"B2094757D064AAF44199","title":"农工商(长逸路店)","lon":"121.490206803","lat":"31.3378116319","category":"118","category_name":"超级市场","address":"宝山区长逸路258号(近建配龙)"},{"poiid":"B2094757D064A1F8429C","title":"长江路","lon":"121.48506004","lat":"31.346489545","category":"500","category_name":"未知分类","address":"上海市宝山区长江路848弄"},{"poiid":"B2094655D36DA7F54899","title":"淞南医院","lon":"121.48751","lat":"31.34235","category":"162","category_name":"医院","address":""},{"poiid":"B2094654D46AA1FF409D","title":"良友金伴NO.151","lon":"121.49109","lat":"31.34523","category":"117","category_name":"便民商店/便利店","address":"淞南镇"},{"poiid":"B2094654D46AA1FE4298","title":"宝山社区协作网淞南镇图书馆","lon":"121.49168","lat":"31.34395","category":"181","category_name":"图书馆","address":"淞南路345"},{"poiid":"B2094654D46AA1FE409C","title":"可的(淞南路)","lon":"121.49173","lat":"31.34245","category":"117","category_name":"便民商店/便利店","address":""},{"poiid":"B2094655D26FA4FC499E","title":"好德","lon":"121.49105","lat":"31.34551","category":"117","category_name":"便民商店/便利店","address":""},{"poiid":"B2094757D06AA3F54792","title":"鹏程花苑","lon":"121.495","lat":"31.3436","category":"252","category_name":"楼宇机构","address":"上海长逸路388弄"},{"poiid":"B2094757D068A5FC429C","title":"Leungの屋企","lon":"121.48834548","lat":"31.343200584","category":"247","category_name":"餐饮美食","address":null},{"poiid":"B2094757D169AAFD409A","title":"混沌粉丝王","lon":"121.48614265","lat":"31.342688584","category":"68","category_name":"快餐厅","address":"宝山区淞良路(近淞发路)"},{"poiid":"B2094750D565A1FB419F","title":"蔡阿姨面馆","lon":"121.48883","lat":"31.34501","category":"68","category_name":"快餐厅","address":"宝山区淞南路427号"},{"poiid":"B2094654D46AA1FF4199","title":"新逸仙公寓","lon":"121.49521","lat":"31.346046","category":"47","category_name":"住宅区","address":"新逸仙公寓位于宝山逸仙路靠近长江路"},{"poiid":"B2094750D76DAAF8429F","title":"家香饭店","lon":"121.486","lat":"31.3465","category":"68","category_name":"快餐厅","address":"宝山区淞良路539号(近长江路)"},{"poiid":"B2094757D16CA3F44098","title":"713终点站","lon":"121.489205103","lat":"31.3424659294","category":"500","category_name":"未知分类","address":"上海淞南新村"},{"poiid":"B2094750D664A4FE4299","title":"大富贵酒楼小吃部(长逸路店)","lon":"121.491","lat":"31.3381","category":"68","category_name":"快餐厅","address":"宝山区长逸路(近淞良路)"}]