[{"poiid":"B2094654DA6FA7FE419B","title":"上海宝莱纳餐厅滨江店","lon":"121.49861","lat":"31.23409","category":"94","category_name":"西餐厅","address":"浦东新区滨江大道2967号滨江风光亭"},{"poiid":"B2094654DA6FA7FF4699","title":"海龙海鲜舫","lon":"121.50199","lat":"31.23107","category":"72","category_name":"广东菜","address":"浦东新区东昌路1号(近富城路拾步街)"},{"poiid":"B2094757D469A1F54993","title":"星巴克 滨江店 Starbucks Cafe","lon":"121.49833629105","lat":"31.235145384788","category":"260","category_name":"其他","address":"浦东新区滨江大道富都段滨江公园内(富城路名商路)"},{"poiid":"B209475CD564A7F84292","title":"上海滩新天地店","lon":"121.47463","lat":"31.22164","category":"119","category_name":"商场","address":"\"太仓路181弄新天地北里15号\r\n\""},{"poiid":"B209475CD564A7F84392","title":"上海滩浦东香格里拉店","lon":"121.50058","lat":"31.23634","category":"119","category_name":"商场","address":"浦东富成路33号香格里拉酒店内大堂层"},{"poiid":"B2094757D06FA1FD489D","title":"天水恋意大利餐厅","lon":"121.49832","lat":"31.23456","category":"94","category_name":"西餐厅","address":"浦东新区滨江大道富都段滨江花园内(近富城路)"},{"poiid":"B2094757D06FA2FC499B","title":"唐朝酒店(未来店)","lon":"121.50054","lat":"31.23481","category":"72","category_name":"广东菜","address":"浦东新区陆家嘴环路166号未来资产大厦2-3楼(近香格里拉大酒店)"},{"poiid":"B2094757D06FA7F54892","title":"外滩轮渡","lon":"121.49613189","lat":"31.232406616","category":"260","category_name":"其他","address":"上海外滩"},{"poiid":"B2094757D16AAAFC4399","title":"浦東香格里拉怡咖啡自助餐","lon":"121.500056738","lat":"31.2354384111","category":"65","category_name":"咖啡厅","address":"上海銀城東路"},{"poiid":"B2094757D06FA0FE479A","title":"汤臣一品","lon":"121.50127","lat":"31.233383","category":"47","category_name":"住宅区","address":"朝阳区东四环慈云寺桥东北角,向东400米路南"},{"poiid":"B2094757D06FA1F5479D","title":"震旦国际大楼","lon":"121.499293","lat":"31.234784","category":"46","category_name":"楼宇","address":"上海浦东新区富城路99号"},{"poiid":"B2094757D06FA2F9439E","title":"香格里拉怡咖啡","lon":"121.4992","lat":"31.2349","category":"268","category_name":"自助","address":"浦东新区富城路33号香格里拉大酒店紫金楼2楼(近名商路)"},{"poiid":"B2094757D568A6FE449D","title":"松鹤楼(外滩店)","lon":"121.49712782","lat":"31.22868273","category":"76","category_name":"上海菜","address":"黄浦区中山东二路505号(近外马路)"},{"poiid":"B2094654DB64ABF9439A","title":"震旦艺术博物馆","lon":"121.49929","lat":"31.23478","category":"182","category_name":"博物馆","address":"富城路99号震旦国际大楼1层"},{"poiid":"B2094757D16AA3FA449F","title":"紅磡體育館","lon":"121.50024373","lat":"31.234377388","category":"500","category_name":"未知分类","address":"香港尖沙咀東紅磡體育館"},{"poiid":"B2094757D068ABFD489C","title":"Kaefer滨江壹号","lon":"121.50282273","lat":"31.232060339","category":"47","category_name":"住宅区","address":"浦东新区滨江大道富城路拾步街由隆花园(近花园石桥路)"},{"poiid":"B2094757D06BA0FE469D","title":"浦东香格里酒店 盛世堂I","lon":"121.498685","lat":"31.235798","category":"217","category_name":"旅馆招待所","address":"上海浦东新区富城路33号 浦东香格里拉酒店紫金楼3F"},{"poiid":"B2094757D06FA1F8419B","title":"一点红","lon":"121.49738","lat":"31.23469","category":"94","category_name":"西餐厅","address":"浦东新区陆家嘴西路168号正大广场1楼(近东方明珠)"},{"poiid":"B2094757D06FA6FC4993","title":"晶浦会","lon":"121.49999","lat":"31.23362","category":"72","category_name":"广东菜","address":"上海浦东新区花园石桥路33号花旗集团大厦4楼(近富城路)  "},{"poiid":"B2094751DA64A4FF489F","title":"炉边谈情","lon":"121.5009","lat":"31.234146","category":"247","category_name":"餐饮美食","address":"正大广场六楼"},{"poiid":"B2094757D165A7F54999","title":"花旗银行大厦","lon":"121.500979701","lat":"31.2332134973","category":"46","category_name":"楼宇","address":"上海浦东新区花园石桥路33号"},{"poiid":"B2094750DA64A1F5409F","title":"王品台塑牛排(正大广场店)","lon":"121.496726","lat":"31.234537","category":"248","category_name":"生活娱乐","address":"浦东新区陆家嘴西路168号正大广场8楼(近东方明珠)"},{"poiid":"B2094654DA6FA7FE409D","title":"STARBUCKS COFFEE(富城路)","lon":"121.49745","lat":"31.23502","category":"65","category_name":"咖啡厅","address":""},{"poiid":"B2094757D16FA0FC429D","title":"廊亦坊","lon":"121.498013738","lat":"31.2354924122","category":"500","category_name":"未知分类","address":"上海正大廣場5樓"},{"poiid":"B2094757D069A0F94992","title":"宝来纳滨江店","lon":"121.50070673","lat":"31.23539541","category":"500","category_name":"未知分类","address":"上海滨江大道"},{"poiid":"B2094750D66CAAFD4092","title":"vini angeli","lon":"121.500816","lat":"31.235115","category":"94","category_name":"西餐厅","address":"浦东新区陆家嘴西路168号正大广场8楼(近东方明珠)"},{"poiid":"B2094655D36CA7FD4293","title":"花园石桥路陆家嘴环路(正大广场)","lon":"121.50115","lat":"31.23482","category":"38","category_name":"公交车站","address":""},{"poiid":"B2094757D069A6FE449C","title":"十六铺码头边","lon":"121.49703768","lat":"31.228610509","category":"500","category_name":"未知分类","address":"上海市,上海中山东二路"},{"poiid":"B2094757D068A5F9429C","title":"福佑商厦","lon":"121.498","lat":"31.2336","category":"119","category_name":"商场","address":"黄浦区福佑路225号(近旧校场路)"},{"poiid":"B2094757D468ABF54699","title":"星巴克 花旗大厦店 Starbucks Cafe","lon":"121.500050054","lat":"31.234238793","category":"65","category_name":"咖啡厅","address":"浦东新区花园石桥路33号花旗集团大厦1楼(近富城路)"},{"poiid":"B2094655D26CA4F44392","title":"滨江大道(八号门)","lon":"121.49874","lat":"31.23482","category":"116","category_name":"特色商业街","address":""},{"poiid":"B2094757D068A6F4499F","title":"君悦轩(花园石桥店)","lon":"121.50239","lat":"31.23334","category":"72","category_name":"广东菜","address":"浦东新区花园石桥路66号东亚银行金融大厦3楼(近陆家嘴环路)"},{"poiid":"B2094757D06AA7F4479A","title":"香格里拉大堂酒廊","lon":"121.49914","lat":"31.23535","category":"260","category_name":"其他","address":"浦东新区富城路33号香格里拉大酒店浦江楼1楼(近名商路)"},{"poiid":"B2094750D268A7F8449E","title":"滨江一号","lon":"121.501441","lat":"31.231658","category":"247","category_name":"餐饮美食","address":"浦东新区滨江一号滨江富城路拾步街由隆花园(近石桥路)"},{"poiid":"B2094750D26FABF44592","title":"Bocca","lon":"121.4960508","lat":"31.2293856","category":"98","category_name":"意式菜品餐厅","address":"黄浦区中山东二路22号5楼(近新永安路)"},{"poiid":"B2094757D06FA7FD4592","title":"网鱼网咖(张杨店)","lon":"121.49722426","lat":"31.229141715","category":"173","category_name":"游戏厅","address":"浦东新区张杨路640号3楼A座(近第一八佰伴)"},{"poiid":"B2094750D56EA1FD459D","title":"上海浦东香格里拉大酒店桂花楼中餐厅","lon":"121.498611","lat":"31.235609","category":"247","category_name":"餐饮美食","address":"富城路33号"},{"poiid":"B2094757D069A5F4449D","title":"Lavazza正大广场店","lon":"121.50245","lat":"31.23789","category":"260","category_name":"其他","address":"浦东新区陆家嘴西路168号正大广场3楼西区-25铺(近东方明珠)"},{"poiid":"B2094757D16BA4F54592","title":"STELLA LUNA(国金店)","lon":"121.501676738","lat":"31.2345953931","category":"500","category_name":"未知分类","address":"上海ifc国金商场"},{"poiid":"B2094757D16CAAFB489F","title":"浦东金贸君悦酒店","lon":"121.50241173","lat":"31.230401303","category":"217","category_name":"旅馆招待所","address":"上海市浦东新区富城路"},{"poiid":"B2094757D068ABFD4392","title":"桂花楼","lon":"121.49925","lat":"31.23503","category":"76","category_name":"上海菜","address":"浦东新区富城路33号香格里拉大酒店浦江楼1楼(近名商路)"},{"poiid":"B2094757D06AA0FD429D","title":"滩万 Nadaman","lon":"121.49900980442","lat":"31.23552245249","category":"95","category_name":"日本料理","address":"浦东新区富城路33号香格里拉大酒店紫金楼2楼(近名商路)"},{"poiid":"B2094750DA64A4FA449C","title":"外滩22号之一克拉的梦想","lon":"121.499397","lat":"31.234285","category":"248","category_name":"生活娱乐","address":"中山东二路22号"},{"poiid":"B2094757D568A0FE499A","title":"Ben Sherman(正大广场)","lon":"121.5011139","lat":"31.23467667","category":"249","category_name":"购物服务","address":"陆家嘴环路168号正大广场1层novo内"},{"poiid":"B2094654DB69A0F9439F","title":"福临门鱼翅海鲜酒家","lon":"121.49900980442","lat":"31.23552245249","category":"72","category_name":"广东菜","address":"浦东新区富城路33号香格里拉大酒店浦江楼2楼(近名商路)"},{"poiid":"B2094750D46BABF94593","title":"小南国","lon":"121.496276","lat":"31.234474","category":"247","category_name":"餐饮美食","address":null},{"poiid":"B2094753DA6BA0F8469F","title":"MIZZI CAFE","lon":"121.500015","lat":"31.234008","category":"500","category_name":"未知分类","address":"上海市 富城路182号"},{"poiid":"B2094757D068A6FF499C","title":"Reddot Bar","lon":"121.49853515","lat":"31.233560562","category":"172","category_name":"酒吧","address":"上海浦东滨江大道"},{"poiid":"B2094757D06BA1F5409E","title":"Red dot","lon":"121.50023266","lat":"31.23302297","category":"500","category_name":"未知分类","address":"上海滨江大道"},{"poiid":"B2094654DA6EA4FC439C","title":"福源商厦","lon":"121.496","lat":"31.2327","category":"46","category_name":"楼宇","address":"黄浦区福佑路338号(近丽水路)"},{"poiid":"B2094654DA6FA7FE419B","title":"上海宝莱纳餐厅滨江店","lon":"121.49861","lat":"31.23409","category":"94","category_name":"西餐厅","address":"浦东新区滨江大道2967号滨江风光亭"},{"poiid":"B2094654DA6FA7FF4699","title":"海龙海鲜舫","lon":"121.50199","lat":"31.23107","category":"72","category_name":"广东菜","address":"浦东新区东昌路1号(近富城路拾步街)"},{"poiid":"B2094757D469A1F54993","title":"星巴克 滨江店 Starbucks Cafe","lon":"121.49833629105","lat":"31.235145384788","category":"260","category_name":"其他","address":"浦东新区滨江大道富都段滨江公园内(富城路名商路)"},{"poiid":"B209475CD564A7F84292","title":"上海滩新天地店","lon":"121.47463","lat":"31.22164","category":"119","category_name":"商场","address":"\"太仓路181弄新天地北里15号\r\n\""},{"poiid":"B209475CD564A7F84392","title":"上海滩浦东香格里拉店","lon":"121.50058","lat":"31.23634","category":"119","category_name":"商场","address":"浦东富成路33号香格里拉酒店内大堂层"},{"poiid":"B2094757D06FA1FD489D","title":"天水恋意大利餐厅","lon":"121.49832","lat":"31.23456","category":"94","category_name":"西餐厅","address":"浦东新区滨江大道富都段滨江花园内(近富城路)"},{"poiid":"B2094757D06FA2FC499B","title":"唐朝酒店(未来店)","lon":"121.50054","lat":"31.23481","category":"72","category_name":"广东菜","address":"浦东新区陆家嘴环路166号未来资产大厦2-3楼(近香格里拉大酒店)"},{"poiid":"B2094757D06FA7F54892","title":"外滩轮渡","lon":"121.49613189","lat":"31.232406616","category":"260","category_name":"其他","address":"上海外滩"},{"poiid":"B2094757D16AAAFC4399","title":"浦東香格里拉怡咖啡自助餐","lon":"121.500056738","lat":"31.2354384111","category":"65","category_name":"咖啡厅","address":"上海銀城東路"},{"poiid":"B2094757D06FA0FE479A","title":"汤臣一品","lon":"121.50127","lat":"31.233383","category":"47","category_name":"住宅区","address":"朝阳区东四环慈云寺桥东北角,向东400米路南"},{"poiid":"B2094757D06FA1F5479D","title":"震旦国际大楼","lon":"121.499293","lat":"31.234784","category":"46","category_name":"楼宇","address":"上海浦东新区富城路99号"},{"poiid":"B2094757D06FA2F9439E","title":"香格里拉怡咖啡","lon":"121.4992","lat":"31.2349","category":"268","category_name":"自助","address":"浦东新区富城路33号香格里拉大酒店紫金楼2楼(近名商路)"},{"poiid":"B2094757D568A6FE449D","title":"松鹤楼(外滩店)","lon":"121.49712782","lat":"31.22868273","category":"76","category_name":"上海菜","address":"黄浦区中山东二路505号(近外马路)"},{"poiid":"B2094654DB64ABF9439A","title":"震旦艺术博物馆","lon":"121.49929","lat":"31.23478","category":"182","category_name":"博物馆","address":"富城路99号震旦国际大楼1层"},{"poiid":"B2094757D16AA3FA449F","title":"紅磡體育館","lon":"121.50024373","lat":"31.234377388","category":"500","category_name":"未知分类","address":"香港尖沙咀東紅磡體育館"},{"poiid":"B2094757D068ABFD489C","title":"Kaefer滨江壹号","lon":"121.50282273","lat":"31.232060339","category":"47","category_name":"住宅区","address":"浦东新区滨江大道富城路拾步街由隆花园(近花园石桥路)"},{"poiid":"B2094757D06BA0FE469D","title":"浦东香格里酒店 盛世堂I","lon":"121.498685","lat":"31.235798","category":"217","category_name":"旅馆招待所","address":"上海浦东新区富城路33号 浦东香格里拉酒店紫金楼3F"},{"poiid":"B2094757D06FA1F8419B","title":"一点红","lon":"121.49738","lat":"31.23469","category":"94","category_name":"西餐厅","address":"浦东新区陆家嘴西路168号正大广场1楼(近东方明珠)"},{"poiid":"B2094757D06FA6FC4993","title":"晶浦会","lon":"121.49999","lat":"31.23362","category":"72","category_name":"广东菜","address":"上海浦东新区花园石桥路33号花旗集团大厦4楼(近富城路)  "},{"poiid":"B2094751DA64A4FF489F","title":"炉边谈情","lon":"121.5009","lat":"31.234146","category":"247","category_name":"餐饮美食","address":"正大广场六楼"},{"poiid":"B2094757D165A7F54999","title":"花旗银行大厦","lon":"121.500979701","lat":"31.2332134973","category":"46","category_name":"楼宇","address":"上海浦东新区花园石桥路33号"},{"poiid":"B2094750DA64A1F5409F","title":"王品台塑牛排(正大广场店)","lon":"121.496726","lat":"31.234537","category":"248","category_name":"生活娱乐","address":"浦东新区陆家嘴西路168号正大广场8楼(近东方明珠)"},{"poiid":"B2094654DA6FA7FE409D","title":"STARBUCKS COFFEE(富城路)","lon":"121.49745","lat":"31.23502","category":"65","category_name":"咖啡厅","address":""},{"poiid":"B2094757D16FA0FC429D","title":"廊亦坊","lon":"121.498013738","lat":"31.2354924122","category":"500","category_name":"未知分类","address":"上海正大廣場5樓"},{"poiid":"B2094757D069A0F94992","title":"宝来纳滨江店","lon":"121.50070673","lat":"31.23539541","category":"500","category_name":"未知分类","address":"上海滨江大道"},{"poiid":"B2094750D66CAAFD4092","title":"vini angeli","lon":"121.500816","lat":"31.235115","category":"94","category_name":"西餐厅","address":"浦东新区陆家嘴西路168号正大广场8楼(近东方明珠)"},{"poiid":"B2094655D36CA7FD4293","title":"花园石桥路陆家嘴环路(正大广场)","lon":"121.50115","lat":"31.23482","category":"38","category_name":"公交车站","address":""},{"poiid":"B2094757D069A6FE449C","title":"十六铺码头边","lon":"121.49703768","lat":"31.228610509","category":"500","category_name":"未知分类","address":"上海市,上海中山东二路"},{"poiid":"B2094757D068A5F9429C","title":"福佑商厦","lon":"121.498","lat":"31.2336","category":"119","category_name":"商场","address":"黄浦区福佑路225号(近旧校场路)"},{"poiid":"B2094757D468ABF54699","title":"星巴克 花旗大厦店 Starbucks Cafe","lon":"121.500050054","lat":"31.234238793","category":"65","category_name":"咖啡厅","address":"浦东新区花园石桥路33号花旗集团大厦1楼(近富城路)"},{"poiid":"B2094655D26CA4F44392","title":"滨江大道(八号门)","lon":"121.49874","lat":"31.23482","category":"116","category_name":"特色商业街","address":""},{"poiid":"B2094757D068A6F4499F","title":"君悦轩(花园石桥店)","lon":"121.50239","lat":"31.23334","category":"72","category_name":"广东菜","address":"浦东新区花园石桥路66号东亚银行金融大厦3楼(近陆家嘴环路)"},{"poiid":"B2094757D06AA7F4479A","title":"香格里拉大堂酒廊","lon":"121.49914","lat":"31.23535","category":"260","category_name":"其他","address":"浦东新区富城路33号香格里拉大酒店浦江楼1楼(近名商路)"},{"poiid":"B2094750D268A7F8449E","title":"滨江一号","lon":"121.501441","lat":"31.231658","category":"247","category_name":"餐饮美食","address":"浦东新区滨江一号滨江富城路拾步街由隆花园(近石桥路)"},{"poiid":"B2094750D26FABF44592","title":"Bocca","lon":"121.4960508","lat":"31.2293856","category":"98","category_name":"意式菜品餐厅","address":"黄浦区中山东二路22号5楼(近新永安路)"},{"poiid":"B2094757D06FA7FD4592","title":"网鱼网咖(张杨店)","lon":"121.49722426","lat":"31.229141715","category":"173","category_name":"游戏厅","address":"浦东新区张杨路640号3楼A座(近第一八佰伴)"},{"poiid":"B2094750D56EA1FD459D","title":"上海浦东香格里拉大酒店桂花楼中餐厅","lon":"121.498611","lat":"31.235609","category":"247","category_name":"餐饮美食","address":"富城路33号"},{"poiid":"B2094757D069A5F4449D","title":"Lavazza正大广场店","lon":"121.50245","lat":"31.23789","category":"260","category_name":"其他","address":"浦东新区陆家嘴西路168号正大广场3楼西区-25铺(近东方明珠)"},{"poiid":"B2094757D16BA4F54592","title":"STELLA LUNA(国金店)","lon":"121.501676738","lat":"31.2345953931","category":"500","category_name":"未知分类","address":"上海ifc国金商场"},{"poiid":"B2094757D16CAAFB489F","title":"浦东金贸君悦酒店","lon":"121.50241173","lat":"31.230401303","category":"217","category_name":"旅馆招待所","address":"上海市浦东新区富城路"},{"poiid":"B2094757D068ABFD4392","title":"桂花楼","lon":"121.49925","lat":"31.23503","category":"76","category_name":"上海菜","address":"浦东新区富城路33号香格里拉大酒店浦江楼1楼(近名商路)"},{"poiid":"B2094757D06AA0FD429D","title":"滩万 Nadaman","lon":"121.49900980442","lat":"31.23552245249","category":"95","category_name":"日本料理","address":"浦东新区富城路33号香格里拉大酒店紫金楼2楼(近名商路)"},{"poiid":"B2094750DA64A4FA449C","title":"外滩22号之一克拉的梦想","lon":"121.499397","lat":"31.234285","category":"248","category_name":"生活娱乐","address":"中山东二路22号"},{"poiid":"B2094757D568A0FE499A","title":"Ben Sherman(正大广场)","lon":"121.5011139","lat":"31.23467667","category":"249","category_name":"购物服务","address":"陆家嘴环路168号正大广场1层novo内"},{"poiid":"B2094654DB69A0F9439F","title":"福临门鱼翅海鲜酒家","lon":"121.49900980442","lat":"31.23552245249","category":"72","category_name":"广东菜","address":"浦东新区富城路33号香格里拉大酒店浦江楼2楼(近名商路)"},{"poiid":"B2094750D46BABF94593","title":"小南国","lon":"121.496276","lat":"31.234474","category":"247","category_name":"餐饮美食","address":null},{"poiid":"B2094753DA6BA0F8469F","title":"MIZZI CAFE","lon":"121.500015","lat":"31.234008","category":"500","category_name":"未知分类","address":"上海市 富城路182号"},{"poiid":"B2094757D068A6FF499C","title":"Reddot Bar","lon":"121.49853515","lat":"31.233560562","category":"172","category_name":"酒吧","address":"上海浦东滨江大道"},{"poiid":"B2094757D06BA1F5409E","title":"Red dot","lon":"121.50023266","lat":"31.23302297","category":"500","category_name":"未知分类","address":"上海滨江大道"},{"poiid":"B2094654DA6EA4FC439C","title":"福源商厦","lon":"121.496","lat":"31.2327","category":"46","category_name":"楼宇","address":"黄浦区福佑路338号(近丽水路)"},{"poiid":"B2094654DA6FA7FE419B","title":"上海宝莱纳餐厅滨江店","lon":"121.49861","lat":"31.23409","category":"94","category_name":"西餐厅","address":"浦东新区滨江大道2967号滨江风光亭"},{"poiid":"B2094654DA6FA7FF4699","title":"海龙海鲜舫","lon":"121.50199","lat":"31.23107","category":"72","category_name":"广东菜","address":"浦东新区东昌路1号(近富城路拾步街)"},{"poiid":"B2094757D469A1F54993","title":"星巴克 滨江店 Starbucks Cafe","lon":"121.49833629105","lat":"31.235145384788","category":"260","category_name":"其他","address":"浦东新区滨江大道富都段滨江公园内(富城路名商路)"},{"poiid":"B209475CD564A7F84292","title":"上海滩新天地店","lon":"121.47463","lat":"31.22164","category":"119","category_name":"商场","address":"\"太仓路181弄新天地北里15号\r\n\""},{"poiid":"B209475CD564A7F84392","title":"上海滩浦东香格里拉店","lon":"121.50058","lat":"31.23634","category":"119","category_name":"商场","address":"浦东富成路33号香格里拉酒店内大堂层"},{"poiid":"B2094757D06FA1FD489D","title":"天水恋意大利餐厅","lon":"121.49832","lat":"31.23456","category":"94","category_name":"西餐厅","address":"浦东新区滨江大道富都段滨江花园内(近富城路)"},{"poiid":"B2094757D06FA2FC499B","title":"唐朝酒店(未来店)","lon":"121.50054","lat":"31.23481","category":"72","category_name":"广东菜","address":"浦东新区陆家嘴环路166号未来资产大厦2-3楼(近香格里拉大酒店)"},{"poiid":"B2094757D06FA7F54892","title":"外滩轮渡","lon":"121.49613189","lat":"31.232406616","category":"260","category_name":"其他","address":"上海外滩"},{"poiid":"B2094757D16AAAFC4399","title":"浦東香格里拉怡咖啡自助餐","lon":"121.500056738","lat":"31.2354384111","category":"65","category_name":"咖啡厅","address":"上海銀城東路"},{"poiid":"B2094757D06FA0FE479A","title":"汤臣一品","lon":"121.50127","lat":"31.233383","category":"47","category_name":"住宅区","address":"朝阳区东四环慈云寺桥东北角,向东400米路南"},{"poiid":"B2094757D06FA1F5479D","title":"震旦国际大楼","lon":"121.499293","lat":"31.234784","category":"46","category_name":"楼宇","address":"上海浦东新区富城路99号"},{"poiid":"B2094757D06FA2F9439E","title":"香格里拉怡咖啡","lon":"121.4992","lat":"31.2349","category":"268","category_name":"自助","address":"浦东新区富城路33号香格里拉大酒店紫金楼2楼(近名商路)"},{"poiid":"B2094757D568A6FE449D","title":"松鹤楼(外滩店)","lon":"121.49712782","lat":"31.22868273","category":"76","category_name":"上海菜","address":"黄浦区中山东二路505号(近外马路)"},{"poiid":"B2094654DB64ABF9439A","title":"震旦艺术博物馆","lon":"121.49929","lat":"31.23478","category":"182","category_name":"博物馆","address":"富城路99号震旦国际大楼1层"},{"poiid":"B2094757D16AA3FA449F","title":"紅磡體育館","lon":"121.50024373","lat":"31.234377388","category":"500","category_name":"未知分类","address":"香港尖沙咀東紅磡體育館"},{"poiid":"B2094757D068ABFD489C","title":"Kaefer滨江壹号","lon":"121.50282273","lat":"31.232060339","category":"47","category_name":"住宅区","address":"浦东新区滨江大道富城路拾步街由隆花园(近花园石桥路)"},{"poiid":"B2094757D06BA0FE469D","title":"浦东香格里酒店 盛世堂I","lon":"121.498685","lat":"31.235798","category":"217","category_name":"旅馆招待所","address":"上海浦东新区富城路33号 浦东香格里拉酒店紫金楼3F"},{"poiid":"B2094757D06FA1F8419B","title":"一点红","lon":"121.49738","lat":"31.23469","category":"94","category_name":"西餐厅","address":"浦东新区陆家嘴西路168号正大广场1楼(近东方明珠)"},{"poiid":"B2094757D06FA6FC4993","title":"晶浦会","lon":"121.49999","lat":"31.23362","category":"72","category_name":"广东菜","address":"上海浦东新区花园石桥路33号花旗集团大厦4楼(近富城路)  "},{"poiid":"B2094751DA64A4FF489F","title":"炉边谈情","lon":"121.5009","lat":"31.234146","category":"247","category_name":"餐饮美食","address":"正大广场六楼"},{"poiid":"B2094757D165A7F54999","title":"花旗银行大厦","lon":"121.500979701","lat":"31.2332134973","category":"46","category_name":"楼宇","address":"上海浦东新区花园石桥路33号"},{"poiid":"B2094750DA64A1F5409F","title":"王品台塑牛排(正大广场店)","lon":"121.496726","lat":"31.234537","category":"248","category_name":"生活娱乐","address":"浦东新区陆家嘴西路168号正大广场8楼(近东方明珠)"},{"poiid":"B2094654DA6FA7FE409D","title":"STARBUCKS COFFEE(富城路)","lon":"121.49745","lat":"31.23502","category":"65","category_name":"咖啡厅","address":""},{"poiid":"B2094757D16FA0FC429D","title":"廊亦坊","lon":"121.498013738","lat":"31.2354924122","category":"500","category_name":"未知分类","address":"上海正大廣場5樓"},{"poiid":"B2094757D069A0F94992","title":"宝来纳滨江店","lon":"121.50070673","lat":"31.23539541","category":"500","category_name":"未知分类","address":"上海滨江大道"},{"poiid":"B2094750D66CAAFD4092","title":"vini angeli","lon":"121.500816","lat":"31.235115","category":"94","category_name":"西餐厅","address":"浦东新区陆家嘴西路168号正大广场8楼(近东方明珠)"},{"poiid":"B2094655D36CA7FD4293","title":"花园石桥路陆家嘴环路(正大广场)","lon":"121.50115","lat":"31.23482","category":"38","category_name":"公交车站","address":""},{"poiid":"B2094757D069A6FE449C","title":"十六铺码头边","lon":"121.49703768","lat":"31.228610509","category":"500","category_name":"未知分类","address":"上海市,上海中山东二路"},{"poiid":"B2094757D068A5F9429C","title":"福佑商厦","lon":"121.498","lat":"31.2336","category":"119","category_name":"商场","address":"黄浦区福佑路225号(近旧校场路)"},{"poiid":"B2094757D468ABF54699","title":"星巴克 花旗大厦店 Starbucks Cafe","lon":"121.500050054","lat":"31.234238793","category":"65","category_name":"咖啡厅","address":"浦东新区花园石桥路33号花旗集团大厦1楼(近富城路)"},{"poiid":"B2094655D26CA4F44392","title":"滨江大道(八号门)","lon":"121.49874","lat":"31.23482","category":"116","category_name":"特色商业街","address":""},{"poiid":"B2094757D068A6F4499F","title":"君悦轩(花园石桥店)","lon":"121.50239","lat":"31.23334","category":"72","category_name":"广东菜","address":"浦东新区花园石桥路66号东亚银行金融大厦3楼(近陆家嘴环路)"},{"poiid":"B2094757D06AA7F4479A","title":"香格里拉大堂酒廊","lon":"121.49914","lat":"31.23535","category":"260","category_name":"其他","address":"浦东新区富城路33号香格里拉大酒店浦江楼1楼(近名商路)"},{"poiid":"B2094750D268A7F8449E","title":"滨江一号","lon":"121.501441","lat":"31.231658","category":"247","category_name":"餐饮美食","address":"浦东新区滨江一号滨江富城路拾步街由隆花园(近石桥路)"},{"poiid":"B2094750D26FABF44592","title":"Bocca","lon":"121.4960508","lat":"31.2293856","category":"98","category_name":"意式菜品餐厅","address":"黄浦区中山东二路22号5楼(近新永安路)"},{"poiid":"B2094757D06FA7FD4592","title":"网鱼网咖(张杨店)","lon":"121.49722426","lat":"31.229141715","category":"173","category_name":"游戏厅","address":"浦东新区张杨路640号3楼A座(近第一八佰伴)"},{"poiid":"B2094750D56EA1FD459D","title":"上海浦东香格里拉大酒店桂花楼中餐厅","lon":"121.498611","lat":"31.235609","category":"247","category_name":"餐饮美食","address":"富城路33号"},{"poiid":"B2094757D069A5F4449D","title":"Lavazza正大广场店","lon":"121.50245","lat":"31.23789","category":"260","category_name":"其他","address":"浦东新区陆家嘴西路168号正大广场3楼西区-25铺(近东方明珠)"},{"poiid":"B2094757D16BA4F54592","title":"STELLA LUNA(国金店)","lon":"121.501676738","lat":"31.2345953931","category":"500","category_name":"未知分类","address":"上海ifc国金商场"},{"poiid":"B2094757D16CAAFB489F","title":"浦东金贸君悦酒店","lon":"121.50241173","lat":"31.230401303","category":"217","category_name":"旅馆招待所","address":"上海市浦东新区富城路"},{"poiid":"B2094757D068ABFD4392","title":"桂花楼","lon":"121.49925","lat":"31.23503","category":"76","category_name":"上海菜","address":"浦东新区富城路33号香格里拉大酒店浦江楼1楼(近名商路)"},{"poiid":"B2094757D06AA0FD429D","title":"滩万 Nadaman","lon":"121.49900980442","lat":"31.23552245249","category":"95","category_name":"日本料理","address":"浦东新区富城路33号香格里拉大酒店紫金楼2楼(近名商路)"},{"poiid":"B2094750DA64A4FA449C","title":"外滩22号之一克拉的梦想","lon":"121.499397","lat":"31.234285","category":"248","category_name":"生活娱乐","address":"中山东二路22号"},{"poiid":"B2094757D568A0FE499A","title":"Ben Sherman(正大广场)","lon":"121.5011139","lat":"31.23467667","category":"249","category_name":"购物服务","address":"陆家嘴环路168号正大广场1层novo内"},{"poiid":"B2094654DB69A0F9439F","title":"福临门鱼翅海鲜酒家","lon":"121.49900980442","lat":"31.23552245249","category":"72","category_name":"广东菜","address":"浦东新区富城路33号香格里拉大酒店浦江楼2楼(近名商路)"},{"poiid":"B2094750D46BABF94593","title":"小南国","lon":"121.496276","lat":"31.234474","category":"247","category_name":"餐饮美食","address":null},{"poiid":"B2094753DA6BA0F8469F","title":"MIZZI CAFE","lon":"121.500015","lat":"31.234008","category":"500","category_name":"未知分类","address":"上海市 富城路182号"},{"poiid":"B2094757D068A6FF499C","title":"Reddot Bar","lon":"121.49853515","lat":"31.233560562","category":"172","category_name":"酒吧","address":"上海浦东滨江大道"},{"poiid":"B2094757D06BA1F5409E","title":"Red dot","lon":"121.50023266","lat":"31.23302297","category":"500","category_name":"未知分类","address":"上海滨江大道"},{"poiid":"B2094654DA6EA4FC439C","title":"福源商厦","lon":"121.496","lat":"31.2327","category":"46","category_name":"楼宇","address":"黄浦区福佑路338号(近丽水路)"},{"poiid":"B2094654DA6FA7FE419B","title":"上海宝莱纳餐厅滨江店","lon":"121.49861","lat":"31.23409","category":"94","category_name":"西餐厅","address":"浦东新区滨江大道2967号滨江风光亭"},{"poiid":"B2094654DA6FA7FF4699","title":"海龙海鲜舫","lon":"121.50199","lat":"31.23107","category":"72","category_name":"广东菜","address":"浦东新区东昌路1号(近富城路拾步街)"},{"poiid":"B2094757D469A1F54993","title":"星巴克 滨江店 Starbucks Cafe","lon":"121.49833629105","lat":"31.235145384788","category":"260","category_name":"其他","address":"浦东新区滨江大道富都段滨江公园内(富城路名商路)"},{"poiid":"B209475CD564A7F84292","title":"上海滩新天地店","lon":"121.47463","lat":"31.22164","category":"119","category_name":"商场","address":"\"太仓路181弄新天地北里15号\r\n\""},{"poiid":"B209475CD564A7F84392","title":"上海滩浦东香格里拉店","lon":"121.50058","lat":"31.23634","category":"119","category_name":"商场","address":"浦东富成路33号香格里拉酒店内大堂层"},{"poiid":"B2094757D06FA1FD489D","title":"天水恋意大利餐厅","lon":"121.49832","lat":"31.23456","category":"94","category_name":"西餐厅","address":"浦东新区滨江大道富都段滨江花园内(近富城路)"},{"poiid":"B2094757D06FA2FC499B","title":"唐朝酒店(未来店)","lon":"121.50054","lat":"31.23481","category":"72","category_name":"广东菜","address":"浦东新区陆家嘴环路166号未来资产大厦2-3楼(近香格里拉大酒店)"},{"poiid":"B2094757D06FA7F54892","title":"外滩轮渡","lon":"121.49613189","lat":"31.232406616","category":"260","category_name":"其他","address":"上海外滩"},{"poiid":"B2094757D16AAAFC4399","title":"浦東香格里拉怡咖啡自助餐","lon":"121.500056738","lat":"31.2354384111","category":"65","category_name":"咖啡厅","address":"上海銀城東路"},{"poiid":"B2094757D06FA0FE479A","title":"汤臣一品","lon":"121.50127","lat":"31.233383","category":"47","category_name":"住宅区","address":"朝阳区东四环慈云寺桥东北角,向东400米路南"},{"poiid":"B2094757D06FA1F5479D","title":"震旦国际大楼","lon":"121.499293","lat":"31.234784","category":"46","category_name":"楼宇","address":"上海浦东新区富城路99号"},{"poiid":"B2094757D06FA2F9439E","title":"香格里拉怡咖啡","lon":"121.4992","lat":"31.2349","category":"268","category_name":"自助","address":"浦东新区富城路33号香格里拉大酒店紫金楼2楼(近名商路)"},{"poiid":"B2094757D568A6FE449D","title":"松鹤楼(外滩店)","lon":"121.49712782","lat":"31.22868273","category":"76","category_name":"上海菜","address":"黄浦区中山东二路505号(近外马路)"},{"poiid":"B2094654DB64ABF9439A","title":"震旦艺术博物馆","lon":"121.49929","lat":"31.23478","category":"182","category_name":"博物馆","address":"富城路99号震旦国际大楼1层"},{"poiid":"B2094757D16AA3FA449F","title":"紅磡體育館","lon":"121.50024373","lat":"31.234377388","category":"500","category_name":"未知分类","address":"香港尖沙咀東紅磡體育館"},{"poiid":"B2094757D068ABFD489C","title":"Kaefer滨江壹号","lon":"121.50282273","lat":"31.232060339","category":"47","category_name":"住宅区","address":"浦东新区滨江大道富城路拾步街由隆花园(近花园石桥路)"},{"poiid":"B2094757D06BA0FE469D","title":"浦东香格里酒店 盛世堂I","lon":"121.498685","lat":"31.235798","category":"217","category_name":"旅馆招待所","address":"上海浦东新区富城路33号 浦东香格里拉酒店紫金楼3F"},{"poiid":"B2094757D06FA1F8419B","title":"一点红","lon":"121.49738","lat":"31.23469","category":"94","category_name":"西餐厅","address":"浦东新区陆家嘴西路168号正大广场1楼(近东方明珠)"},{"poiid":"B2094757D06FA6FC4993","title":"晶浦会","lon":"121.49999","lat":"31.23362","category":"72","category_name":"广东菜","address":"上海浦东新区花园石桥路33号花旗集团大厦4楼(近富城路)  "},{"poiid":"B2094751DA64A4FF489F","title":"炉边谈情","lon":"121.5009","lat":"31.234146","category":"247","category_name":"餐饮美食","address":"正大广场六楼"},{"poiid":"B2094757D165A7F54999","title":"花旗银行大厦","lon":"121.500979701","lat":"31.2332134973","category":"46","category_name":"楼宇","address":"上海浦东新区花园石桥路33号"},{"poiid":"B2094750DA64A1F5409F","title":"王品台塑牛排(正大广场店)","lon":"121.496726","lat":"31.234537","category":"248","category_name":"生活娱乐","address":"浦东新区陆家嘴西路168号正大广场8楼(近东方明珠)"},{"poiid":"B2094654DA6FA7FE409D","title":"STARBUCKS COFFEE(富城路)","lon":"121.49745","lat":"31.23502","category":"65","category_name":"咖啡厅","address":""},{"poiid":"B2094757D16FA0FC429D","title":"廊亦坊","lon":"121.498013738","lat":"31.2354924122","category":"500","category_name":"未知分类","address":"上海正大廣場5樓"},{"poiid":"B2094757D069A0F94992","title":"宝来纳滨江店","lon":"121.50070673","lat":"31.23539541","category":"500","category_name":"未知分类","address":"上海滨江大道"},{"poiid":"B2094750D66CAAFD4092","title":"vini angeli","lon":"121.500816","lat":"31.235115","category":"94","category_name":"西餐厅","address":"浦东新区陆家嘴西路168号正大广场8楼(近东方明珠)"},{"poiid":"B2094655D36CA7FD4293","title":"花园石桥路陆家嘴环路(正大广场)","lon":"121.50115","lat":"31.23482","category":"38","category_name":"公交车站","address":""},{"poiid":"B2094757D069A6FE449C","title":"十六铺码头边","lon":"121.49703768","lat":"31.228610509","category":"500","category_name":"未知分类","address":"上海市,上海中山东二路"},{"poiid":"B2094757D068A5F9429C","title":"福佑商厦","lon":"121.498","lat":"31.2336","category":"119","category_name":"商场","address":"黄浦区福佑路225号(近旧校场路)"},{"poiid":"B2094757D468ABF54699","title":"星巴克 花旗大厦店 Starbucks Cafe","lon":"121.500050054","lat":"31.234238793","category":"65","category_name":"咖啡厅","address":"浦东新区花园石桥路33号花旗集团大厦1楼(近富城路)"},{"poiid":"B2094655D26CA4F44392","title":"滨江大道(八号门)","lon":"121.49874","lat":"31.23482","category":"116","category_name":"特色商业街","address":""},{"poiid":"B2094757D068A6F4499F","title":"君悦轩(花园石桥店)","lon":"121.50239","lat":"31.23334","category":"72","category_name":"广东菜","address":"浦东新区花园石桥路66号东亚银行金融大厦3楼(近陆家嘴环路)"},{"poiid":"B2094757D06AA7F4479A","title":"香格里拉大堂酒廊","lon":"121.49914","lat":"31.23535","category":"260","category_name":"其他","address":"浦东新区富城路33号香格里拉大酒店浦江楼1楼(近名商路)"},{"poiid":"B2094750D268A7F8449E","title":"滨江一号","lon":"121.501441","lat":"31.231658","category":"247","category_name":"餐饮美食","address":"浦东新区滨江一号滨江富城路拾步街由隆花园(近石桥路)"},{"poiid":"B2094750D26FABF44592","title":"Bocca","lon":"121.4960508","lat":"31.2293856","category":"98","category_name":"意式菜品餐厅","address":"黄浦区中山东二路22号5楼(近新永安路)"},{"poiid":"B2094757D06FA7FD4592","title":"网鱼网咖(张杨店)","lon":"121.49722426","lat":"31.229141715","category":"173","category_name":"游戏厅","address":"浦东新区张杨路640号3楼A座(近第一八佰伴)"},{"poiid":"B2094750D56EA1FD459D","title":"上海浦东香格里拉大酒店桂花楼中餐厅","lon":"121.498611","lat":"31.235609","category":"247","category_name":"餐饮美食","address":"富城路33号"},{"poiid":"B2094757D069A5F4449D","title":"Lavazza正大广场店","lon":"121.50245","lat":"31.23789","category":"260","category_name":"其他","address":"浦东新区陆家嘴西路168号正大广场3楼西区-25铺(近东方明珠)"},{"poiid":"B2094757D16BA4F54592","title":"STELLA LUNA(国金店)","lon":"121.501676738","lat":"31.2345953931","category":"500","category_name":"未知分类","address":"上海ifc国金商场"},{"poiid":"B2094757D16CAAFB489F","title":"浦东金贸君悦酒店","lon":"121.50241173","lat":"31.230401303","category":"217","category_name":"旅馆招待所","address":"上海市浦东新区富城路"},{"poiid":"B2094757D068ABFD4392","title":"桂花楼","lon":"121.49925","lat":"31.23503","category":"76","category_name":"上海菜","address":"浦东新区富城路33号香格里拉大酒店浦江楼1楼(近名商路)"},{"poiid":"B2094757D06AA0FD429D","title":"滩万 Nadaman","lon":"121.49900980442","lat":"31.23552245249","category":"95","category_name":"日本料理","address":"浦东新区富城路33号香格里拉大酒店紫金楼2楼(近名商路)"},{"poiid":"B2094750DA64A4FA449C","title":"外滩22号之一克拉的梦想","lon":"121.499397","lat":"31.234285","category":"248","category_name":"生活娱乐","address":"中山东二路22号"},{"poiid":"B2094757D568A0FE499A","title":"Ben Sherman(正大广场)","lon":"121.5011139","lat":"31.23467667","category":"249","category_name":"购物服务","address":"陆家嘴环路168号正大广场1层novo内"},{"poiid":"B2094654DB69A0F9439F","title":"福临门鱼翅海鲜酒家","lon":"121.49900980442","lat":"31.23552245249","category":"72","category_name":"广东菜","address":"浦东新区富城路33号香格里拉大酒店浦江楼2楼(近名商路)"},{"poiid":"B2094750D46BABF94593","title":"小南国","lon":"121.496276","lat":"31.234474","category":"247","category_name":"餐饮美食","address":null},{"poiid":"B2094753DA6BA0F8469F","title":"MIZZI CAFE","lon":"121.500015","lat":"31.234008","category":"500","category_name":"未知分类","address":"上海市 富城路182号"},{"poiid":"B2094757D068A6FF499C","title":"Reddot Bar","lon":"121.49853515","lat":"31.233560562","category":"172","category_name":"酒吧","address":"上海浦东滨江大道"},{"poiid":"B2094757D06BA1F5409E","title":"Red dot","lon":"121.50023266","lat":"31.23302297","category":"500","category_name":"未知分类","address":"上海滨江大道"},{"poiid":"B2094654DA6EA4FC439C","title":"福源商厦","lon":"121.496","lat":"31.2327","category":"46","category_name":"楼宇","address":"黄浦区福佑路338号(近丽水路)"},{"poiid":"B2094654DA6FA7FE419B","title":"上海宝莱纳餐厅滨江店","lon":"121.49861","lat":"31.23409","category":"94","category_name":"西餐厅","address":"浦东新区滨江大道2967号滨江风光亭"},{"poiid":"B2094654DA6FA7FF4699","title":"海龙海鲜舫","lon":"121.50199","lat":"31.23107","category":"72","category_name":"广东菜","address":"浦东新区东昌路1号(近富城路拾步街)"},{"poiid":"B2094757D469A1F54993","title":"星巴克 滨江店 Starbucks Cafe","lon":"121.49833629105","lat":"31.235145384788","category":"260","category_name":"其他","address":"浦东新区滨江大道富都段滨江公园内(富城路名商路)"},{"poiid":"B209475CD564A7F84292","title":"上海滩新天地店","lon":"121.47463","lat":"31.22164","category":"119","category_name":"商场","address":"\"太仓路181弄新天地北里15号\r\n\""},{"poiid":"B209475CD564A7F84392","title":"上海滩浦东香格里拉店","lon":"121.50058","lat":"31.23634","category":"119","category_name":"商场","address":"浦东富成路33号香格里拉酒店内大堂层"},{"poiid":"B2094757D06FA1FD489D","title":"天水恋意大利餐厅","lon":"121.49832","lat":"31.23456","category":"94","category_name":"西餐厅","address":"浦东新区滨江大道富都段滨江花园内(近富城路)"},{"poiid":"B2094757D06FA2FC499B","title":"唐朝酒店(未来店)","lon":"121.50054","lat":"31.23481","category":"72","category_name":"广东菜","address":"浦东新区陆家嘴环路166号未来资产大厦2-3楼(近香格里拉大酒店)"},{"poiid":"B2094757D06FA7F54892","title":"外滩轮渡","lon":"121.49613189","lat":"31.232406616","category":"260","category_name":"其他","address":"上海外滩"},{"poiid":"B2094757D16AAAFC4399","title":"浦東香格里拉怡咖啡自助餐","lon":"121.500056738","lat":"31.2354384111","category":"65","category_name":"咖啡厅","address":"上海銀城東路"},{"poiid":"B2094757D06FA0FE479A","title":"汤臣一品","lon":"121.50127","lat":"31.233383","category":"47","category_name":"住宅区","address":"朝阳区东四环慈云寺桥东北角,向东400米路南"},{"poiid":"B2094757D06FA1F5479D","title":"震旦国际大楼","lon":"121.499293","lat":"31.234784","category":"46","category_name":"楼宇","address":"上海浦东新区富城路99号"},{"poiid":"B2094757D06FA2F9439E","title":"香格里拉怡咖啡","lon":"121.4992","lat":"31.2349","category":"268","category_name":"自助","address":"浦东新区富城路33号香格里拉大酒店紫金楼2楼(近名商路)"},{"poiid":"B2094757D568A6FE449D","title":"松鹤楼(外滩店)","lon":"121.49712782","lat":"31.22868273","category":"76","category_name":"上海菜","address":"黄浦区中山东二路505号(近外马路)"},{"poiid":"B2094654DB64ABF9439A","title":"震旦艺术博物馆","lon":"121.49929","lat":"31.23478","category":"182","category_name":"博物馆","address":"富城路99号震旦国际大楼1层"},{"poiid":"B2094757D16AA3FA449F","title":"紅磡體育館","lon":"121.50024373","lat":"31.234377388","category":"500","category_name":"未知分类","address":"香港尖沙咀東紅磡體育館"},{"poiid":"B2094757D068ABFD489C","title":"Kaefer滨江壹号","lon":"121.50282273","lat":"31.232060339","category":"47","category_name":"住宅区","address":"浦东新区滨江大道富城路拾步街由隆花园(近花园石桥路)"},{"poiid":"B2094757D06BA0FE469D","title":"浦东香格里酒店 盛世堂I","lon":"121.498685","lat":"31.235798","category":"217","category_name":"旅馆招待所","address":"上海浦东新区富城路33号 浦东香格里拉酒店紫金楼3F"},{"poiid":"B2094757D06FA1F8419B","title":"一点红","lon":"121.49738","lat":"31.23469","category":"94","category_name":"西餐厅","address":"浦东新区陆家嘴西路168号正大广场1楼(近东方明珠)"},{"poiid":"B2094757D06FA6FC4993","title":"晶浦会","lon":"121.49999","lat":"31.23362","category":"72","category_name":"广东菜","address":"上海浦东新区花园石桥路33号花旗集团大厦4楼(近富城路)  "},{"poiid":"B2094751DA64A4FF489F","title":"炉边谈情","lon":"121.5009","lat":"31.234146","category":"247","category_name":"餐饮美食","address":"正大广场六楼"},{"poiid":"B2094757D165A7F54999","title":"花旗银行大厦","lon":"121.500979701","lat":"31.2332134973","category":"46","category_name":"楼宇","address":"上海浦东新区花园石桥路33号"},{"poiid":"B2094750DA64A1F5409F","title":"王品台塑牛排(正大广场店)","lon":"121.496726","lat":"31.234537","category":"248","category_name":"生活娱乐","address":"浦东新区陆家嘴西路168号正大广场8楼(近东方明珠)"},{"poiid":"B2094654DA6FA7FE409D","title":"STARBUCKS COFFEE(富城路)","lon":"121.49745","lat":"31.23502","category":"65","category_name":"咖啡厅","address":""},{"poiid":"B2094757D16FA0FC429D","title":"廊亦坊","lon":"121.498013738","lat":"31.2354924122","category":"500","category_name":"未知分类","address":"上海正大廣場5樓"},{"poiid":"B2094757D069A0F94992","title":"宝来纳滨江店","lon":"121.50070673","lat":"31.23539541","category":"500","category_name":"未知分类","address":"上海滨江大道"},{"poiid":"B2094750D66CAAFD4092","title":"vini angeli","lon":"121.500816","lat":"31.235115","category":"94","category_name":"西餐厅","address":"浦东新区陆家嘴西路168号正大广场8楼(近东方明珠)"},{"poiid":"B2094655D36CA7FD4293","title":"花园石桥路陆家嘴环路(正大广场)","lon":"121.50115","lat":"31.23482","category":"38","category_name":"公交车站","address":""},{"poiid":"B2094757D069A6FE449C","title":"十六铺码头边","lon":"121.49703768","lat":"31.228610509","category":"500","category_name":"未知分类","address":"上海市,上海中山东二路"},{"poiid":"B2094757D068A5F9429C","title":"福佑商厦","lon":"121.498","lat":"31.2336","category":"119","category_name":"商场","address":"黄浦区福佑路225号(近旧校场路)"},{"poiid":"B2094757D468ABF54699","title":"星巴克 花旗大厦店 Starbucks Cafe","lon":"121.500050054","lat":"31.234238793","category":"65","category_name":"咖啡厅","address":"浦东新区花园石桥路33号花旗集团大厦1楼(近富城路)"},{"poiid":"B2094655D26CA4F44392","title":"滨江大道(八号门)","lon":"121.49874","lat":"31.23482","category":"116","category_name":"特色商业街","address":""},{"poiid":"B2094757D068A6F4499F","title":"君悦轩(花园石桥店)","lon":"121.50239","lat":"31.23334","category":"72","category_name":"广东菜","address":"浦东新区花园石桥路66号东亚银行金融大厦3楼(近陆家嘴环路)"},{"poiid":"B2094757D06AA7F4479A","title":"香格里拉大堂酒廊","lon":"121.49914","lat":"31.23535","category":"260","category_name":"其他","address":"浦东新区富城路33号香格里拉大酒店浦江楼1楼(近名商路)"},{"poiid":"B2094750D268A7F8449E","title":"滨江一号","lon":"121.501441","lat":"31.231658","category":"247","category_name":"餐饮美食","address":"浦东新区滨江一号滨江富城路拾步街由隆花园(近石桥路)"},{"poiid":"B2094750D26FABF44592","title":"Bocca","lon":"121.4960508","lat":"31.2293856","category":"98","category_name":"意式菜品餐厅","address":"黄浦区中山东二路22号5楼(近新永安路)"},{"poiid":"B2094757D06FA7FD4592","title":"网鱼网咖(张杨店)","lon":"121.49722426","lat":"31.229141715","category":"173","category_name":"游戏厅","address":"浦东新区张杨路640号3楼A座(近第一八佰伴)"},{"poiid":"B2094750D56EA1FD459D","title":"上海浦东香格里拉大酒店桂花楼中餐厅","lon":"121.498611","lat":"31.235609","category":"247","category_name":"餐饮美食","address":"富城路33号"},{"poiid":"B2094757D069A5F4449D","title":"Lavazza正大广场店","lon":"121.50245","lat":"31.23789","category":"260","category_name":"其他","address":"浦东新区陆家嘴西路168号正大广场3楼西区-25铺(近东方明珠)"},{"poiid":"B2094757D16BA4F54592","title":"STELLA LUNA(国金店)","lon":"121.501676738","lat":"31.2345953931","category":"500","category_name":"未知分类","address":"上海ifc国金商场"},{"poiid":"B2094757D16CAAFB489F","title":"浦东金贸君悦酒店","lon":"121.50241173","lat":"31.230401303","category":"217","category_name":"旅馆招待所","address":"上海市浦东新区富城路"},{"poiid":"B2094757D068ABFD4392","title":"桂花楼","lon":"121.49925","lat":"31.23503","category":"76","category_name":"上海菜","address":"浦东新区富城路33号香格里拉大酒店浦江楼1楼(近名商路)"},{"poiid":"B2094757D06AA0FD429D","title":"滩万 Nadaman","lon":"121.49900980442","lat":"31.23552245249","category":"95","category_name":"日本料理","address":"浦东新区富城路33号香格里拉大酒店紫金楼2楼(近名商路)"},{"poiid":"B2094750DA64A4FA449C","title":"外滩22号之一克拉的梦想","lon":"121.499397","lat":"31.234285","category":"248","category_name":"生活娱乐","address":"中山东二路22号"},{"poiid":"B2094757D568A0FE499A","title":"Ben Sherman(正大广场)","lon":"121.5011139","lat":"31.23467667","category":"249","category_name":"购物服务","address":"陆家嘴环路168号正大广场1层novo内"},{"poiid":"B2094654DB69A0F9439F","title":"福临门鱼翅海鲜酒家","lon":"121.49900980442","lat":"31.23552245249","category":"72","category_name":"广东菜","address":"浦东新区富城路33号香格里拉大酒店浦江楼2楼(近名商路)"},{"poiid":"B2094750D46BABF94593","title":"小南国","lon":"121.496276","lat":"31.234474","category":"247","category_name":"餐饮美食","address":null},{"poiid":"B2094753DA6BA0F8469F","title":"MIZZI CAFE","lon":"121.500015","lat":"31.234008","category":"500","category_name":"未知分类","address":"上海市 富城路182号"},{"poiid":"B2094757D068A6FF499C","title":"Reddot Bar","lon":"121.49853515","lat":"31.233560562","category":"172","category_name":"酒吧","address":"上海浦东滨江大道"},{"poiid":"B2094757D06BA1F5409E","title":"Red dot","lon":"121.50023266","lat":"31.23302297","category":"500","category_name":"未知分类","address":"上海滨江大道"},{"poiid":"B2094654DA6EA4FC439C","title":"福源商厦","lon":"121.496","lat":"31.2327","category":"46","category_name":"楼宇","address":"黄浦区福佑路338号(近丽水路)"}]