[{"poiid":"B2094757D06FA7FC489F","title":"福寿园","lon":"121.131284073","lat":"31.1121971078","category":"47","category_name":"住宅区","address":"上海近郊青浦区外青松公路7270号"},{"poiid":"B2094654DA6BA4FF419D","title":"凯博休闲农庄","lon":"121.12996","lat":"31.12377","category":"248","category_name":"生活娱乐","address":"外青松公路7188号近沪青平公路"},{"poiid":"B2094655D36CA2F8409C","title":"青东农场","lon":"121.14918","lat":"31.11405","category":"38","category_name":"公交车站","address":""},{"poiid":"B2094757D16DA5FA4199","title":"人文纪念博物馆","lon":"121.134026671","lat":"31.1116725957","category":"500","category_name":"未知分类","address":"青浦区外青松公路7270号福寿园"},{"poiid":"B2094757D16CA2F44898","title":"上海市第三劳动教养管理所","lon":"121.146984864","lat":"31.1233796078","category":"500","category_name":"未知分类","address":"上海青浦区庆丰路1号"},{"poiid":"B2094654DA6BA4F4439C","title":"福乐佳超市(王仙村路)","lon":"121.14749","lat":"31.11409","category":"118","category_name":"超级市场","address":""},{"poiid":"B2094654DA6BA4F4439E","title":"福苑山庄","lon":"121.13532","lat":"31.11705","category":"248","category_name":"生活娱乐","address":"青浦镇"},{"poiid":"B2094654DA6BA4FF439E","title":"杭州华联(上海兆泰环保实业有限公司北)","lon":"121.14338","lat":"31.12007","category":"118","category_name":"超级市场","address":"青东农场"},{"poiid":"B2094750D66AA4F8409F","title":"上海市青浦监狱","lon":"121.138511","lat":"31.121097","category":"608","category_name":"法院","address":"青浦区外青松公路7405号"},{"poiid":"B2094757D06BA1FA419F","title":"琵琶园农家乐","lon":"121.134522671","lat":"31.1320980049","category":"75","category_name":"浙江菜","address":"上海外青松公路7166号"},{"poiid":"B2094750D664A6FB4392","title":"张家湾生态园","lon":"121.13","lat":"31.1233","category":"87","category_name":"特色／地方风味餐厅","address":"青浦区外青松公路7188号张家湾生态园内"},{"poiid":"B2094654DA6BA4FF429F","title":"上海瑞大学校","lon":"121.15367","lat":"31.11323","category":"55","category_name":"中学","address":""},{"poiid":"B2094655D36DA2F94398","title":"三官塘大桥","lon":"121.12795","lat":"31.11622","category":"250","category_name":"公园户外","address":""},{"poiid":"B2094757D568A7F5449C","title":"全驴馆","lon":"121.129342","lat":"31.125371","category":"260","category_name":"其他","address":"青浦区外青松公路7199号18-20号"}]