[{"poiid":"B2094757D164ABFB429B","title":"重固镇大街","lon":"121.18226066","lat":"31.199259459","category":"500","category_name":"未知分类","address":"上海青浦区重固镇"},{"poiid":"B2094655D36DA7F94492","title":"重固","lon":"121.18077","lat":"31.19269","category":"38","category_name":"公交车站","address":""},{"poiid":"B2094757D06AA1FF4992","title":"万科尚源","lon":"121.18972714868","lat":"31.206371044946","category":"500","category_name":"未知分类","address":"青浦区福定路289弄"},{"poiid":"B2094655D265A6F5479E","title":"福泉山古文化遗址","lon":"121.17593","lat":"31.20165","category":"250","category_name":"公园户外","address":"重固乡钱家经村"},{"poiid":"B2094654D569A1F54892","title":"青浦区重固镇社区卫生服务中心","lon":"121.17968","lat":"31.20247","category":"162","category_name":"医院","address":"重固镇"},{"poiid":"B2094654D569A1F4499B","title":"重固中学","lon":"121.17745","lat":"31.19978","category":"55","category_name":"中学","address":""},{"poiid":"B2094757D16EA1FD4099","title":"重固影剧院","lon":"121.179229","lat":"31.200464","category":"248","category_name":"生活娱乐","address":"上海重固镇通坡塘西街28号"},{"poiid":"B2094757D66DABFE449B","title":"重固成人学校","lon":"121.180043","lat":"31.2011741","category":"53","category_name":"成人教育","address":"上海重固镇大街999号"},{"poiid":"B2094757D16DAAFE449C","title":"福泉山遗址","lon":"121.17979","lat":"31.1989","category":"500","category_name":"未知分类","address":"青浦区重固镇西侧"},{"poiid":"B2094757D06AA7FB469E","title":"现代华庭","lon":"121.19036865","lat":"31.190029144","category":"47","category_name":"住宅区","address":"上海市青浦区赵重公路2588弄1号"},{"poiid":"B2094757D16EA7F94393","title":"重固城管大队","lon":"121.181173","lat":"31.200518","category":"500","category_name":"未知分类","address":"上海重固镇福泉山路512号"},{"poiid":"B2094750D56BA3FB4199","title":"逸皓华庭","lon":"121.18721056989","lat":"31.200769852061","category":"47","category_name":"住宅区","address":"重固镇大街518号(近北青公路)"},{"poiid":"B2094654D569A1F5489E","title":"青浦区重固镇劳动服务所","lon":"121.18117","lat":"31.20051","category":"252","category_name":"楼宇机构","address":"福泉山路494"},{"poiid":"B2094654D569A1F5489C","title":"中国农业银行青浦区重固支行","lon":"121.1804","lat":"31.19891","category":"150","category_name":"银行","address":"青浦区重固镇赵重公路2778弄126-136号"},{"poiid":"B2094654D569A1F5439F","title":"名角女士生活馆(青浦重固中心小学西)","lon":"121.18378","lat":"31.19812","category":"148","category_name":"美容美发店","address":""},{"poiid":"B2094654D569A1F5439E","title":"好心情台湾珍珠奶茶","lon":"121.1837","lat":"31.19812","category":"113","category_name":"冷饮店","address":""},{"poiid":"B2094757D065A7FF409B","title":"重固菜市场","lon":"121.1834028","lat":"31.2001967","category":"249","category_name":"购物服务","address":"上海市青浦区重固镇福泉山路360号"},{"poiid":"B2094757D16DA6FD4998","title":"万事发公寓","lon":"121.183588","lat":"31.201294","category":"252","category_name":"楼宇机构","address":null},{"poiid":"B2094654D569A1F5439B","title":"上海源丰药房重固分店","lon":"121.18537","lat":"31.20043","category":"162","category_name":"医院","address":"重固镇"},{"poiid":"B2094757D66DA0FF459D","title":"重固镇社区文化活动中心","lon":"121.18414256","lat":"31.2004317842","category":"500","category_name":"未知分类","address":"上海重固赵重公路"},{"poiid":"B2094757DA6EABF44293","title":"意邦建材饰界","lon":"121.188690999999","lat":"31.192829","category":"249","category_name":"购物服务","address":"青浦区北青公路6598号"},{"poiid":"B2094757DA6FA3FC489F","title":"可博电脑","lon":"121.181466000002","lat":"31.1987899999999","category":"249","category_name":"购物服务","address":"青浦区青重固镇赵重公路2935弄54号(近泉中路)"},{"poiid":"B2094654D569A1FA459A","title":"青浦重固中心小学","lon":"121.18562","lat":"31.19814","category":"56","category_name":"小学","address":""},{"poiid":"B2094757D569A3FF4692","title":"夏阳金城","lon":"121.1846728","lat":"31.19271389","category":"47","category_name":"住宅区","address":"上海市青浦区赵重公路2555弄"},{"poiid":"B2094757D164A1FA419C","title":"重固康博佳苑","lon":"121.18725056","lat":"31.203864856","category":"500","category_name":"未知分类","address":"上海福定路385弄"},{"poiid":"B2094655D26BA4F84093","title":"莫泰168旅店(青浦店)","lon":"121.18619","lat":"31.18969","category":"216","category_name":"经济型连锁酒店","address":"上海市青浦区赵重公路2777弄9号"},{"poiid":"B2094655D36DA7FE4292","title":"赵重公路(招呼站)","lon":"121.18553","lat":"31.19344","category":"38","category_name":"公交车站","address":""},{"poiid":"B2094757D064A5F4469E","title":"青浦","lon":"121.185079","lat":"31.191741","category":"500","category_name":"未知分类","address":"上海重固"},{"poiid":"B2094655D26BA2FF479B","title":"通坡塘桥","lon":"121.18074","lat":"31.18937","category":"38","category_name":"公交车站","address":""},{"poiid":"B2094655D264A7FA439A","title":"金城上品(夏阳金城)","lon":"121.1849","lat":"31.18512","category":"47","category_name":"住宅区","address":"赵重公路2811弄"},{"poiid":"B2094655D36CA2F8499B","title":"秋湄泾","lon":"121.17009","lat":"31.18795","category":"38","category_name":"公交车站","address":""},{"poiid":"B2094757D16FAAFF449C","title":"上海龙人石业装饰有限公司","lon":"121.178071","lat":"31.188897","category":"500","category_name":"未知分类","address":"青浦区北青公路7199号(近崧盈路)"},{"poiid":"B2094655D26BA2FA4993","title":"孙家圩(招呼站)","lon":"121.19015","lat":"31.19061","category":"38","category_name":"公交车站","address":""},{"poiid":"B2094757D66EA3FA499B","title":"青浦供电公司重固变电站","lon":"121.18287366","lat":"31.189196848","category":"500","category_name":"未知分类","address":"上海北青公路左转至赵重公路往前500米"},{"poiid":"B2094757D16DA7F44499","title":"苏荷SOHO","lon":"121.17363191","lat":"31.218322401","category":"500","category_name":"未知分类","address":"上海衡山路4号、电话;54699898"},{"poiid":"B2094654D569A1F5469F","title":"福泉山村","lon":"121.17243","lat":"31.18843","category":"248","category_name":"生活娱乐","address":""},{"poiid":"B2094654D569A1F4469C","title":"上海富智化工有限公司","lon":"121.18082","lat":"31.18354","category":"263","category_name":"公司","address":""},{"poiid":"B2094654D569A1F4469F","title":"上海瑞泰金属表面处理工程有限公司","lon":"121.17904","lat":"31.18363","category":"263","category_name":"公司","address":""}]