[{"poiid":"B2094757D66DA7F4469B","title":"外滩","lon":"121.490535738","lat":"31.2383514732","category":"240","category_name":"国家级景点","address":"上海市中心区黄浦江畔"},{"poiid":"B2094654DA6FAAF84098","title":"外滩中心","lon":"121.494","lat":"31.238","category":"46","category_name":"楼宇","address":"上海黄浦区延安东路222号"},{"poiid":"B2094654DA6FA7FE4098","title":"滨江大道","lon":"121.49565","lat":"31.2374","category":"116","category_name":"特色商业街","address":"陆家嘴路1号"},{"poiid":"B209475CD564A7F84292","title":"上海滩新天地店","lon":"121.47463","lat":"31.22164","category":"119","category_name":"商场","address":"\"太仓路181弄新天地北里15号\r\n\""},{"poiid":"B209475CD564A7F84392","title":"上海滩浦东香格里拉店","lon":"121.50058","lat":"31.23634","category":"119","category_name":"商场","address":"浦东富成路33号香格里拉酒店内大堂层"},{"poiid":"B2094757D06FA2FF4893","title":"海鸥舫","lon":"121.49586","lat":"31.23816","category":"76","category_name":"上海菜","address":"浦东新区滨江大道2852号(滨江花园内)"},{"poiid":"B2094757D064A5FD4593","title":"外灘","lon":"121.49375073","lat":"31.240939528","category":"500","category_name":"未知分类","address":"上海市黄浦区南苏州路"},{"poiid":"B2094757D06FA1FC439D","title":"Bar Rouge","lon":"121.49011","lat":"31.2386","category":"260","category_name":"其他","address":"黄浦区中山东一路18号外滩18号7楼(近南京东路)"},{"poiid":"B2094757D06FA5FC439A","title":"Mr &amp; Mrs Bund","lon":"121.4901","lat":"31.23816","category":"94","category_name":"西餐厅","address":"上海黄浦区中山东一路18号外滩18号6楼(近南京东路)"},{"poiid":"B2094750D364A0FF429A","title":"外滩18号Bund18","lon":"121.49013","lat":"31.23594","category":"119","category_name":"商场","address":"中山东一路18号"},{"poiid":"B2094757D068A2FC4893","title":"外滩海关大钟","lon":"121.490005","lat":"31.236592","category":"500","category_name":"未知分类","address":"上海中山东一路13号"},{"poiid":"B2094655D26EA2F5479B","title":"海关大楼","lon":"121.49002","lat":"31.23668","category":"46","category_name":"楼宇","address":"鲁尔大厦位于铁西兴华南街5号"},{"poiid":"B2094757D06BABFB449A","title":"Shook！上海","lon":"121.49010773","lat":"31.238661479","category":"94","category_name":"西餐厅","address":"黄浦区南京东路23号5-6楼(外滩19号)"},{"poiid":"B2094654DB6BABFC409E","title":"Haagen-Dazs","lon":"121.49623","lat":"31.23572","category":"113","category_name":"冷饮店","address":"滨江公园西南"},{"poiid":"B2094757D16CA4FE469A","title":"罗斯福9楼露天酒吧","lon":"121.49195883","lat":"31.237938814","category":"172","category_name":"酒吧","address":"上海外滩27号"},{"poiid":"B2094757D169ABFF409D","title":"枫雅日本料理","lon":"121.495364738","lat":"31.2381594691","category":"95","category_name":"日本料理","address":"浦东新区陆家嘴西路2967号北滨江B座(近滨江大道)"},{"poiid":"B2094655D26FA2FA409C","title":"工商联大厦","lon":"121.496","lat":"31.2374","category":"46","category_name":"楼宇","address":"上海市黄浦区延安东路45号"},{"poiid":"B2094757D66CA0F5419A","title":"Paulaner","lon":"121.49564183","lat":"31.236288029","category":"500","category_name":"未知分类","address":"滨江大道"},{"poiid":"B2094757D06FABF4469B","title":"天水恋 Café &amp; bar","lon":"121.49577331","lat":"31.237451553","category":"65","category_name":"咖啡厅","address":"上海外滩滨江大道"},{"poiid":"B2094757DB6FA2FF419C","title":"避風塘","lon":"121.4943869958333","lat":"31.23857748583332","category":"500","category_name":"未知分类","address":"正大廣場"},{"poiid":"B2094757D469A7F4429D","title":"悦粤茶餐厅","lon":"121.49097","lat":"31.2412","category":"72","category_name":"广东菜","address":"黄浦区中山东一路429号(近北京东路)"},{"poiid":"B2094752DB64A5FB4692","title":"米子mizzi","lon":"121.495748","lat":"31.235876","category":"500","category_name":"未知分类","address":"上海市 浦东新区富城路182号"},{"poiid":"B2094757D06FA2FD4298","title":"上海陈毅广场","lon":"121.490514434","lat":"31.2389924275","category":"250","category_name":"公园户外","address":"黄浦区中山东一路外滩(近南京东路)"},{"poiid":"B2094752DA6DA0F8499D","title":"星期五餐厅Friday","lon":"121.493575","lat":"31.238085","category":"247","category_name":"餐饮美食","address":"上海浦东陆家嘴富城路16号"},{"poiid":"B2094654DA6EA5F4429C","title":"新上海城市广场","lon":"121.49382789653","lat":"31.235365937753","category":"46","category_name":"楼宇","address":"龙蟠南路33号(龙蟠南路与秦虹路交汇处"},{"poiid":"B2094752DB6CA3F84399","title":"麝香猫咖啡 MUSKCAT COFFEE","lon":"121.496816","lat":"31.236435","category":"500","category_name":"未知分类","address":"上海市 上海市浦东新区滨江大道富都段滨江公园内"},{"poiid":"B2094655D26EAAF4479C","title":"仙踪林(滨江店)","lon":"121.4957","lat":"31.23923","category":"247","category_name":"餐饮美食","address":"浦东新区陆家嘴西路2967号北滨江大道A座(丰和路陆家嘴西路)"},{"poiid":"B2094655D26DA3FF489A","title":"Bund18","lon":"121.48978","lat":"31.23842","category":"119","category_name":"商场","address":"中山东一路18"},{"poiid":"B2094757D068A7F44998","title":"枫雅铁板烧","lon":"121.49576","lat":"31.2374","category":"269","category_name":"烧烤","address":"浦东新区陆家嘴西路2967号北滨江C座(近滨江大道)"},{"poiid":"B2094757DA6AAAF54598","title":"Matto","lon":"121.4938641230534","lat":"31.23920718760844","category":"247","category_name":"餐饮美食","address":"浦东正大广场1楼"},{"poiid":"B2094752D265A4FA4393","title":"hooters猫头鹰餐厅","lon":"121.496598","lat":"31.236692","category":"247","category_name":"餐饮美食","address":null},{"poiid":"B2094757D068A4FB4692","title":"外滩观光隧道","lon":"121.49087","lat":"31.23984","category":"260","category_name":"其他","address":"黄浦区外滩中山东一路300号(外滩与陆家嘴间)"},{"poiid":"B2094752D364A4FE4298","title":"家有好面(南京东路店)","lon":"121.49277","lat":"31.2376","category":"68","category_name":"快餐厅","address":"黄浦区南京东路720号第一食品3楼(近贵州路)"},{"poiid":"B2094757D06AA4F8479E","title":"上海海关","lon":"121.49073283","lat":"31.235817695","category":"500","category_name":"未知分类","address":"上海中山东一路13号"},{"poiid":"B2094757D66FA6FA4693","title":"延安东路隧道","lon":"121.4938968","lat":"31.235608933","category":"260","category_name":"其他","address":"上海黄浦区延安东路-浦东新区陆家嘴西路"},{"poiid":"B2094757D069A6F5439A","title":"小竹园海鲜酒楼(外滩店)","lon":"121.493705026","lat":"31.2347289549","category":"247","category_name":"餐饮美食","address":"上海四川中路218号"},{"poiid":"B2094751D56FABFD479A","title":"炉边情谈","lon":"121.496303","lat":"31.236572","category":"500","category_name":"未知分类","address":"陆家嘴正大广场"},{"poiid":"B2094757D16FABFE4299","title":"仙踪林","lon":"121.49111173","lat":"31.235984422","category":"500","category_name":"未知分类","address":"上海陆家嘴西路2967号北滨江大道A座(丰和路陆家嘴西路)"},{"poiid":"B2094757D56DAAFD4593","title":"正大小南国","lon":"121.493159","lat":"31.237652","category":"247","category_name":"餐饮美食","address":"陆家嘴"},{"poiid":"B2094752DA6CAAFD429F","title":"T.G.I.FRiDAY浦东滨江店","lon":"121.493807","lat":"31.237982","category":"247","category_name":"餐饮美食","address":"富城路16号"},{"poiid":"B2094654DB69A6FA4099","title":"外滩情人墙","lon":"121.49021","lat":"31.2369","category":"250","category_name":"公园户外","address":"黄浦区中山东一路黄浦江边"},{"poiid":"B2094655D269ABFD4098","title":"外滩十八号创意中心","lon":"121.48974","lat":"31.2384","category":"247","category_name":"餐饮美食","address":"黄浦区中山东一路18号4楼(近南京东路)"},{"poiid":"B209475CD364A2FB4099","title":"Hakkasan","lon":"121.49009","lat":"31.23634","category":"94","category_name":"西餐厅","address":"中山东一路18号外滩十八号5楼"},{"poiid":"B2094757D16BA0FD489A","title":"东昌路摆渡","lon":"121.493180738","lat":"31.2351464049","category":"500","category_name":"未知分类","address":"上海市黄浦区四川中路"},{"poiid":"B2094757D069A6FE4593","title":"Lounge 18","lon":"121.48999","lat":"31.23888","category":"184","category_name":"美术馆","address":"黄浦区中山东一路18号外滩18号4楼(近南京东路)"},{"poiid":"B2094750D16BA6FA439D","title":"外白渡大桥","lon":"121.491432","lat":"31.238191","category":"500","category_name":"未知分类","address":null},{"poiid":"B2094757D068A1FF469C","title":"招商银行(外滩支行)","lon":"121.48987579","lat":"31.238119125","category":"150","category_name":"银行","address":"黄浦区中山东一路16号(近九江路)"},{"poiid":"B209475CD068A3F8439E","title":"望海地中海海鲜餐厅  To the sea","lon":"121.495748","lat":"31.237681","category":"100","category_name":"地中海风格菜品","address":"陆家嘴西路2967号"},{"poiid":"B2094757D068ABFD469F","title":"友邦大厦","lon":"121.48980712","lat":"31.238212585","category":"46","category_name":"楼宇","address":"上海中山东一路17号"},{"poiid":"B2094654DB69A6F94298","title":"陆家嘴金融贸易区","lon":"121.49691","lat":"31.23827","category":"45","category_name":"产业园区","address":"浦西外滩对面"},{"poiid":"B2094757D06BA6FC479A","title":"18 Gallery","lon":"121.49469811","lat":"31.236609855","category":"184","category_name":"美术馆","address":"上海黄浦区中山东一路18号4楼(近南京东路)"},{"poiid":"B2094757D16DA2FB419B","title":"浦西外滩滨江大道","lon":"121.490415","lat":"31.239759","category":"500","category_name":"未知分类","address":"上海浦东滨江大道江对岸"},{"poiid":"B2094752DB6AA7FF419B","title":"东方明珠","lon":"121.492796","lat":"31.238949","category":"500","category_name":"未知分类","address":"上海市 外滩东方明珠"},{"poiid":"B2094751D565A1FE489F","title":"Mr & Mrs Bund","lon":"121.492703","lat":"31.234391","category":"247","category_name":"餐饮美食","address":"外滩十八号"},{"poiid":"B2094750D26CA5FE499E","title":"影院正大星美","lon":"121.4966","lat":"31.236986","category":"500","category_name":"未知分类","address":null},{"poiid":"B2094753DA68AAFC449B","title":"上海市东方明珠塔","lon":"121.493782","lat":"31.234169","category":"500","category_name":"未知分类","address":"上海市 上海市东方明珠塔"},{"poiid":"B2094654DA6EA6FC479F","title":"宁东大厦","lon":"121.491","lat":"31.2363","category":"46","category_name":"楼宇","address":"上海市平凉路1398号"},{"poiid":"B2094757D16DA6F9479B","title":"十六浦码头浦江游船","lon":"121.49041273","lat":"31.238635479","category":"247","category_name":"餐饮美食","address":"上海中山东二路501号"},{"poiid":"B2094757D06FABFE409D","title":"滩外楼","lon":"121.49025","lat":"31.23845","category":"72","category_name":"广东菜","address":"黄浦区中山东一路18号外滩18号5楼(近南京东路)"},{"poiid":"B2094655D26FA5F94292","title":"滨江花园","lon":"121.49656","lat":"31.23616","category":"47","category_name":"住宅区","address":"浦东新区滨江大道1号富都段(浦东南路口)"},{"poiid":"B2094752D46AA3FB4199","title":"外滩十八号","lon":"121.490014","lat":"31.238674","category":"119","category_name":"商场","address":"黄浦区中山东一路18号"},{"poiid":"B2094752DA6FABF8479B","title":"Cha Story 茶香书香","lon":"121.493504","lat":"31.237442","category":"500","category_name":"未知分类","address":"上海市 陆家嘴滨江大道"},{"poiid":"B2094751DA6DAAFD499B","title":"Cathay Room","lon":"121.489936","lat":"31.239029","category":"247","category_name":"餐饮美食","address":"黄浦区南京东路20号费尔蒙和平饭店9楼(近中山东一路)"},{"poiid":"B209475DD06EA0F5449C","title":"茹丝葵牛排馆","lon":"121.492492","lat":"31.234409","category":"247","category_name":"餐饮美食","address":"上海市 上海市黄浦区广东路20号4楼02室外滩五号4楼"},{"poiid":"B2094757D065ABFE449C","title":"外滩19号","lon":"121.48978273","lat":"31.238735481","category":"47","category_name":"住宅区","address":"上海市黄浦区中山东一路"},{"poiid":"B209475DD664A2F4499C","title":"paris rouge","lon":"121.492179","lat":"31.240259","category":"247","category_name":"餐饮美食","address":"上海市 圆明园路133号1楼"},{"poiid":"B2094757D06FA5FB4798","title":"MOMI&amp;TOY'S","lon":"121.495214526","lat":"31.2354783783","category":"67","category_name":"甜品店","address":"上海浦东新区世纪大道8号国金中心LG2"},{"poiid":"B2094757D66DA2FE4393","title":"飞利浦游轮","lon":"121.49259217","lat":"31.238654113","category":"247","category_name":"餐饮美食","address":"上海黄浦江"},{"poiid":"B2094655D26DA5F8449E","title":"外滩12号咖啡厅","lon":"121.490378054","lat":"31.235718793","category":"65","category_name":"咖啡厅","address":"中山东一路12号2楼226近汉口路"},{"poiid":"B2094752D665A6F9469B","title":"To the sea","lon":"121.490937","lat":"31.239861","category":"500","category_name":"未知分类","address":"外滩滨江大道"},{"poiid":"B2094752DA6AAAFA409B","title":"喜多屋国际海鲜料理","lon":"121.493687","lat":"31.238456","category":"247","category_name":"餐饮美食","address":"上海市 正大国际广场7楼"},{"poiid":"B209475CD26BA4FE4192","title":"Shook Restaurant","lon":"121.494171","lat":"31.236785","category":"500","category_name":"未知分类","address":"上海市 南京东路23号斯沃琪和平饭店艺术中心5-6楼(近中山东一路)"},{"poiid":"B2094752D56FA2F54199","title":"To The Sea","lon":"121.493757","lat":"31.237127","category":"247","category_name":"餐饮美食","address":null},{"poiid":"B2094757D16FA0F9419E","title":"味千拉面(高行万嘉店)","lon":"121.49280803","lat":"31.236273753","category":"247","category_name":"餐饮美食","address":"上海浦东新区东靖路1881号万嘉商业广场一楼"},{"poiid":"B2094757D06AA1FD409C","title":"外滩六号 Sun with AQUA","lon":"121.4897995","lat":"31.2384490967","category":"500","category_name":"未知分类","address":"上海外滩6号2楼"},{"poiid":"B2094757D16CABFA489C","title":"中国邮政储蓄银行上海分行","lon":"121.490394738","lat":"31.2388944848","category":"150","category_name":"银行","address":"黄浦区九江路36号(近中山东一路)"},{"poiid":"B2094753D26EA7FB439D","title":"信不信由你博物馆","lon":"121.493258","lat":"31.240333","category":"500","category_name":"未知分类","address":"上海市 上海市浦东新区滨江大道2789号外滩观光隧道B2楼"},{"poiid":"B2094757D66DA5FA4998","title":"the bund","lon":"121.49034173","lat":"31.236921442","category":"500","category_name":"未知分类","address":"上海ShanghaiHuangpuJiangxi Middle Rd"},{"poiid":"B2094757D064A2F44293","title":"露华娜西班牙餐厅","lon":"121.495829","lat":"31.237674","category":"500","category_name":"未知分类","address":"上海陆家嘴西路2967号北滨江E座(近滨江大道丰和路)"},{"poiid":"B2094751D565ABFC4798","title":"Vini Angel 薇妮天使意式餐厅","lon":"121.495388","lat":"31.237811","category":"247","category_name":"餐饮美食","address":null},{"poiid":"B2094654DA6FABFB409B","title":"福州大楼","lon":"121.494","lat":"31.2407","category":"46","category_name":"楼宇","address":"上海黄浦区江西中路170号(福州路口)"},{"poiid":"B2094757D56DA4FE4099","title":"正大广场，汤姆熊","lon":"121.49213055","lat":"31.239655951","category":"500","category_name":"未知分类","address":"陆家嘴西路,富城路"},{"poiid":"B2094752DA65AAFC499D","title":"东方明珠267米旋转餐厅","lon":"121.493846","lat":"31.238391","category":"500","category_name":"未知分类","address":"上海市 上海市"},{"poiid":"B2094655D265A0F44798","title":"友谊大厦","lon":"121.497","lat":"31.2374","category":"46","category_name":"楼宇","address":"上海市杨浦区国泰路11号"},{"poiid":"B209475CD064ABFB4992","title":"Mr & Mrs Bund","lon":"121.48990489706","lat":"31.23881413494","category":"97","category_name":"法式菜品餐厅","address":"中山东一路18号外滩18号6楼近南京东路"},{"poiid":"B2094655D36DA7F84492","title":"中山东一路汉口路","lon":"121.49014","lat":"31.23738","category":"38","category_name":"公交车站","address":"上海中山东一路汉口路"},{"poiid":"B2094750D56FA1FF429C","title":"国金汇(ifcr)","lon":"121.495956","lat":"31.236246","category":"251","category_name":"出行住宿","address":"世纪大道8号"},{"poiid":"B2094751D56AA2FD419E","title":"广州焦叶","lon":"121.4931247","lat":"31.2409539","category":"500","category_name":"未知分类","address":"正大广场"},{"poiid":"B2094750DB65A2FE419A","title":"北外滩悦榕酒店","lon":"121.494392","lat":"31.236976","category":"251","category_name":"出行住宿","address":null},{"poiid":"B209475DD76FAAF4429A","title":"Paris Rouge","lon":"121.492507","lat":"31.239643","category":"247","category_name":"餐饮美食","address":"上海市 外滩圆明园路133号"},{"poiid":"B2094753D165A1FC4398","title":"俏江南（正大店）","lon":"121.493758","lat":"31.238362","category":"500","category_name":"未知分类","address":"上海市 浦东新区陆家嘴西路168号"},{"poiid":"B209475CD06CA1FF4599","title":"空蝉 怀石料理","lon":"121.49039","lat":"31.23648","category":"95","category_name":"日本料理","address":"北京东路99号益丰外滩源3楼"},{"poiid":"B2094654DA6FABFB4399","title":"泗泾小区","lon":"121.494","lat":"31.2399","category":"47","category_name":"住宅区","address":"江西中路135弄1-13号"},{"poiid":"B2094757DA65A1F8439F","title":"丽思卡尔顿","lon":"121.496249","lat":"31.236434","category":"500","category_name":"未知分类","address":"浦东"},{"poiid":"B2094655D26CA4FB4692","title":"滨江大道(五号门)","lon":"121.49686","lat":"31.23778","category":"116","category_name":"特色商业街","address":""},{"poiid":"B2094655D26CABFD419F","title":"Bund View Bar &&&&&&&& Grill","lon":"121.49549","lat":"31.23764","category":"94","category_name":"西餐厅","address":"陆家嘴西路2967号滨江大道北滨江A座"},{"poiid":"B2094753D26FA2FC469A","title":"張生記","lon":"121.493559","lat":"31.237706","category":"500","category_name":"未知分类","address":"上海市 正大廣場"},{"poiid":"B2094753D66BA1FB4892","title":"外白渡桥","lon":"121.492393","lat":"31.236331","category":"500","category_name":"未知分类","address":"上海市 外滩"},{"poiid":"B2094757D569A3F8419C","title":"RBT GARDEN","lon":"121.4956661","lat":"31.23924194","category":"247","category_name":"餐饮美食","address":"陆家嘴西路2967号滨江大道北滨江A座"},{"poiid":"B2094753D668A7F84593","title":"猫头鹰餐厅","lon":"121.493576","lat":"31.238206","category":"500","category_name":"未知分类","address":"上海市 陆家嘴环路166号"},{"poiid":"B2094757D169A6FB499C","title":"中山东一路广东路公交站","lon":"121.49126673","lat":"31.234732396","category":"38","category_name":"公交车站","address":"上海中山东一路广东路"},{"poiid":"B2094752DB6DAAF4469B","title":"上海国金","lon":"121.492931","lat":"31.238141","category":"500","category_name":"未知分类","address":"上海市 上海陆家嘴"},{"poiid":"B2094655D265A3FE409A","title":"世福汇","lon":"121.491","lat":"31.2383","category":"47","category_name":"住宅区","address":"世福汇位于黄浦九江路619号"},{"poiid":"B2094753D765A5FC4298","title":"陆家嘴","lon":"121.49002","lat":"31.237415","category":"500","category_name":"未知分类","address":"上海市 滨江大道"},{"poiid":"B2094757D16EAAFA419E","title":"Mc Cafe国金中心店铺","lon":"121.489859462","lat":"31.2370594156","category":"247","category_name":"餐饮美食","address":"上海国金中心LG1"},{"poiid":"B209475CD464A4F5429D","title":"人民广场","lon":"121.492576","lat":"31.235544","category":"500","category_name":"未知分类","address":"上海市 人民广场"},{"poiid":"B2094757D069A2FE4992","title":"致珑餐厅","lon":"121.49064901","lat":"31.23869978","category":"76","category_name":"上海菜","address":"黄浦区中山东一路465号(近外白渡桥)"},{"poiid":"B209475CD065AAF5499A","title":"Neuhaus Café","lon":"121.48969","lat":"31.23842","category":"65","category_name":"咖啡厅","address":"中山东一路18号外滩十八号1楼(近南京东路)"},{"poiid":"B2094757D06AABFC419B","title":"Sibilla Boutique Cafe","lon":"121.489692304","lat":"31.2384636801","category":"65","category_name":"咖啡厅","address":"上海黄浦区中山东一路18号外滩18号1楼(近南京东路)"},{"poiid":"B2094655D268ABFD489D","title":"外滩律师楼","lon":"121.48992","lat":"31.23757","category":"46","category_name":"楼宇","address":"黄浦区中山东一路15号甲"},{"poiid":"B2094752D464A7FB4399","title":"La Pedrera","lon":"121.492243","lat":"31.234308","category":"247","category_name":"餐饮美食","address":"四川中路33号"},{"poiid":"B209475CD36EA7F84993","title":"麝香猫西餐厅酒吧","lon":"121.49649381638","lat":"31.236086823676","category":"97","category_name":"法式菜品餐厅","address":"陆家嘴西路2967号(滨江大道富都段)滨江公园内近富城路"},{"poiid":"B2094753DA6AA6F8409A","title":"海鸥饭店","lon":"121.491539","lat":"31.235242","category":"247","category_name":"餐饮美食","address":"上海市 黄浦路60号"},{"poiid":"B209475DD56CABFD489A","title":"M18","lon":"121.494773","lat":"31.236646","category":"248","category_name":"生活娱乐","address":"上海市 黄浦区中山东一路18号(南京东路口)"},{"poiid":"B2094750DB64A2FA439D","title":"九江路","lon":"121.493598","lat":"31.234992","category":"500","category_name":"未知分类","address":"九江路"},{"poiid":"B2094757D164A5FA4093","title":"Peace Hotel","lon":"121.489984","lat":"31.237098","category":"500","category_name":"未知分类","address":"上海20 Zhongshan Road middle"},{"poiid":"B2094757D16BA7F4409D","title":"上海市市级机关教育培训中心","lon":"121.494773865","lat":"31.2360725403","category":"260","category_name":"其他","address":"黄浦区四川中路330号3搂(近南京东路)"},{"poiid":"B2094655D265A5FD419B","title":"工艺大楼","lon":"121.48984","lat":"31.23804","category":"46","category_name":"楼宇","address":"中山东一路16号"},{"poiid":"B2094655D269ABF94592","title":"杰尼亚外滩店","lon":"121.48974","lat":"31.2384","category":"247","category_name":"餐饮美食","address":"黄浦区中山东一路18号外滩18号1楼(近南京东路)"},{"poiid":"B209475CD464A3FB489C","title":"上海东方明珠","lon":"121.490661","lat":"31.238573","category":"500","category_name":"未知分类","address":"上海市 上海浦东"},{"poiid":"B2094752D768A0FD449D","title":"上海外滩半岛酒店","lon":"121.491608","lat":"31.238684","category":"500","category_name":"未知分类","address":null},{"poiid":"B2094757D069A6FF419B","title":"西班牙驻上海总领事馆","lon":"121.49034373","lat":"31.235789418","category":"500","category_name":"未知分类","address":"上海市黄浦区中山东一路12号"},{"poiid":"B2094757D469A0F8479F","title":"爵士酒吧","lon":"121.489966","lat":"31.238852","category":"172","category_name":"酒吧","address":"南京东路20号和平饭店北楼1楼近中山东一路"},{"poiid":"B2094655D36DA7F8459B","title":"中山东一路延安东路","lon":"121.49103","lat":"31.23501","category":"38","category_name":"公交车站","address":""},{"poiid":"B2094655D264A1F94592","title":"桂林大楼","lon":"121.48981","lat":"31.23822","category":"46","category_name":"楼宇","address":"中山东一路17号"},{"poiid":"B2094750DA6EA5FD449E","title":"上海市外滩18号","lon":"121.4906","lat":"31.238296","category":"500","category_name":"未知分类","address":null},{"poiid":"B2094752D66CABFA419E","title":"外滩5号 The Glamour Bar","lon":"121.491196","lat":"31.235565","category":"47","category_name":"住宅区","address":"黄浦区中山东一路5号"},{"poiid":"B2094751DA6DA2FA479F","title":"莫尔顿牛排","lon":"121.4913004","lat":"31.2383503","category":"500","category_name":"未知分类","address":"国金大厦"},{"poiid":"B2094655D26EABF4409B","title":"百达翡丽","lon":"121.48974","lat":"31.2384","category":"47","category_name":"住宅区","address":"黄浦区中山东一路18号"},{"poiid":"B2094751D269A5FA4592","title":"华东政法大学","lon":"121.494026","lat":"31.236099","category":"500","category_name":"未知分类","address":"万航渡路1578号"},{"poiid":"B2094655D36DA7F84493","title":"中山东一路南京东路","lon":"121.49026","lat":"31.23961","category":"38","category_name":"公交车站","address":""},{"poiid":"B2094752D66AA5FD449F","title":"Mr&Mrs Bund","lon":"121.49268","lat":"31.234375","category":"247","category_name":"餐饮美食","address":"外滩18号6楼"},{"poiid":"B2094757D164AAFD499C","title":"horizon","lon":"121.495497","lat":"31.237644","category":"500","category_name":"未知分类","address":"上海bund"},{"poiid":"B2094752D76CA3FB479D","title":"鼎泰豐（正大店）","lon":"121.492003","lat":"31.235396","category":"500","category_name":"未知分类","address":"陆家嘴西路168号正大广场"},{"poiid":"B2094757D66FA0FA479C","title":"东方既白","lon":"121.49624173","lat":"31.238919485","category":"500","category_name":"未知分类","address":"苏州陆家嘴"},{"poiid":"B209475CD46DA4FF479C","title":"微热山丘","lon":"121.492843","lat":"31.239107","category":"500","category_name":"未知分类","address":"上海市 圆明园路133号"},{"poiid":"B2094750DA64A7FE419C","title":"东方明珠浦江游轮","lon":"121.495529","lat":"31.240255","category":"250","category_name":"公园户外","address":null},{"poiid":"B2094757D168A1FF449F","title":"台灣餛飩王","lon":"121.492515738","lat":"31.2343313875","category":"247","category_name":"餐饮美食","address":"上海北海路"},{"poiid":"B2094757D069A4F94893","title":"卡地亚(外滩店)","lon":"121.489688857","lat":"31.2384243067","category":"131","category_name":"珠宝首饰工艺品","address":"黄浦区中山东一路18号外滩18号1楼(近南京东路)查看地图"},{"poiid":"B2094757D06AA7F4479C","title":"The Swatch Art Peace Hotel","lon":"121.49018859","lat":"31.238483429","category":"260","category_name":"其他","address":"上海南京东路"},{"poiid":"B2094655D264A7FF4292","title":"陈毅塑像","lon":"121.49052","lat":"31.239","category":"250","category_name":"公园户外","address":"中山东一路外滩"},{"poiid":"B2094757DA6BABFF409B","title":"总工会","lon":"121.489917","lat":"31.237133","category":"252","category_name":"楼宇机构","address":"嘉定区阿克苏路1187号"},{"poiid":"B2094757D16FA4F84898","title":"D&amp;G martini bar","lon":"121.49129173","lat":"31.236138426","category":"500","category_name":"未知分类","address":"上海外滩6号"},{"poiid":"B2094757D16DA6FE4893","title":"陇龙幼儿园","lon":"121.490213938","lat":"31.2386117787","category":"57","category_name":"幼儿园","address":"上海梅陇十一村96号"},{"poiid":"B2094752D169A0F5469C","title":"富春","lon":"121.494623","lat":"31.239486","category":"247","category_name":"餐饮美食","address":"正大广场B2"},{"poiid":"B2094750D464ABF9499E","title":"北外滩绿地","lon":"121.49662","lat":"31.239252","category":"250","category_name":"公园户外","address":null},{"poiid":"B2094757DA64ABFF429D","title":"天赐公寓","lon":"121.49","lat":"31.238","category":"252","category_name":"楼宇机构","address":"上海市浦东新区张杨路500号"},{"poiid":"B2094750D76FA4FE4199","title":"Neuhaus","lon":"121.49","lat":"31.2384","category":"260","category_name":"其他","address":"黄浦区中山东一路18号外滩18号1楼(近南京东路)"},{"poiid":"B2094757DB69A4FF419A","title":"正大星美","lon":"121.496742","lat":"31.237034","category":"500","category_name":"未知分类","address":null},{"poiid":"B2094757D069AAFD489D","title":"VERA唯嘉健身会所(滨江国会旗舰店)","lon":"121.49654773","lat":"31.239100489","category":"148","category_name":"美容美发店","address":"浦东新区滨江大道2727号东方滨江大酒店9楼(近国际会议中心)"},{"poiid":"B209475DD769ABF5499A","title":"上海东方滨江大酒店","lon":"121.496299","lat":"31.239501","category":"252","category_name":"楼宇机构","address":"上海市 浦东新区滨江大道2727号"},{"poiid":"B2094655D26EA0FB4199","title":"外滩城市雕塑群","lon":"121.4906","lat":"31.23952","category":"250","category_name":"公园户外","address":"黄浦区外滩"},{"poiid":"B2094654DB69A6FE4698","title":"挪威驻上海总领事馆","lon":"121.49013","lat":"31.23594","category":"252","category_name":"楼宇机构","address":"黄浦区中山东一路12号3楼"},{"poiid":"B2094757D164A4F4459F","title":"中国外汇交易中心","lon":"121.49053584","lat":"31.236777599","category":"500","category_name":"未知分类","address":"上海外滩15号"},{"poiid":"B2094757D064A4FD469F","title":"盘谷银行","lon":"121.49054416","lat":"31.235808847","category":"150","category_name":"银行","address":"黄浦区中山东一路7号(近福州路)"},{"poiid":"B2094750D364A6FE4292","title":"光大私人银行上海中心","lon":"121.49013","lat":"31.23594","category":"150","category_name":"银行","address":"中山东一路外滩29号"},{"poiid":"B2094752D46BA0F9419B","title":"正大广场星美影城4号厅","lon":"121.496576","lat":"31.239019","category":"500","category_name":"未知分类","address":null},{"poiid":"B2094753D064A6F8499C","title":"罗森(新外滩店)","lon":"121.49056","lat":"31.24017","category":"117","category_name":"便民商店/便利店","address":"黄浦区中山东一路361号(近外滩)"},{"poiid":"B2094757D169A4FD4598","title":"外滩2号","lon":"121.4902825","lat":"31.2379243","category":"252","category_name":"楼宇机构","address":"上海中山东一路2号"},{"poiid":"B2094753D668A6FD449F","title":"黃浦江中央","lon":"121.494515","lat":"31.235171","category":"500","category_name":"未知分类","address":"上海市 浦東"},{"poiid":"B2094757D164ABFD409A","title":"VERTU(外滩旗舰店)","lon":"121.49024371","lat":"31.238256529","category":"138","category_name":"家电电子卖场","address":"黄浦区中山东一路18号外滩18号1楼(近南京东路)"},{"poiid":"B2094757D06BABFF4698","title":"同济大学沪北校区","lon":"121.4898529","lat":"31.236314773","category":"253","category_name":"校园生活","address":"上海共和新路1238号"},{"poiid":"B2094752D06DAAFB4993","title":"Kaefer滨江壹号","lon":"121.496353","lat":"31.237138","category":"47","category_name":"住宅区","address":"浦东滨江大道富城路拾步街"},{"poiid":"B2094757D16BABF8439A","title":"盘谷银行(中国)Bangkok Bank (China)","lon":"121.49058273","lat":"31.23680854","category":"500","category_name":"未知分类","address":"上海中山东一路七号"},{"poiid":"B2094757D16FAAFE4098","title":"Atanu Cafe &amp; Bar","lon":"121.49169158","lat":"31.234350204","category":"500","category_name":"未知分类","address":"上海中山东一路外滩"},{"poiid":"B2094750D16AA7FC439C","title":"外滩18号","lon":"121.494163","lat":"31.240756","category":"248","category_name":"生活娱乐","address":null},{"poiid":"B2094751DA68A5F84598","title":"外滩三号黄浦会","lon":"121.491275","lat":"31.23474","category":"500","category_name":"未知分类","address":null},{"poiid":"B2094757D165ABFF409E","title":"上海政法学院操场","lon":"121.490297538","lat":"31.2385581776","category":"500","category_name":"未知分类","address":"上海外青松公路7989号"},{"poiid":"B2094757D66CA2FD429F","title":"风雅日本料理","lon":"121.490466738","lat":"31.2400375091","category":"500","category_name":"未知分类","address":"上海市陆家嘴西路2967号北滨江B座"},{"poiid":"B2094752DA68A6F44298","title":"乐天皇朝","lon":"121.496083","lat":"31.236257","category":"500","category_name":"未知分类","address":"上海市 国金中心3F"},{"poiid":"B2094753DA6BA1F5409C","title":"paulaner bar","lon":"121.49414","lat":"31.234153","category":"500","category_name":"未知分类","address":"上海市 上海市浦东新区滨江大道"},{"poiid":"B2094654DB6BABFC4098","title":"滨江公园(六号门)","lon":"121.49636","lat":"31.2363","category":"680","category_name":"楼宇机构","address":"滨江大道2967"},{"poiid":"B2094654DB64A5FE439F","title":"BarRouge","lon":"121.48979","lat":"31.23884","category":"248","category_name":"生活娱乐","address":"黄浦区中山东一路18号外滩18号7楼"},{"poiid":"B2094757D164AAF94298","title":"Mont Blanc 世贸百联","lon":"121.490188599","lat":"31.238483429","category":"500","category_name":"未知分类","address":"上海南京东路"},{"poiid":"B2094757D16EA4F4479E","title":"外灘隧道周家嘴路出口","lon":"121.490602","lat":"31.239508","category":"500","category_name":"未知分类","address":"上海外灘隧道"},{"poiid":"B2094757D169ABF94392","title":"海关大楼二楼","lon":"121.49000549","lat":"31.236583709","category":"500","category_name":"未知分类","address":"上海汉囗路5号"},{"poiid":"B2094655D26DA3FF419A","title":"Shiatzy Chen(中山东一路)","lon":"121.4904","lat":"31.23541","category":"141","category_name":"服装鞋帽皮具店","address":""},{"poiid":"B2094752DB6DA4FD449E","title":"望江阁","lon":"121.491105","lat":"31.235157","category":"500","category_name":"未知分类","address":"上海市 中山南一路3号楼7层"},{"poiid":"B2094757D16EA0FD469A","title":"鸟瞰地球摄影展","lon":"121.49051753","lat":"31.236960543","category":"500","category_name":"未知分类","address":"上海外滩"},{"poiid":"B2094753DB6BA0FA489C","title":"大蔬无界","lon":"121.492683","lat":"31.234367","category":"500","category_name":"未知分类","address":"上海市 外滩22号"},{"poiid":"B2094757D164ABFD419A","title":"中国银行(南京东路支行)","lon":"121.49001","lat":"31.23866","category":"150","category_name":"银行","address":"黄浦区南京东路20号和平饭店内(近中山东一路)"},{"poiid":"B2094757D16BA7FE4698","title":"江西北路汉口路","lon":"121.49267173","lat":"31.234676394","category":"500","category_name":"未知分类","address":"上海801/64/17车站"},{"poiid":"B2094757D06BA5F44798","title":"外滩8弄专业录音中心","lon":"121.4905796","lat":"31.2353527","category":"248","category_name":"生活娱乐","address":"中山东一路8弄16-18号四川中路33号创业大楼515室"},{"poiid":"B2094654DB6BABFC409B","title":"滨江公园(五号门)","lon":"121.49686","lat":"31.23778","category":"680","category_name":"楼宇机构","address":""},{"poiid":"B2094757D66DA5FB449D","title":"上铁国旅票务有限公司江西路店","lon":"121.49010467","lat":"31.237979888","category":"500","category_name":"未知分类","address":"上海江西中路384号"},{"poiid":"B2094757D164A0FE4592","title":"576","lon":"121.49143473","lat":"31.234984401","category":"500","category_name":"未知分类","address":"上海中山东一路汉口路"},{"poiid":"B2094757D065A7F4439D","title":"格子里","lon":"121.49028633","lat":"31.238551477","category":"500","category_name":"未知分类","address":"上海外滩"},{"poiid":"B2094753DA64A2F84193","title":"ShanghaiRose","lon":"121.493148","lat":"31.241323","category":"500","category_name":"未知分类","address":"上海市 上海市黄浦区南苏州路76号"},{"poiid":"B2094655D26DA3F94498","title":"上海中心大厦建设发展有限公司","lon":"121.49694","lat":"31.23703","category":"263","category_name":"公司","address":"陆家嘴西路51"},{"poiid":"B2094757D164A5FA4998","title":"MARTINI BAR","lon":"121.49086773","lat":"31.234898399","category":"500","category_name":"未知分类","address":"上海黄浦区中山东一路外滩6号1楼"},{"poiid":"B2094757D16AA1FA4299","title":"中山東一路18路Cartier","lon":"121.49043873","lat":"31.239386495","category":"131","category_name":"珠宝首饰工艺品","address":"上海市黄浦区四川中路"},{"poiid":"B2094757DA6EA4F5499C","title":"外滩九号","lon":"121.490354499999","lat":"31.2354359000001","category":"252","category_name":"楼宇机构","address":"黄浦区中山东一路9号"},{"poiid":"B2094757DA6EABFE409E","title":"正信银行有限公司","lon":"121.489809999998","lat":"31.238286","category":"263","category_name":"公司","address":"黄浦区中山东一路17号"},{"poiid":"B2094655D26AA0FE4592","title":"波纳米咖啡馆","lon":"121.49013","lat":"31.23594","category":"260","category_name":"其他","address":"黄浦区中山东一路12号浦东发展银行边门226室(中山东二路中山东一路)"},{"poiid":"B2094750DB6DA0FB479B","title":"浦东利兹卡尔顿","lon":"121.495977","lat":"31.23758","category":"251","category_name":"出行住宿","address":null},{"poiid":"B2094757D16AA0F84398","title":"亲水泽","lon":"121.49407773","lat":"31.241235534","category":"249","category_name":"购物服务","address":"上海滨江大道2852号"},{"poiid":"B2094655D26EABFA409E","title":"宝诗龙","lon":"121.48974","lat":"31.2384","category":"248","category_name":"生活娱乐","address":"黄浦区中山东一路18号外滩18号1楼"},{"poiid":"B2094757D068A4FE479C","title":"杨家渡渡口","lon":"121.4963684","lat":"31.236305236","category":"260","category_name":"其他","address":"上海浦东新区滨江大道"},{"poiid":"B2094654DA6FA4F8449B","title":"上海黄金交易所","lon":"121.48992","lat":"31.23757","category":"219","category_name":"其他","address":"黄浦区中山东一路15号华俄道胜银行大楼(近九江路)"},{"poiid":"B2094751D06CA1F5469E","title":"上海国际会议中心东方滨江大酒店停车场","lon":"121.49625","lat":"31.238869","category":"262","category_name":"停车场","address":"上海市,浦东新区,规二路"},{"poiid":"B2094752D06CA7FC469C","title":"上海国际会展中心","lon":"121.493736","lat":"31.234659","category":"500","category_name":"未知分类","address":null},{"poiid":"B2094752D068A6F94499","title":"上海市上海戏剧学院","lon":"121.493885","lat":"31.234165","category":"253","category_name":"校园生活","address":null}]