[{"poiid":"B2094655D36DA7FA489E","title":"朱行镇","lon":"121.34516","lat":"30.85002","category":"38","category_name":"公交车站","address":"高楼"},{"poiid":"B2094654DB68A0F8499D","title":"恒信家园","lon":"121.33833","lat":"30.852606","category":"47","category_name":"住宅区","address":"恒顺路216弄"},{"poiid":"B2094654DB68A0F84992","title":"金山工业区","lon":"121.3418","lat":"30.84967","category":"45","category_name":"产业园区","address":"开乐大街158号"},{"poiid":"B2094655D26EAAF44598","title":"天都里拉","lon":"121.34528","lat":"30.84683","category":"75","category_name":"浙江菜","address":"近郊朱行镇珠港街10号(朱漕路珠港街)"},{"poiid":"B2094654DB68A0F94099","title":"金山工业区社区卫生服务中心","lon":"121.34518","lat":"30.85121","category":"162","category_name":"医院","address":"亭卫公路6668"},{"poiid":"B2094654DB68A0F84993","title":"金山区国家税务局金山区分局第九税务所","lon":"121.34402","lat":"30.85177","category":"250","category_name":"公园户外","address":""},{"poiid":"B2094654DB68A0F94098","title":"上海交通大学医学院委员会","lon":"121.34518","lat":"30.85122","category":"52","category_name":"高等院校","address":"亭卫公路6668"},{"poiid":"B2094654DB68A0F9409B","title":"上海金山工业区卫生院","lon":"121.34518","lat":"30.85121","category":"162","category_name":"医院","address":"亭卫公路6668"},{"poiid":"B2094757D568A0FE479D","title":"德缘烧鸡公","lon":"121.341796","lat":"30.851796","category":"77","category_name":"湖南菜","address":"近郊金山区朱行镇立新街38号(近珠港街)"},{"poiid":"B2094654DB68A0FE479F","title":"翔茂新村","lon":"121.34422","lat":"30.848043","category":"47","category_name":"住宅区","address":"翔茂新村"},{"poiid":"B2094654DB69ABF84193","title":"农工商超市(朱行店)","lon":"121.34457","lat":"30.84894","category":"118","category_name":"超级市场","address":"金山区朱行镇开乐大街145号"},{"poiid":"B2094654DB64A6FF499F","title":"中国移动朱行营业厅","lon":"121.34454","lat":"30.84888","category":"151","category_name":"电讯营业厅","address":"金山区朱行镇开乐大街107号"},{"poiid":"B2094654DB69A4F94399","title":"中国联通(开乐大街营业厅)","lon":"121.34296","lat":"30.84937","category":"151","category_name":"电讯营业厅","address":"金山区朱行镇开乐大街115号"},{"poiid":"B2094757D66FA2FD4698","title":"兴业太阳能","lon":"121.340680738","lat":"30.8517029649","category":"46","category_name":"楼宇","address":"湘潭九华示范区兴业产业园"},{"poiid":"B2094654DB68A0F9409A","title":"上海安而舒卫生保健用品厂","lon":"121.34376","lat":"30.85178","category":"263","category_name":"公司","address":""},{"poiid":"B2094654DB65A0FA4199","title":"金山县朱行大酒店","lon":"121.34134","lat":"30.84926","category":"250","category_name":"公园户外","address":"金山县朱行镇开乐大街139号"},{"poiid":"B2094654DB68A0F8499A","title":"上海农村商业银行朱行支行","lon":"121.34453","lat":"30.84889","category":"150","category_name":"银行","address":"开乐大街1"},{"poiid":"B2094757D568A1FF4798","title":"金山区朱行幼儿园","lon":"121.33996935","lat":"30.8575019","category":"57","category_name":"幼儿园","address":"中国上海市金山区"},{"poiid":"B2094757D069A4F4489D","title":"朱行","lon":"121.33600252","lat":"30.841023992","category":"500","category_name":"未知分类","address":"上海朱行镇"},{"poiid":"B2094757D164AAFC479F","title":"联通朱行营业厅","lon":"121.341802","lat":"30.84967","category":"150","category_name":"银行","address":"上海金山区朱行开乐大街"},{"poiid":"B2094654DB68A0F84893","title":"朱行镇文化广播影视服务中心","lon":"121.3426","lat":"30.84734","category":"252","category_name":"楼宇机构","address":"珠港街148"},{"poiid":"B2094757D165AAFA4392","title":"G15沈海高速金山工业区大道收费站","lon":"121.353554521","lat":"30.8399649396","category":"267","category_name":"收费站","address":"上海G15沈海高速金山工业区大道收费站"},{"poiid":"B2094655D265A7F44892","title":"G15金山工业区大道收费站","lon":"121.35323","lat":"30.84037","category":"267","category_name":"收费站","address":""},{"poiid":"B2094654DB68A0F9409F","title":"金山工业区农业技术推广服务中心","lon":"121.33531","lat":"30.84693","category":"45","category_name":"产业园区","address":""},{"poiid":"B2094654DB68A0FE459D","title":"朱行镇中心幼儿园","lon":"121.33546","lat":"30.84627","category":"57","category_name":"幼儿园","address":"近郊金山区朱行镇高林路24号(高林路兴乐街)"},{"poiid":"B2094655D268ABF9419E","title":"Ａ５金山工业区大道收费站","lon":"121.35323","lat":"30.84031","category":"267","category_name":"收费站","address":""},{"poiid":"B2094654DB68A0FE439D","title":"西郊新村","lon":"121.33447","lat":"30.84539","category":"47","category_name":"住宅区","address":"朱行镇西郊新村"},{"poiid":"B2094654DB68A0FE479D","title":"朱行中学","lon":"121.33322","lat":"30.84426","category":"55","category_name":"中学","address":"上海市金山区朱行镇朱林路105号"},{"poiid":"B2094655D36CA5F8479E","title":"长卫路","lon":"121.34767","lat":"30.83644","category":"38","category_name":"公交车站","address":""},{"poiid":"B2094655D26BA1FE499F","title":"南亭路","lon":"121.33692","lat":"30.86919","category":"38","category_name":"公交车站","address":""}]