[{"poiid":"B2094655D26CA7F4429B","title":"复旦大学附属中山医院","lon":"121.45405","lat":"31.19857","category":"162","category_name":"医院","address":"医学院路111,136号"},{"poiid":"B2094757D06FA1F94399","title":"徐汇区牙病防治所(肇嘉浜路分所)","lon":"121.451361983","lat":"31.1994818967","category":"162","category_name":"医院","address":"徐汇区肇嘉浜路685号(近东安路)"},{"poiid":"B2094757D06FAAFA429C","title":"复旦大学上海医学院","lon":"121.452400191","lat":"31.1976300604","category":"671","category_name":"高校中心点","address":"上海徐汇区医学院路130号"},{"poiid":"B2094753D76FAAFA449C","title":"上海滩国泰旗舰店","lon":"121.466011","lat":"31.216125","category":"249","category_name":"购物服务","address":"淮海中路868号"},{"poiid":"B2094655D26DA3F9449E","title":"复旦大学附属中山医院门诊急诊部","lon":"121.45333","lat":"31.19884","category":"162","category_name":"医院","address":"医学院路111、136"},{"poiid":"B2094757D06EAAFB479A","title":"肇嘉浜路地铁站","lon":"121.45029188","lat":"31.199558753","category":"36","category_name":"地铁站","address":"上海轨道交通 七号线 九号线 轨交肇嘉浜路站 7 9"},{"poiid":"B2094757D06AA3FC4293","title":"中科院","lon":"121.453551","lat":"31.201298","category":"500","category_name":"未知分类","address":"上海岳阳路319号"},{"poiid":"B2094654DB64A4FC429B","title":"复旦大学枫林校区","lon":"121.45201","lat":"31.19825","category":"52","category_name":"高等院校","address":"徐汇区医学院路138号(近中山医院)"},{"poiid":"B2094654DA6DABFC439A","title":"好望角大饭店","lon":"121.45418","lat":"31.20133","category":"76","category_name":"上海菜","address":"徐汇区肇嘉浜路500号好望角大饭店3楼(岳阳路口)"},{"poiid":"B2094654DA6DABFC409A","title":"中国科学院上海生命科学研究院(中科大厦西)","lon":"121.45243","lat":"31.20132","category":"191","category_name":"科研机构","address":"徐汇区岳阳路320号"},{"poiid":"B2094757D06FAAFD4199","title":"孔家花园","lon":"121.453","lat":"31.1978","category":"47","category_name":"住宅区","address":"徐汇区斜土路2421号(近宛平南路)"},{"poiid":"B2094757D06FA5F94093","title":"建科大厦","lon":"121.452","lat":"31.2018","category":"46","category_name":"楼宇","address":"上海徐汇区宛平南路75号"},{"poiid":"B2094757D064A0F94198","title":"中山医院住院部1号楼","lon":"121.454551738","lat":"31.1979389123","category":"162","category_name":"医院","address":"上海枫林路180号"},{"poiid":"B2094757D06FA1FF429F","title":"伶达港骨头皇火锅(枫林店)","lon":"121.45522","lat":"31.20049","category":"86","category_name":"火锅店","address":"徐汇区肇嘉浜路567号(近枫林路)"},{"poiid":"B2094757D068AAFB439D","title":"湘鄂情","lon":"121.45401","lat":"31.20091","category":"77","category_name":"湖南菜","address":"徐汇区肇嘉浜路500号好望角大酒店裙楼(岳阳路口)"},{"poiid":"B2094654DA6DA7FB469D","title":"虹桥人家酒楼","lon":"121.4501","lat":"31.19989","category":"76","category_name":"上海菜","address":"徐汇区乌鲁木齐南路406号(肇嘉浜路口)"},{"poiid":"B2094757D56DA7FE499B","title":"徐家汇查餐厅","lon":"121.45405","lat":"31.19857","category":"247","category_name":"餐饮美食","address":"天钥桥路"},{"poiid":"B2094654DA6DABFD4199","title":"伊泰利大厦","lon":"121.4552612","lat":"31.20184326","category":"46","category_name":"楼宇","address":"伊泰利大厦位于徐汇肇嘉浜路446弄"},{"poiid":"B2094757D068A3FA499D","title":"中山医院住院部三号楼","lon":"121.453937593","lat":"31.1983534856","category":"162","category_name":"医院","address":"上海徐汇区枫林路180号(近医学院路)"},{"poiid":"B2094757D06AA5F4499F","title":"馥满江南菜","lon":"121.454896","lat":"31.199246","category":"76","category_name":"上海菜","address":"徐汇区医学院路79号(近枫林路)"},{"poiid":"B2094757D06BA3F9439E","title":"复旦大学附属中山医院急诊输液室","lon":"121.453645232","lat":"31.1989293545","category":"162","category_name":"医院","address":"徐汇区枫林路180号中山医院内(近医学院路)"},{"poiid":"B2094751DA6AA2FC4593","title":"麦当劳","lon":"121.45223","lat":"31.199739","category":"247","category_name":"餐饮美食","address":"徐汇区斜土路1646号"},{"poiid":"B2094757D66BA6F9429E","title":"半岛餐厅","lon":"121.45344535807","lat":"31.200745118072","category":"268","category_name":"自助","address":"徐汇区肇嘉浜路500号好望角大酒店3楼(岳阳路口)"},{"poiid":"B2094757D16FA1FE419F","title":"肇嘉浜路东安路公交站","lon":"121.45301988","lat":"31.200472649","category":"38","category_name":"公交车站","address":"上海肇嘉浜路东安路公交站"},{"poiid":"B2094654DA6DAAFF409D","title":"枫林大楼","lon":"121.45303","lat":"31.200081","category":"47","category_name":"住宅区","address":"肇嘉浜路661-665"},{"poiid":"B2094757DA65A3FF4499","title":"中山医院","lon":"121.45237118","lat":"31.20069962","category":"162","category_name":"医院","address":"徐汇区小木桥路"},{"poiid":"B2094757D069A1F9419D","title":"中山医院10号楼手术室","lon":"121.453940275","lat":"31.1983488969","category":"162","category_name":"医院","address":"上海徐汇区枫林路180号(近医学院路)"},{"poiid":"B2094757D16BA1FD4493","title":"Club15","lon":"121.450645586","lat":"31.1989508194","category":"500","category_name":"未知分类","address":"上海市徐汇区东安路15号"},{"poiid":"B2094757D56EA2FF469E","title":"天目山庄","lon":"121.454923","lat":"31.199855","category":"247","category_name":"餐饮美食","address":"徐汇区大木桥路360号(近斜土路)"},{"poiid":"B2094654DA6DA4F54992","title":"上海教育超市生科院店","lon":"121.45275","lat":"31.20064","category":"118","category_name":"超级市场","address":"徐汇区肇嘉浜路524号(近岳阳路)"},{"poiid":"B2094750D26CA3FE459F","title":"好望角大饭店 宴会厅","lon":"121.453479054","lat":"31.200733793","category":"76","category_name":"上海菜","address":"肇嘉浜路500号好望角大饭店5楼近岳阳路"},{"poiid":"B2094757D064A6FC429F","title":"中山医院门诊放射科","lon":"121.453616286","lat":"31.2001022419","category":"162","category_name":"医院","address":"上海枫林路180号中山医院门诊C3楼"},{"poiid":"B2094757D469A5F84893","title":"明晨阳光","lon":"121.4497731","lat":"31.2015067","category":"94","category_name":"西餐厅","address":"徐汇区乌鲁木齐南路302号1号(近建国路)"},{"poiid":"B2094757D16DA1F8479F","title":"医学院路","lon":"121.45605018","lat":"31.200274212","category":"500","category_name":"未知分类","address":"上海医学院路69号"},{"poiid":"B2094757D568ABFA4692","title":"中科院地下食堂","lon":"121.453315","lat":"31.20148806","category":"68","category_name":"快餐厅","address":"徐汇区岳阳路319号中科大厦B1楼(近好望角大饭店)"},{"poiid":"B2094757D66BA3FA409D","title":"近江和牛正传 东安路店","lon":"121.45051","lat":"31.198248","category":"95","category_name":"日本料理","address":"徐汇区东安路8号青松城1楼"},{"poiid":"B2094757D168A4FC409D","title":"中山医院急诊","lon":"121.45386328","lat":"31.19900592","category":"162","category_name":"医院","address":"上海急诊"},{"poiid":"B2094655D26FA1FD4599","title":"真汉咖啡剧场","lon":"121.45417","lat":"31.19947","category":"180","category_name":"剧场","address":"徐汇区肇嘉浜路555号(近枫林路)"},{"poiid":"B2094757D76EABF44392","title":"巧克力工厂","lon":"121.4519081","lat":"31.1998594","category":"71","category_name":"四川菜","address":"肇嘉浜路近漕溪北路1111号美罗城B1五番街"},{"poiid":"B2094654DB6BA5F5489F","title":"比比馒头专卖(枫林桥邮政所西)","lon":"121.45395","lat":"31.1998","category":"68","category_name":"快餐厅","address":"徐汇区枫林路(平江路口)"},{"poiid":"B2094757D469A1F9489C","title":"雷焰烧烤","lon":"121.454735054","lat":"31.200505793","category":"68","category_name":"快餐厅","address":"徐汇区肇嘉浜路567号(近枫林路)"},{"poiid":"B2094757D66CA7FA4193","title":"上海轨道交通7号线肇嘉滨路站","lon":"121.450491894","lat":"31.1994188993","category":"500","category_name":"未知分类","address":"上海肇嘉浜路"},{"poiid":"B2094655D26BA1FC499E","title":"平江路枫林路","lon":"121.45444","lat":"31.19982","category":"38","category_name":"公交车站","address":""},{"poiid":"B2094757D069A6FE489A","title":"43路肇嘉浜路枫林路站","lon":"121.45452117","lat":"31.200782775","category":"38","category_name":"公交车站","address":"上海肇嘉浜路枫林路"},{"poiid":"B2094757D065A0FF4999","title":"翡翠(Jade)","lon":"121.45301018","lat":"31.200472649","category":"500","category_name":"未知分类","address":"上海Aya家"},{"poiid":"B2094757D065ABF9449E","title":"京翅坊","lon":"121.44984","lat":"31.20122","category":"72","category_name":"广东菜","address":"徐汇区乌鲁木齐南路298号2楼(近建国西路)"},{"poiid":"B2094757D168A0FF479E","title":"复旦大学附属中山医院五号楼","lon":"121.452995311","lat":"31.1973022872","category":"162","category_name":"医院","address":"上海枫林路180号"},{"poiid":"B2094757D16FA1FE4699","title":"Disney英语","lon":"121.45318158","lat":"31.200509849","category":"253","category_name":"校园生活","address":"上海市徐汇区辛耕路"},{"poiid":"B2094654DA6DABFC419E","title":"研究生电子阅览室","lon":"121.45332","lat":"31.20149","category":"181","category_name":"图书馆","address":"肇嘉浜路500"},{"poiid":"B2094757D16FABFA4592","title":"中山医院5号楼6楼","lon":"121.45421968","lat":"31.199278325","category":"162","category_name":"医院","address":"上海枫林路"},{"poiid":"B2094655D26CA7F4429B","title":"复旦大学附属中山医院","lon":"121.45405","lat":"31.19857","category":"162","category_name":"医院","address":"医学院路111,136号"},{"poiid":"B2094757D06FA1F94399","title":"徐汇区牙病防治所(肇嘉浜路分所)","lon":"121.451361983","lat":"31.1994818967","category":"162","category_name":"医院","address":"徐汇区肇嘉浜路685号(近东安路)"},{"poiid":"B2094757D06FAAFA429C","title":"复旦大学上海医学院","lon":"121.452400191","lat":"31.1976300604","category":"671","category_name":"高校中心点","address":"上海徐汇区医学院路130号"},{"poiid":"B2094753D76FAAFA449C","title":"上海滩国泰旗舰店","lon":"121.466011","lat":"31.216125","category":"249","category_name":"购物服务","address":"淮海中路868号"},{"poiid":"B2094655D26DA3F9449E","title":"复旦大学附属中山医院门诊急诊部","lon":"121.45333","lat":"31.19884","category":"162","category_name":"医院","address":"医学院路111、136"},{"poiid":"B2094757D06EAAFB479A","title":"肇嘉浜路地铁站","lon":"121.45029188","lat":"31.199558753","category":"36","category_name":"地铁站","address":"上海轨道交通 七号线 九号线 轨交肇嘉浜路站 7 9"},{"poiid":"B2094757D06AA3FC4293","title":"中科院","lon":"121.453551","lat":"31.201298","category":"500","category_name":"未知分类","address":"上海岳阳路319号"},{"poiid":"B2094654DB64A4FC429B","title":"复旦大学枫林校区","lon":"121.45201","lat":"31.19825","category":"52","category_name":"高等院校","address":"徐汇区医学院路138号(近中山医院)"},{"poiid":"B2094654DA6DABFC439A","title":"好望角大饭店","lon":"121.45418","lat":"31.20133","category":"76","category_name":"上海菜","address":"徐汇区肇嘉浜路500号好望角大饭店3楼(岳阳路口)"},{"poiid":"B2094654DA6DABFC409A","title":"中国科学院上海生命科学研究院(中科大厦西)","lon":"121.45243","lat":"31.20132","category":"191","category_name":"科研机构","address":"徐汇区岳阳路320号"},{"poiid":"B2094757D06FAAFD4199","title":"孔家花园","lon":"121.453","lat":"31.1978","category":"47","category_name":"住宅区","address":"徐汇区斜土路2421号(近宛平南路)"},{"poiid":"B2094757D06FA5F94093","title":"建科大厦","lon":"121.452","lat":"31.2018","category":"46","category_name":"楼宇","address":"上海徐汇区宛平南路75号"},{"poiid":"B2094757D064A0F94198","title":"中山医院住院部1号楼","lon":"121.454551738","lat":"31.1979389123","category":"162","category_name":"医院","address":"上海枫林路180号"},{"poiid":"B2094757D06FA1FF429F","title":"伶达港骨头皇火锅(枫林店)","lon":"121.45522","lat":"31.20049","category":"86","category_name":"火锅店","address":"徐汇区肇嘉浜路567号(近枫林路)"},{"poiid":"B2094757D068AAFB439D","title":"湘鄂情","lon":"121.45401","lat":"31.20091","category":"77","category_name":"湖南菜","address":"徐汇区肇嘉浜路500号好望角大酒店裙楼(岳阳路口)"},{"poiid":"B2094654DA6DA7FB469D","title":"虹桥人家酒楼","lon":"121.4501","lat":"31.19989","category":"76","category_name":"上海菜","address":"徐汇区乌鲁木齐南路406号(肇嘉浜路口)"},{"poiid":"B2094757D56DA7FE499B","title":"徐家汇查餐厅","lon":"121.45405","lat":"31.19857","category":"247","category_name":"餐饮美食","address":"天钥桥路"},{"poiid":"B2094654DA6DABFD4199","title":"伊泰利大厦","lon":"121.4552612","lat":"31.20184326","category":"46","category_name":"楼宇","address":"伊泰利大厦位于徐汇肇嘉浜路446弄"},{"poiid":"B2094757D068A3FA499D","title":"中山医院住院部三号楼","lon":"121.453937593","lat":"31.1983534856","category":"162","category_name":"医院","address":"上海徐汇区枫林路180号(近医学院路)"},{"poiid":"B2094757D06AA5F4499F","title":"馥满江南菜","lon":"121.454896","lat":"31.199246","category":"76","category_name":"上海菜","address":"徐汇区医学院路79号(近枫林路)"},{"poiid":"B2094757D06BA3F9439E","title":"复旦大学附属中山医院急诊输液室","lon":"121.453645232","lat":"31.1989293545","category":"162","category_name":"医院","address":"徐汇区枫林路180号中山医院内(近医学院路)"},{"poiid":"B2094751DA6AA2FC4593","title":"麦当劳","lon":"121.45223","lat":"31.199739","category":"247","category_name":"餐饮美食","address":"徐汇区斜土路1646号"},{"poiid":"B2094757D66BA6F9429E","title":"半岛餐厅","lon":"121.45344535807","lat":"31.200745118072","category":"268","category_name":"自助","address":"徐汇区肇嘉浜路500号好望角大酒店3楼(岳阳路口)"},{"poiid":"B2094757D16FA1FE419F","title":"肇嘉浜路东安路公交站","lon":"121.45301988","lat":"31.200472649","category":"38","category_name":"公交车站","address":"上海肇嘉浜路东安路公交站"},{"poiid":"B2094654DA6DAAFF409D","title":"枫林大楼","lon":"121.45303","lat":"31.200081","category":"47","category_name":"住宅区","address":"肇嘉浜路661-665"},{"poiid":"B2094757DA65A3FF4499","title":"中山医院","lon":"121.45237118","lat":"31.20069962","category":"162","category_name":"医院","address":"徐汇区小木桥路"},{"poiid":"B2094757D069A1F9419D","title":"中山医院10号楼手术室","lon":"121.453940275","lat":"31.1983488969","category":"162","category_name":"医院","address":"上海徐汇区枫林路180号(近医学院路)"},{"poiid":"B2094757D16BA1FD4493","title":"Club15","lon":"121.450645586","lat":"31.1989508194","category":"500","category_name":"未知分类","address":"上海市徐汇区东安路15号"},{"poiid":"B2094757D56EA2FF469E","title":"天目山庄","lon":"121.454923","lat":"31.199855","category":"247","category_name":"餐饮美食","address":"徐汇区大木桥路360号(近斜土路)"},{"poiid":"B2094654DA6DA4F54992","title":"上海教育超市生科院店","lon":"121.45275","lat":"31.20064","category":"118","category_name":"超级市场","address":"徐汇区肇嘉浜路524号(近岳阳路)"},{"poiid":"B2094750D26CA3FE459F","title":"好望角大饭店 宴会厅","lon":"121.453479054","lat":"31.200733793","category":"76","category_name":"上海菜","address":"肇嘉浜路500号好望角大饭店5楼近岳阳路"},{"poiid":"B2094757D064A6FC429F","title":"中山医院门诊放射科","lon":"121.453616286","lat":"31.2001022419","category":"162","category_name":"医院","address":"上海枫林路180号中山医院门诊C3楼"},{"poiid":"B2094757D469A5F84893","title":"明晨阳光","lon":"121.4497731","lat":"31.2015067","category":"94","category_name":"西餐厅","address":"徐汇区乌鲁木齐南路302号1号(近建国路)"},{"poiid":"B2094757D16DA1F8479F","title":"医学院路","lon":"121.45605018","lat":"31.200274212","category":"500","category_name":"未知分类","address":"上海医学院路69号"},{"poiid":"B2094757D568ABFA4692","title":"中科院地下食堂","lon":"121.453315","lat":"31.20148806","category":"68","category_name":"快餐厅","address":"徐汇区岳阳路319号中科大厦B1楼(近好望角大饭店)"},{"poiid":"B2094757D66BA3FA409D","title":"近江和牛正传 东安路店","lon":"121.45051","lat":"31.198248","category":"95","category_name":"日本料理","address":"徐汇区东安路8号青松城1楼"},{"poiid":"B2094757D168A4FC409D","title":"中山医院急诊","lon":"121.45386328","lat":"31.19900592","category":"162","category_name":"医院","address":"上海急诊"},{"poiid":"B2094655D26FA1FD4599","title":"真汉咖啡剧场","lon":"121.45417","lat":"31.19947","category":"180","category_name":"剧场","address":"徐汇区肇嘉浜路555号(近枫林路)"},{"poiid":"B2094757D76EABF44392","title":"巧克力工厂","lon":"121.4519081","lat":"31.1998594","category":"71","category_name":"四川菜","address":"肇嘉浜路近漕溪北路1111号美罗城B1五番街"},{"poiid":"B2094654DB6BA5F5489F","title":"比比馒头专卖(枫林桥邮政所西)","lon":"121.45395","lat":"31.1998","category":"68","category_name":"快餐厅","address":"徐汇区枫林路(平江路口)"},{"poiid":"B2094757D469A1F9489C","title":"雷焰烧烤","lon":"121.454735054","lat":"31.200505793","category":"68","category_name":"快餐厅","address":"徐汇区肇嘉浜路567号(近枫林路)"},{"poiid":"B2094757D66CA7FA4193","title":"上海轨道交通7号线肇嘉滨路站","lon":"121.450491894","lat":"31.1994188993","category":"500","category_name":"未知分类","address":"上海肇嘉浜路"},{"poiid":"B2094655D26BA1FC499E","title":"平江路枫林路","lon":"121.45444","lat":"31.19982","category":"38","category_name":"公交车站","address":""},{"poiid":"B2094757D069A6FE489A","title":"43路肇嘉浜路枫林路站","lon":"121.45452117","lat":"31.200782775","category":"38","category_name":"公交车站","address":"上海肇嘉浜路枫林路"},{"poiid":"B2094757D065A0FF4999","title":"翡翠(Jade)","lon":"121.45301018","lat":"31.200472649","category":"500","category_name":"未知分类","address":"上海Aya家"},{"poiid":"B2094757D065ABF9449E","title":"京翅坊","lon":"121.44984","lat":"31.20122","category":"72","category_name":"广东菜","address":"徐汇区乌鲁木齐南路298号2楼(近建国西路)"},{"poiid":"B2094757D168A0FF479E","title":"复旦大学附属中山医院五号楼","lon":"121.452995311","lat":"31.1973022872","category":"162","category_name":"医院","address":"上海枫林路180号"},{"poiid":"B2094757D16FA1FE4699","title":"Disney英语","lon":"121.45318158","lat":"31.200509849","category":"253","category_name":"校园生活","address":"上海市徐汇区辛耕路"},{"poiid":"B2094654DA6DABFC419E","title":"研究生电子阅览室","lon":"121.45332","lat":"31.20149","category":"181","category_name":"图书馆","address":"肇嘉浜路500"},{"poiid":"B2094757D16FABFA4592","title":"中山医院5号楼6楼","lon":"121.45421968","lat":"31.199278325","category":"162","category_name":"医院","address":"上海枫林路"},{"poiid":"B2094655D26CA7F4429B","title":"复旦大学附属中山医院","lon":"121.45405","lat":"31.19857","category":"162","category_name":"医院","address":"医学院路111,136号"},{"poiid":"B2094757D06FA1F94399","title":"徐汇区牙病防治所(肇嘉浜路分所)","lon":"121.451361983","lat":"31.1994818967","category":"162","category_name":"医院","address":"徐汇区肇嘉浜路685号(近东安路)"},{"poiid":"B2094757D06FAAFA429C","title":"复旦大学上海医学院","lon":"121.452400191","lat":"31.1976300604","category":"671","category_name":"高校中心点","address":"上海徐汇区医学院路130号"},{"poiid":"B2094753D76FAAFA449C","title":"上海滩国泰旗舰店","lon":"121.466011","lat":"31.216125","category":"249","category_name":"购物服务","address":"淮海中路868号"},{"poiid":"B2094655D26DA3F9449E","title":"复旦大学附属中山医院门诊急诊部","lon":"121.45333","lat":"31.19884","category":"162","category_name":"医院","address":"医学院路111、136"},{"poiid":"B2094757D06EAAFB479A","title":"肇嘉浜路地铁站","lon":"121.45029188","lat":"31.199558753","category":"36","category_name":"地铁站","address":"上海轨道交通 七号线 九号线 轨交肇嘉浜路站 7 9"},{"poiid":"B2094757D06AA3FC4293","title":"中科院","lon":"121.453551","lat":"31.201298","category":"500","category_name":"未知分类","address":"上海岳阳路319号"},{"poiid":"B2094654DB64A4FC429B","title":"复旦大学枫林校区","lon":"121.45201","lat":"31.19825","category":"52","category_name":"高等院校","address":"徐汇区医学院路138号(近中山医院)"},{"poiid":"B2094654DA6DABFC439A","title":"好望角大饭店","lon":"121.45418","lat":"31.20133","category":"76","category_name":"上海菜","address":"徐汇区肇嘉浜路500号好望角大饭店3楼(岳阳路口)"},{"poiid":"B2094654DA6DABFC409A","title":"中国科学院上海生命科学研究院(中科大厦西)","lon":"121.45243","lat":"31.20132","category":"191","category_name":"科研机构","address":"徐汇区岳阳路320号"},{"poiid":"B2094757D06FAAFD4199","title":"孔家花园","lon":"121.453","lat":"31.1978","category":"47","category_name":"住宅区","address":"徐汇区斜土路2421号(近宛平南路)"},{"poiid":"B2094757D06FA5F94093","title":"建科大厦","lon":"121.452","lat":"31.2018","category":"46","category_name":"楼宇","address":"上海徐汇区宛平南路75号"},{"poiid":"B2094757D064A0F94198","title":"中山医院住院部1号楼","lon":"121.454551738","lat":"31.1979389123","category":"162","category_name":"医院","address":"上海枫林路180号"},{"poiid":"B2094757D06FA1FF429F","title":"伶达港骨头皇火锅(枫林店)","lon":"121.45522","lat":"31.20049","category":"86","category_name":"火锅店","address":"徐汇区肇嘉浜路567号(近枫林路)"},{"poiid":"B2094757D068AAFB439D","title":"湘鄂情","lon":"121.45401","lat":"31.20091","category":"77","category_name":"湖南菜","address":"徐汇区肇嘉浜路500号好望角大酒店裙楼(岳阳路口)"},{"poiid":"B2094654DA6DA7FB469D","title":"虹桥人家酒楼","lon":"121.4501","lat":"31.19989","category":"76","category_name":"上海菜","address":"徐汇区乌鲁木齐南路406号(肇嘉浜路口)"},{"poiid":"B2094757D56DA7FE499B","title":"徐家汇查餐厅","lon":"121.45405","lat":"31.19857","category":"247","category_name":"餐饮美食","address":"天钥桥路"},{"poiid":"B2094654DA6DABFD4199","title":"伊泰利大厦","lon":"121.4552612","lat":"31.20184326","category":"46","category_name":"楼宇","address":"伊泰利大厦位于徐汇肇嘉浜路446弄"},{"poiid":"B2094757D068A3FA499D","title":"中山医院住院部三号楼","lon":"121.453937593","lat":"31.1983534856","category":"162","category_name":"医院","address":"上海徐汇区枫林路180号(近医学院路)"},{"poiid":"B2094757D06AA5F4499F","title":"馥满江南菜","lon":"121.454896","lat":"31.199246","category":"76","category_name":"上海菜","address":"徐汇区医学院路79号(近枫林路)"},{"poiid":"B2094757D06BA3F9439E","title":"复旦大学附属中山医院急诊输液室","lon":"121.453645232","lat":"31.1989293545","category":"162","category_name":"医院","address":"徐汇区枫林路180号中山医院内(近医学院路)"},{"poiid":"B2094751DA6AA2FC4593","title":"麦当劳","lon":"121.45223","lat":"31.199739","category":"247","category_name":"餐饮美食","address":"徐汇区斜土路1646号"},{"poiid":"B2094757D66BA6F9429E","title":"半岛餐厅","lon":"121.45344535807","lat":"31.200745118072","category":"268","category_name":"自助","address":"徐汇区肇嘉浜路500号好望角大酒店3楼(岳阳路口)"},{"poiid":"B2094757D16FA1FE419F","title":"肇嘉浜路东安路公交站","lon":"121.45301988","lat":"31.200472649","category":"38","category_name":"公交车站","address":"上海肇嘉浜路东安路公交站"},{"poiid":"B2094654DA6DAAFF409D","title":"枫林大楼","lon":"121.45303","lat":"31.200081","category":"47","category_name":"住宅区","address":"肇嘉浜路661-665"},{"poiid":"B2094757DA65A3FF4499","title":"中山医院","lon":"121.45237118","lat":"31.20069962","category":"162","category_name":"医院","address":"徐汇区小木桥路"},{"poiid":"B2094757D069A1F9419D","title":"中山医院10号楼手术室","lon":"121.453940275","lat":"31.1983488969","category":"162","category_name":"医院","address":"上海徐汇区枫林路180号(近医学院路)"},{"poiid":"B2094757D16BA1FD4493","title":"Club15","lon":"121.450645586","lat":"31.1989508194","category":"500","category_name":"未知分类","address":"上海市徐汇区东安路15号"},{"poiid":"B2094757D56EA2FF469E","title":"天目山庄","lon":"121.454923","lat":"31.199855","category":"247","category_name":"餐饮美食","address":"徐汇区大木桥路360号(近斜土路)"},{"poiid":"B2094654DA6DA4F54992","title":"上海教育超市生科院店","lon":"121.45275","lat":"31.20064","category":"118","category_name":"超级市场","address":"徐汇区肇嘉浜路524号(近岳阳路)"},{"poiid":"B2094750D26CA3FE459F","title":"好望角大饭店 宴会厅","lon":"121.453479054","lat":"31.200733793","category":"76","category_name":"上海菜","address":"肇嘉浜路500号好望角大饭店5楼近岳阳路"},{"poiid":"B2094757D064A6FC429F","title":"中山医院门诊放射科","lon":"121.453616286","lat":"31.2001022419","category":"162","category_name":"医院","address":"上海枫林路180号中山医院门诊C3楼"},{"poiid":"B2094757D469A5F84893","title":"明晨阳光","lon":"121.4497731","lat":"31.2015067","category":"94","category_name":"西餐厅","address":"徐汇区乌鲁木齐南路302号1号(近建国路)"},{"poiid":"B2094757D16DA1F8479F","title":"医学院路","lon":"121.45605018","lat":"31.200274212","category":"500","category_name":"未知分类","address":"上海医学院路69号"},{"poiid":"B2094757D568ABFA4692","title":"中科院地下食堂","lon":"121.453315","lat":"31.20148806","category":"68","category_name":"快餐厅","address":"徐汇区岳阳路319号中科大厦B1楼(近好望角大饭店)"},{"poiid":"B2094757D66BA3FA409D","title":"近江和牛正传 东安路店","lon":"121.45051","lat":"31.198248","category":"95","category_name":"日本料理","address":"徐汇区东安路8号青松城1楼"},{"poiid":"B2094757D168A4FC409D","title":"中山医院急诊","lon":"121.45386328","lat":"31.19900592","category":"162","category_name":"医院","address":"上海急诊"},{"poiid":"B2094655D26FA1FD4599","title":"真汉咖啡剧场","lon":"121.45417","lat":"31.19947","category":"180","category_name":"剧场","address":"徐汇区肇嘉浜路555号(近枫林路)"},{"poiid":"B2094757D76EABF44392","title":"巧克力工厂","lon":"121.4519081","lat":"31.1998594","category":"71","category_name":"四川菜","address":"肇嘉浜路近漕溪北路1111号美罗城B1五番街"},{"poiid":"B2094654DB6BA5F5489F","title":"比比馒头专卖(枫林桥邮政所西)","lon":"121.45395","lat":"31.1998","category":"68","category_name":"快餐厅","address":"徐汇区枫林路(平江路口)"},{"poiid":"B2094757D469A1F9489C","title":"雷焰烧烤","lon":"121.454735054","lat":"31.200505793","category":"68","category_name":"快餐厅","address":"徐汇区肇嘉浜路567号(近枫林路)"},{"poiid":"B2094757D66CA7FA4193","title":"上海轨道交通7号线肇嘉滨路站","lon":"121.450491894","lat":"31.1994188993","category":"500","category_name":"未知分类","address":"上海肇嘉浜路"},{"poiid":"B2094655D26BA1FC499E","title":"平江路枫林路","lon":"121.45444","lat":"31.19982","category":"38","category_name":"公交车站","address":""},{"poiid":"B2094757D069A6FE489A","title":"43路肇嘉浜路枫林路站","lon":"121.45452117","lat":"31.200782775","category":"38","category_name":"公交车站","address":"上海肇嘉浜路枫林路"},{"poiid":"B2094757D065A0FF4999","title":"翡翠(Jade)","lon":"121.45301018","lat":"31.200472649","category":"500","category_name":"未知分类","address":"上海Aya家"},{"poiid":"B2094757D065ABF9449E","title":"京翅坊","lon":"121.44984","lat":"31.20122","category":"72","category_name":"广东菜","address":"徐汇区乌鲁木齐南路298号2楼(近建国西路)"},{"poiid":"B2094757D168A0FF479E","title":"复旦大学附属中山医院五号楼","lon":"121.452995311","lat":"31.1973022872","category":"162","category_name":"医院","address":"上海枫林路180号"},{"poiid":"B2094757D16FA1FE4699","title":"Disney英语","lon":"121.45318158","lat":"31.200509849","category":"253","category_name":"校园生活","address":"上海市徐汇区辛耕路"},{"poiid":"B2094654DA6DABFC419E","title":"研究生电子阅览室","lon":"121.45332","lat":"31.20149","category":"181","category_name":"图书馆","address":"肇嘉浜路500"},{"poiid":"B2094757D16FABFA4592","title":"中山医院5号楼6楼","lon":"121.45421968","lat":"31.199278325","category":"162","category_name":"医院","address":"上海枫林路"},{"poiid":"B2094655D26CA7F4429B","title":"复旦大学附属中山医院","lon":"121.45405","lat":"31.19857","category":"162","category_name":"医院","address":"医学院路111,136号"},{"poiid":"B2094757D06FA1F94399","title":"徐汇区牙病防治所(肇嘉浜路分所)","lon":"121.451361983","lat":"31.1994818967","category":"162","category_name":"医院","address":"徐汇区肇嘉浜路685号(近东安路)"},{"poiid":"B2094757D06FAAFA429C","title":"复旦大学上海医学院","lon":"121.452400191","lat":"31.1976300604","category":"671","category_name":"高校中心点","address":"上海徐汇区医学院路130号"},{"poiid":"B2094753D76FAAFA449C","title":"上海滩国泰旗舰店","lon":"121.466011","lat":"31.216125","category":"249","category_name":"购物服务","address":"淮海中路868号"},{"poiid":"B2094655D26DA3F9449E","title":"复旦大学附属中山医院门诊急诊部","lon":"121.45333","lat":"31.19884","category":"162","category_name":"医院","address":"医学院路111、136"},{"poiid":"B2094757D06EAAFB479A","title":"肇嘉浜路地铁站","lon":"121.45029188","lat":"31.199558753","category":"36","category_name":"地铁站","address":"上海轨道交通 七号线 九号线 轨交肇嘉浜路站 7 9"},{"poiid":"B2094757D06AA3FC4293","title":"中科院","lon":"121.453551","lat":"31.201298","category":"500","category_name":"未知分类","address":"上海岳阳路319号"},{"poiid":"B2094654DB64A4FC429B","title":"复旦大学枫林校区","lon":"121.45201","lat":"31.19825","category":"52","category_name":"高等院校","address":"徐汇区医学院路138号(近中山医院)"},{"poiid":"B2094654DA6DABFC439A","title":"好望角大饭店","lon":"121.45418","lat":"31.20133","category":"76","category_name":"上海菜","address":"徐汇区肇嘉浜路500号好望角大饭店3楼(岳阳路口)"},{"poiid":"B2094654DA6DABFC409A","title":"中国科学院上海生命科学研究院(中科大厦西)","lon":"121.45243","lat":"31.20132","category":"191","category_name":"科研机构","address":"徐汇区岳阳路320号"},{"poiid":"B2094757D06FAAFD4199","title":"孔家花园","lon":"121.453","lat":"31.1978","category":"47","category_name":"住宅区","address":"徐汇区斜土路2421号(近宛平南路)"},{"poiid":"B2094757D06FA5F94093","title":"建科大厦","lon":"121.452","lat":"31.2018","category":"46","category_name":"楼宇","address":"上海徐汇区宛平南路75号"},{"poiid":"B2094757D064A0F94198","title":"中山医院住院部1号楼","lon":"121.454551738","lat":"31.1979389123","category":"162","category_name":"医院","address":"上海枫林路180号"},{"poiid":"B2094757D06FA1FF429F","title":"伶达港骨头皇火锅(枫林店)","lon":"121.45522","lat":"31.20049","category":"86","category_name":"火锅店","address":"徐汇区肇嘉浜路567号(近枫林路)"},{"poiid":"B2094757D068AAFB439D","title":"湘鄂情","lon":"121.45401","lat":"31.20091","category":"77","category_name":"湖南菜","address":"徐汇区肇嘉浜路500号好望角大酒店裙楼(岳阳路口)"},{"poiid":"B2094654DA6DA7FB469D","title":"虹桥人家酒楼","lon":"121.4501","lat":"31.19989","category":"76","category_name":"上海菜","address":"徐汇区乌鲁木齐南路406号(肇嘉浜路口)"},{"poiid":"B2094757D56DA7FE499B","title":"徐家汇查餐厅","lon":"121.45405","lat":"31.19857","category":"247","category_name":"餐饮美食","address":"天钥桥路"},{"poiid":"B2094654DA6DABFD4199","title":"伊泰利大厦","lon":"121.4552612","lat":"31.20184326","category":"46","category_name":"楼宇","address":"伊泰利大厦位于徐汇肇嘉浜路446弄"},{"poiid":"B2094757D068A3FA499D","title":"中山医院住院部三号楼","lon":"121.453937593","lat":"31.1983534856","category":"162","category_name":"医院","address":"上海徐汇区枫林路180号(近医学院路)"},{"poiid":"B2094757D06AA5F4499F","title":"馥满江南菜","lon":"121.454896","lat":"31.199246","category":"76","category_name":"上海菜","address":"徐汇区医学院路79号(近枫林路)"},{"poiid":"B2094757D06BA3F9439E","title":"复旦大学附属中山医院急诊输液室","lon":"121.453645232","lat":"31.1989293545","category":"162","category_name":"医院","address":"徐汇区枫林路180号中山医院内(近医学院路)"},{"poiid":"B2094751DA6AA2FC4593","title":"麦当劳","lon":"121.45223","lat":"31.199739","category":"247","category_name":"餐饮美食","address":"徐汇区斜土路1646号"},{"poiid":"B2094757D66BA6F9429E","title":"半岛餐厅","lon":"121.45344535807","lat":"31.200745118072","category":"268","category_name":"自助","address":"徐汇区肇嘉浜路500号好望角大酒店3楼(岳阳路口)"},{"poiid":"B2094757D16FA1FE419F","title":"肇嘉浜路东安路公交站","lon":"121.45301988","lat":"31.200472649","category":"38","category_name":"公交车站","address":"上海肇嘉浜路东安路公交站"},{"poiid":"B2094654DA6DAAFF409D","title":"枫林大楼","lon":"121.45303","lat":"31.200081","category":"47","category_name":"住宅区","address":"肇嘉浜路661-665"},{"poiid":"B2094757DA65A3FF4499","title":"中山医院","lon":"121.45237118","lat":"31.20069962","category":"162","category_name":"医院","address":"徐汇区小木桥路"},{"poiid":"B2094757D069A1F9419D","title":"中山医院10号楼手术室","lon":"121.453940275","lat":"31.1983488969","category":"162","category_name":"医院","address":"上海徐汇区枫林路180号(近医学院路)"},{"poiid":"B2094757D16BA1FD4493","title":"Club15","lon":"121.450645586","lat":"31.1989508194","category":"500","category_name":"未知分类","address":"上海市徐汇区东安路15号"},{"poiid":"B2094757D56EA2FF469E","title":"天目山庄","lon":"121.454923","lat":"31.199855","category":"247","category_name":"餐饮美食","address":"徐汇区大木桥路360号(近斜土路)"},{"poiid":"B2094654DA6DA4F54992","title":"上海教育超市生科院店","lon":"121.45275","lat":"31.20064","category":"118","category_name":"超级市场","address":"徐汇区肇嘉浜路524号(近岳阳路)"},{"poiid":"B2094750D26CA3FE459F","title":"好望角大饭店 宴会厅","lon":"121.453479054","lat":"31.200733793","category":"76","category_name":"上海菜","address":"肇嘉浜路500号好望角大饭店5楼近岳阳路"},{"poiid":"B2094757D064A6FC429F","title":"中山医院门诊放射科","lon":"121.453616286","lat":"31.2001022419","category":"162","category_name":"医院","address":"上海枫林路180号中山医院门诊C3楼"},{"poiid":"B2094757D469A5F84893","title":"明晨阳光","lon":"121.4497731","lat":"31.2015067","category":"94","category_name":"西餐厅","address":"徐汇区乌鲁木齐南路302号1号(近建国路)"},{"poiid":"B2094757D16DA1F8479F","title":"医学院路","lon":"121.45605018","lat":"31.200274212","category":"500","category_name":"未知分类","address":"上海医学院路69号"},{"poiid":"B2094757D568ABFA4692","title":"中科院地下食堂","lon":"121.453315","lat":"31.20148806","category":"68","category_name":"快餐厅","address":"徐汇区岳阳路319号中科大厦B1楼(近好望角大饭店)"},{"poiid":"B2094757D66BA3FA409D","title":"近江和牛正传 东安路店","lon":"121.45051","lat":"31.198248","category":"95","category_name":"日本料理","address":"徐汇区东安路8号青松城1楼"},{"poiid":"B2094757D168A4FC409D","title":"中山医院急诊","lon":"121.45386328","lat":"31.19900592","category":"162","category_name":"医院","address":"上海急诊"},{"poiid":"B2094655D26FA1FD4599","title":"真汉咖啡剧场","lon":"121.45417","lat":"31.19947","category":"180","category_name":"剧场","address":"徐汇区肇嘉浜路555号(近枫林路)"},{"poiid":"B2094757D76EABF44392","title":"巧克力工厂","lon":"121.4519081","lat":"31.1998594","category":"71","category_name":"四川菜","address":"肇嘉浜路近漕溪北路1111号美罗城B1五番街"},{"poiid":"B2094654DB6BA5F5489F","title":"比比馒头专卖(枫林桥邮政所西)","lon":"121.45395","lat":"31.1998","category":"68","category_name":"快餐厅","address":"徐汇区枫林路(平江路口)"},{"poiid":"B2094757D469A1F9489C","title":"雷焰烧烤","lon":"121.454735054","lat":"31.200505793","category":"68","category_name":"快餐厅","address":"徐汇区肇嘉浜路567号(近枫林路)"},{"poiid":"B2094757D66CA7FA4193","title":"上海轨道交通7号线肇嘉滨路站","lon":"121.450491894","lat":"31.1994188993","category":"500","category_name":"未知分类","address":"上海肇嘉浜路"},{"poiid":"B2094655D26BA1FC499E","title":"平江路枫林路","lon":"121.45444","lat":"31.19982","category":"38","category_name":"公交车站","address":""},{"poiid":"B2094757D069A6FE489A","title":"43路肇嘉浜路枫林路站","lon":"121.45452117","lat":"31.200782775","category":"38","category_name":"公交车站","address":"上海肇嘉浜路枫林路"},{"poiid":"B2094757D065A0FF4999","title":"翡翠(Jade)","lon":"121.45301018","lat":"31.200472649","category":"500","category_name":"未知分类","address":"上海Aya家"},{"poiid":"B2094757D065ABF9449E","title":"京翅坊","lon":"121.44984","lat":"31.20122","category":"72","category_name":"广东菜","address":"徐汇区乌鲁木齐南路298号2楼(近建国西路)"},{"poiid":"B2094757D168A0FF479E","title":"复旦大学附属中山医院五号楼","lon":"121.452995311","lat":"31.1973022872","category":"162","category_name":"医院","address":"上海枫林路180号"},{"poiid":"B2094757D16FA1FE4699","title":"Disney英语","lon":"121.45318158","lat":"31.200509849","category":"253","category_name":"校园生活","address":"上海市徐汇区辛耕路"},{"poiid":"B2094654DA6DABFC419E","title":"研究生电子阅览室","lon":"121.45332","lat":"31.20149","category":"181","category_name":"图书馆","address":"肇嘉浜路500"},{"poiid":"B2094757D16FABFA4592","title":"中山医院5号楼6楼","lon":"121.45421968","lat":"31.199278325","category":"162","category_name":"医院","address":"上海枫林路"}]