[{"poiid":"B2094655D36CA0FB4198","title":"纪王镇","lon":"121.27184","lat":"31.23848","category":"38","category_name":"公交车站","address":""},{"poiid":"B2094757D069A0F84599","title":"沪宁高速","lon":"121.273091925","lat":"31.2548794406","category":"500","category_name":"未知分类","address":"上海沪宁高速"},{"poiid":"B2094757D06AA1FC4493","title":"金沙江高尔夫俱乐部","lon":"121.28961119","lat":"31.244364338","category":"500","category_name":"未知分类","address":"嘉定区金沙江西路6号(近博园路)"},{"poiid":"B2094757D464A7FF4198","title":"翠云馆","lon":"121.283983","lat":"31.239999","category":"76","category_name":"上海菜","address":"长宁区华漕镇纪友路298号(近纪王镇)"},{"poiid":"B2094757D16CA7FC409D","title":"赤峰路","lon":"121.28003984","lat":"31.242103173","category":"47","category_name":"住宅区","address":"上海曲阳新村"},{"poiid":"B2094654D56AA4F44398","title":"纪东村","lon":"121.27749","lat":"31.246082","category":"47","category_name":"住宅区","address":"纪中路58号"},{"poiid":"B2094654D56AA4F44392","title":"银峰饭店","lon":"121.28202","lat":"31.24086","category":"257","category_name":"中餐厅","address":""},{"poiid":"B2094757D16CA2FF499C","title":"银杏新村","lon":"121.27444","lat":"31.234022","category":"252","category_name":"楼宇机构","address":"上海纪翟路1625弄"},{"poiid":"B2094757D16FA4FB4098","title":"REYN Warehouse","lon":"121.27989856","lat":"31.2353687565","category":"46","category_name":"楼宇","address":"上海閔行區紀翟路1525弄"},{"poiid":"B2094654DB6BA0FA479F","title":"华漕镇纪东村高家浜小区","lon":"121.28398","lat":"31.23999","category":"47","category_name":"住宅区","address":""},{"poiid":"B2094757D465A1FE419F","title":"湘芙蓉 闵行店","lon":"121.269964054","lat":"31.241617793","category":"77","category_name":"湖南菜","address":"长宁区华漕纪王镇纪翟路1858号(近纪中路)"},{"poiid":"B2094654D56AA5FA4198","title":"明星饭店","lon":"121.27583","lat":"31.24391","category":"70","category_name":"综合酒楼","address":"纪中路"},{"poiid":"B2094654D56AABF44592","title":"阚疃羊肉馆","lon":"121.27505","lat":"31.24244","category":"257","category_name":"中餐厅","address":""},{"poiid":"B2094757D168A1F8449C","title":"纪王公园","lon":"121.270778","lat":"31.237976","category":"196","category_name":"公园","address":"闵行区纪高路598号"},{"poiid":"B2094654D56AA5FB429E","title":"华漕社区卫生服务中心(分部)门诊部","lon":"121.27331","lat":"31.24268","category":"162","category_name":"医院","address":"纪信路"},{"poiid":"B2094757D16FA7FB419D","title":"纪中路","lon":"121.27627246","lat":"31.2458037769","category":"500","category_name":"未知分类","address":"上海纪中路"},{"poiid":"B2094655D264A4FB459D","title":"沪杭铁路立交桥","lon":"121.29045","lat":"31.25269","category":"250","category_name":"公园户外","address":""},{"poiid":"B2094757D16EA0FF4392","title":"纪皇大酒店","lon":"121.27782356","lat":"31.2274506893","category":"76","category_name":"上海菜","address":"闵行区华漕镇纪翟路1409弄8号(近嘉闵高架北青公路出口)"},{"poiid":"B2094654D56AA5F9489A","title":"纪王学校","lon":"121.27384","lat":"31.23636","category":"55","category_name":"中学","address":"长宁区华漕镇纪翟路1655号"},{"poiid":"B2094655D36CA0FB419B","title":"纪王枢纽站","lon":"121.27207","lat":"31.23811","category":"38","category_name":"公交车站","address":""},{"poiid":"B2094654D56AA6F8489C","title":"纪王中学","lon":"121.27182","lat":"31.2397","category":"55","category_name":"中学","address":"闵行区纪育路1165号"},{"poiid":"B2094654D56AA4F4459C","title":"福缘毛家湘菜","lon":"121.2721","lat":"31.24223","category":"77","category_name":"湖南菜","address":"闵行区纪信路附近"},{"poiid":"B2094654D56AA5FB4592","title":"三园粥店","lon":"121.27168","lat":"31.24192","category":"257","category_name":"中餐厅","address":"纪信路"},{"poiid":"B2094757D169A2FD4298","title":"移动营业厅纪王店","lon":"121.27463531","lat":"31.240123748","category":"500","category_name":"未知分类","address":"上海闵行区华漕镇纪高路158号"},{"poiid":"B2094654D56AA5FB419E","title":"庐江饮食店","lon":"121.27204","lat":"31.24171","category":"257","category_name":"中餐厅","address":"纪信路"},{"poiid":"B2094655D26FA5F4409A","title":"上海华泰医院","lon":"121.27295","lat":"31.23537","category":"162","category_name":"医院","address":"纪翟路1688号"},{"poiid":"B2094654D56AA4FA439A","title":"冰火鸟(纪中路)","lon":"121.27119","lat":"31.24003","category":"247","category_name":"餐饮美食","address":""},{"poiid":"B2094655D36CA0FB4292","title":"纪翟路纪信路","lon":"121.27052","lat":"31.24059","category":"38","category_name":"公交车站","address":""},{"poiid":"B2094757D16BA1FB479B","title":"my house","lon":"121.27489256","lat":"31.234863745","category":"500","category_name":"未知分类","address":"上海市"},{"poiid":"B2094654D56AABF44199","title":"春聚圆","lon":"121.27988","lat":"31.23461","category":"257","category_name":"中餐厅","address":""},{"poiid":"B2094654D56AA5FB4893","title":"祥宾一村","lon":"121.27088","lat":"31.239122","category":"47","category_name":"住宅区","address":"上海市闵行区联友路"},{"poiid":"B2094655D36CA5FB4793","title":"博园路金沙江西路","lon":"121.2905","lat":"31.24325","category":"38","category_name":"公交车站","address":""},{"poiid":"B2094654D56AABF4429A","title":"良友便利NO.68","lon":"121.2765","lat":"31.2343","category":"117","category_name":"便民商店/便利店","address":""},{"poiid":"B2094654D56AA5F4409D","title":"华漕贝尼商场","lon":"121.27321","lat":"31.23572","category":"119","category_name":"商场","address":"纪翟路"},{"poiid":"B2094654D56AA4FA489D","title":"特色骨汁汤包","lon":"121.27194","lat":"31.23792","category":"257","category_name":"中餐厅","address":""},{"poiid":"B2094757D06BA6FD4299","title":"公交74路","lon":"121.274673462","lat":"31.2332801819","category":"38","category_name":"公交车站","address":"上海延安西路凯旋路—纪王"},{"poiid":"B2094654D56AA6F8489D","title":"教室公寓","lon":"121.27091","lat":"31.240818","category":"47","category_name":"住宅区","address":"纪翟公路1808号"},{"poiid":"B2094654D56AA5FB4899","title":"海天角酒家","lon":"121.27083","lat":"31.2397","category":"70","category_name":"综合酒楼","address":"纪翟路"},{"poiid":"B2094654D56AA6F8499B","title":"祥宾新村","lon":"121.27","lat":"31.24202","category":"47","category_name":"住宅区","address":"纪翟路1800弄"},{"poiid":"B2094654D56AA6F9409A","title":"上海农村商业银行纪王支行","lon":"121.27249","lat":"31.24252","category":"150","category_name":"银行","address":"纪王镇"},{"poiid":"B2094654D56AA4F94898","title":"富岛休闲中心","lon":"121.27275","lat":"31.23932","category":"248","category_name":"生活娱乐","address":""},{"poiid":"B2094757D065A0F54598","title":"诸瞿大润发","lon":"121.27836336","lat":"31.23083496","category":"500","category_name":"未知分类","address":"上海闵行区诸瞿保乐路"},{"poiid":"B2094654D56AA5F4419A","title":"纪丰苑","lon":"121.27439","lat":"31.233076","category":"47","category_name":"住宅区","address":"纪翟路1558弄"},{"poiid":"B2094757D16FA6F9429A","title":"纪王寺","lon":"121.26894256","lat":"31.243048918","category":"500","category_name":"未知分类","address":"上海市闵行区纪鹤路"},{"poiid":"B2094757D065A6FB479A","title":"lili'家","lon":"121.27474056","lat":"31.235165752","category":"500","category_name":"未知分类","address":"上海lili'家"},{"poiid":"B2094654D56AA4F9489F","title":"纪王中心幼儿园","lon":"121.26799","lat":"31.23723","category":"57","category_name":"幼儿园","address":"闵行区纪高路688号"},{"poiid":"B2094752D069A2FD459D","title":"上海虹桥机场","lon":"121.290588","lat":"31.242896","category":"500","category_name":"未知分类","address":null},{"poiid":"B2094757D168A4F8489B","title":"华漕镇红卫村","lon":"121.28562027","lat":"31.233325213","category":"500","category_name":"未知分类","address":"上海闵行区红卫路"},{"poiid":"B2094655D26FA5FA449F","title":"纪王派出所","lon":"121.27519","lat":"31.23314","category":"609","category_name":"警察局","address":"纪翟路1555号"},{"poiid":"B2094655D36CA0FB4299","title":"纪高路","lon":"121.26702","lat":"31.23665","category":"38","category_name":"公交车站","address":""},{"poiid":"B2094655D36CA0FB4198","title":"纪王镇","lon":"121.27184","lat":"31.23848","category":"38","category_name":"公交车站","address":""},{"poiid":"B2094757D069A0F84599","title":"沪宁高速","lon":"121.273091925","lat":"31.2548794406","category":"500","category_name":"未知分类","address":"上海沪宁高速"},{"poiid":"B2094757D06AA1FC4493","title":"金沙江高尔夫俱乐部","lon":"121.28961119","lat":"31.244364338","category":"500","category_name":"未知分类","address":"嘉定区金沙江西路6号(近博园路)"},{"poiid":"B2094757D464A7FF4198","title":"翠云馆","lon":"121.283983","lat":"31.239999","category":"76","category_name":"上海菜","address":"长宁区华漕镇纪友路298号(近纪王镇)"},{"poiid":"B2094757D16CA7FC409D","title":"赤峰路","lon":"121.28003984","lat":"31.242103173","category":"47","category_name":"住宅区","address":"上海曲阳新村"},{"poiid":"B2094654D56AA4F44398","title":"纪东村","lon":"121.27749","lat":"31.246082","category":"47","category_name":"住宅区","address":"纪中路58号"},{"poiid":"B2094654D56AA4F44392","title":"银峰饭店","lon":"121.28202","lat":"31.24086","category":"257","category_name":"中餐厅","address":""},{"poiid":"B2094757D16CA2FF499C","title":"银杏新村","lon":"121.27444","lat":"31.234022","category":"252","category_name":"楼宇机构","address":"上海纪翟路1625弄"},{"poiid":"B2094757D16FA4FB4098","title":"REYN Warehouse","lon":"121.27989856","lat":"31.2353687565","category":"46","category_name":"楼宇","address":"上海閔行區紀翟路1525弄"},{"poiid":"B2094654DB6BA0FA479F","title":"华漕镇纪东村高家浜小区","lon":"121.28398","lat":"31.23999","category":"47","category_name":"住宅区","address":""},{"poiid":"B2094757D465A1FE419F","title":"湘芙蓉 闵行店","lon":"121.269964054","lat":"31.241617793","category":"77","category_name":"湖南菜","address":"长宁区华漕纪王镇纪翟路1858号(近纪中路)"},{"poiid":"B2094654D56AA5FA4198","title":"明星饭店","lon":"121.27583","lat":"31.24391","category":"70","category_name":"综合酒楼","address":"纪中路"},{"poiid":"B2094654D56AABF44592","title":"阚疃羊肉馆","lon":"121.27505","lat":"31.24244","category":"257","category_name":"中餐厅","address":""},{"poiid":"B2094757D168A1F8449C","title":"纪王公园","lon":"121.270778","lat":"31.237976","category":"196","category_name":"公园","address":"闵行区纪高路598号"},{"poiid":"B2094654D56AA5FB429E","title":"华漕社区卫生服务中心(分部)门诊部","lon":"121.27331","lat":"31.24268","category":"162","category_name":"医院","address":"纪信路"},{"poiid":"B2094757D16FA7FB419D","title":"纪中路","lon":"121.27627246","lat":"31.2458037769","category":"500","category_name":"未知分类","address":"上海纪中路"},{"poiid":"B2094655D264A4FB459D","title":"沪杭铁路立交桥","lon":"121.29045","lat":"31.25269","category":"250","category_name":"公园户外","address":""},{"poiid":"B2094757D16EA0FF4392","title":"纪皇大酒店","lon":"121.27782356","lat":"31.2274506893","category":"76","category_name":"上海菜","address":"闵行区华漕镇纪翟路1409弄8号(近嘉闵高架北青公路出口)"},{"poiid":"B2094654D56AA5F9489A","title":"纪王学校","lon":"121.27384","lat":"31.23636","category":"55","category_name":"中学","address":"长宁区华漕镇纪翟路1655号"},{"poiid":"B2094655D36CA0FB419B","title":"纪王枢纽站","lon":"121.27207","lat":"31.23811","category":"38","category_name":"公交车站","address":""},{"poiid":"B2094654D56AA6F8489C","title":"纪王中学","lon":"121.27182","lat":"31.2397","category":"55","category_name":"中学","address":"闵行区纪育路1165号"},{"poiid":"B2094654D56AA4F4459C","title":"福缘毛家湘菜","lon":"121.2721","lat":"31.24223","category":"77","category_name":"湖南菜","address":"闵行区纪信路附近"},{"poiid":"B2094654D56AA5FB4592","title":"三园粥店","lon":"121.27168","lat":"31.24192","category":"257","category_name":"中餐厅","address":"纪信路"},{"poiid":"B2094757D169A2FD4298","title":"移动营业厅纪王店","lon":"121.27463531","lat":"31.240123748","category":"500","category_name":"未知分类","address":"上海闵行区华漕镇纪高路158号"},{"poiid":"B2094654D56AA5FB419E","title":"庐江饮食店","lon":"121.27204","lat":"31.24171","category":"257","category_name":"中餐厅","address":"纪信路"},{"poiid":"B2094655D26FA5F4409A","title":"上海华泰医院","lon":"121.27295","lat":"31.23537","category":"162","category_name":"医院","address":"纪翟路1688号"},{"poiid":"B2094654D56AA4FA439A","title":"冰火鸟(纪中路)","lon":"121.27119","lat":"31.24003","category":"247","category_name":"餐饮美食","address":""},{"poiid":"B2094655D36CA0FB4292","title":"纪翟路纪信路","lon":"121.27052","lat":"31.24059","category":"38","category_name":"公交车站","address":""},{"poiid":"B2094757D16BA1FB479B","title":"my house","lon":"121.27489256","lat":"31.234863745","category":"500","category_name":"未知分类","address":"上海市"},{"poiid":"B2094654D56AABF44199","title":"春聚圆","lon":"121.27988","lat":"31.23461","category":"257","category_name":"中餐厅","address":""},{"poiid":"B2094654D56AA5FB4893","title":"祥宾一村","lon":"121.27088","lat":"31.239122","category":"47","category_name":"住宅区","address":"上海市闵行区联友路"},{"poiid":"B2094655D36CA5FB4793","title":"博园路金沙江西路","lon":"121.2905","lat":"31.24325","category":"38","category_name":"公交车站","address":""},{"poiid":"B2094654D56AABF4429A","title":"良友便利NO.68","lon":"121.2765","lat":"31.2343","category":"117","category_name":"便民商店/便利店","address":""},{"poiid":"B2094654D56AA5F4409D","title":"华漕贝尼商场","lon":"121.27321","lat":"31.23572","category":"119","category_name":"商场","address":"纪翟路"},{"poiid":"B2094654D56AA4FA489D","title":"特色骨汁汤包","lon":"121.27194","lat":"31.23792","category":"257","category_name":"中餐厅","address":""},{"poiid":"B2094757D06BA6FD4299","title":"公交74路","lon":"121.274673462","lat":"31.2332801819","category":"38","category_name":"公交车站","address":"上海延安西路凯旋路—纪王"},{"poiid":"B2094654D56AA6F8489D","title":"教室公寓","lon":"121.27091","lat":"31.240818","category":"47","category_name":"住宅区","address":"纪翟公路1808号"},{"poiid":"B2094654D56AA5FB4899","title":"海天角酒家","lon":"121.27083","lat":"31.2397","category":"70","category_name":"综合酒楼","address":"纪翟路"},{"poiid":"B2094654D56AA6F8499B","title":"祥宾新村","lon":"121.27","lat":"31.24202","category":"47","category_name":"住宅区","address":"纪翟路1800弄"},{"poiid":"B2094654D56AA6F9409A","title":"上海农村商业银行纪王支行","lon":"121.27249","lat":"31.24252","category":"150","category_name":"银行","address":"纪王镇"},{"poiid":"B2094654D56AA4F94898","title":"富岛休闲中心","lon":"121.27275","lat":"31.23932","category":"248","category_name":"生活娱乐","address":""},{"poiid":"B2094757D065A0F54598","title":"诸瞿大润发","lon":"121.27836336","lat":"31.23083496","category":"500","category_name":"未知分类","address":"上海闵行区诸瞿保乐路"},{"poiid":"B2094654D56AA5F4419A","title":"纪丰苑","lon":"121.27439","lat":"31.233076","category":"47","category_name":"住宅区","address":"纪翟路1558弄"},{"poiid":"B2094757D16FA6F9429A","title":"纪王寺","lon":"121.26894256","lat":"31.243048918","category":"500","category_name":"未知分类","address":"上海市闵行区纪鹤路"},{"poiid":"B2094757D065A6FB479A","title":"lili'家","lon":"121.27474056","lat":"31.235165752","category":"500","category_name":"未知分类","address":"上海lili'家"},{"poiid":"B2094654D56AA4F9489F","title":"纪王中心幼儿园","lon":"121.26799","lat":"31.23723","category":"57","category_name":"幼儿园","address":"闵行区纪高路688号"},{"poiid":"B2094752D069A2FD459D","title":"上海虹桥机场","lon":"121.290588","lat":"31.242896","category":"500","category_name":"未知分类","address":null},{"poiid":"B2094757D168A4F8489B","title":"华漕镇红卫村","lon":"121.28562027","lat":"31.233325213","category":"500","category_name":"未知分类","address":"上海闵行区红卫路"},{"poiid":"B2094655D26FA5FA449F","title":"纪王派出所","lon":"121.27519","lat":"31.23314","category":"609","category_name":"警察局","address":"纪翟路1555号"},{"poiid":"B2094655D36CA0FB4299","title":"纪高路","lon":"121.26702","lat":"31.23665","category":"38","category_name":"公交车站","address":""}]