[{"poiid":"B2094655D36CA2F44598","title":"上海火车站","lon":"121.455531","lat":"31.249498","category":"22","category_name":"火车站","address":"上海市闸北区秣陵路303号"},{"poiid":"B2094655D36CA2F44592","title":"上海火车站北广场","lon":"121.45576","lat":"31.25164","category":"38","category_name":"公交车站","address":"上海市闸北区大统路"},{"poiid":"B2094654D464A3F5489B","title":"上海长途汽车客运总站","lon":"121.45463","lat":"31.2528","category":"35","category_name":"长途汽车站","address":"闸北区中兴路1662号(近孔家木桥路)"},{"poiid":"B209475CD564A7F8439E","title":"上海滩中信泰富店","lon":"121.45602","lat":"31.22851","category":"119","category_name":"商场","address":"\"南京西路1168号中信泰富广场，店铺号221.\r\n\""},{"poiid":"B2094757D068A7FB4698","title":"上海火车站4-5号站台","lon":"121.45375295","lat":"31.2499646774","category":"22","category_name":"火车站","address":"上海市火车站"},{"poiid":"B2094757D06EAAFB499C","title":"上海火车站地铁站","lon":"121.45871681","lat":"31.249312371","category":"36","category_name":"地铁站","address":"上海轨道交通 一号线 三号线 四号线 轨交上海火车站站 轻轨 1 3 4"},{"poiid":"B2094654D564AAF44098","title":"上海站南广场","lon":"121.45486","lat":"31.2481","category":"22","category_name":"火车站","address":"闸北区秣陵路303号"},{"poiid":"B2094757D06FA3FB449F","title":"上海火车站 八号候车室","lon":"121.45572662","lat":"31.247543335","category":"22","category_name":"火车站","address":"上海火车站"},{"poiid":"B2094757D06BA2F5479B","title":"上海火车站九号候车室","lon":"121.4559591","lat":"31.249183978","category":"22","category_name":"火车站","address":"上海市闸北区恒丰路"},{"poiid":"B2094757D06FA2F8489A","title":"麦当劳(火车站北广场店)","lon":"121.455468","lat":"31.251107","category":"68","category_name":"快餐厅","address":"闸北区中兴路1646号(近大统路)"},{"poiid":"B2094757D068A2FD4098","title":"长安大厦","lon":"121.458","lat":"31.2508","category":"46","category_name":"楼宇","address":"闸北区长安路1001号"},{"poiid":"B2094757D06FABFF4493","title":"上海北方智选假日酒店 Holiday Inn Express","lon":"121.452994","lat":"31.252272","category":"217","category_name":"旅馆招待所","address":"上海市闸北区中兴路1738号(近恒丰路)"},{"poiid":"B2094757D06EAAFB449B","title":"上海火车站七号候车室","lon":"121.455726624","lat":"31.247543335","category":"260","category_name":"其他","address":"上海火车站"},{"poiid":"B2094654D464A3F54693","title":"上海站北广场","lon":"121.45623","lat":"31.25081","category":"22","category_name":"火车站","address":"闸北区天目西路"},{"poiid":"B2094757D068A2F54292","title":"上海火车站普通候车室","lon":"121.4571","lat":"31.2505","category":"260","category_name":"其他","address":"闸北区上海火车站  "},{"poiid":"B2094757D06FA5FD4098","title":"锦程大厦","lon":"121.458","lat":"31.2526","category":"46","category_name":"楼宇","address":"上海天目西路511号"},{"poiid":"B2094654D464A3F5469E","title":"中祥戴斯大酒店","lon":"121.45731","lat":"31.2522","category":"214","category_name":"四星级宾馆","address":"上海市闸北区中兴路1558号(上海火车站地区,近大统路)"},{"poiid":"B2094757D068A3FB469C","title":"上海国际眼镜城","lon":"121.45453","lat":"31.25213","category":"132","category_name":"眼镜店","address":"闸北区中兴路1688号火车站北广场长途客运总站1-4楼(近恒丰路桥)"},{"poiid":"B2094757D065AAF5469D","title":"三号线宝山路站","lon":"121.458655103","lat":"31.2522050416","category":"500","category_name":"未知分类","address":"上海宝山路"},{"poiid":"B2094757D06AA1F4479D","title":"机电大厦","lon":"121.45911553","lat":"31.253063178475","category":"46","category_name":"楼宇","address":"上海普陀区宁夏路251号"},{"poiid":"B2094757D068A1F5439F","title":"上海火车站世博钟楼","lon":"121.45478719","lat":"31.248411829","category":"46","category_name":"楼宇","address":"闸北区上海火车站南广场"},{"poiid":"B2094654DB65A0FB449B","title":"城隍庙小吃世界 大统路店","lon":"121.459541054","lat":"31.253871793","category":"68","category_name":"快餐厅","address":"闸北区中华新路723号(近大统路)"},{"poiid":"B2094757D16FABFB449E","title":"麦当劳中海万锦城","lon":"121.458612103","lat":"31.2515120272","category":"68","category_name":"快餐厅","address":"闸北区大统路679-695号(近中海万锦城)"},{"poiid":"B2094655D26AA0F9409C","title":"地铁上海火车站站","lon":"121.45874","lat":"31.24933","category":"36","category_name":"地铁站","address":""},{"poiid":"B2094757D06FAAFE4298","title":"越秀苑","lon":"121.4585","lat":"31.254604","category":"500","category_name":"未知分类","address":"上海市闸北区大统路938弄"},{"poiid":"B2094750D76CA4F8459F","title":"东方既白(火车站北广场店)","lon":"121.456","lat":"31.2524","category":"68","category_name":"快餐厅","address":"闸北区中兴路1600号火车站北广场入口西侧"},{"poiid":"B2094757D16FA6FF419A","title":"老娘舅（上海长途汽车总站店)","lon":"121.4566547","lat":"31.252325944","category":"68","category_name":"快餐厅","address":"闸北区中兴路1642号(近汽车总站出口处)"},{"poiid":"B2094757D06FA4FA4892","title":"环龙照相器材城","lon":"121.45618569","lat":"31.247277804","category":"138","category_name":"家电电子卖场","address":"闸北区梅园路360号环龙商厦内(近秣陵路)"},{"poiid":"B209475CDA6CA3FE449A","title":"人民广场","lon":"121.458274","lat":"31.252695","category":"500","category_name":"未知分类","address":"上海市 人民大道"},{"poiid":"B2094655D26AA0FB419C","title":"中祥戴斯大酒店中餐厅","lon":"121.45742","lat":"31.25232","category":"76","category_name":"上海菜","address":"闸北区中兴路1558号中祥戴斯大酒店2楼(近大统路)"},{"poiid":"B2094757D465A0F4459F","title":"回味鸭血粉丝汤 火车站店","lon":"121.45567","lat":"31.24861","category":"68","category_name":"快餐厅","address":"闸北区秣陵路198号环龙商场附近(近新客站南广场)"},{"poiid":"B2094750DA6BA4F84298","title":"火车站","lon":"121.454513","lat":"31.247982","category":"500","category_name":"未知分类","address":null},{"poiid":"B2094757D064A5FE409B","title":"上海火车站十号候车室","lon":"121.45545165","lat":"31.248189457","category":"22","category_name":"火车站","address":"上海火车站新客站"},{"poiid":"B2094757D164A5F9409C","title":"上海火车站贵宾休息室","lon":"121.4548221","lat":"31.248471963","category":"22","category_name":"火车站","address":"上海市闸北区恒丰路"},{"poiid":"B2094757D469A7FC4592","title":"波力牧场 大柏树店 PO-LI DAIRY FARM","lon":"121.45711","lat":"31.25029","category":"112","category_name":"糕饼店","address":"虹口区地铁三号线大柏树站内(交通路沈家宅路)"},{"poiid":"B209475CD76EA2FB4698","title":"小杨生煎","lon":"121.456199","lat":"31.251346","category":"247","category_name":"餐饮美食","address":"上海市 上海火车站"},{"poiid":"B2094750D46BA0FC499F","title":"江桥万达","lon":"121.45816","lat":"31.249639","category":"500","category_name":"未知分类","address":null},{"poiid":"B2094750DA6DA3FF469B","title":"肯德基芷江西路店","lon":"121.456878","lat":"31.252511","category":"247","category_name":"餐饮美食","address":"闸北区芷江西路488号五月花生活广场1楼(近大统路10月开张)"},{"poiid":"B2094654D464A3F54792","title":"大娘水饺美食城","lon":"121.4553","lat":"31.25198","category":"68","category_name":"快餐厅","address":"闸北区中兴路1638号"},{"poiid":"B2094655D264A4F54899","title":"恒基不夜城","lon":"121.457","lat":"31.2521","category":"252","category_name":"楼宇机构","address":"丰台学城海鹰路1号,3号"},{"poiid":"B2094752D46AA2FE499A","title":"国旅集团上海有限公司","lon":"121.458079","lat":"31.250827","category":"263","category_name":"公司","address":"上海市闸北区长安路1001号1号楼24层台湾部"},{"poiid":"B2094757D064A4F54393","title":"康师傅面馆","lon":"121.45863","lat":"31.25163","category":"68","category_name":"快餐厅","address":"闸北区秣陵路303号火车站北广场候车厅(近长途汽车站)"},{"poiid":"B209475CD668A2F5479A","title":"上海站","lon":"121.45713","lat":"31.252267","category":"500","category_name":"未知分类","address":"上海市 上海站"},{"poiid":"B2094655D36CA5FC409A","title":"大统路","lon":"121.45792","lat":"31.25336","category":"38","category_name":"公交车站","address":""},{"poiid":"B2094752D168A0F9449E","title":"上海外滩","lon":"121.456439","lat":"31.252229","category":"247","category_name":"餐饮美食","address":null},{"poiid":"B2094750D769A3FF429C","title":"鲜汤骨头砂锅","lon":"121.459","lat":"31.2548","category":"86","category_name":"火锅店","address":"闸北区大统路956号(近大统路地道)"},{"poiid":"B209475DD569A0FF479E","title":"上海市南京路步行街","lon":"121.456871","lat":"31.252502","category":"627","category_name":"一般地点标志","address":"上海市 上海"},{"poiid":"B2094757D068A1F54498","title":"麦当劳(梅园路店)","lon":"121.456129","lat":"31.247289","category":"68","category_name":"快餐厅","address":"闸北区秣陵路182号(梅园路口)"},{"poiid":"B2094757DB6DA6F54692","title":"汉庭快捷酒店（上海火车站店）","lon":"121.4579585","lat":"31.2479452","category":"216","category_name":"经济型连锁酒店","address":"上海市秣陵路83号(近梅园路)"},{"poiid":"B2094757D065A0FD499F","title":"南苏州河路","lon":"121.455719","lat":"31.250082","category":"500","category_name":"未知分类","address":"上海苏州路"},{"poiid":"B2094655D36CA2F44598","title":"上海火车站","lon":"121.455531","lat":"31.249498","category":"22","category_name":"火车站","address":"上海市闸北区秣陵路303号"},{"poiid":"B2094655D36CA2F44592","title":"上海火车站北广场","lon":"121.45576","lat":"31.25164","category":"38","category_name":"公交车站","address":"上海市闸北区大统路"},{"poiid":"B2094654D464A3F5489B","title":"上海长途汽车客运总站","lon":"121.45463","lat":"31.2528","category":"35","category_name":"长途汽车站","address":"闸北区中兴路1662号(近孔家木桥路)"},{"poiid":"B209475CD564A7F8439E","title":"上海滩中信泰富店","lon":"121.45602","lat":"31.22851","category":"119","category_name":"商场","address":"\"南京西路1168号中信泰富广场，店铺号221.\r\n\""},{"poiid":"B2094757D068A7FB4698","title":"上海火车站4-5号站台","lon":"121.45375295","lat":"31.2499646774","category":"22","category_name":"火车站","address":"上海市火车站"},{"poiid":"B2094757D06EAAFB499C","title":"上海火车站地铁站","lon":"121.45871681","lat":"31.249312371","category":"36","category_name":"地铁站","address":"上海轨道交通 一号线 三号线 四号线 轨交上海火车站站 轻轨 1 3 4"},{"poiid":"B2094654D564AAF44098","title":"上海站南广场","lon":"121.45486","lat":"31.2481","category":"22","category_name":"火车站","address":"闸北区秣陵路303号"},{"poiid":"B2094757D06FA3FB449F","title":"上海火车站 八号候车室","lon":"121.45572662","lat":"31.247543335","category":"22","category_name":"火车站","address":"上海火车站"},{"poiid":"B2094757D06BA2F5479B","title":"上海火车站九号候车室","lon":"121.4559591","lat":"31.249183978","category":"22","category_name":"火车站","address":"上海市闸北区恒丰路"},{"poiid":"B2094757D06FA2F8489A","title":"麦当劳(火车站北广场店)","lon":"121.455468","lat":"31.251107","category":"68","category_name":"快餐厅","address":"闸北区中兴路1646号(近大统路)"},{"poiid":"B2094757D068A2FD4098","title":"长安大厦","lon":"121.458","lat":"31.2508","category":"46","category_name":"楼宇","address":"闸北区长安路1001号"},{"poiid":"B2094757D06FABFF4493","title":"上海北方智选假日酒店 Holiday Inn Express","lon":"121.452994","lat":"31.252272","category":"217","category_name":"旅馆招待所","address":"上海市闸北区中兴路1738号(近恒丰路)"},{"poiid":"B2094757D06EAAFB449B","title":"上海火车站七号候车室","lon":"121.455726624","lat":"31.247543335","category":"260","category_name":"其他","address":"上海火车站"},{"poiid":"B2094654D464A3F54693","title":"上海站北广场","lon":"121.45623","lat":"31.25081","category":"22","category_name":"火车站","address":"闸北区天目西路"},{"poiid":"B2094757D068A2F54292","title":"上海火车站普通候车室","lon":"121.4571","lat":"31.2505","category":"260","category_name":"其他","address":"闸北区上海火车站  "},{"poiid":"B2094757D06FA5FD4098","title":"锦程大厦","lon":"121.458","lat":"31.2526","category":"46","category_name":"楼宇","address":"上海天目西路511号"},{"poiid":"B2094654D464A3F5469E","title":"中祥戴斯大酒店","lon":"121.45731","lat":"31.2522","category":"214","category_name":"四星级宾馆","address":"上海市闸北区中兴路1558号(上海火车站地区,近大统路)"},{"poiid":"B2094757D068A3FB469C","title":"上海国际眼镜城","lon":"121.45453","lat":"31.25213","category":"132","category_name":"眼镜店","address":"闸北区中兴路1688号火车站北广场长途客运总站1-4楼(近恒丰路桥)"},{"poiid":"B2094757D065AAF5469D","title":"三号线宝山路站","lon":"121.458655103","lat":"31.2522050416","category":"500","category_name":"未知分类","address":"上海宝山路"},{"poiid":"B2094757D06AA1F4479D","title":"机电大厦","lon":"121.45911553","lat":"31.253063178475","category":"46","category_name":"楼宇","address":"上海普陀区宁夏路251号"},{"poiid":"B2094757D068A1F5439F","title":"上海火车站世博钟楼","lon":"121.45478719","lat":"31.248411829","category":"46","category_name":"楼宇","address":"闸北区上海火车站南广场"},{"poiid":"B2094654DB65A0FB449B","title":"城隍庙小吃世界 大统路店","lon":"121.459541054","lat":"31.253871793","category":"68","category_name":"快餐厅","address":"闸北区中华新路723号(近大统路)"},{"poiid":"B2094757D16FABFB449E","title":"麦当劳中海万锦城","lon":"121.458612103","lat":"31.2515120272","category":"68","category_name":"快餐厅","address":"闸北区大统路679-695号(近中海万锦城)"},{"poiid":"B2094655D26AA0F9409C","title":"地铁上海火车站站","lon":"121.45874","lat":"31.24933","category":"36","category_name":"地铁站","address":""},{"poiid":"B2094757D06FAAFE4298","title":"越秀苑","lon":"121.4585","lat":"31.254604","category":"500","category_name":"未知分类","address":"上海市闸北区大统路938弄"},{"poiid":"B2094750D76CA4F8459F","title":"东方既白(火车站北广场店)","lon":"121.456","lat":"31.2524","category":"68","category_name":"快餐厅","address":"闸北区中兴路1600号火车站北广场入口西侧"},{"poiid":"B2094757D16FA6FF419A","title":"老娘舅（上海长途汽车总站店)","lon":"121.4566547","lat":"31.252325944","category":"68","category_name":"快餐厅","address":"闸北区中兴路1642号(近汽车总站出口处)"},{"poiid":"B2094757D06FA4FA4892","title":"环龙照相器材城","lon":"121.45618569","lat":"31.247277804","category":"138","category_name":"家电电子卖场","address":"闸北区梅园路360号环龙商厦内(近秣陵路)"},{"poiid":"B209475CDA6CA3FE449A","title":"人民广场","lon":"121.458274","lat":"31.252695","category":"500","category_name":"未知分类","address":"上海市 人民大道"},{"poiid":"B2094655D26AA0FB419C","title":"中祥戴斯大酒店中餐厅","lon":"121.45742","lat":"31.25232","category":"76","category_name":"上海菜","address":"闸北区中兴路1558号中祥戴斯大酒店2楼(近大统路)"},{"poiid":"B2094757D465A0F4459F","title":"回味鸭血粉丝汤 火车站店","lon":"121.45567","lat":"31.24861","category":"68","category_name":"快餐厅","address":"闸北区秣陵路198号环龙商场附近(近新客站南广场)"},{"poiid":"B2094750DA6BA4F84298","title":"火车站","lon":"121.454513","lat":"31.247982","category":"500","category_name":"未知分类","address":null},{"poiid":"B2094757D064A5FE409B","title":"上海火车站十号候车室","lon":"121.45545165","lat":"31.248189457","category":"22","category_name":"火车站","address":"上海火车站新客站"},{"poiid":"B2094757D164A5F9409C","title":"上海火车站贵宾休息室","lon":"121.4548221","lat":"31.248471963","category":"22","category_name":"火车站","address":"上海市闸北区恒丰路"},{"poiid":"B2094757D469A7FC4592","title":"波力牧场 大柏树店 PO-LI DAIRY FARM","lon":"121.45711","lat":"31.25029","category":"112","category_name":"糕饼店","address":"虹口区地铁三号线大柏树站内(交通路沈家宅路)"},{"poiid":"B209475CD76EA2FB4698","title":"小杨生煎","lon":"121.456199","lat":"31.251346","category":"247","category_name":"餐饮美食","address":"上海市 上海火车站"},{"poiid":"B2094750D46BA0FC499F","title":"江桥万达","lon":"121.45816","lat":"31.249639","category":"500","category_name":"未知分类","address":null},{"poiid":"B2094750DA6DA3FF469B","title":"肯德基芷江西路店","lon":"121.456878","lat":"31.252511","category":"247","category_name":"餐饮美食","address":"闸北区芷江西路488号五月花生活广场1楼(近大统路10月开张)"},{"poiid":"B2094654D464A3F54792","title":"大娘水饺美食城","lon":"121.4553","lat":"31.25198","category":"68","category_name":"快餐厅","address":"闸北区中兴路1638号"},{"poiid":"B2094655D264A4F54899","title":"恒基不夜城","lon":"121.457","lat":"31.2521","category":"252","category_name":"楼宇机构","address":"丰台学城海鹰路1号,3号"},{"poiid":"B2094752D46AA2FE499A","title":"国旅集团上海有限公司","lon":"121.458079","lat":"31.250827","category":"263","category_name":"公司","address":"上海市闸北区长安路1001号1号楼24层台湾部"},{"poiid":"B2094757D064A4F54393","title":"康师傅面馆","lon":"121.45863","lat":"31.25163","category":"68","category_name":"快餐厅","address":"闸北区秣陵路303号火车站北广场候车厅(近长途汽车站)"},{"poiid":"B209475CD668A2F5479A","title":"上海站","lon":"121.45713","lat":"31.252267","category":"500","category_name":"未知分类","address":"上海市 上海站"},{"poiid":"B2094655D36CA5FC409A","title":"大统路","lon":"121.45792","lat":"31.25336","category":"38","category_name":"公交车站","address":""},{"poiid":"B2094752D168A0F9449E","title":"上海外滩","lon":"121.456439","lat":"31.252229","category":"247","category_name":"餐饮美食","address":null},{"poiid":"B2094750D769A3FF429C","title":"鲜汤骨头砂锅","lon":"121.459","lat":"31.2548","category":"86","category_name":"火锅店","address":"闸北区大统路956号(近大统路地道)"},{"poiid":"B209475DD569A0FF479E","title":"上海市南京路步行街","lon":"121.456871","lat":"31.252502","category":"627","category_name":"一般地点标志","address":"上海市 上海"},{"poiid":"B2094757D068A1F54498","title":"麦当劳(梅园路店)","lon":"121.456129","lat":"31.247289","category":"68","category_name":"快餐厅","address":"闸北区秣陵路182号(梅园路口)"},{"poiid":"B2094757DB6DA6F54692","title":"汉庭快捷酒店（上海火车站店）","lon":"121.4579585","lat":"31.2479452","category":"216","category_name":"经济型连锁酒店","address":"上海市秣陵路83号(近梅园路)"},{"poiid":"B2094757D065A0FD499F","title":"南苏州河路","lon":"121.455719","lat":"31.250082","category":"500","category_name":"未知分类","address":"上海苏州路"},{"poiid":"B2094655D36CA2F44598","title":"上海火车站","lon":"121.455531","lat":"31.249498","category":"22","category_name":"火车站","address":"上海市闸北区秣陵路303号"},{"poiid":"B2094655D36CA2F44592","title":"上海火车站北广场","lon":"121.45576","lat":"31.25164","category":"38","category_name":"公交车站","address":"上海市闸北区大统路"},{"poiid":"B2094654D464A3F5489B","title":"上海长途汽车客运总站","lon":"121.45463","lat":"31.2528","category":"35","category_name":"长途汽车站","address":"闸北区中兴路1662号(近孔家木桥路)"},{"poiid":"B209475CD564A7F8439E","title":"上海滩中信泰富店","lon":"121.45602","lat":"31.22851","category":"119","category_name":"商场","address":"\"南京西路1168号中信泰富广场，店铺号221.\r\n\""},{"poiid":"B2094757D068A7FB4698","title":"上海火车站4-5号站台","lon":"121.45375295","lat":"31.2499646774","category":"22","category_name":"火车站","address":"上海市火车站"},{"poiid":"B2094757D06EAAFB499C","title":"上海火车站地铁站","lon":"121.45871681","lat":"31.249312371","category":"36","category_name":"地铁站","address":"上海轨道交通 一号线 三号线 四号线 轨交上海火车站站 轻轨 1 3 4"},{"poiid":"B2094654D564AAF44098","title":"上海站南广场","lon":"121.45486","lat":"31.2481","category":"22","category_name":"火车站","address":"闸北区秣陵路303号"},{"poiid":"B2094757D06FA3FB449F","title":"上海火车站 八号候车室","lon":"121.45572662","lat":"31.247543335","category":"22","category_name":"火车站","address":"上海火车站"},{"poiid":"B2094757D06BA2F5479B","title":"上海火车站九号候车室","lon":"121.4559591","lat":"31.249183978","category":"22","category_name":"火车站","address":"上海市闸北区恒丰路"},{"poiid":"B2094757D06FA2F8489A","title":"麦当劳(火车站北广场店)","lon":"121.455468","lat":"31.251107","category":"68","category_name":"快餐厅","address":"闸北区中兴路1646号(近大统路)"},{"poiid":"B2094757D068A2FD4098","title":"长安大厦","lon":"121.458","lat":"31.2508","category":"46","category_name":"楼宇","address":"闸北区长安路1001号"},{"poiid":"B2094757D06FABFF4493","title":"上海北方智选假日酒店 Holiday Inn Express","lon":"121.452994","lat":"31.252272","category":"217","category_name":"旅馆招待所","address":"上海市闸北区中兴路1738号(近恒丰路)"},{"poiid":"B2094757D06EAAFB449B","title":"上海火车站七号候车室","lon":"121.455726624","lat":"31.247543335","category":"260","category_name":"其他","address":"上海火车站"},{"poiid":"B2094654D464A3F54693","title":"上海站北广场","lon":"121.45623","lat":"31.25081","category":"22","category_name":"火车站","address":"闸北区天目西路"},{"poiid":"B2094757D068A2F54292","title":"上海火车站普通候车室","lon":"121.4571","lat":"31.2505","category":"260","category_name":"其他","address":"闸北区上海火车站  "},{"poiid":"B2094757D06FA5FD4098","title":"锦程大厦","lon":"121.458","lat":"31.2526","category":"46","category_name":"楼宇","address":"上海天目西路511号"},{"poiid":"B2094654D464A3F5469E","title":"中祥戴斯大酒店","lon":"121.45731","lat":"31.2522","category":"214","category_name":"四星级宾馆","address":"上海市闸北区中兴路1558号(上海火车站地区,近大统路)"},{"poiid":"B2094757D068A3FB469C","title":"上海国际眼镜城","lon":"121.45453","lat":"31.25213","category":"132","category_name":"眼镜店","address":"闸北区中兴路1688号火车站北广场长途客运总站1-4楼(近恒丰路桥)"},{"poiid":"B2094757D065AAF5469D","title":"三号线宝山路站","lon":"121.458655103","lat":"31.2522050416","category":"500","category_name":"未知分类","address":"上海宝山路"},{"poiid":"B2094757D06AA1F4479D","title":"机电大厦","lon":"121.45911553","lat":"31.253063178475","category":"46","category_name":"楼宇","address":"上海普陀区宁夏路251号"},{"poiid":"B2094757D068A1F5439F","title":"上海火车站世博钟楼","lon":"121.45478719","lat":"31.248411829","category":"46","category_name":"楼宇","address":"闸北区上海火车站南广场"},{"poiid":"B2094654DB65A0FB449B","title":"城隍庙小吃世界 大统路店","lon":"121.459541054","lat":"31.253871793","category":"68","category_name":"快餐厅","address":"闸北区中华新路723号(近大统路)"},{"poiid":"B2094757D16FABFB449E","title":"麦当劳中海万锦城","lon":"121.458612103","lat":"31.2515120272","category":"68","category_name":"快餐厅","address":"闸北区大统路679-695号(近中海万锦城)"},{"poiid":"B2094655D26AA0F9409C","title":"地铁上海火车站站","lon":"121.45874","lat":"31.24933","category":"36","category_name":"地铁站","address":""},{"poiid":"B2094757D06FAAFE4298","title":"越秀苑","lon":"121.4585","lat":"31.254604","category":"500","category_name":"未知分类","address":"上海市闸北区大统路938弄"},{"poiid":"B2094750D76CA4F8459F","title":"东方既白(火车站北广场店)","lon":"121.456","lat":"31.2524","category":"68","category_name":"快餐厅","address":"闸北区中兴路1600号火车站北广场入口西侧"},{"poiid":"B2094757D16FA6FF419A","title":"老娘舅（上海长途汽车总站店)","lon":"121.4566547","lat":"31.252325944","category":"68","category_name":"快餐厅","address":"闸北区中兴路1642号(近汽车总站出口处)"},{"poiid":"B2094757D06FA4FA4892","title":"环龙照相器材城","lon":"121.45618569","lat":"31.247277804","category":"138","category_name":"家电电子卖场","address":"闸北区梅园路360号环龙商厦内(近秣陵路)"},{"poiid":"B209475CDA6CA3FE449A","title":"人民广场","lon":"121.458274","lat":"31.252695","category":"500","category_name":"未知分类","address":"上海市 人民大道"},{"poiid":"B2094655D26AA0FB419C","title":"中祥戴斯大酒店中餐厅","lon":"121.45742","lat":"31.25232","category":"76","category_name":"上海菜","address":"闸北区中兴路1558号中祥戴斯大酒店2楼(近大统路)"},{"poiid":"B2094757D465A0F4459F","title":"回味鸭血粉丝汤 火车站店","lon":"121.45567","lat":"31.24861","category":"68","category_name":"快餐厅","address":"闸北区秣陵路198号环龙商场附近(近新客站南广场)"},{"poiid":"B2094750DA6BA4F84298","title":"火车站","lon":"121.454513","lat":"31.247982","category":"500","category_name":"未知分类","address":null},{"poiid":"B2094757D064A5FE409B","title":"上海火车站十号候车室","lon":"121.45545165","lat":"31.248189457","category":"22","category_name":"火车站","address":"上海火车站新客站"},{"poiid":"B2094757D164A5F9409C","title":"上海火车站贵宾休息室","lon":"121.4548221","lat":"31.248471963","category":"22","category_name":"火车站","address":"上海市闸北区恒丰路"},{"poiid":"B2094757D469A7FC4592","title":"波力牧场 大柏树店 PO-LI DAIRY FARM","lon":"121.45711","lat":"31.25029","category":"112","category_name":"糕饼店","address":"虹口区地铁三号线大柏树站内(交通路沈家宅路)"},{"poiid":"B209475CD76EA2FB4698","title":"小杨生煎","lon":"121.456199","lat":"31.251346","category":"247","category_name":"餐饮美食","address":"上海市 上海火车站"},{"poiid":"B2094750D46BA0FC499F","title":"江桥万达","lon":"121.45816","lat":"31.249639","category":"500","category_name":"未知分类","address":null},{"poiid":"B2094750DA6DA3FF469B","title":"肯德基芷江西路店","lon":"121.456878","lat":"31.252511","category":"247","category_name":"餐饮美食","address":"闸北区芷江西路488号五月花生活广场1楼(近大统路10月开张)"},{"poiid":"B2094654D464A3F54792","title":"大娘水饺美食城","lon":"121.4553","lat":"31.25198","category":"68","category_name":"快餐厅","address":"闸北区中兴路1638号"},{"poiid":"B2094655D264A4F54899","title":"恒基不夜城","lon":"121.457","lat":"31.2521","category":"252","category_name":"楼宇机构","address":"丰台学城海鹰路1号,3号"},{"poiid":"B2094752D46AA2FE499A","title":"国旅集团上海有限公司","lon":"121.458079","lat":"31.250827","category":"263","category_name":"公司","address":"上海市闸北区长安路1001号1号楼24层台湾部"},{"poiid":"B2094757D064A4F54393","title":"康师傅面馆","lon":"121.45863","lat":"31.25163","category":"68","category_name":"快餐厅","address":"闸北区秣陵路303号火车站北广场候车厅(近长途汽车站)"},{"poiid":"B209475CD668A2F5479A","title":"上海站","lon":"121.45713","lat":"31.252267","category":"500","category_name":"未知分类","address":"上海市 上海站"},{"poiid":"B2094655D36CA5FC409A","title":"大统路","lon":"121.45792","lat":"31.25336","category":"38","category_name":"公交车站","address":""},{"poiid":"B2094752D168A0F9449E","title":"上海外滩","lon":"121.456439","lat":"31.252229","category":"247","category_name":"餐饮美食","address":null},{"poiid":"B2094750D769A3FF429C","title":"鲜汤骨头砂锅","lon":"121.459","lat":"31.2548","category":"86","category_name":"火锅店","address":"闸北区大统路956号(近大统路地道)"},{"poiid":"B209475DD569A0FF479E","title":"上海市南京路步行街","lon":"121.456871","lat":"31.252502","category":"627","category_name":"一般地点标志","address":"上海市 上海"},{"poiid":"B2094757D068A1F54498","title":"麦当劳(梅园路店)","lon":"121.456129","lat":"31.247289","category":"68","category_name":"快餐厅","address":"闸北区秣陵路182号(梅园路口)"},{"poiid":"B2094757DB6DA6F54692","title":"汉庭快捷酒店（上海火车站店）","lon":"121.4579585","lat":"31.2479452","category":"216","category_name":"经济型连锁酒店","address":"上海市秣陵路83号(近梅园路)"},{"poiid":"B2094757D065A0FD499F","title":"南苏州河路","lon":"121.455719","lat":"31.250082","category":"500","category_name":"未知分类","address":"上海苏州路"},{"poiid":"B2094655D36CA2F44598","title":"上海火车站","lon":"121.455531","lat":"31.249498","category":"22","category_name":"火车站","address":"上海市闸北区秣陵路303号"},{"poiid":"B2094655D36CA2F44592","title":"上海火车站北广场","lon":"121.45576","lat":"31.25164","category":"38","category_name":"公交车站","address":"上海市闸北区大统路"},{"poiid":"B2094654D464A3F5489B","title":"上海长途汽车客运总站","lon":"121.45463","lat":"31.2528","category":"35","category_name":"长途汽车站","address":"闸北区中兴路1662号(近孔家木桥路)"},{"poiid":"B209475CD564A7F8439E","title":"上海滩中信泰富店","lon":"121.45602","lat":"31.22851","category":"119","category_name":"商场","address":"\"南京西路1168号中信泰富广场，店铺号221.\r\n\""},{"poiid":"B2094757D068A7FB4698","title":"上海火车站4-5号站台","lon":"121.45375295","lat":"31.2499646774","category":"22","category_name":"火车站","address":"上海市火车站"},{"poiid":"B2094757D06EAAFB499C","title":"上海火车站地铁站","lon":"121.45871681","lat":"31.249312371","category":"36","category_name":"地铁站","address":"上海轨道交通 一号线 三号线 四号线 轨交上海火车站站 轻轨 1 3 4"},{"poiid":"B2094654D564AAF44098","title":"上海站南广场","lon":"121.45486","lat":"31.2481","category":"22","category_name":"火车站","address":"闸北区秣陵路303号"},{"poiid":"B2094757D06FA3FB449F","title":"上海火车站 八号候车室","lon":"121.45572662","lat":"31.247543335","category":"22","category_name":"火车站","address":"上海火车站"},{"poiid":"B2094757D06BA2F5479B","title":"上海火车站九号候车室","lon":"121.4559591","lat":"31.249183978","category":"22","category_name":"火车站","address":"上海市闸北区恒丰路"},{"poiid":"B2094757D06FA2F8489A","title":"麦当劳(火车站北广场店)","lon":"121.455468","lat":"31.251107","category":"68","category_name":"快餐厅","address":"闸北区中兴路1646号(近大统路)"},{"poiid":"B2094757D068A2FD4098","title":"长安大厦","lon":"121.458","lat":"31.2508","category":"46","category_name":"楼宇","address":"闸北区长安路1001号"},{"poiid":"B2094757D06FABFF4493","title":"上海北方智选假日酒店 Holiday Inn Express","lon":"121.452994","lat":"31.252272","category":"217","category_name":"旅馆招待所","address":"上海市闸北区中兴路1738号(近恒丰路)"},{"poiid":"B2094757D06EAAFB449B","title":"上海火车站七号候车室","lon":"121.455726624","lat":"31.247543335","category":"260","category_name":"其他","address":"上海火车站"},{"poiid":"B2094654D464A3F54693","title":"上海站北广场","lon":"121.45623","lat":"31.25081","category":"22","category_name":"火车站","address":"闸北区天目西路"},{"poiid":"B2094757D068A2F54292","title":"上海火车站普通候车室","lon":"121.4571","lat":"31.2505","category":"260","category_name":"其他","address":"闸北区上海火车站  "},{"poiid":"B2094757D06FA5FD4098","title":"锦程大厦","lon":"121.458","lat":"31.2526","category":"46","category_name":"楼宇","address":"上海天目西路511号"},{"poiid":"B2094654D464A3F5469E","title":"中祥戴斯大酒店","lon":"121.45731","lat":"31.2522","category":"214","category_name":"四星级宾馆","address":"上海市闸北区中兴路1558号(上海火车站地区,近大统路)"},{"poiid":"B2094757D068A3FB469C","title":"上海国际眼镜城","lon":"121.45453","lat":"31.25213","category":"132","category_name":"眼镜店","address":"闸北区中兴路1688号火车站北广场长途客运总站1-4楼(近恒丰路桥)"},{"poiid":"B2094757D065AAF5469D","title":"三号线宝山路站","lon":"121.458655103","lat":"31.2522050416","category":"500","category_name":"未知分类","address":"上海宝山路"},{"poiid":"B2094757D06AA1F4479D","title":"机电大厦","lon":"121.45911553","lat":"31.253063178475","category":"46","category_name":"楼宇","address":"上海普陀区宁夏路251号"},{"poiid":"B2094757D068A1F5439F","title":"上海火车站世博钟楼","lon":"121.45478719","lat":"31.248411829","category":"46","category_name":"楼宇","address":"闸北区上海火车站南广场"},{"poiid":"B2094654DB65A0FB449B","title":"城隍庙小吃世界 大统路店","lon":"121.459541054","lat":"31.253871793","category":"68","category_name":"快餐厅","address":"闸北区中华新路723号(近大统路)"},{"poiid":"B2094757D16FABFB449E","title":"麦当劳中海万锦城","lon":"121.458612103","lat":"31.2515120272","category":"68","category_name":"快餐厅","address":"闸北区大统路679-695号(近中海万锦城)"},{"poiid":"B2094655D26AA0F9409C","title":"地铁上海火车站站","lon":"121.45874","lat":"31.24933","category":"36","category_name":"地铁站","address":""},{"poiid":"B2094757D06FAAFE4298","title":"越秀苑","lon":"121.4585","lat":"31.254604","category":"500","category_name":"未知分类","address":"上海市闸北区大统路938弄"},{"poiid":"B2094750D76CA4F8459F","title":"东方既白(火车站北广场店)","lon":"121.456","lat":"31.2524","category":"68","category_name":"快餐厅","address":"闸北区中兴路1600号火车站北广场入口西侧"},{"poiid":"B2094757D16FA6FF419A","title":"老娘舅（上海长途汽车总站店)","lon":"121.4566547","lat":"31.252325944","category":"68","category_name":"快餐厅","address":"闸北区中兴路1642号(近汽车总站出口处)"},{"poiid":"B2094757D06FA4FA4892","title":"环龙照相器材城","lon":"121.45618569","lat":"31.247277804","category":"138","category_name":"家电电子卖场","address":"闸北区梅园路360号环龙商厦内(近秣陵路)"},{"poiid":"B209475CDA6CA3FE449A","title":"人民广场","lon":"121.458274","lat":"31.252695","category":"500","category_name":"未知分类","address":"上海市 人民大道"},{"poiid":"B2094655D26AA0FB419C","title":"中祥戴斯大酒店中餐厅","lon":"121.45742","lat":"31.25232","category":"76","category_name":"上海菜","address":"闸北区中兴路1558号中祥戴斯大酒店2楼(近大统路)"},{"poiid":"B2094757D465A0F4459F","title":"回味鸭血粉丝汤 火车站店","lon":"121.45567","lat":"31.24861","category":"68","category_name":"快餐厅","address":"闸北区秣陵路198号环龙商场附近(近新客站南广场)"},{"poiid":"B2094750DA6BA4F84298","title":"火车站","lon":"121.454513","lat":"31.247982","category":"500","category_name":"未知分类","address":null},{"poiid":"B2094757D064A5FE409B","title":"上海火车站十号候车室","lon":"121.45545165","lat":"31.248189457","category":"22","category_name":"火车站","address":"上海火车站新客站"},{"poiid":"B2094757D164A5F9409C","title":"上海火车站贵宾休息室","lon":"121.4548221","lat":"31.248471963","category":"22","category_name":"火车站","address":"上海市闸北区恒丰路"},{"poiid":"B2094757D469A7FC4592","title":"波力牧场 大柏树店 PO-LI DAIRY FARM","lon":"121.45711","lat":"31.25029","category":"112","category_name":"糕饼店","address":"虹口区地铁三号线大柏树站内(交通路沈家宅路)"},{"poiid":"B209475CD76EA2FB4698","title":"小杨生煎","lon":"121.456199","lat":"31.251346","category":"247","category_name":"餐饮美食","address":"上海市 上海火车站"},{"poiid":"B2094750D46BA0FC499F","title":"江桥万达","lon":"121.45816","lat":"31.249639","category":"500","category_name":"未知分类","address":null},{"poiid":"B2094750DA6DA3FF469B","title":"肯德基芷江西路店","lon":"121.456878","lat":"31.252511","category":"247","category_name":"餐饮美食","address":"闸北区芷江西路488号五月花生活广场1楼(近大统路10月开张)"},{"poiid":"B2094654D464A3F54792","title":"大娘水饺美食城","lon":"121.4553","lat":"31.25198","category":"68","category_name":"快餐厅","address":"闸北区中兴路1638号"},{"poiid":"B2094655D264A4F54899","title":"恒基不夜城","lon":"121.457","lat":"31.2521","category":"252","category_name":"楼宇机构","address":"丰台学城海鹰路1号,3号"},{"poiid":"B2094752D46AA2FE499A","title":"国旅集团上海有限公司","lon":"121.458079","lat":"31.250827","category":"263","category_name":"公司","address":"上海市闸北区长安路1001号1号楼24层台湾部"},{"poiid":"B2094757D064A4F54393","title":"康师傅面馆","lon":"121.45863","lat":"31.25163","category":"68","category_name":"快餐厅","address":"闸北区秣陵路303号火车站北广场候车厅(近长途汽车站)"},{"poiid":"B209475CD668A2F5479A","title":"上海站","lon":"121.45713","lat":"31.252267","category":"500","category_name":"未知分类","address":"上海市 上海站"},{"poiid":"B2094655D36CA5FC409A","title":"大统路","lon":"121.45792","lat":"31.25336","category":"38","category_name":"公交车站","address":""},{"poiid":"B2094752D168A0F9449E","title":"上海外滩","lon":"121.456439","lat":"31.252229","category":"247","category_name":"餐饮美食","address":null},{"poiid":"B2094750D769A3FF429C","title":"鲜汤骨头砂锅","lon":"121.459","lat":"31.2548","category":"86","category_name":"火锅店","address":"闸北区大统路956号(近大统路地道)"},{"poiid":"B209475DD569A0FF479E","title":"上海市南京路步行街","lon":"121.456871","lat":"31.252502","category":"627","category_name":"一般地点标志","address":"上海市 上海"},{"poiid":"B2094757D068A1F54498","title":"麦当劳(梅园路店)","lon":"121.456129","lat":"31.247289","category":"68","category_name":"快餐厅","address":"闸北区秣陵路182号(梅园路口)"},{"poiid":"B2094757DB6DA6F54692","title":"汉庭快捷酒店（上海火车站店）","lon":"121.4579585","lat":"31.2479452","category":"216","category_name":"经济型连锁酒店","address":"上海市秣陵路83号(近梅园路)"},{"poiid":"B2094757D065A0FD499F","title":"南苏州河路","lon":"121.455719","lat":"31.250082","category":"500","category_name":"未知分类","address":"上海苏州路"}]