[{"poiid":"B2094655D36CA5FD409A","title":"打浦桥","lon":"121.46726","lat":"31.20405","category":"38","category_name":"公交车站","address":""},{"poiid":"B2094757D06EABF54298","title":"泰迪之家 Ester's  Bear","lon":"121.468662054","lat":"31.207939793","category":"247","category_name":"餐饮美食","address":"卢湾区泰康路248弄田子坊23号(近瑞金二路)"},{"poiid":"B2094757D069AAF84692","title":"田子坊Panda bar","lon":"121.468042738","lat":"31.2082238313","category":"110","category_name":"其他亚洲菜","address":"卢湾区泰康路274-210弄(近瑞金二路)"},{"poiid":"B2094753D76FAAFA449C","title":"上海滩国泰旗舰店","lon":"121.466011","lat":"31.216125","category":"249","category_name":"购物服务","address":"淮海中路868号"},{"poiid":"B209475CD564A7F84292","title":"上海滩新天地店","lon":"121.47463","lat":"31.22164","category":"119","category_name":"商场","address":"\"太仓路181弄新天地北里15号\r\n\""},{"poiid":"B209475CD564A7F8439E","title":"上海滩中信泰富店","lon":"121.45602","lat":"31.22851","category":"119","category_name":"商场","address":"\"南京西路1168号中信泰富广场，店铺号221.\r\n\""},{"poiid":"B2094750D56EA4F8419D","title":"纯K(打浦桥店)","lon":"121.468788","lat":"31.206827","category":"170","category_name":"KTV","address":"上海市黄浦区瑞金二路泰康路口（日月光中心广场1楼）"},{"poiid":"B2094750D66CA6FE459E","title":"便所欢乐主题餐厅","lon":"121.468437","lat":"31.207887","category":"247","category_name":"餐饮美食","address":"卢湾区泰康路274弄田子坊5号(近谭木匠)"},{"poiid":"B2094750D56DA5FD469D","title":"日月光翠华茶餐厅","lon":"121.468162","lat":"31.207288","category":"247","category_name":"餐饮美食","address":null},{"poiid":"B2094757D06FA6F9439E","title":"泰康路田子坊","lon":"121.468519738","lat":"31.2081288292","category":"500","category_name":"未知分类","address":"上海市卢湾区绍兴路"},{"poiid":"B2094654DA6DA5FE4998","title":"288酒吧餐厅","lon":"121.46779","lat":"31.20752","category":"260","category_name":"其他","address":"卢湾区泰康路288号(瑞金二路思南路间)"},{"poiid":"B2094757D168A5FA449A","title":"天辣","lon":"121.46813273","lat":"31.207001805","category":"247","category_name":"餐饮美食","address":"上海日月光"},{"poiid":"B2094750DA6DA6FF4198","title":"台北纯k","lon":"121.469184","lat":"31.207139","category":"500","category_name":"未知分类","address":"卢湾区日月光"},{"poiid":"B2094757D06FA2FA449C","title":"藏珑泰极(田子坊店)","lon":"121.4681","lat":"31.20708","category":"99","category_name":"泰国／越南菜品餐厅","address":"卢湾区泰康路田子坊248弄14号(近瑞金二路)"},{"poiid":"B2094750DB6DA5F4419C","title":"台北纯k日月光店","lon":"121.468612","lat":"31.207105","category":"500","category_name":"未知分类","address":null},{"poiid":"B2094757D168A4FB409B","title":"莲池印度餐厅","lon":"121.468100738","lat":"31.2081448296","category":"102","category_name":"印度风味","address":"卢湾区泰康路274弄田子坊12号(近瑞金二路)"},{"poiid":"B2094757D164AAFC499A","title":"田子坊泰迪熊之家","lon":"121.468529738","lat":"31.2082148311","category":"500","category_name":"未知分类","address":null},{"poiid":"B2094757D06FA2FF4993","title":"公社 kommune","lon":"121.468662054","lat":"31.207939793","category":"65","category_name":"咖啡厅","address":"卢湾区泰康路210弄7号(近瑞金二路)"},{"poiid":"B2094757D06FA2FE419D","title":"Tai Thai 太泰","lon":"121.468485181","lat":"31.207996165","category":"110","category_name":"其他亚洲菜","address":"卢湾区泰康路248弄田子坊18号后门(近瑞金二路)"},{"poiid":"B2094751D564A2FD499B","title":"小辉哥火锅","lon":"121.468735","lat":"31.206894","category":"247","category_name":"餐饮美食","address":"卢湾区徐家汇路618号日月光中心广场1楼E-02室(近泰康路)"},{"poiid":"B2094757D06FA2FA499F","title":"大渔铁板烧 日月光中心店 TAIRYO","lon":"121.46778","lat":"31.20558","category":"268","category_name":"自助","address":"卢湾区徐家汇路618号日月光广场4楼(近瑞金二路)"},{"poiid":"B2094752D26AAAFB499B","title":"CAFE&BAR PRONTO","lon":"121.468735","lat":"31.206696","category":"247","category_name":"餐饮美食","address":"徐汇区徐家汇路618号日月光中心广场1楼露天广场E-01号铺"},{"poiid":"B2094757D06FA2FB439A","title":"GLISMATTEN瑞士火锅屋(田子坊店)","lon":"121.46867","lat":"31.20799","category":"94","category_name":"西餐厅","address":"卢湾区泰康路248弄田子坊9号(近瑞金二路)"},{"poiid":"B2094752D768A2FF4998","title":"冰火名家巫山烤全鱼","lon":"121.46824564025883","lat":"31.20683075670523","category":"247","category_name":"餐饮美食","address":"徐家汇路618号日月光中心广场4楼-22号铺(近打浦路) "},{"poiid":"B2094757D06FA0FB4493","title":"Bohemia coffee &amp; bar","lon":"121.46856114","lat":"31.2083910532","category":"65","category_name":"咖啡厅","address":"上海卢湾区泰康路248弄田子坊42号(近瑞金二路)"},{"poiid":"B2094750D66FA3FF409E","title":"便便餐厅","lon":"121.46836","lat":"31.207742","category":"247","category_name":"餐饮美食","address":null},{"poiid":"B2094750D66FA1F5469A","title":"翠华餐厅（日月光广场）","lon":"121.468521","lat":"31.206748","category":"500","category_name":"未知分类","address":null},{"poiid":"B2094757D06FA6F4409E","title":"Origin","lon":"121.46802573","lat":"31.208218831","category":"94","category_name":"西餐厅","address":"卢湾区建国中路155弄39号(近瑞金二路)"},{"poiid":"B2094757D664A3F84293","title":"阁楼上的餐厅 NO.37DiningBar","lon":"121.468673734","lat":"31.207928313","category":"257","category_name":"中餐厅","address":"卢湾区建国中路155弄田子坊37号(近瑞金二路)"},{"poiid":"B2094655D268A1F9459A","title":"Bell Cafe & Bar","lon":"121.46857","lat":"31.20774","category":"65","category_name":"咖啡厅","address":"卢湾区泰康路248弄11号后门(近瑞金二路)"},{"poiid":"B2094757D06FA1FE4593","title":"Tai Wine太红酒","lon":"121.4687479","lat":"31.2076454","category":"172","category_name":"酒吧","address":"上海卢湾区泰康路248弄田子坊38号(近瑞金二路)"},{"poiid":"B2094757D069A0F84893","title":"正豪大大鸡排(日月光店)","lon":"121.46829773","lat":"31.206971804","category":"68","category_name":"快餐厅","address":"卢湾区徐家汇路618号日月光中心广场B2楼(近打浦路)"},{"poiid":"B2094752D66EAAF44498","title":"小辉哥火锅","lon":"121.469155","lat":"31.20741","category":"247","category_name":"餐饮美食","address":"卢湾区徐家汇路618号日月光广场1F-E-02室"},{"poiid":"B2094751D56CA4FB4699","title":"猫屎咖啡(泰康路店)","lon":"121.4696","lat":"31.20782","category":"247","category_name":"餐饮美食","address":"徐汇区泰康路210号"},{"poiid":"B2094757D068A4F94498","title":"绿洲泰式料理(田子坊店)","lon":"121.46805","lat":"31.2079","category":"99","category_name":"泰国／越南菜品餐厅","address":"卢湾区泰康路248弄田子坊16号(近瑞金二路)"},{"poiid":"B2094757D66BA6F8499D","title":"喜空 CSky","lon":"121.468898","lat":"31.207786","category":"67","category_name":"甜品店","address":"上海卢湾区泰康路264号田子坊后门2楼起(思南路瑞金二路间)  "},{"poiid":"B2094750D16AABFB4993","title":"starbucks日月光店","lon":"121.468864","lat":"31.207487","category":"247","category_name":"餐饮美食","address":"泰康路"},{"poiid":"B2094757D06EAAFD4498","title":"麦当劳(日月光餐厅)","lon":"121.46867578","lat":"31.206947655","category":"68","category_name":"快餐厅","address":"卢湾区徐家汇路618号日月光中心广场B2-F-22号商铺(近瑞金二路)"},{"poiid":"B2094757D068AAFC4699","title":"En Grill &amp; Bar","lon":"121.46833","lat":"31.2072","category":"95","category_name":"日本料理","address":"卢湾区泰康路田子坊248弄20号(近瑞金二路)"},{"poiid":"B2094753D76DABFF419C","title":"镰仓pasta","lon":"121.469009","lat":"31.207704","category":"500","category_name":"未知分类","address":"上海市 泰康路"},{"poiid":"B2094757D06FA5F54293","title":"丹","lon":"121.46917","lat":"31.20738","category":"260","category_name":"其他","address":"卢湾区泰康路248弄41号田子坊后门(近瑞金二路)"},{"poiid":"B2094757D168A0FD429A","title":"上海外滩黄浦江","lon":"121.46821773","lat":"31.208367834","category":"500","category_name":"未知分类","address":"上海市"},{"poiid":"B2094757D068A2FC4499","title":"DQ冰雪皇后(日月光广场店)","lon":"121.46887373","lat":"31.208485836","category":"113","category_name":"冷饮店","address":"卢湾区徐家汇路618号日月光中心广场1楼F06号商铺(近瑞金二路)"},{"poiid":"B2094757D06FA5F94893","title":"华越楼(泰康店)","lon":"121.46876","lat":"31.20729","category":"99","category_name":"泰国／越南菜品餐厅","address":"上海卢湾区泰康路274弄田子坊13号(近瑞金二路)  "},{"poiid":"B2094757D06EAAFC409F","title":"气味图书馆","lon":"121.46882704","lat":"31.208104284","category":"122","category_name":"个人用品/化妆品店","address":"泰康路274弄16号"},{"poiid":"B2094750D269A3F94792","title":"MARINA RESTAURANT","lon":"121.468536","lat":"31.208196","category":"247","category_name":"餐饮美食","address":"田子坊23號"},{"poiid":"B2094757D16CAAFC429C","title":"TONO殿下咖啡西餐厅","lon":"121.46858573","lat":"31.207682819","category":"65","category_name":"咖啡厅","address":"上海泰康路248弄田子坊10号前门(近瑞金二路)"},{"poiid":"B2094753D66AA6FC4398","title":"徹思叔叔现烘起司蛋糕","lon":"121.468353","lat":"31.206628","category":"247","category_name":"餐饮美食","address":"上海市 日月光店"},{"poiid":"B2094757D164A4FB479A","title":"卢湾牙防所","lon":"121.468024738","lat":"31.2082688322","category":"500","category_name":"未知分类","address":"上海瑞金路"},{"poiid":"B2094757D16EA4F8409B","title":"Lapis Thai","lon":"121.46870373","lat":"31.207812822","category":"500","category_name":"未知分类","address":"上海市卢湾区泰康路248弄14号"},{"poiid":"B2094655D36CA5FD409A","title":"打浦桥","lon":"121.46726","lat":"31.20405","category":"38","category_name":"公交车站","address":""},{"poiid":"B2094757D06EABF54298","title":"泰迪之家 Ester's  Bear","lon":"121.468662054","lat":"31.207939793","category":"247","category_name":"餐饮美食","address":"卢湾区泰康路248弄田子坊23号(近瑞金二路)"},{"poiid":"B2094757D069AAF84692","title":"田子坊Panda bar","lon":"121.468042738","lat":"31.2082238313","category":"110","category_name":"其他亚洲菜","address":"卢湾区泰康路274-210弄(近瑞金二路)"},{"poiid":"B2094753D76FAAFA449C","title":"上海滩国泰旗舰店","lon":"121.466011","lat":"31.216125","category":"249","category_name":"购物服务","address":"淮海中路868号"},{"poiid":"B209475CD564A7F84292","title":"上海滩新天地店","lon":"121.47463","lat":"31.22164","category":"119","category_name":"商场","address":"\"太仓路181弄新天地北里15号\r\n\""},{"poiid":"B209475CD564A7F8439E","title":"上海滩中信泰富店","lon":"121.45602","lat":"31.22851","category":"119","category_name":"商场","address":"\"南京西路1168号中信泰富广场，店铺号221.\r\n\""},{"poiid":"B2094750D56EA4F8419D","title":"纯K(打浦桥店)","lon":"121.468788","lat":"31.206827","category":"170","category_name":"KTV","address":"上海市黄浦区瑞金二路泰康路口（日月光中心广场1楼）"},{"poiid":"B2094750D66CA6FE459E","title":"便所欢乐主题餐厅","lon":"121.468437","lat":"31.207887","category":"247","category_name":"餐饮美食","address":"卢湾区泰康路274弄田子坊5号(近谭木匠)"},{"poiid":"B2094750D56DA5FD469D","title":"日月光翠华茶餐厅","lon":"121.468162","lat":"31.207288","category":"247","category_name":"餐饮美食","address":null},{"poiid":"B2094757D06FA6F9439E","title":"泰康路田子坊","lon":"121.468519738","lat":"31.2081288292","category":"500","category_name":"未知分类","address":"上海市卢湾区绍兴路"},{"poiid":"B2094654DA6DA5FE4998","title":"288酒吧餐厅","lon":"121.46779","lat":"31.20752","category":"260","category_name":"其他","address":"卢湾区泰康路288号(瑞金二路思南路间)"},{"poiid":"B2094757D168A5FA449A","title":"天辣","lon":"121.46813273","lat":"31.207001805","category":"247","category_name":"餐饮美食","address":"上海日月光"},{"poiid":"B2094750DA6DA6FF4198","title":"台北纯k","lon":"121.469184","lat":"31.207139","category":"500","category_name":"未知分类","address":"卢湾区日月光"},{"poiid":"B2094757D06FA2FA449C","title":"藏珑泰极(田子坊店)","lon":"121.4681","lat":"31.20708","category":"99","category_name":"泰国／越南菜品餐厅","address":"卢湾区泰康路田子坊248弄14号(近瑞金二路)"},{"poiid":"B2094750DB6DA5F4419C","title":"台北纯k日月光店","lon":"121.468612","lat":"31.207105","category":"500","category_name":"未知分类","address":null},{"poiid":"B2094757D168A4FB409B","title":"莲池印度餐厅","lon":"121.468100738","lat":"31.2081448296","category":"102","category_name":"印度风味","address":"卢湾区泰康路274弄田子坊12号(近瑞金二路)"},{"poiid":"B2094757D164AAFC499A","title":"田子坊泰迪熊之家","lon":"121.468529738","lat":"31.2082148311","category":"500","category_name":"未知分类","address":null},{"poiid":"B2094757D06FA2FF4993","title":"公社 kommune","lon":"121.468662054","lat":"31.207939793","category":"65","category_name":"咖啡厅","address":"卢湾区泰康路210弄7号(近瑞金二路)"},{"poiid":"B2094757D06FA2FE419D","title":"Tai Thai 太泰","lon":"121.468485181","lat":"31.207996165","category":"110","category_name":"其他亚洲菜","address":"卢湾区泰康路248弄田子坊18号后门(近瑞金二路)"},{"poiid":"B2094751D564A2FD499B","title":"小辉哥火锅","lon":"121.468735","lat":"31.206894","category":"247","category_name":"餐饮美食","address":"卢湾区徐家汇路618号日月光中心广场1楼E-02室(近泰康路)"},{"poiid":"B2094757D06FA2FA499F","title":"大渔铁板烧 日月光中心店 TAIRYO","lon":"121.46778","lat":"31.20558","category":"268","category_name":"自助","address":"卢湾区徐家汇路618号日月光广场4楼(近瑞金二路)"},{"poiid":"B2094752D26AAAFB499B","title":"CAFE&BAR PRONTO","lon":"121.468735","lat":"31.206696","category":"247","category_name":"餐饮美食","address":"徐汇区徐家汇路618号日月光中心广场1楼露天广场E-01号铺"},{"poiid":"B2094757D06FA2FB439A","title":"GLISMATTEN瑞士火锅屋(田子坊店)","lon":"121.46867","lat":"31.20799","category":"94","category_name":"西餐厅","address":"卢湾区泰康路248弄田子坊9号(近瑞金二路)"},{"poiid":"B2094752D768A2FF4998","title":"冰火名家巫山烤全鱼","lon":"121.46824564025883","lat":"31.20683075670523","category":"247","category_name":"餐饮美食","address":"徐家汇路618号日月光中心广场4楼-22号铺(近打浦路) "},{"poiid":"B2094757D06FA0FB4493","title":"Bohemia coffee &amp; bar","lon":"121.46856114","lat":"31.2083910532","category":"65","category_name":"咖啡厅","address":"上海卢湾区泰康路248弄田子坊42号(近瑞金二路)"},{"poiid":"B2094750D66FA3FF409E","title":"便便餐厅","lon":"121.46836","lat":"31.207742","category":"247","category_name":"餐饮美食","address":null},{"poiid":"B2094750D66FA1F5469A","title":"翠华餐厅（日月光广场）","lon":"121.468521","lat":"31.206748","category":"500","category_name":"未知分类","address":null},{"poiid":"B2094757D06FA6F4409E","title":"Origin","lon":"121.46802573","lat":"31.208218831","category":"94","category_name":"西餐厅","address":"卢湾区建国中路155弄39号(近瑞金二路)"},{"poiid":"B2094757D664A3F84293","title":"阁楼上的餐厅 NO.37DiningBar","lon":"121.468673734","lat":"31.207928313","category":"257","category_name":"中餐厅","address":"卢湾区建国中路155弄田子坊37号(近瑞金二路)"},{"poiid":"B2094655D268A1F9459A","title":"Bell Cafe & Bar","lon":"121.46857","lat":"31.20774","category":"65","category_name":"咖啡厅","address":"卢湾区泰康路248弄11号后门(近瑞金二路)"},{"poiid":"B2094757D06FA1FE4593","title":"Tai Wine太红酒","lon":"121.4687479","lat":"31.2076454","category":"172","category_name":"酒吧","address":"上海卢湾区泰康路248弄田子坊38号(近瑞金二路)"},{"poiid":"B2094757D069A0F84893","title":"正豪大大鸡排(日月光店)","lon":"121.46829773","lat":"31.206971804","category":"68","category_name":"快餐厅","address":"卢湾区徐家汇路618号日月光中心广场B2楼(近打浦路)"},{"poiid":"B2094752D66EAAF44498","title":"小辉哥火锅","lon":"121.469155","lat":"31.20741","category":"247","category_name":"餐饮美食","address":"卢湾区徐家汇路618号日月光广场1F-E-02室"},{"poiid":"B2094751D56CA4FB4699","title":"猫屎咖啡(泰康路店)","lon":"121.4696","lat":"31.20782","category":"247","category_name":"餐饮美食","address":"徐汇区泰康路210号"},{"poiid":"B2094757D068A4F94498","title":"绿洲泰式料理(田子坊店)","lon":"121.46805","lat":"31.2079","category":"99","category_name":"泰国／越南菜品餐厅","address":"卢湾区泰康路248弄田子坊16号(近瑞金二路)"},{"poiid":"B2094757D66BA6F8499D","title":"喜空 CSky","lon":"121.468898","lat":"31.207786","category":"67","category_name":"甜品店","address":"上海卢湾区泰康路264号田子坊后门2楼起(思南路瑞金二路间)  "},{"poiid":"B2094750D16AABFB4993","title":"starbucks日月光店","lon":"121.468864","lat":"31.207487","category":"247","category_name":"餐饮美食","address":"泰康路"},{"poiid":"B2094757D06EAAFD4498","title":"麦当劳(日月光餐厅)","lon":"121.46867578","lat":"31.206947655","category":"68","category_name":"快餐厅","address":"卢湾区徐家汇路618号日月光中心广场B2-F-22号商铺(近瑞金二路)"},{"poiid":"B2094757D068AAFC4699","title":"En Grill &amp; Bar","lon":"121.46833","lat":"31.2072","category":"95","category_name":"日本料理","address":"卢湾区泰康路田子坊248弄20号(近瑞金二路)"},{"poiid":"B2094753D76DABFF419C","title":"镰仓pasta","lon":"121.469009","lat":"31.207704","category":"500","category_name":"未知分类","address":"上海市 泰康路"},{"poiid":"B2094757D06FA5F54293","title":"丹","lon":"121.46917","lat":"31.20738","category":"260","category_name":"其他","address":"卢湾区泰康路248弄41号田子坊后门(近瑞金二路)"},{"poiid":"B2094757D168A0FD429A","title":"上海外滩黄浦江","lon":"121.46821773","lat":"31.208367834","category":"500","category_name":"未知分类","address":"上海市"},{"poiid":"B2094757D068A2FC4499","title":"DQ冰雪皇后(日月光广场店)","lon":"121.46887373","lat":"31.208485836","category":"113","category_name":"冷饮店","address":"卢湾区徐家汇路618号日月光中心广场1楼F06号商铺(近瑞金二路)"},{"poiid":"B2094757D06FA5F94893","title":"华越楼(泰康店)","lon":"121.46876","lat":"31.20729","category":"99","category_name":"泰国／越南菜品餐厅","address":"上海卢湾区泰康路274弄田子坊13号(近瑞金二路)  "},{"poiid":"B2094757D06EAAFC409F","title":"气味图书馆","lon":"121.46882704","lat":"31.208104284","category":"122","category_name":"个人用品/化妆品店","address":"泰康路274弄16号"},{"poiid":"B2094750D269A3F94792","title":"MARINA RESTAURANT","lon":"121.468536","lat":"31.208196","category":"247","category_name":"餐饮美食","address":"田子坊23號"},{"poiid":"B2094757D16CAAFC429C","title":"TONO殿下咖啡西餐厅","lon":"121.46858573","lat":"31.207682819","category":"65","category_name":"咖啡厅","address":"上海泰康路248弄田子坊10号前门(近瑞金二路)"},{"poiid":"B2094753D66AA6FC4398","title":"徹思叔叔现烘起司蛋糕","lon":"121.468353","lat":"31.206628","category":"247","category_name":"餐饮美食","address":"上海市 日月光店"},{"poiid":"B2094757D164A4FB479A","title":"卢湾牙防所","lon":"121.468024738","lat":"31.2082688322","category":"500","category_name":"未知分类","address":"上海瑞金路"},{"poiid":"B2094757D16EA4F8409B","title":"Lapis Thai","lon":"121.46870373","lat":"31.207812822","category":"500","category_name":"未知分类","address":"上海市卢湾区泰康路248弄14号"},{"poiid":"B2094655D36CA5FD409A","title":"打浦桥","lon":"121.46726","lat":"31.20405","category":"38","category_name":"公交车站","address":""},{"poiid":"B2094757D06EABF54298","title":"泰迪之家 Ester's  Bear","lon":"121.468662054","lat":"31.207939793","category":"247","category_name":"餐饮美食","address":"卢湾区泰康路248弄田子坊23号(近瑞金二路)"},{"poiid":"B2094757D069AAF84692","title":"田子坊Panda bar","lon":"121.468042738","lat":"31.2082238313","category":"110","category_name":"其他亚洲菜","address":"卢湾区泰康路274-210弄(近瑞金二路)"},{"poiid":"B2094753D76FAAFA449C","title":"上海滩国泰旗舰店","lon":"121.466011","lat":"31.216125","category":"249","category_name":"购物服务","address":"淮海中路868号"},{"poiid":"B209475CD564A7F84292","title":"上海滩新天地店","lon":"121.47463","lat":"31.22164","category":"119","category_name":"商场","address":"\"太仓路181弄新天地北里15号\r\n\""},{"poiid":"B209475CD564A7F8439E","title":"上海滩中信泰富店","lon":"121.45602","lat":"31.22851","category":"119","category_name":"商场","address":"\"南京西路1168号中信泰富广场，店铺号221.\r\n\""},{"poiid":"B2094750D56EA4F8419D","title":"纯K(打浦桥店)","lon":"121.468788","lat":"31.206827","category":"170","category_name":"KTV","address":"上海市黄浦区瑞金二路泰康路口（日月光中心广场1楼）"},{"poiid":"B2094750D66CA6FE459E","title":"便所欢乐主题餐厅","lon":"121.468437","lat":"31.207887","category":"247","category_name":"餐饮美食","address":"卢湾区泰康路274弄田子坊5号(近谭木匠)"},{"poiid":"B2094750D56DA5FD469D","title":"日月光翠华茶餐厅","lon":"121.468162","lat":"31.207288","category":"247","category_name":"餐饮美食","address":null},{"poiid":"B2094757D06FA6F9439E","title":"泰康路田子坊","lon":"121.468519738","lat":"31.2081288292","category":"500","category_name":"未知分类","address":"上海市卢湾区绍兴路"},{"poiid":"B2094654DA6DA5FE4998","title":"288酒吧餐厅","lon":"121.46779","lat":"31.20752","category":"260","category_name":"其他","address":"卢湾区泰康路288号(瑞金二路思南路间)"},{"poiid":"B2094757D168A5FA449A","title":"天辣","lon":"121.46813273","lat":"31.207001805","category":"247","category_name":"餐饮美食","address":"上海日月光"},{"poiid":"B2094750DA6DA6FF4198","title":"台北纯k","lon":"121.469184","lat":"31.207139","category":"500","category_name":"未知分类","address":"卢湾区日月光"},{"poiid":"B2094757D06FA2FA449C","title":"藏珑泰极(田子坊店)","lon":"121.4681","lat":"31.20708","category":"99","category_name":"泰国／越南菜品餐厅","address":"卢湾区泰康路田子坊248弄14号(近瑞金二路)"},{"poiid":"B2094750DB6DA5F4419C","title":"台北纯k日月光店","lon":"121.468612","lat":"31.207105","category":"500","category_name":"未知分类","address":null},{"poiid":"B2094757D168A4FB409B","title":"莲池印度餐厅","lon":"121.468100738","lat":"31.2081448296","category":"102","category_name":"印度风味","address":"卢湾区泰康路274弄田子坊12号(近瑞金二路)"},{"poiid":"B2094757D164AAFC499A","title":"田子坊泰迪熊之家","lon":"121.468529738","lat":"31.2082148311","category":"500","category_name":"未知分类","address":null},{"poiid":"B2094757D06FA2FF4993","title":"公社 kommune","lon":"121.468662054","lat":"31.207939793","category":"65","category_name":"咖啡厅","address":"卢湾区泰康路210弄7号(近瑞金二路)"},{"poiid":"B2094757D06FA2FE419D","title":"Tai Thai 太泰","lon":"121.468485181","lat":"31.207996165","category":"110","category_name":"其他亚洲菜","address":"卢湾区泰康路248弄田子坊18号后门(近瑞金二路)"},{"poiid":"B2094751D564A2FD499B","title":"小辉哥火锅","lon":"121.468735","lat":"31.206894","category":"247","category_name":"餐饮美食","address":"卢湾区徐家汇路618号日月光中心广场1楼E-02室(近泰康路)"},{"poiid":"B2094757D06FA2FA499F","title":"大渔铁板烧 日月光中心店 TAIRYO","lon":"121.46778","lat":"31.20558","category":"268","category_name":"自助","address":"卢湾区徐家汇路618号日月光广场4楼(近瑞金二路)"},{"poiid":"B2094752D26AAAFB499B","title":"CAFE&BAR PRONTO","lon":"121.468735","lat":"31.206696","category":"247","category_name":"餐饮美食","address":"徐汇区徐家汇路618号日月光中心广场1楼露天广场E-01号铺"},{"poiid":"B2094757D06FA2FB439A","title":"GLISMATTEN瑞士火锅屋(田子坊店)","lon":"121.46867","lat":"31.20799","category":"94","category_name":"西餐厅","address":"卢湾区泰康路248弄田子坊9号(近瑞金二路)"},{"poiid":"B2094752D768A2FF4998","title":"冰火名家巫山烤全鱼","lon":"121.46824564025883","lat":"31.20683075670523","category":"247","category_name":"餐饮美食","address":"徐家汇路618号日月光中心广场4楼-22号铺(近打浦路) "},{"poiid":"B2094757D06FA0FB4493","title":"Bohemia coffee &amp; bar","lon":"121.46856114","lat":"31.2083910532","category":"65","category_name":"咖啡厅","address":"上海卢湾区泰康路248弄田子坊42号(近瑞金二路)"},{"poiid":"B2094750D66FA3FF409E","title":"便便餐厅","lon":"121.46836","lat":"31.207742","category":"247","category_name":"餐饮美食","address":null},{"poiid":"B2094750D66FA1F5469A","title":"翠华餐厅（日月光广场）","lon":"121.468521","lat":"31.206748","category":"500","category_name":"未知分类","address":null},{"poiid":"B2094757D06FA6F4409E","title":"Origin","lon":"121.46802573","lat":"31.208218831","category":"94","category_name":"西餐厅","address":"卢湾区建国中路155弄39号(近瑞金二路)"},{"poiid":"B2094757D664A3F84293","title":"阁楼上的餐厅 NO.37DiningBar","lon":"121.468673734","lat":"31.207928313","category":"257","category_name":"中餐厅","address":"卢湾区建国中路155弄田子坊37号(近瑞金二路)"},{"poiid":"B2094655D268A1F9459A","title":"Bell Cafe & Bar","lon":"121.46857","lat":"31.20774","category":"65","category_name":"咖啡厅","address":"卢湾区泰康路248弄11号后门(近瑞金二路)"},{"poiid":"B2094757D06FA1FE4593","title":"Tai Wine太红酒","lon":"121.4687479","lat":"31.2076454","category":"172","category_name":"酒吧","address":"上海卢湾区泰康路248弄田子坊38号(近瑞金二路)"},{"poiid":"B2094757D069A0F84893","title":"正豪大大鸡排(日月光店)","lon":"121.46829773","lat":"31.206971804","category":"68","category_name":"快餐厅","address":"卢湾区徐家汇路618号日月光中心广场B2楼(近打浦路)"},{"poiid":"B2094752D66EAAF44498","title":"小辉哥火锅","lon":"121.469155","lat":"31.20741","category":"247","category_name":"餐饮美食","address":"卢湾区徐家汇路618号日月光广场1F-E-02室"},{"poiid":"B2094751D56CA4FB4699","title":"猫屎咖啡(泰康路店)","lon":"121.4696","lat":"31.20782","category":"247","category_name":"餐饮美食","address":"徐汇区泰康路210号"},{"poiid":"B2094757D068A4F94498","title":"绿洲泰式料理(田子坊店)","lon":"121.46805","lat":"31.2079","category":"99","category_name":"泰国／越南菜品餐厅","address":"卢湾区泰康路248弄田子坊16号(近瑞金二路)"},{"poiid":"B2094757D66BA6F8499D","title":"喜空 CSky","lon":"121.468898","lat":"31.207786","category":"67","category_name":"甜品店","address":"上海卢湾区泰康路264号田子坊后门2楼起(思南路瑞金二路间)  "},{"poiid":"B2094750D16AABFB4993","title":"starbucks日月光店","lon":"121.468864","lat":"31.207487","category":"247","category_name":"餐饮美食","address":"泰康路"},{"poiid":"B2094757D06EAAFD4498","title":"麦当劳(日月光餐厅)","lon":"121.46867578","lat":"31.206947655","category":"68","category_name":"快餐厅","address":"卢湾区徐家汇路618号日月光中心广场B2-F-22号商铺(近瑞金二路)"},{"poiid":"B2094757D068AAFC4699","title":"En Grill &amp; Bar","lon":"121.46833","lat":"31.2072","category":"95","category_name":"日本料理","address":"卢湾区泰康路田子坊248弄20号(近瑞金二路)"},{"poiid":"B2094753D76DABFF419C","title":"镰仓pasta","lon":"121.469009","lat":"31.207704","category":"500","category_name":"未知分类","address":"上海市 泰康路"},{"poiid":"B2094757D06FA5F54293","title":"丹","lon":"121.46917","lat":"31.20738","category":"260","category_name":"其他","address":"卢湾区泰康路248弄41号田子坊后门(近瑞金二路)"},{"poiid":"B2094757D168A0FD429A","title":"上海外滩黄浦江","lon":"121.46821773","lat":"31.208367834","category":"500","category_name":"未知分类","address":"上海市"},{"poiid":"B2094757D068A2FC4499","title":"DQ冰雪皇后(日月光广场店)","lon":"121.46887373","lat":"31.208485836","category":"113","category_name":"冷饮店","address":"卢湾区徐家汇路618号日月光中心广场1楼F06号商铺(近瑞金二路)"},{"poiid":"B2094757D06FA5F94893","title":"华越楼(泰康店)","lon":"121.46876","lat":"31.20729","category":"99","category_name":"泰国／越南菜品餐厅","address":"上海卢湾区泰康路274弄田子坊13号(近瑞金二路)  "},{"poiid":"B2094757D06EAAFC409F","title":"气味图书馆","lon":"121.46882704","lat":"31.208104284","category":"122","category_name":"个人用品/化妆品店","address":"泰康路274弄16号"},{"poiid":"B2094750D269A3F94792","title":"MARINA RESTAURANT","lon":"121.468536","lat":"31.208196","category":"247","category_name":"餐饮美食","address":"田子坊23號"},{"poiid":"B2094757D16CAAFC429C","title":"TONO殿下咖啡西餐厅","lon":"121.46858573","lat":"31.207682819","category":"65","category_name":"咖啡厅","address":"上海泰康路248弄田子坊10号前门(近瑞金二路)"},{"poiid":"B2094753D66AA6FC4398","title":"徹思叔叔现烘起司蛋糕","lon":"121.468353","lat":"31.206628","category":"247","category_name":"餐饮美食","address":"上海市 日月光店"},{"poiid":"B2094757D164A4FB479A","title":"卢湾牙防所","lon":"121.468024738","lat":"31.2082688322","category":"500","category_name":"未知分类","address":"上海瑞金路"},{"poiid":"B2094757D16EA4F8409B","title":"Lapis Thai","lon":"121.46870373","lat":"31.207812822","category":"500","category_name":"未知分类","address":"上海市卢湾区泰康路248弄14号"},{"poiid":"B2094655D36CA5FD409A","title":"打浦桥","lon":"121.46726","lat":"31.20405","category":"38","category_name":"公交车站","address":""},{"poiid":"B2094757D06EABF54298","title":"泰迪之家 Ester's  Bear","lon":"121.468662054","lat":"31.207939793","category":"247","category_name":"餐饮美食","address":"卢湾区泰康路248弄田子坊23号(近瑞金二路)"},{"poiid":"B2094757D069AAF84692","title":"田子坊Panda bar","lon":"121.468042738","lat":"31.2082238313","category":"110","category_name":"其他亚洲菜","address":"卢湾区泰康路274-210弄(近瑞金二路)"},{"poiid":"B2094753D76FAAFA449C","title":"上海滩国泰旗舰店","lon":"121.466011","lat":"31.216125","category":"249","category_name":"购物服务","address":"淮海中路868号"},{"poiid":"B209475CD564A7F84292","title":"上海滩新天地店","lon":"121.47463","lat":"31.22164","category":"119","category_name":"商场","address":"\"太仓路181弄新天地北里15号\r\n\""},{"poiid":"B209475CD564A7F8439E","title":"上海滩中信泰富店","lon":"121.45602","lat":"31.22851","category":"119","category_name":"商场","address":"\"南京西路1168号中信泰富广场，店铺号221.\r\n\""},{"poiid":"B2094750D56EA4F8419D","title":"纯K(打浦桥店)","lon":"121.468788","lat":"31.206827","category":"170","category_name":"KTV","address":"上海市黄浦区瑞金二路泰康路口（日月光中心广场1楼）"},{"poiid":"B2094750D66CA6FE459E","title":"便所欢乐主题餐厅","lon":"121.468437","lat":"31.207887","category":"247","category_name":"餐饮美食","address":"卢湾区泰康路274弄田子坊5号(近谭木匠)"},{"poiid":"B2094750D56DA5FD469D","title":"日月光翠华茶餐厅","lon":"121.468162","lat":"31.207288","category":"247","category_name":"餐饮美食","address":null},{"poiid":"B2094757D06FA6F9439E","title":"泰康路田子坊","lon":"121.468519738","lat":"31.2081288292","category":"500","category_name":"未知分类","address":"上海市卢湾区绍兴路"},{"poiid":"B2094654DA6DA5FE4998","title":"288酒吧餐厅","lon":"121.46779","lat":"31.20752","category":"260","category_name":"其他","address":"卢湾区泰康路288号(瑞金二路思南路间)"},{"poiid":"B2094757D168A5FA449A","title":"天辣","lon":"121.46813273","lat":"31.207001805","category":"247","category_name":"餐饮美食","address":"上海日月光"},{"poiid":"B2094750DA6DA6FF4198","title":"台北纯k","lon":"121.469184","lat":"31.207139","category":"500","category_name":"未知分类","address":"卢湾区日月光"},{"poiid":"B2094757D06FA2FA449C","title":"藏珑泰极(田子坊店)","lon":"121.4681","lat":"31.20708","category":"99","category_name":"泰国／越南菜品餐厅","address":"卢湾区泰康路田子坊248弄14号(近瑞金二路)"},{"poiid":"B2094750DB6DA5F4419C","title":"台北纯k日月光店","lon":"121.468612","lat":"31.207105","category":"500","category_name":"未知分类","address":null},{"poiid":"B2094757D168A4FB409B","title":"莲池印度餐厅","lon":"121.468100738","lat":"31.2081448296","category":"102","category_name":"印度风味","address":"卢湾区泰康路274弄田子坊12号(近瑞金二路)"},{"poiid":"B2094757D164AAFC499A","title":"田子坊泰迪熊之家","lon":"121.468529738","lat":"31.2082148311","category":"500","category_name":"未知分类","address":null},{"poiid":"B2094757D06FA2FF4993","title":"公社 kommune","lon":"121.468662054","lat":"31.207939793","category":"65","category_name":"咖啡厅","address":"卢湾区泰康路210弄7号(近瑞金二路)"},{"poiid":"B2094757D06FA2FE419D","title":"Tai Thai 太泰","lon":"121.468485181","lat":"31.207996165","category":"110","category_name":"其他亚洲菜","address":"卢湾区泰康路248弄田子坊18号后门(近瑞金二路)"},{"poiid":"B2094751D564A2FD499B","title":"小辉哥火锅","lon":"121.468735","lat":"31.206894","category":"247","category_name":"餐饮美食","address":"卢湾区徐家汇路618号日月光中心广场1楼E-02室(近泰康路)"},{"poiid":"B2094757D06FA2FA499F","title":"大渔铁板烧 日月光中心店 TAIRYO","lon":"121.46778","lat":"31.20558","category":"268","category_name":"自助","address":"卢湾区徐家汇路618号日月光广场4楼(近瑞金二路)"},{"poiid":"B2094752D26AAAFB499B","title":"CAFE&BAR PRONTO","lon":"121.468735","lat":"31.206696","category":"247","category_name":"餐饮美食","address":"徐汇区徐家汇路618号日月光中心广场1楼露天广场E-01号铺"},{"poiid":"B2094757D06FA2FB439A","title":"GLISMATTEN瑞士火锅屋(田子坊店)","lon":"121.46867","lat":"31.20799","category":"94","category_name":"西餐厅","address":"卢湾区泰康路248弄田子坊9号(近瑞金二路)"},{"poiid":"B2094752D768A2FF4998","title":"冰火名家巫山烤全鱼","lon":"121.46824564025883","lat":"31.20683075670523","category":"247","category_name":"餐饮美食","address":"徐家汇路618号日月光中心广场4楼-22号铺(近打浦路) "},{"poiid":"B2094757D06FA0FB4493","title":"Bohemia coffee &amp; bar","lon":"121.46856114","lat":"31.2083910532","category":"65","category_name":"咖啡厅","address":"上海卢湾区泰康路248弄田子坊42号(近瑞金二路)"},{"poiid":"B2094750D66FA3FF409E","title":"便便餐厅","lon":"121.46836","lat":"31.207742","category":"247","category_name":"餐饮美食","address":null},{"poiid":"B2094750D66FA1F5469A","title":"翠华餐厅（日月光广场）","lon":"121.468521","lat":"31.206748","category":"500","category_name":"未知分类","address":null},{"poiid":"B2094757D06FA6F4409E","title":"Origin","lon":"121.46802573","lat":"31.208218831","category":"94","category_name":"西餐厅","address":"卢湾区建国中路155弄39号(近瑞金二路)"},{"poiid":"B2094757D664A3F84293","title":"阁楼上的餐厅 NO.37DiningBar","lon":"121.468673734","lat":"31.207928313","category":"257","category_name":"中餐厅","address":"卢湾区建国中路155弄田子坊37号(近瑞金二路)"},{"poiid":"B2094655D268A1F9459A","title":"Bell Cafe & Bar","lon":"121.46857","lat":"31.20774","category":"65","category_name":"咖啡厅","address":"卢湾区泰康路248弄11号后门(近瑞金二路)"},{"poiid":"B2094757D06FA1FE4593","title":"Tai Wine太红酒","lon":"121.4687479","lat":"31.2076454","category":"172","category_name":"酒吧","address":"上海卢湾区泰康路248弄田子坊38号(近瑞金二路)"},{"poiid":"B2094757D069A0F84893","title":"正豪大大鸡排(日月光店)","lon":"121.46829773","lat":"31.206971804","category":"68","category_name":"快餐厅","address":"卢湾区徐家汇路618号日月光中心广场B2楼(近打浦路)"},{"poiid":"B2094752D66EAAF44498","title":"小辉哥火锅","lon":"121.469155","lat":"31.20741","category":"247","category_name":"餐饮美食","address":"卢湾区徐家汇路618号日月光广场1F-E-02室"},{"poiid":"B2094751D56CA4FB4699","title":"猫屎咖啡(泰康路店)","lon":"121.4696","lat":"31.20782","category":"247","category_name":"餐饮美食","address":"徐汇区泰康路210号"},{"poiid":"B2094757D068A4F94498","title":"绿洲泰式料理(田子坊店)","lon":"121.46805","lat":"31.2079","category":"99","category_name":"泰国／越南菜品餐厅","address":"卢湾区泰康路248弄田子坊16号(近瑞金二路)"},{"poiid":"B2094757D66BA6F8499D","title":"喜空 CSky","lon":"121.468898","lat":"31.207786","category":"67","category_name":"甜品店","address":"上海卢湾区泰康路264号田子坊后门2楼起(思南路瑞金二路间)  "},{"poiid":"B2094750D16AABFB4993","title":"starbucks日月光店","lon":"121.468864","lat":"31.207487","category":"247","category_name":"餐饮美食","address":"泰康路"},{"poiid":"B2094757D06EAAFD4498","title":"麦当劳(日月光餐厅)","lon":"121.46867578","lat":"31.206947655","category":"68","category_name":"快餐厅","address":"卢湾区徐家汇路618号日月光中心广场B2-F-22号商铺(近瑞金二路)"},{"poiid":"B2094757D068AAFC4699","title":"En Grill &amp; Bar","lon":"121.46833","lat":"31.2072","category":"95","category_name":"日本料理","address":"卢湾区泰康路田子坊248弄20号(近瑞金二路)"},{"poiid":"B2094753D76DABFF419C","title":"镰仓pasta","lon":"121.469009","lat":"31.207704","category":"500","category_name":"未知分类","address":"上海市 泰康路"},{"poiid":"B2094757D06FA5F54293","title":"丹","lon":"121.46917","lat":"31.20738","category":"260","category_name":"其他","address":"卢湾区泰康路248弄41号田子坊后门(近瑞金二路)"},{"poiid":"B2094757D168A0FD429A","title":"上海外滩黄浦江","lon":"121.46821773","lat":"31.208367834","category":"500","category_name":"未知分类","address":"上海市"},{"poiid":"B2094757D068A2FC4499","title":"DQ冰雪皇后(日月光广场店)","lon":"121.46887373","lat":"31.208485836","category":"113","category_name":"冷饮店","address":"卢湾区徐家汇路618号日月光中心广场1楼F06号商铺(近瑞金二路)"},{"poiid":"B2094757D06FA5F94893","title":"华越楼(泰康店)","lon":"121.46876","lat":"31.20729","category":"99","category_name":"泰国／越南菜品餐厅","address":"上海卢湾区泰康路274弄田子坊13号(近瑞金二路)  "},{"poiid":"B2094757D06EAAFC409F","title":"气味图书馆","lon":"121.46882704","lat":"31.208104284","category":"122","category_name":"个人用品/化妆品店","address":"泰康路274弄16号"},{"poiid":"B2094750D269A3F94792","title":"MARINA RESTAURANT","lon":"121.468536","lat":"31.208196","category":"247","category_name":"餐饮美食","address":"田子坊23號"},{"poiid":"B2094757D16CAAFC429C","title":"TONO殿下咖啡西餐厅","lon":"121.46858573","lat":"31.207682819","category":"65","category_name":"咖啡厅","address":"上海泰康路248弄田子坊10号前门(近瑞金二路)"},{"poiid":"B2094753D66AA6FC4398","title":"徹思叔叔现烘起司蛋糕","lon":"121.468353","lat":"31.206628","category":"247","category_name":"餐饮美食","address":"上海市 日月光店"},{"poiid":"B2094757D164A4FB479A","title":"卢湾牙防所","lon":"121.468024738","lat":"31.2082688322","category":"500","category_name":"未知分类","address":"上海瑞金路"},{"poiid":"B2094757D16EA4F8409B","title":"Lapis Thai","lon":"121.46870373","lat":"31.207812822","category":"500","category_name":"未知分类","address":"上海市卢湾区泰康路248弄14号"},{"poiid":"B2094655D36CA5FD409A","title":"打浦桥","lon":"121.46726","lat":"31.20405","category":"38","category_name":"公交车站","address":""},{"poiid":"B2094757D06EABF54298","title":"泰迪之家 Ester's  Bear","lon":"121.468662054","lat":"31.207939793","category":"247","category_name":"餐饮美食","address":"卢湾区泰康路248弄田子坊23号(近瑞金二路)"},{"poiid":"B2094757D069AAF84692","title":"田子坊Panda bar","lon":"121.468042738","lat":"31.2082238313","category":"110","category_name":"其他亚洲菜","address":"卢湾区泰康路274-210弄(近瑞金二路)"},{"poiid":"B2094753D76FAAFA449C","title":"上海滩国泰旗舰店","lon":"121.466011","lat":"31.216125","category":"249","category_name":"购物服务","address":"淮海中路868号"},{"poiid":"B209475CD564A7F84292","title":"上海滩新天地店","lon":"121.47463","lat":"31.22164","category":"119","category_name":"商场","address":"\"太仓路181弄新天地北里15号\r\n\""},{"poiid":"B209475CD564A7F8439E","title":"上海滩中信泰富店","lon":"121.45602","lat":"31.22851","category":"119","category_name":"商场","address":"\"南京西路1168号中信泰富广场，店铺号221.\r\n\""},{"poiid":"B2094750D56EA4F8419D","title":"纯K(打浦桥店)","lon":"121.468788","lat":"31.206827","category":"170","category_name":"KTV","address":"上海市黄浦区瑞金二路泰康路口（日月光中心广场1楼）"},{"poiid":"B2094750D66CA6FE459E","title":"便所欢乐主题餐厅","lon":"121.468437","lat":"31.207887","category":"247","category_name":"餐饮美食","address":"卢湾区泰康路274弄田子坊5号(近谭木匠)"},{"poiid":"B2094750D56DA5FD469D","title":"日月光翠华茶餐厅","lon":"121.468162","lat":"31.207288","category":"247","category_name":"餐饮美食","address":null},{"poiid":"B2094757D06FA6F9439E","title":"泰康路田子坊","lon":"121.468519738","lat":"31.2081288292","category":"500","category_name":"未知分类","address":"上海市卢湾区绍兴路"},{"poiid":"B2094654DA6DA5FE4998","title":"288酒吧餐厅","lon":"121.46779","lat":"31.20752","category":"260","category_name":"其他","address":"卢湾区泰康路288号(瑞金二路思南路间)"},{"poiid":"B2094757D168A5FA449A","title":"天辣","lon":"121.46813273","lat":"31.207001805","category":"247","category_name":"餐饮美食","address":"上海日月光"},{"poiid":"B2094750DA6DA6FF4198","title":"台北纯k","lon":"121.469184","lat":"31.207139","category":"500","category_name":"未知分类","address":"卢湾区日月光"},{"poiid":"B2094757D06FA2FA449C","title":"藏珑泰极(田子坊店)","lon":"121.4681","lat":"31.20708","category":"99","category_name":"泰国／越南菜品餐厅","address":"卢湾区泰康路田子坊248弄14号(近瑞金二路)"},{"poiid":"B2094750DB6DA5F4419C","title":"台北纯k日月光店","lon":"121.468612","lat":"31.207105","category":"500","category_name":"未知分类","address":null},{"poiid":"B2094757D168A4FB409B","title":"莲池印度餐厅","lon":"121.468100738","lat":"31.2081448296","category":"102","category_name":"印度风味","address":"卢湾区泰康路274弄田子坊12号(近瑞金二路)"},{"poiid":"B2094757D164AAFC499A","title":"田子坊泰迪熊之家","lon":"121.468529738","lat":"31.2082148311","category":"500","category_name":"未知分类","address":null},{"poiid":"B2094757D06FA2FF4993","title":"公社 kommune","lon":"121.468662054","lat":"31.207939793","category":"65","category_name":"咖啡厅","address":"卢湾区泰康路210弄7号(近瑞金二路)"},{"poiid":"B2094757D06FA2FE419D","title":"Tai Thai 太泰","lon":"121.468485181","lat":"31.207996165","category":"110","category_name":"其他亚洲菜","address":"卢湾区泰康路248弄田子坊18号后门(近瑞金二路)"},{"poiid":"B2094751D564A2FD499B","title":"小辉哥火锅","lon":"121.468735","lat":"31.206894","category":"247","category_name":"餐饮美食","address":"卢湾区徐家汇路618号日月光中心广场1楼E-02室(近泰康路)"},{"poiid":"B2094757D06FA2FA499F","title":"大渔铁板烧 日月光中心店 TAIRYO","lon":"121.46778","lat":"31.20558","category":"268","category_name":"自助","address":"卢湾区徐家汇路618号日月光广场4楼(近瑞金二路)"},{"poiid":"B2094752D26AAAFB499B","title":"CAFE&BAR PRONTO","lon":"121.468735","lat":"31.206696","category":"247","category_name":"餐饮美食","address":"徐汇区徐家汇路618号日月光中心广场1楼露天广场E-01号铺"},{"poiid":"B2094757D06FA2FB439A","title":"GLISMATTEN瑞士火锅屋(田子坊店)","lon":"121.46867","lat":"31.20799","category":"94","category_name":"西餐厅","address":"卢湾区泰康路248弄田子坊9号(近瑞金二路)"},{"poiid":"B2094752D768A2FF4998","title":"冰火名家巫山烤全鱼","lon":"121.46824564025883","lat":"31.20683075670523","category":"247","category_name":"餐饮美食","address":"徐家汇路618号日月光中心广场4楼-22号铺(近打浦路) "},{"poiid":"B2094757D06FA0FB4493","title":"Bohemia coffee &amp; bar","lon":"121.46856114","lat":"31.2083910532","category":"65","category_name":"咖啡厅","address":"上海卢湾区泰康路248弄田子坊42号(近瑞金二路)"},{"poiid":"B2094750D66FA3FF409E","title":"便便餐厅","lon":"121.46836","lat":"31.207742","category":"247","category_name":"餐饮美食","address":null},{"poiid":"B2094750D66FA1F5469A","title":"翠华餐厅（日月光广场）","lon":"121.468521","lat":"31.206748","category":"500","category_name":"未知分类","address":null},{"poiid":"B2094757D06FA6F4409E","title":"Origin","lon":"121.46802573","lat":"31.208218831","category":"94","category_name":"西餐厅","address":"卢湾区建国中路155弄39号(近瑞金二路)"},{"poiid":"B2094757D664A3F84293","title":"阁楼上的餐厅 NO.37DiningBar","lon":"121.468673734","lat":"31.207928313","category":"257","category_name":"中餐厅","address":"卢湾区建国中路155弄田子坊37号(近瑞金二路)"},{"poiid":"B2094655D268A1F9459A","title":"Bell Cafe & Bar","lon":"121.46857","lat":"31.20774","category":"65","category_name":"咖啡厅","address":"卢湾区泰康路248弄11号后门(近瑞金二路)"},{"poiid":"B2094757D06FA1FE4593","title":"Tai Wine太红酒","lon":"121.4687479","lat":"31.2076454","category":"172","category_name":"酒吧","address":"上海卢湾区泰康路248弄田子坊38号(近瑞金二路)"},{"poiid":"B2094757D069A0F84893","title":"正豪大大鸡排(日月光店)","lon":"121.46829773","lat":"31.206971804","category":"68","category_name":"快餐厅","address":"卢湾区徐家汇路618号日月光中心广场B2楼(近打浦路)"},{"poiid":"B2094752D66EAAF44498","title":"小辉哥火锅","lon":"121.469155","lat":"31.20741","category":"247","category_name":"餐饮美食","address":"卢湾区徐家汇路618号日月光广场1F-E-02室"},{"poiid":"B2094751D56CA4FB4699","title":"猫屎咖啡(泰康路店)","lon":"121.4696","lat":"31.20782","category":"247","category_name":"餐饮美食","address":"徐汇区泰康路210号"},{"poiid":"B2094757D068A4F94498","title":"绿洲泰式料理(田子坊店)","lon":"121.46805","lat":"31.2079","category":"99","category_name":"泰国／越南菜品餐厅","address":"卢湾区泰康路248弄田子坊16号(近瑞金二路)"},{"poiid":"B2094757D66BA6F8499D","title":"喜空 CSky","lon":"121.468898","lat":"31.207786","category":"67","category_name":"甜品店","address":"上海卢湾区泰康路264号田子坊后门2楼起(思南路瑞金二路间)  "},{"poiid":"B2094750D16AABFB4993","title":"starbucks日月光店","lon":"121.468864","lat":"31.207487","category":"247","category_name":"餐饮美食","address":"泰康路"},{"poiid":"B2094757D06EAAFD4498","title":"麦当劳(日月光餐厅)","lon":"121.46867578","lat":"31.206947655","category":"68","category_name":"快餐厅","address":"卢湾区徐家汇路618号日月光中心广场B2-F-22号商铺(近瑞金二路)"},{"poiid":"B2094757D068AAFC4699","title":"En Grill &amp; Bar","lon":"121.46833","lat":"31.2072","category":"95","category_name":"日本料理","address":"卢湾区泰康路田子坊248弄20号(近瑞金二路)"},{"poiid":"B2094753D76DABFF419C","title":"镰仓pasta","lon":"121.469009","lat":"31.207704","category":"500","category_name":"未知分类","address":"上海市 泰康路"},{"poiid":"B2094757D06FA5F54293","title":"丹","lon":"121.46917","lat":"31.20738","category":"260","category_name":"其他","address":"卢湾区泰康路248弄41号田子坊后门(近瑞金二路)"},{"poiid":"B2094757D168A0FD429A","title":"上海外滩黄浦江","lon":"121.46821773","lat":"31.208367834","category":"500","category_name":"未知分类","address":"上海市"},{"poiid":"B2094757D068A2FC4499","title":"DQ冰雪皇后(日月光广场店)","lon":"121.46887373","lat":"31.208485836","category":"113","category_name":"冷饮店","address":"卢湾区徐家汇路618号日月光中心广场1楼F06号商铺(近瑞金二路)"},{"poiid":"B2094757D06FA5F94893","title":"华越楼(泰康店)","lon":"121.46876","lat":"31.20729","category":"99","category_name":"泰国／越南菜品餐厅","address":"上海卢湾区泰康路274弄田子坊13号(近瑞金二路)  "},{"poiid":"B2094757D06EAAFC409F","title":"气味图书馆","lon":"121.46882704","lat":"31.208104284","category":"122","category_name":"个人用品/化妆品店","address":"泰康路274弄16号"},{"poiid":"B2094750D269A3F94792","title":"MARINA RESTAURANT","lon":"121.468536","lat":"31.208196","category":"247","category_name":"餐饮美食","address":"田子坊23號"},{"poiid":"B2094757D16CAAFC429C","title":"TONO殿下咖啡西餐厅","lon":"121.46858573","lat":"31.207682819","category":"65","category_name":"咖啡厅","address":"上海泰康路248弄田子坊10号前门(近瑞金二路)"},{"poiid":"B2094753D66AA6FC4398","title":"徹思叔叔现烘起司蛋糕","lon":"121.468353","lat":"31.206628","category":"247","category_name":"餐饮美食","address":"上海市 日月光店"},{"poiid":"B2094757D164A4FB479A","title":"卢湾牙防所","lon":"121.468024738","lat":"31.2082688322","category":"500","category_name":"未知分类","address":"上海瑞金路"},{"poiid":"B2094757D16EA4F8409B","title":"Lapis Thai","lon":"121.46870373","lat":"31.207812822","category":"500","category_name":"未知分类","address":"上海市卢湾区泰康路248弄14号"}]