[{"poiid":"B2094655D26FABFB479E","title":"开元地中海","lon":"121.226","lat":"31.0447","category":"119","category_name":"商场","address":"上海松江区新松江路925号(人民北路口)"},{"poiid":"B2094654DB64A0FC4993","title":"上海市第一人民医院（南部分院）","lon":"121.22572","lat":"31.04036","category":"162","category_name":"医院","address":"近郊新松江路650号(近人民北路)"},{"poiid":"B2094654DB64A6FB4798","title":"上海松江开元名都大酒店","lon":"121.22106","lat":"31.03723","category":"250","category_name":"公园户外","address":"松江区人民北路1799号(近新松江路)"},{"poiid":"B2094655D26BA2FB439E","title":"松江新城地铁站","lon":"121.23194","lat":"31.02848","category":"36","category_name":"地铁站","address":"上海轨道交通 九号线 轨交松江新城站 9"},{"poiid":"B2094757D069A2FA429B","title":"中央公园","lon":"121.227502823","lat":"31.0360280584","category":"196","category_name":"公园","address":"上海松江新城翠湖路"},{"poiid":"B2094757D068ABFE4099","title":"榕港海鲜大酒楼(松江店)","lon":"121.23506","lat":"31.03308","category":"88","category_name":"海鲜酒楼","address":"松江区谷阳北路1425弄88号(谷阳北路南青路)"},{"poiid":"B2094757D16EAAF9449E","title":"上海市交通大学附属第一人民医院南院9B","lon":"121.222828767","lat":"31.0419531613","category":"162","category_name":"医院","address":"上海市新松江路650号"},{"poiid":"B2094655D26AA0FA4592","title":"地铁松江新城站","lon":"121.23099","lat":"31.03072","category":"36","category_name":"地铁站","address":""},{"poiid":"B2094757D069A0FF4993","title":"松江区政府行政一中心","lon":"121.227747","lat":"31.032243","category":"500","category_name":"未知分类","address":"上海松江区园中路1号"},{"poiid":"B2094655D268A1FE439C","title":"上海市第一人民医院(南部)急诊部","lon":"121.22573","lat":"31.04159","category":"162","category_name":"医院","address":"文翔路1485"},{"poiid":"B2094655D26FAAFA4592","title":"上外小别墅","lon":"121.22942","lat":"31.04522","category":"47","category_name":"住宅区","address":"松江区文翔路1550号上海外国语大学松江校区内(文翔路西林北路)"},{"poiid":"B2094757D06FABFB4798","title":"上海外国语大学教育会堂","lon":"121.22410545","lat":"31.044146872","category":"260","category_name":"其他","address":"上海松江区文翔路1550号"},{"poiid":"B2094654DB6EA2F8469A","title":"嘉和休闲广场","lon":"121.22469730537","lat":"31.038981603495","category":"201","category_name":"城市广场","address":"崇文区前门大街东打磨厂"},{"poiid":"B2094654DB65A5F9439B","title":"伊万里川","lon":"121.22112","lat":"31.03737","category":"95","category_name":"日本料理","address":"松江区人民北路1799号开元大酒店3楼(北翠路人民北路)"},{"poiid":"B2094757D069A6FF4692","title":"松江区图书馆","lon":"121.22335","lat":"31.03541","category":"181","category_name":"图书馆","address":"松江区龙兴路888号"},{"poiid":"B2094757D164A2FC429A","title":"上海外国语大学西外外国语学校","lon":"121.23489246","lat":"31.042756779","category":"500","category_name":"未知分类","address":"松江区文翔路1100号"},{"poiid":"B2094757D068A3F5489C","title":"肯德基 KFC (松江新城店)","lon":"121.231486524","lat":"31.0362641114","category":"68","category_name":"快餐厅","address":"上海新松江路935号"},{"poiid":"B2094654DB6EA2F4439E","title":"东其昌酒家","lon":"121.23316","lat":"31.03389","category":"76","category_name":"上海菜","address":"松江区松江谷阳北路371弄100号(南青路通跃路)"},{"poiid":"B2094757D16CA3FD469C","title":"友福咖啡","lon":"121.2347618","lat":"31.0387261","category":"260","category_name":"其他","address":"松江区新松江路265号(近开元地中海)"},{"poiid":"B2094654DB6EA2FB449D","title":"上海交通大学附属第一人民医院南院","lon":"121.22572","lat":"31.04037","category":"265","category_name":"知名企业","address":"新松江路1485号"},{"poiid":"B2094655D26DA6FD459B","title":"文景苑","lon":"121.2337","lat":"31.040943","category":"47","category_name":"住宅区","address":"上海市松江区文翔路1099弄"},{"poiid":"B2094757D76CA3FA409C","title":"阳光咖喱工坊 通跃路店","lon":"121.23114","lat":"31.02975","category":"68","category_name":"快餐厅","address":"松江区通跃路39号(近松江新城地铁站)"},{"poiid":"B2094757D66CA1FB479E","title":"传奇干锅","lon":"121.231288","lat":"31.031819","category":"71","category_name":"四川菜","address":"松江区通跃路161号(近松江新城地铁站)"},{"poiid":"B2094757D06FA5FD419E","title":"上海外国语大学法学院","lon":"121.226377","lat":"31.045086","category":"253","category_name":"校园生活","address":"松江区文翔路1550号上海外国语大学四教楼(法学院)"},{"poiid":"B2094655D264A0F9459F","title":"青柠9号线","lon":"121.23099","lat":"31.03737","category":"47","category_name":"住宅区","address":"嘉松公路近沈砖公路"},{"poiid":"B2094654DB64ABFD479A","title":"上岛咖啡(谷阳北路店)","lon":"121.23209","lat":"31.03312","category":"65","category_name":"咖啡厅","address":""},{"poiid":"B2094654DB64A0FD4099","title":"SPR COFFEE","lon":"121.22982","lat":"31.03835","category":"65","category_name":"咖啡厅","address":"松江9路第一人民医院站东"},{"poiid":"B2094654DB6EA2FB4598","title":"上海市松江区国家税务局","lon":"121.22527","lat":"31.0311","category":"250","category_name":"公园户外","address":"松江新城区园中路2号"},{"poiid":"B2094655D36DA6FE4592","title":"松江新城","lon":"121.23099","lat":"31.03072","category":"38","category_name":"公交车站","address":""},{"poiid":"B2094655D268A0F44499","title":"肯德基","lon":"121.23094","lat":"31.02897","category":"68","category_name":"快餐厅","address":"松江区思贤路(近松江新城地铁站)"},{"poiid":"B2094757D66DA7FD4199","title":"H3club","lon":"121.23237358","lat":"31.034370424","category":"500","category_name":"未知分类","address":"松江区南清路248号锦桂服饰商场1-4楼(近轻轨9号线松江新城站)"},{"poiid":"B2094757D065A2F8409E","title":"香茜大嘴蛙","lon":"121.231935044","lat":"31.0342126048","category":"71","category_name":"四川菜","address":"松江区通跃路75号(近9号线松江新城站)"},{"poiid":"B2094757D06AA1FA4498","title":"上海市工商行政管理局松江分局","lon":"121.22510781","lat":"31.031424079","category":"197","category_name":"动物园","address":"上海松江区方松街道文诚路69号"},{"poiid":"B2094654DB6EA2F44593","title":"永翔商业","lon":"121.2357","lat":"31.03316","category":"119","category_name":"商场","address":"松江区谷阳北路1470弄1号"},{"poiid":"B2094757D16EAAFC4698","title":"上海市松江区人民法院","lon":"121.224146467","lat":"31.0333175716","category":"608","category_name":"法院","address":"上海市松江区南青路701号"},{"poiid":"B2094757D06AAAF94692","title":"江中公寓","lon":"121.23276369112","lat":"31.032426619931","category":"47","category_name":"住宅区","address":"上海市松江区松江·人民北路"},{"poiid":"B2094655D36CA5F54499","title":"北翠路","lon":"121.23497","lat":"31.03668","category":"38","category_name":"公交车站","address":""},{"poiid":"B2094752D568A6FF4192","title":"泰晤士小镇","lon":"121.226338","lat":"31.034834","category":"250","category_name":"公园户外","address":"切尔西大街"},{"poiid":"B2094753D465A1FD419E","title":"新疆味道","lon":"121.232521","lat":"31.036258","category":"247","category_name":"餐饮美食","address":"上海市 松江区通跃路"},{"poiid":"B2094757D16CA0FA459F","title":"鼎信公寓","lon":"121.23335","lat":"31.03089","category":"47","category_name":"住宅区","address":"上海市长宁区长宁路820号"},{"poiid":"B2094654DB64A0FD4093","title":"绿洲华庭苑","lon":"121.226","lat":"31.035","category":"47","category_name":"住宅区","address":"上海市松江区冬梅路888号"},{"poiid":"B2094757D66DA0FF4792","title":"千里马酒楼松江二店","lon":"121.23263897","lat":"31.0330600856","category":"76","category_name":"上海菜","address":"松江区谷阳北路翔峰商业广场147号商铺"},{"poiid":"B2094750D26FA1F94892","title":"味千拉面(松江店)","lon":"121.232223","lat":"31.029062","category":"247","category_name":"餐饮美食","address":"松江区通跃路113号商业广场1楼(近地铁九号线松江新城站)"},{"poiid":"B2094751D56CA1F5459B","title":"大嘴蛙","lon":"121.23252","lat":"31.03234","category":"71","category_name":"四川菜","address":"松江区绿城路169-170号(九号线松江新城站旁)"},{"poiid":"B2094654DB6DA4F4489C","title":"松云水苑","lon":"121.23747","lat":"31.044041","category":"47","category_name":"住宅区","address":"文翔路928弄"},{"poiid":"B2094757D16EA6FB489B","title":"芭莎摄影","lon":"121.233088967","lat":"31.0345954997","category":"500","category_name":"未知分类","address":"松江区谷阳北路1425弄211号(近松江新城地铁站)查看地图"},{"poiid":"B2094753D568A1F9499E","title":"陌生人火锅","lon":"121.227592","lat":"31.033878","category":"247","category_name":"餐饮美食","address":"上海市 地中海3楼"},{"poiid":"B2094655D36CA6F44993","title":"第一人民医院松江分院","lon":"121.2264","lat":"31.03889","category":"38","category_name":"公交车站","address":""},{"poiid":"B2094757D16DABF9469D","title":"外门山足浴城","lon":"121.236618042","lat":"31.0363769531","category":"148","category_name":"美容美发店","address":"松江区西林北路(近北翠路)"},{"poiid":"B2094757D569A7FC489A","title":"皇家咖啡","lon":"121.22980306","lat":"31.03834635","category":"260","category_name":"其他","address":"松江区通欣路(近开元地中海)"},{"poiid":"B2094655D26FABFB479E","title":"开元地中海","lon":"121.226","lat":"31.0447","category":"119","category_name":"商场","address":"上海松江区新松江路925号(人民北路口)"},{"poiid":"B2094654DB64A0FC4993","title":"上海市第一人民医院（南部分院）","lon":"121.22572","lat":"31.04036","category":"162","category_name":"医院","address":"近郊新松江路650号(近人民北路)"},{"poiid":"B2094654DB64A6FB4798","title":"上海松江开元名都大酒店","lon":"121.22106","lat":"31.03723","category":"250","category_name":"公园户外","address":"松江区人民北路1799号(近新松江路)"},{"poiid":"B2094655D26BA2FB439E","title":"松江新城地铁站","lon":"121.23194","lat":"31.02848","category":"36","category_name":"地铁站","address":"上海轨道交通 九号线 轨交松江新城站 9"},{"poiid":"B2094757D069A2FA429B","title":"中央公园","lon":"121.227502823","lat":"31.0360280584","category":"196","category_name":"公园","address":"上海松江新城翠湖路"},{"poiid":"B2094757D068ABFE4099","title":"榕港海鲜大酒楼(松江店)","lon":"121.23506","lat":"31.03308","category":"88","category_name":"海鲜酒楼","address":"松江区谷阳北路1425弄88号(谷阳北路南青路)"},{"poiid":"B2094757D16EAAF9449E","title":"上海市交通大学附属第一人民医院南院9B","lon":"121.222828767","lat":"31.0419531613","category":"162","category_name":"医院","address":"上海市新松江路650号"},{"poiid":"B2094655D26AA0FA4592","title":"地铁松江新城站","lon":"121.23099","lat":"31.03072","category":"36","category_name":"地铁站","address":""},{"poiid":"B2094757D069A0FF4993","title":"松江区政府行政一中心","lon":"121.227747","lat":"31.032243","category":"500","category_name":"未知分类","address":"上海松江区园中路1号"},{"poiid":"B2094655D268A1FE439C","title":"上海市第一人民医院(南部)急诊部","lon":"121.22573","lat":"31.04159","category":"162","category_name":"医院","address":"文翔路1485"},{"poiid":"B2094655D26FAAFA4592","title":"上外小别墅","lon":"121.22942","lat":"31.04522","category":"47","category_name":"住宅区","address":"松江区文翔路1550号上海外国语大学松江校区内(文翔路西林北路)"},{"poiid":"B2094757D06FABFB4798","title":"上海外国语大学教育会堂","lon":"121.22410545","lat":"31.044146872","category":"260","category_name":"其他","address":"上海松江区文翔路1550号"},{"poiid":"B2094654DB6EA2F8469A","title":"嘉和休闲广场","lon":"121.22469730537","lat":"31.038981603495","category":"201","category_name":"城市广场","address":"崇文区前门大街东打磨厂"},{"poiid":"B2094654DB65A5F9439B","title":"伊万里川","lon":"121.22112","lat":"31.03737","category":"95","category_name":"日本料理","address":"松江区人民北路1799号开元大酒店3楼(北翠路人民北路)"},{"poiid":"B2094757D069A6FF4692","title":"松江区图书馆","lon":"121.22335","lat":"31.03541","category":"181","category_name":"图书馆","address":"松江区龙兴路888号"},{"poiid":"B2094757D164A2FC429A","title":"上海外国语大学西外外国语学校","lon":"121.23489246","lat":"31.042756779","category":"500","category_name":"未知分类","address":"松江区文翔路1100号"},{"poiid":"B2094757D068A3F5489C","title":"肯德基 KFC (松江新城店)","lon":"121.231486524","lat":"31.0362641114","category":"68","category_name":"快餐厅","address":"上海新松江路935号"},{"poiid":"B2094654DB6EA2F4439E","title":"东其昌酒家","lon":"121.23316","lat":"31.03389","category":"76","category_name":"上海菜","address":"松江区松江谷阳北路371弄100号(南青路通跃路)"},{"poiid":"B2094757D16CA3FD469C","title":"友福咖啡","lon":"121.2347618","lat":"31.0387261","category":"260","category_name":"其他","address":"松江区新松江路265号(近开元地中海)"},{"poiid":"B2094654DB6EA2FB449D","title":"上海交通大学附属第一人民医院南院","lon":"121.22572","lat":"31.04037","category":"265","category_name":"知名企业","address":"新松江路1485号"},{"poiid":"B2094655D26DA6FD459B","title":"文景苑","lon":"121.2337","lat":"31.040943","category":"47","category_name":"住宅区","address":"上海市松江区文翔路1099弄"},{"poiid":"B2094757D76CA3FA409C","title":"阳光咖喱工坊 通跃路店","lon":"121.23114","lat":"31.02975","category":"68","category_name":"快餐厅","address":"松江区通跃路39号(近松江新城地铁站)"},{"poiid":"B2094757D66CA1FB479E","title":"传奇干锅","lon":"121.231288","lat":"31.031819","category":"71","category_name":"四川菜","address":"松江区通跃路161号(近松江新城地铁站)"},{"poiid":"B2094757D06FA5FD419E","title":"上海外国语大学法学院","lon":"121.226377","lat":"31.045086","category":"253","category_name":"校园生活","address":"松江区文翔路1550号上海外国语大学四教楼(法学院)"},{"poiid":"B2094655D264A0F9459F","title":"青柠9号线","lon":"121.23099","lat":"31.03737","category":"47","category_name":"住宅区","address":"嘉松公路近沈砖公路"},{"poiid":"B2094654DB64ABFD479A","title":"上岛咖啡(谷阳北路店)","lon":"121.23209","lat":"31.03312","category":"65","category_name":"咖啡厅","address":""},{"poiid":"B2094654DB64A0FD4099","title":"SPR COFFEE","lon":"121.22982","lat":"31.03835","category":"65","category_name":"咖啡厅","address":"松江9路第一人民医院站东"},{"poiid":"B2094654DB6EA2FB4598","title":"上海市松江区国家税务局","lon":"121.22527","lat":"31.0311","category":"250","category_name":"公园户外","address":"松江新城区园中路2号"},{"poiid":"B2094655D36DA6FE4592","title":"松江新城","lon":"121.23099","lat":"31.03072","category":"38","category_name":"公交车站","address":""},{"poiid":"B2094655D268A0F44499","title":"肯德基","lon":"121.23094","lat":"31.02897","category":"68","category_name":"快餐厅","address":"松江区思贤路(近松江新城地铁站)"},{"poiid":"B2094757D66DA7FD4199","title":"H3club","lon":"121.23237358","lat":"31.034370424","category":"500","category_name":"未知分类","address":"松江区南清路248号锦桂服饰商场1-4楼(近轻轨9号线松江新城站)"},{"poiid":"B2094757D065A2F8409E","title":"香茜大嘴蛙","lon":"121.231935044","lat":"31.0342126048","category":"71","category_name":"四川菜","address":"松江区通跃路75号(近9号线松江新城站)"},{"poiid":"B2094757D06AA1FA4498","title":"上海市工商行政管理局松江分局","lon":"121.22510781","lat":"31.031424079","category":"197","category_name":"动物园","address":"上海松江区方松街道文诚路69号"},{"poiid":"B2094654DB6EA2F44593","title":"永翔商业","lon":"121.2357","lat":"31.03316","category":"119","category_name":"商场","address":"松江区谷阳北路1470弄1号"},{"poiid":"B2094757D16EAAFC4698","title":"上海市松江区人民法院","lon":"121.224146467","lat":"31.0333175716","category":"608","category_name":"法院","address":"上海市松江区南青路701号"},{"poiid":"B2094757D06AAAF94692","title":"江中公寓","lon":"121.23276369112","lat":"31.032426619931","category":"47","category_name":"住宅区","address":"上海市松江区松江·人民北路"},{"poiid":"B2094655D36CA5F54499","title":"北翠路","lon":"121.23497","lat":"31.03668","category":"38","category_name":"公交车站","address":""},{"poiid":"B2094752D568A6FF4192","title":"泰晤士小镇","lon":"121.226338","lat":"31.034834","category":"250","category_name":"公园户外","address":"切尔西大街"},{"poiid":"B2094753D465A1FD419E","title":"新疆味道","lon":"121.232521","lat":"31.036258","category":"247","category_name":"餐饮美食","address":"上海市 松江区通跃路"},{"poiid":"B2094757D16CA0FA459F","title":"鼎信公寓","lon":"121.23335","lat":"31.03089","category":"47","category_name":"住宅区","address":"上海市长宁区长宁路820号"},{"poiid":"B2094654DB64A0FD4093","title":"绿洲华庭苑","lon":"121.226","lat":"31.035","category":"47","category_name":"住宅区","address":"上海市松江区冬梅路888号"},{"poiid":"B2094757D66DA0FF4792","title":"千里马酒楼松江二店","lon":"121.23263897","lat":"31.0330600856","category":"76","category_name":"上海菜","address":"松江区谷阳北路翔峰商业广场147号商铺"},{"poiid":"B2094750D26FA1F94892","title":"味千拉面(松江店)","lon":"121.232223","lat":"31.029062","category":"247","category_name":"餐饮美食","address":"松江区通跃路113号商业广场1楼(近地铁九号线松江新城站)"},{"poiid":"B2094751D56CA1F5459B","title":"大嘴蛙","lon":"121.23252","lat":"31.03234","category":"71","category_name":"四川菜","address":"松江区绿城路169-170号(九号线松江新城站旁)"},{"poiid":"B2094654DB6DA4F4489C","title":"松云水苑","lon":"121.23747","lat":"31.044041","category":"47","category_name":"住宅区","address":"文翔路928弄"},{"poiid":"B2094757D16EA6FB489B","title":"芭莎摄影","lon":"121.233088967","lat":"31.0345954997","category":"500","category_name":"未知分类","address":"松江区谷阳北路1425弄211号(近松江新城地铁站)查看地图"},{"poiid":"B2094753D568A1F9499E","title":"陌生人火锅","lon":"121.227592","lat":"31.033878","category":"247","category_name":"餐饮美食","address":"上海市 地中海3楼"},{"poiid":"B2094655D36CA6F44993","title":"第一人民医院松江分院","lon":"121.2264","lat":"31.03889","category":"38","category_name":"公交车站","address":""},{"poiid":"B2094757D16DABF9469D","title":"外门山足浴城","lon":"121.236618042","lat":"31.0363769531","category":"148","category_name":"美容美发店","address":"松江区西林北路(近北翠路)"},{"poiid":"B2094757D569A7FC489A","title":"皇家咖啡","lon":"121.22980306","lat":"31.03834635","category":"260","category_name":"其他","address":"松江区通欣路(近开元地中海)"},{"poiid":"B2094655D26FABFB479E","title":"开元地中海","lon":"121.226","lat":"31.0447","category":"119","category_name":"商场","address":"上海松江区新松江路925号(人民北路口)"},{"poiid":"B2094654DB64A0FC4993","title":"上海市第一人民医院（南部分院）","lon":"121.22572","lat":"31.04036","category":"162","category_name":"医院","address":"近郊新松江路650号(近人民北路)"},{"poiid":"B2094654DB64A6FB4798","title":"上海松江开元名都大酒店","lon":"121.22106","lat":"31.03723","category":"250","category_name":"公园户外","address":"松江区人民北路1799号(近新松江路)"},{"poiid":"B2094655D26BA2FB439E","title":"松江新城地铁站","lon":"121.23194","lat":"31.02848","category":"36","category_name":"地铁站","address":"上海轨道交通 九号线 轨交松江新城站 9"},{"poiid":"B2094757D069A2FA429B","title":"中央公园","lon":"121.227502823","lat":"31.0360280584","category":"196","category_name":"公园","address":"上海松江新城翠湖路"},{"poiid":"B2094757D068ABFE4099","title":"榕港海鲜大酒楼(松江店)","lon":"121.23506","lat":"31.03308","category":"88","category_name":"海鲜酒楼","address":"松江区谷阳北路1425弄88号(谷阳北路南青路)"},{"poiid":"B2094757D16EAAF9449E","title":"上海市交通大学附属第一人民医院南院9B","lon":"121.222828767","lat":"31.0419531613","category":"162","category_name":"医院","address":"上海市新松江路650号"},{"poiid":"B2094655D26AA0FA4592","title":"地铁松江新城站","lon":"121.23099","lat":"31.03072","category":"36","category_name":"地铁站","address":""},{"poiid":"B2094757D069A0FF4993","title":"松江区政府行政一中心","lon":"121.227747","lat":"31.032243","category":"500","category_name":"未知分类","address":"上海松江区园中路1号"},{"poiid":"B2094655D268A1FE439C","title":"上海市第一人民医院(南部)急诊部","lon":"121.22573","lat":"31.04159","category":"162","category_name":"医院","address":"文翔路1485"},{"poiid":"B2094655D26FAAFA4592","title":"上外小别墅","lon":"121.22942","lat":"31.04522","category":"47","category_name":"住宅区","address":"松江区文翔路1550号上海外国语大学松江校区内(文翔路西林北路)"},{"poiid":"B2094757D06FABFB4798","title":"上海外国语大学教育会堂","lon":"121.22410545","lat":"31.044146872","category":"260","category_name":"其他","address":"上海松江区文翔路1550号"},{"poiid":"B2094654DB6EA2F8469A","title":"嘉和休闲广场","lon":"121.22469730537","lat":"31.038981603495","category":"201","category_name":"城市广场","address":"崇文区前门大街东打磨厂"},{"poiid":"B2094654DB65A5F9439B","title":"伊万里川","lon":"121.22112","lat":"31.03737","category":"95","category_name":"日本料理","address":"松江区人民北路1799号开元大酒店3楼(北翠路人民北路)"},{"poiid":"B2094757D069A6FF4692","title":"松江区图书馆","lon":"121.22335","lat":"31.03541","category":"181","category_name":"图书馆","address":"松江区龙兴路888号"},{"poiid":"B2094757D164A2FC429A","title":"上海外国语大学西外外国语学校","lon":"121.23489246","lat":"31.042756779","category":"500","category_name":"未知分类","address":"松江区文翔路1100号"},{"poiid":"B2094757D068A3F5489C","title":"肯德基 KFC (松江新城店)","lon":"121.231486524","lat":"31.0362641114","category":"68","category_name":"快餐厅","address":"上海新松江路935号"},{"poiid":"B2094654DB6EA2F4439E","title":"东其昌酒家","lon":"121.23316","lat":"31.03389","category":"76","category_name":"上海菜","address":"松江区松江谷阳北路371弄100号(南青路通跃路)"},{"poiid":"B2094757D16CA3FD469C","title":"友福咖啡","lon":"121.2347618","lat":"31.0387261","category":"260","category_name":"其他","address":"松江区新松江路265号(近开元地中海)"},{"poiid":"B2094654DB6EA2FB449D","title":"上海交通大学附属第一人民医院南院","lon":"121.22572","lat":"31.04037","category":"265","category_name":"知名企业","address":"新松江路1485号"},{"poiid":"B2094655D26DA6FD459B","title":"文景苑","lon":"121.2337","lat":"31.040943","category":"47","category_name":"住宅区","address":"上海市松江区文翔路1099弄"},{"poiid":"B2094757D76CA3FA409C","title":"阳光咖喱工坊 通跃路店","lon":"121.23114","lat":"31.02975","category":"68","category_name":"快餐厅","address":"松江区通跃路39号(近松江新城地铁站)"},{"poiid":"B2094757D66CA1FB479E","title":"传奇干锅","lon":"121.231288","lat":"31.031819","category":"71","category_name":"四川菜","address":"松江区通跃路161号(近松江新城地铁站)"},{"poiid":"B2094757D06FA5FD419E","title":"上海外国语大学法学院","lon":"121.226377","lat":"31.045086","category":"253","category_name":"校园生活","address":"松江区文翔路1550号上海外国语大学四教楼(法学院)"},{"poiid":"B2094655D264A0F9459F","title":"青柠9号线","lon":"121.23099","lat":"31.03737","category":"47","category_name":"住宅区","address":"嘉松公路近沈砖公路"},{"poiid":"B2094654DB64ABFD479A","title":"上岛咖啡(谷阳北路店)","lon":"121.23209","lat":"31.03312","category":"65","category_name":"咖啡厅","address":""},{"poiid":"B2094654DB64A0FD4099","title":"SPR COFFEE","lon":"121.22982","lat":"31.03835","category":"65","category_name":"咖啡厅","address":"松江9路第一人民医院站东"},{"poiid":"B2094654DB6EA2FB4598","title":"上海市松江区国家税务局","lon":"121.22527","lat":"31.0311","category":"250","category_name":"公园户外","address":"松江新城区园中路2号"},{"poiid":"B2094655D36DA6FE4592","title":"松江新城","lon":"121.23099","lat":"31.03072","category":"38","category_name":"公交车站","address":""},{"poiid":"B2094655D268A0F44499","title":"肯德基","lon":"121.23094","lat":"31.02897","category":"68","category_name":"快餐厅","address":"松江区思贤路(近松江新城地铁站)"},{"poiid":"B2094757D66DA7FD4199","title":"H3club","lon":"121.23237358","lat":"31.034370424","category":"500","category_name":"未知分类","address":"松江区南清路248号锦桂服饰商场1-4楼(近轻轨9号线松江新城站)"},{"poiid":"B2094757D065A2F8409E","title":"香茜大嘴蛙","lon":"121.231935044","lat":"31.0342126048","category":"71","category_name":"四川菜","address":"松江区通跃路75号(近9号线松江新城站)"},{"poiid":"B2094757D06AA1FA4498","title":"上海市工商行政管理局松江分局","lon":"121.22510781","lat":"31.031424079","category":"197","category_name":"动物园","address":"上海松江区方松街道文诚路69号"},{"poiid":"B2094654DB6EA2F44593","title":"永翔商业","lon":"121.2357","lat":"31.03316","category":"119","category_name":"商场","address":"松江区谷阳北路1470弄1号"},{"poiid":"B2094757D16EAAFC4698","title":"上海市松江区人民法院","lon":"121.224146467","lat":"31.0333175716","category":"608","category_name":"法院","address":"上海市松江区南青路701号"},{"poiid":"B2094757D06AAAF94692","title":"江中公寓","lon":"121.23276369112","lat":"31.032426619931","category":"47","category_name":"住宅区","address":"上海市松江区松江·人民北路"},{"poiid":"B2094655D36CA5F54499","title":"北翠路","lon":"121.23497","lat":"31.03668","category":"38","category_name":"公交车站","address":""},{"poiid":"B2094752D568A6FF4192","title":"泰晤士小镇","lon":"121.226338","lat":"31.034834","category":"250","category_name":"公园户外","address":"切尔西大街"},{"poiid":"B2094753D465A1FD419E","title":"新疆味道","lon":"121.232521","lat":"31.036258","category":"247","category_name":"餐饮美食","address":"上海市 松江区通跃路"},{"poiid":"B2094757D16CA0FA459F","title":"鼎信公寓","lon":"121.23335","lat":"31.03089","category":"47","category_name":"住宅区","address":"上海市长宁区长宁路820号"},{"poiid":"B2094654DB64A0FD4093","title":"绿洲华庭苑","lon":"121.226","lat":"31.035","category":"47","category_name":"住宅区","address":"上海市松江区冬梅路888号"},{"poiid":"B2094757D66DA0FF4792","title":"千里马酒楼松江二店","lon":"121.23263897","lat":"31.0330600856","category":"76","category_name":"上海菜","address":"松江区谷阳北路翔峰商业广场147号商铺"},{"poiid":"B2094750D26FA1F94892","title":"味千拉面(松江店)","lon":"121.232223","lat":"31.029062","category":"247","category_name":"餐饮美食","address":"松江区通跃路113号商业广场1楼(近地铁九号线松江新城站)"},{"poiid":"B2094751D56CA1F5459B","title":"大嘴蛙","lon":"121.23252","lat":"31.03234","category":"71","category_name":"四川菜","address":"松江区绿城路169-170号(九号线松江新城站旁)"},{"poiid":"B2094654DB6DA4F4489C","title":"松云水苑","lon":"121.23747","lat":"31.044041","category":"47","category_name":"住宅区","address":"文翔路928弄"},{"poiid":"B2094757D16EA6FB489B","title":"芭莎摄影","lon":"121.233088967","lat":"31.0345954997","category":"500","category_name":"未知分类","address":"松江区谷阳北路1425弄211号(近松江新城地铁站)查看地图"},{"poiid":"B2094753D568A1F9499E","title":"陌生人火锅","lon":"121.227592","lat":"31.033878","category":"247","category_name":"餐饮美食","address":"上海市 地中海3楼"},{"poiid":"B2094655D36CA6F44993","title":"第一人民医院松江分院","lon":"121.2264","lat":"31.03889","category":"38","category_name":"公交车站","address":""},{"poiid":"B2094757D16DABF9469D","title":"外门山足浴城","lon":"121.236618042","lat":"31.0363769531","category":"148","category_name":"美容美发店","address":"松江区西林北路(近北翠路)"},{"poiid":"B2094757D569A7FC489A","title":"皇家咖啡","lon":"121.22980306","lat":"31.03834635","category":"260","category_name":"其他","address":"松江区通欣路(近开元地中海)"},{"poiid":"B2094655D26FABFB479E","title":"开元地中海","lon":"121.226","lat":"31.0447","category":"119","category_name":"商场","address":"上海松江区新松江路925号(人民北路口)"},{"poiid":"B2094654DB64A0FC4993","title":"上海市第一人民医院（南部分院）","lon":"121.22572","lat":"31.04036","category":"162","category_name":"医院","address":"近郊新松江路650号(近人民北路)"},{"poiid":"B2094654DB64A6FB4798","title":"上海松江开元名都大酒店","lon":"121.22106","lat":"31.03723","category":"250","category_name":"公园户外","address":"松江区人民北路1799号(近新松江路)"},{"poiid":"B2094655D26BA2FB439E","title":"松江新城地铁站","lon":"121.23194","lat":"31.02848","category":"36","category_name":"地铁站","address":"上海轨道交通 九号线 轨交松江新城站 9"},{"poiid":"B2094757D069A2FA429B","title":"中央公园","lon":"121.227502823","lat":"31.0360280584","category":"196","category_name":"公园","address":"上海松江新城翠湖路"},{"poiid":"B2094757D068ABFE4099","title":"榕港海鲜大酒楼(松江店)","lon":"121.23506","lat":"31.03308","category":"88","category_name":"海鲜酒楼","address":"松江区谷阳北路1425弄88号(谷阳北路南青路)"},{"poiid":"B2094757D16EAAF9449E","title":"上海市交通大学附属第一人民医院南院9B","lon":"121.222828767","lat":"31.0419531613","category":"162","category_name":"医院","address":"上海市新松江路650号"},{"poiid":"B2094655D26AA0FA4592","title":"地铁松江新城站","lon":"121.23099","lat":"31.03072","category":"36","category_name":"地铁站","address":""},{"poiid":"B2094757D069A0FF4993","title":"松江区政府行政一中心","lon":"121.227747","lat":"31.032243","category":"500","category_name":"未知分类","address":"上海松江区园中路1号"},{"poiid":"B2094655D268A1FE439C","title":"上海市第一人民医院(南部)急诊部","lon":"121.22573","lat":"31.04159","category":"162","category_name":"医院","address":"文翔路1485"},{"poiid":"B2094655D26FAAFA4592","title":"上外小别墅","lon":"121.22942","lat":"31.04522","category":"47","category_name":"住宅区","address":"松江区文翔路1550号上海外国语大学松江校区内(文翔路西林北路)"},{"poiid":"B2094757D06FABFB4798","title":"上海外国语大学教育会堂","lon":"121.22410545","lat":"31.044146872","category":"260","category_name":"其他","address":"上海松江区文翔路1550号"},{"poiid":"B2094654DB6EA2F8469A","title":"嘉和休闲广场","lon":"121.22469730537","lat":"31.038981603495","category":"201","category_name":"城市广场","address":"崇文区前门大街东打磨厂"},{"poiid":"B2094654DB65A5F9439B","title":"伊万里川","lon":"121.22112","lat":"31.03737","category":"95","category_name":"日本料理","address":"松江区人民北路1799号开元大酒店3楼(北翠路人民北路)"},{"poiid":"B2094757D069A6FF4692","title":"松江区图书馆","lon":"121.22335","lat":"31.03541","category":"181","category_name":"图书馆","address":"松江区龙兴路888号"},{"poiid":"B2094757D164A2FC429A","title":"上海外国语大学西外外国语学校","lon":"121.23489246","lat":"31.042756779","category":"500","category_name":"未知分类","address":"松江区文翔路1100号"},{"poiid":"B2094757D068A3F5489C","title":"肯德基 KFC (松江新城店)","lon":"121.231486524","lat":"31.0362641114","category":"68","category_name":"快餐厅","address":"上海新松江路935号"},{"poiid":"B2094654DB6EA2F4439E","title":"东其昌酒家","lon":"121.23316","lat":"31.03389","category":"76","category_name":"上海菜","address":"松江区松江谷阳北路371弄100号(南青路通跃路)"},{"poiid":"B2094757D16CA3FD469C","title":"友福咖啡","lon":"121.2347618","lat":"31.0387261","category":"260","category_name":"其他","address":"松江区新松江路265号(近开元地中海)"},{"poiid":"B2094654DB6EA2FB449D","title":"上海交通大学附属第一人民医院南院","lon":"121.22572","lat":"31.04037","category":"265","category_name":"知名企业","address":"新松江路1485号"},{"poiid":"B2094655D26DA6FD459B","title":"文景苑","lon":"121.2337","lat":"31.040943","category":"47","category_name":"住宅区","address":"上海市松江区文翔路1099弄"},{"poiid":"B2094757D76CA3FA409C","title":"阳光咖喱工坊 通跃路店","lon":"121.23114","lat":"31.02975","category":"68","category_name":"快餐厅","address":"松江区通跃路39号(近松江新城地铁站)"},{"poiid":"B2094757D66CA1FB479E","title":"传奇干锅","lon":"121.231288","lat":"31.031819","category":"71","category_name":"四川菜","address":"松江区通跃路161号(近松江新城地铁站)"},{"poiid":"B2094757D06FA5FD419E","title":"上海外国语大学法学院","lon":"121.226377","lat":"31.045086","category":"253","category_name":"校园生活","address":"松江区文翔路1550号上海外国语大学四教楼(法学院)"},{"poiid":"B2094655D264A0F9459F","title":"青柠9号线","lon":"121.23099","lat":"31.03737","category":"47","category_name":"住宅区","address":"嘉松公路近沈砖公路"},{"poiid":"B2094654DB64ABFD479A","title":"上岛咖啡(谷阳北路店)","lon":"121.23209","lat":"31.03312","category":"65","category_name":"咖啡厅","address":""},{"poiid":"B2094654DB64A0FD4099","title":"SPR COFFEE","lon":"121.22982","lat":"31.03835","category":"65","category_name":"咖啡厅","address":"松江9路第一人民医院站东"},{"poiid":"B2094654DB6EA2FB4598","title":"上海市松江区国家税务局","lon":"121.22527","lat":"31.0311","category":"250","category_name":"公园户外","address":"松江新城区园中路2号"},{"poiid":"B2094655D36DA6FE4592","title":"松江新城","lon":"121.23099","lat":"31.03072","category":"38","category_name":"公交车站","address":""},{"poiid":"B2094655D268A0F44499","title":"肯德基","lon":"121.23094","lat":"31.02897","category":"68","category_name":"快餐厅","address":"松江区思贤路(近松江新城地铁站)"},{"poiid":"B2094757D66DA7FD4199","title":"H3club","lon":"121.23237358","lat":"31.034370424","category":"500","category_name":"未知分类","address":"松江区南清路248号锦桂服饰商场1-4楼(近轻轨9号线松江新城站)"},{"poiid":"B2094757D065A2F8409E","title":"香茜大嘴蛙","lon":"121.231935044","lat":"31.0342126048","category":"71","category_name":"四川菜","address":"松江区通跃路75号(近9号线松江新城站)"},{"poiid":"B2094757D06AA1FA4498","title":"上海市工商行政管理局松江分局","lon":"121.22510781","lat":"31.031424079","category":"197","category_name":"动物园","address":"上海松江区方松街道文诚路69号"},{"poiid":"B2094654DB6EA2F44593","title":"永翔商业","lon":"121.2357","lat":"31.03316","category":"119","category_name":"商场","address":"松江区谷阳北路1470弄1号"},{"poiid":"B2094757D16EAAFC4698","title":"上海市松江区人民法院","lon":"121.224146467","lat":"31.0333175716","category":"608","category_name":"法院","address":"上海市松江区南青路701号"},{"poiid":"B2094757D06AAAF94692","title":"江中公寓","lon":"121.23276369112","lat":"31.032426619931","category":"47","category_name":"住宅区","address":"上海市松江区松江·人民北路"},{"poiid":"B2094655D36CA5F54499","title":"北翠路","lon":"121.23497","lat":"31.03668","category":"38","category_name":"公交车站","address":""},{"poiid":"B2094752D568A6FF4192","title":"泰晤士小镇","lon":"121.226338","lat":"31.034834","category":"250","category_name":"公园户外","address":"切尔西大街"},{"poiid":"B2094753D465A1FD419E","title":"新疆味道","lon":"121.232521","lat":"31.036258","category":"247","category_name":"餐饮美食","address":"上海市 松江区通跃路"},{"poiid":"B2094757D16CA0FA459F","title":"鼎信公寓","lon":"121.23335","lat":"31.03089","category":"47","category_name":"住宅区","address":"上海市长宁区长宁路820号"},{"poiid":"B2094654DB64A0FD4093","title":"绿洲华庭苑","lon":"121.226","lat":"31.035","category":"47","category_name":"住宅区","address":"上海市松江区冬梅路888号"},{"poiid":"B2094757D66DA0FF4792","title":"千里马酒楼松江二店","lon":"121.23263897","lat":"31.0330600856","category":"76","category_name":"上海菜","address":"松江区谷阳北路翔峰商业广场147号商铺"},{"poiid":"B2094750D26FA1F94892","title":"味千拉面(松江店)","lon":"121.232223","lat":"31.029062","category":"247","category_name":"餐饮美食","address":"松江区通跃路113号商业广场1楼(近地铁九号线松江新城站)"},{"poiid":"B2094751D56CA1F5459B","title":"大嘴蛙","lon":"121.23252","lat":"31.03234","category":"71","category_name":"四川菜","address":"松江区绿城路169-170号(九号线松江新城站旁)"},{"poiid":"B2094654DB6DA4F4489C","title":"松云水苑","lon":"121.23747","lat":"31.044041","category":"47","category_name":"住宅区","address":"文翔路928弄"},{"poiid":"B2094757D16EA6FB489B","title":"芭莎摄影","lon":"121.233088967","lat":"31.0345954997","category":"500","category_name":"未知分类","address":"松江区谷阳北路1425弄211号(近松江新城地铁站)查看地图"},{"poiid":"B2094753D568A1F9499E","title":"陌生人火锅","lon":"121.227592","lat":"31.033878","category":"247","category_name":"餐饮美食","address":"上海市 地中海3楼"},{"poiid":"B2094655D36CA6F44993","title":"第一人民医院松江分院","lon":"121.2264","lat":"31.03889","category":"38","category_name":"公交车站","address":""},{"poiid":"B2094757D16DABF9469D","title":"外门山足浴城","lon":"121.236618042","lat":"31.0363769531","category":"148","category_name":"美容美发店","address":"松江区西林北路(近北翠路)"},{"poiid":"B2094757D569A7FC489A","title":"皇家咖啡","lon":"121.22980306","lat":"31.03834635","category":"260","category_name":"其他","address":"松江区通欣路(近开元地中海)"}]