[{"poiid":"B2094655D268ABFC4692","title":"仲盛世界商城","lon":"121.394514","lat":"31.114042","category":"119","category_name":"商场","address":"上海闵行区都市路5001号(莘庄地铁站南广场)"},{"poiid":"B2094655D26AA0FA479A","title":"地铁外环路站","lon":"121.39286","lat":"31.12055","category":"36","category_name":"地铁站","address":""},{"poiid":"B2094757D06FA3FD4898","title":"上海映象阳城","lon":"121.39856111","lat":"31.121533659","category":"47","category_name":"住宅区","address":"上海映象(二期)位于闵行罗锦路888弄"},{"poiid":"B2094655D26BA2FE499C","title":"外环路地铁站","lon":"121.39309","lat":"31.12323","category":"36","category_name":"地铁站","address":""},{"poiid":"B2094757D068A3F9449C","title":"锦江乐园摩天轮","lon":"121.39376546","lat":"31.115948008","category":"195","category_name":"游乐场","address":"上海闵行区虹梅路201号锦江乐园内"},{"poiid":"B2094654DB6CA3FB4399","title":"上海市西南工程学校(梅陇西路)","lon":"121.39411","lat":"31.11976","category":"54","category_name":"职业技术学校","address":"闵行区梅陇西路1566号(近罗锦路)"},{"poiid":"B2094757D165A1F54893","title":"绿地科技岛","lon":"121.39573209529","lat":"31.11807358381","category":"249","category_name":"购物服务","address":"闵行区广通路18号(莘建东路口)"},{"poiid":"B2094757D068A1FA4693","title":"绿地蓝海","lon":"121.394","lat":"31.1219","category":"119","category_name":"商场","address":"闵行区莘建东路(近莘庄北广场)"},{"poiid":"B2094757D06FA5F9429D","title":"莲花河畔景苑","lon":"121.40162","lat":"31.124704","category":"47","category_name":"住宅区","address":"安波路569号(近营口路)"},{"poiid":"B2094757D068A3FC409F","title":"报春路沪闵路","lon":"121.39455413","lat":"31.126020431","category":"260","category_name":"其他","address":"上海报春路沪闵路"},{"poiid":"B2094757D068A0F9429E","title":"上海阳城","lon":"121.3962","lat":"31.120998","category":"47","category_name":"住宅区","address":"上海闵行区罗锦路888弄(近梅陇西路)"},{"poiid":"B2094654DB64A2F54192","title":"未名园","lon":"121.40447","lat":"31.120211","category":"47","category_name":"住宅区","address":"莲花南路588弄"},{"poiid":"B2094757D06FA5F8439D","title":"三洲花园","lon":"121.3972668","lat":"31.122852936","category":"47","category_name":"住宅区","address":"上海罗阳路800弄"},{"poiid":"B2094757D06FA0FC479D","title":"S20外环公路","lon":"121.40542158","lat":"31.11869442","category":"260","category_name":"其他","address":"上海市S20外环公路"},{"poiid":"B2094757DA69A1F9449A","title":"凯德龙之梦-闵行","lon":"121.39745","lat":"31.12681","category":"119","category_name":"商场","address":"沪闵路6088号"},{"poiid":"B2094757D068A6FC449F","title":"莘南花苑","lon":"121.403","lat":"31.1167","category":"47","category_name":"住宅区","address":"上海闵行区莘吉路畹町路"},{"poiid":"B2094750D269A1F9419A","title":"芋贵人甜品店 莘庄龙之梦店","lon":"121.39147996902","lat":"31.122192759554","category":"67","category_name":"甜品店","address":"闵行区沪闵路6088号莘庄龙之梦购物中心B2楼52号商铺(近莘建路)"},{"poiid":"B2094655D26BA6F54198","title":"重庆鸡公煲 罗锦路店","lon":"121.40362","lat":"31.1213","category":"71","category_name":"四川菜","address":"闵行区罗锦路750弄7-2号(近一号线外环路站)"},{"poiid":"B2094655D268A2F44598","title":"静安面包房(罗锦路)","lon":"121.40044","lat":"31.12188","category":"112","category_name":"糕饼店","address":"闵行区罗锦路(莲花南路罗锦路)"},{"poiid":"B2094654DB6CA3F4429E","title":"金龙酒家","lon":"121.39954724596","lat":"31.120804975886","category":"76","category_name":"上海菜","address":"闵行区罗锦路789号(上海印象对面)"},{"poiid":"B2094750D665A0FF429B","title":"十里洋小笼馆(罗锦路店)","lon":"121.4","lat":"31.122","category":"68","category_name":"快餐厅","address":"闵行区罗锦路767号(近景彩路)"},{"poiid":"B2094757D069A4FE4092","title":"华宝小区(罗阳七村)","lon":"121.40133","lat":"31.124051","category":"47","category_name":"住宅区","address":"上海罗阳路750弄"},{"poiid":"B2094654DB6CAAF84593","title":"中城绿苑·西苑","lon":"121.40098","lat":"31.11277","category":"47","category_name":"住宅区","address":"上海闵行区伟业路621弄"},{"poiid":"B2094655D264A4FC469C","title":"长旺香港仔茶餐厅罗锦店","lon":"121.40108","lat":"31.12173","category":"72","category_name":"广东菜","address":"闵行区罗锦路729号(近一号线外环路站)"},{"poiid":"B2094757D16DA6FC409D","title":"和禾烧烤","lon":"121.39433","lat":"31.12245","category":"68","category_name":"快餐厅","address":"闵行区罗锦路939号4号门(近梅陇西路)"},{"poiid":"B2094654DB6CA3F5439C","title":"闵行区梅陇社区卫生服务中心","lon":"121.40218","lat":"31.12088","category":"162","category_name":"医院","address":"景彩路100"},{"poiid":"B2094757D16FA4FA459A","title":"蜀千鸡公煲(罗锦路店)","lon":"121.40134","lat":"31.12146","category":"71","category_name":"四川菜","address":"闵行区罗锦路750弄6号(近景彩路)"},{"poiid":"B2094655D26FA5F84193","title":"东苑绿世界花园","lon":"121.39368","lat":"31.125216","category":"47","category_name":"住宅区","address":"沪闵路6918弄沪闵路6780弄报春路128弄"},{"poiid":"B2094751D368A3FC469C","title":"记得Cafe","lon":"121.39525","lat":"31.12209","category":"247","category_name":"餐饮美食","address":"闵行区梅陇西路1312号(近罗锦路)"},{"poiid":"B2094654DB6CA3F4499B","title":"快客(罗锦路)","lon":"121.39891","lat":"31.12191","category":"117","category_name":"便民商店/便利店","address":"罗锦路884"},{"poiid":"B2094655D26BA1FB4093","title":"罗阳七村","lon":"121.39954","lat":"31.12202","category":"38","category_name":"公交车站","address":""},{"poiid":"B2094655D264A0FB419C","title":"东苑利景花苑二期","lon":"121.396577","lat":"31.117612","category":"47","category_name":"住宅区","address":"上海市卢湾区徐家汇路515弄"},{"poiid":"B2094757D66CAAFF4393","title":"颐品居热气涮羊肉","lon":"121.39616085","lat":"31.122762817","category":"247","category_name":"餐饮美食","address":"闵行区罗锦路(近梅陇西路)"},{"poiid":"B2094654DB6CA3F4409A","title":"好德No.491","lon":"121.39813","lat":"31.12248","category":"117","category_name":"便民商店/便利店","address":"罗锦路"},{"poiid":"B2094757D06AABFD499D","title":"联华快客便利(罗锦店)","lon":"121.39901","lat":"31.1217","category":"117","category_name":"便民商店/便利店","address":"闵行区罗锦路884号"},{"poiid":"B2094655D265A1FA4398","title":"东苑利景花苑三期","lon":"121.398372","lat":"31.116849","category":"47","category_name":"住宅区","address":"上海市闵行区宝城路500号"},{"poiid":"B2094654DB65A3F5449E","title":"罗阳七村三洲花园","lon":"121.39839","lat":"31.123087","category":"47","category_name":"住宅区","address":"罗阳路800弄"},{"poiid":"B2094757D569A6FA479E","title":"名都新城四期","lon":"121.398","lat":"31.1148","category":"47","category_name":"住宅区","address":"上海市闵行区友情路50弄"},{"poiid":"B2094750DA6FA2F54493","title":"上海第二工业大学","lon":"121.395385","lat":"31.120998","category":"671","category_name":"高校中心点","address":"金海路2360号"},{"poiid":"B2094757D16CA5F4479C","title":"潮锦村","lon":"121.3979","lat":"31.12081","category":"500","category_name":"未知分类","address":"上海闵行区罗锦路939号近地铁外环线站南广场  "},{"poiid":"B2094757D168AAFD489C","title":"Mc Cafe(友誼南方店)","lon":"121.39696385","lat":"31.121041783","category":"500","category_name":"未知分类","address":"上海市闵行区沪闵路778南方商城F1"},{"poiid":"B2094757D168ABFA499F","title":"光头辣酱面大王","lon":"121.397267857","lat":"31.1225048127","category":"247","category_name":"餐饮美食","address":"上海罗锦路901号"},{"poiid":"B2094655D36DA6FE479A","title":"外环路","lon":"121.39286","lat":"31.12055","category":"38","category_name":"公交车站","address":""},{"poiid":"B2094655D26EA5F9479B","title":"汤家巷小区","lon":"121.39954","lat":"31.11684","category":"47","category_name":"住宅区","address":""},{"poiid":"B2094750DB6FA3FD439F","title":"上海交通大学闵行校区东上院","lon":"121.39537","lat":"31.120988","category":"500","category_name":"未知分类","address":"东川路800号"},{"poiid":"B2094654DB65A6FF429A","title":"闵行区罗阳小学","lon":"121.40024","lat":"31.12399","category":"56","category_name":"小学","address":"罗阳七村225"},{"poiid":"B2094655D268A3F94399","title":"张军擀面皮罗锦店","lon":"121.40166","lat":"31.12157","category":"68","category_name":"快餐厅","address":"闵行区罗锦路697号(近莲花南路)"},{"poiid":"B2094655D265A7FC4198","title":"如家粥馆","lon":"121.40166","lat":"31.12158","category":"257","category_name":"中餐厅","address":"罗锦路695号"},{"poiid":"B2094654DB64ABFA439C","title":"颐品居热气羊肉馆 罗锦路店","lon":"121.394825054","lat":"31.122123793","category":"86","category_name":"火锅店","address":"闵行区罗锦路949号(近梅珑西路)"},{"poiid":"B2094757D065A2FC499E","title":"焦点造型","lon":"121.40003","lat":"31.12165","category":"148","category_name":"美容美发店","address":"闵行区罗锦路852号(近一号线外环路站)"},{"poiid":"B2094655D268ABFC4692","title":"仲盛世界商城","lon":"121.394514","lat":"31.114042","category":"119","category_name":"商场","address":"上海闵行区都市路5001号(莘庄地铁站南广场)"},{"poiid":"B2094655D26AA0FA479A","title":"地铁外环路站","lon":"121.39286","lat":"31.12055","category":"36","category_name":"地铁站","address":""},{"poiid":"B2094757D06FA3FD4898","title":"上海映象阳城","lon":"121.39856111","lat":"31.121533659","category":"47","category_name":"住宅区","address":"上海映象(二期)位于闵行罗锦路888弄"},{"poiid":"B2094655D26BA2FE499C","title":"外环路地铁站","lon":"121.39309","lat":"31.12323","category":"36","category_name":"地铁站","address":""},{"poiid":"B2094757D068A3F9449C","title":"锦江乐园摩天轮","lon":"121.39376546","lat":"31.115948008","category":"195","category_name":"游乐场","address":"上海闵行区虹梅路201号锦江乐园内"},{"poiid":"B2094654DB6CA3FB4399","title":"上海市西南工程学校(梅陇西路)","lon":"121.39411","lat":"31.11976","category":"54","category_name":"职业技术学校","address":"闵行区梅陇西路1566号(近罗锦路)"},{"poiid":"B2094757D165A1F54893","title":"绿地科技岛","lon":"121.39573209529","lat":"31.11807358381","category":"249","category_name":"购物服务","address":"闵行区广通路18号(莘建东路口)"},{"poiid":"B2094757D068A1FA4693","title":"绿地蓝海","lon":"121.394","lat":"31.1219","category":"119","category_name":"商场","address":"闵行区莘建东路(近莘庄北广场)"},{"poiid":"B2094757D06FA5F9429D","title":"莲花河畔景苑","lon":"121.40162","lat":"31.124704","category":"47","category_name":"住宅区","address":"安波路569号(近营口路)"},{"poiid":"B2094757D068A3FC409F","title":"报春路沪闵路","lon":"121.39455413","lat":"31.126020431","category":"260","category_name":"其他","address":"上海报春路沪闵路"},{"poiid":"B2094757D068A0F9429E","title":"上海阳城","lon":"121.3962","lat":"31.120998","category":"47","category_name":"住宅区","address":"上海闵行区罗锦路888弄(近梅陇西路)"},{"poiid":"B2094654DB64A2F54192","title":"未名园","lon":"121.40447","lat":"31.120211","category":"47","category_name":"住宅区","address":"莲花南路588弄"},{"poiid":"B2094757D06FA5F8439D","title":"三洲花园","lon":"121.3972668","lat":"31.122852936","category":"47","category_name":"住宅区","address":"上海罗阳路800弄"},{"poiid":"B2094757D06FA0FC479D","title":"S20外环公路","lon":"121.40542158","lat":"31.11869442","category":"260","category_name":"其他","address":"上海市S20外环公路"},{"poiid":"B2094757DA69A1F9449A","title":"凯德龙之梦-闵行","lon":"121.39745","lat":"31.12681","category":"119","category_name":"商场","address":"沪闵路6088号"},{"poiid":"B2094757D068A6FC449F","title":"莘南花苑","lon":"121.403","lat":"31.1167","category":"47","category_name":"住宅区","address":"上海闵行区莘吉路畹町路"},{"poiid":"B2094750D269A1F9419A","title":"芋贵人甜品店 莘庄龙之梦店","lon":"121.39147996902","lat":"31.122192759554","category":"67","category_name":"甜品店","address":"闵行区沪闵路6088号莘庄龙之梦购物中心B2楼52号商铺(近莘建路)"},{"poiid":"B2094655D26BA6F54198","title":"重庆鸡公煲 罗锦路店","lon":"121.40362","lat":"31.1213","category":"71","category_name":"四川菜","address":"闵行区罗锦路750弄7-2号(近一号线外环路站)"},{"poiid":"B2094655D268A2F44598","title":"静安面包房(罗锦路)","lon":"121.40044","lat":"31.12188","category":"112","category_name":"糕饼店","address":"闵行区罗锦路(莲花南路罗锦路)"},{"poiid":"B2094654DB6CA3F4429E","title":"金龙酒家","lon":"121.39954724596","lat":"31.120804975886","category":"76","category_name":"上海菜","address":"闵行区罗锦路789号(上海印象对面)"},{"poiid":"B2094750D665A0FF429B","title":"十里洋小笼馆(罗锦路店)","lon":"121.4","lat":"31.122","category":"68","category_name":"快餐厅","address":"闵行区罗锦路767号(近景彩路)"},{"poiid":"B2094757D069A4FE4092","title":"华宝小区(罗阳七村)","lon":"121.40133","lat":"31.124051","category":"47","category_name":"住宅区","address":"上海罗阳路750弄"},{"poiid":"B2094654DB6CAAF84593","title":"中城绿苑·西苑","lon":"121.40098","lat":"31.11277","category":"47","category_name":"住宅区","address":"上海闵行区伟业路621弄"},{"poiid":"B2094655D264A4FC469C","title":"长旺香港仔茶餐厅罗锦店","lon":"121.40108","lat":"31.12173","category":"72","category_name":"广东菜","address":"闵行区罗锦路729号(近一号线外环路站)"},{"poiid":"B2094757D16DA6FC409D","title":"和禾烧烤","lon":"121.39433","lat":"31.12245","category":"68","category_name":"快餐厅","address":"闵行区罗锦路939号4号门(近梅陇西路)"},{"poiid":"B2094654DB6CA3F5439C","title":"闵行区梅陇社区卫生服务中心","lon":"121.40218","lat":"31.12088","category":"162","category_name":"医院","address":"景彩路100"},{"poiid":"B2094757D16FA4FA459A","title":"蜀千鸡公煲(罗锦路店)","lon":"121.40134","lat":"31.12146","category":"71","category_name":"四川菜","address":"闵行区罗锦路750弄6号(近景彩路)"},{"poiid":"B2094655D26FA5F84193","title":"东苑绿世界花园","lon":"121.39368","lat":"31.125216","category":"47","category_name":"住宅区","address":"沪闵路6918弄沪闵路6780弄报春路128弄"},{"poiid":"B2094751D368A3FC469C","title":"记得Cafe","lon":"121.39525","lat":"31.12209","category":"247","category_name":"餐饮美食","address":"闵行区梅陇西路1312号(近罗锦路)"},{"poiid":"B2094654DB6CA3F4499B","title":"快客(罗锦路)","lon":"121.39891","lat":"31.12191","category":"117","category_name":"便民商店/便利店","address":"罗锦路884"},{"poiid":"B2094655D26BA1FB4093","title":"罗阳七村","lon":"121.39954","lat":"31.12202","category":"38","category_name":"公交车站","address":""},{"poiid":"B2094655D264A0FB419C","title":"东苑利景花苑二期","lon":"121.396577","lat":"31.117612","category":"47","category_name":"住宅区","address":"上海市卢湾区徐家汇路515弄"},{"poiid":"B2094757D66CAAFF4393","title":"颐品居热气涮羊肉","lon":"121.39616085","lat":"31.122762817","category":"247","category_name":"餐饮美食","address":"闵行区罗锦路(近梅陇西路)"},{"poiid":"B2094654DB6CA3F4409A","title":"好德No.491","lon":"121.39813","lat":"31.12248","category":"117","category_name":"便民商店/便利店","address":"罗锦路"},{"poiid":"B2094757D06AABFD499D","title":"联华快客便利(罗锦店)","lon":"121.39901","lat":"31.1217","category":"117","category_name":"便民商店/便利店","address":"闵行区罗锦路884号"},{"poiid":"B2094655D265A1FA4398","title":"东苑利景花苑三期","lon":"121.398372","lat":"31.116849","category":"47","category_name":"住宅区","address":"上海市闵行区宝城路500号"},{"poiid":"B2094654DB65A3F5449E","title":"罗阳七村三洲花园","lon":"121.39839","lat":"31.123087","category":"47","category_name":"住宅区","address":"罗阳路800弄"},{"poiid":"B2094757D569A6FA479E","title":"名都新城四期","lon":"121.398","lat":"31.1148","category":"47","category_name":"住宅区","address":"上海市闵行区友情路50弄"},{"poiid":"B2094750DA6FA2F54493","title":"上海第二工业大学","lon":"121.395385","lat":"31.120998","category":"671","category_name":"高校中心点","address":"金海路2360号"},{"poiid":"B2094757D16CA5F4479C","title":"潮锦村","lon":"121.3979","lat":"31.12081","category":"500","category_name":"未知分类","address":"上海闵行区罗锦路939号近地铁外环线站南广场  "},{"poiid":"B2094757D168AAFD489C","title":"Mc Cafe(友誼南方店)","lon":"121.39696385","lat":"31.121041783","category":"500","category_name":"未知分类","address":"上海市闵行区沪闵路778南方商城F1"},{"poiid":"B2094757D168ABFA499F","title":"光头辣酱面大王","lon":"121.397267857","lat":"31.1225048127","category":"247","category_name":"餐饮美食","address":"上海罗锦路901号"},{"poiid":"B2094655D36DA6FE479A","title":"外环路","lon":"121.39286","lat":"31.12055","category":"38","category_name":"公交车站","address":""},{"poiid":"B2094655D26EA5F9479B","title":"汤家巷小区","lon":"121.39954","lat":"31.11684","category":"47","category_name":"住宅区","address":""},{"poiid":"B2094750DB6FA3FD439F","title":"上海交通大学闵行校区东上院","lon":"121.39537","lat":"31.120988","category":"500","category_name":"未知分类","address":"东川路800号"},{"poiid":"B2094654DB65A6FF429A","title":"闵行区罗阳小学","lon":"121.40024","lat":"31.12399","category":"56","category_name":"小学","address":"罗阳七村225"},{"poiid":"B2094655D268A3F94399","title":"张军擀面皮罗锦店","lon":"121.40166","lat":"31.12157","category":"68","category_name":"快餐厅","address":"闵行区罗锦路697号(近莲花南路)"},{"poiid":"B2094655D265A7FC4198","title":"如家粥馆","lon":"121.40166","lat":"31.12158","category":"257","category_name":"中餐厅","address":"罗锦路695号"},{"poiid":"B2094654DB64ABFA439C","title":"颐品居热气羊肉馆 罗锦路店","lon":"121.394825054","lat":"31.122123793","category":"86","category_name":"火锅店","address":"闵行区罗锦路949号(近梅珑西路)"},{"poiid":"B2094757D065A2FC499E","title":"焦点造型","lon":"121.40003","lat":"31.12165","category":"148","category_name":"美容美发店","address":"闵行区罗锦路852号(近一号线外环路站)"},{"poiid":"B2094655D268ABFC4692","title":"仲盛世界商城","lon":"121.394514","lat":"31.114042","category":"119","category_name":"商场","address":"上海闵行区都市路5001号(莘庄地铁站南广场)"},{"poiid":"B2094655D26AA0FA479A","title":"地铁外环路站","lon":"121.39286","lat":"31.12055","category":"36","category_name":"地铁站","address":""},{"poiid":"B2094757D06FA3FD4898","title":"上海映象阳城","lon":"121.39856111","lat":"31.121533659","category":"47","category_name":"住宅区","address":"上海映象(二期)位于闵行罗锦路888弄"},{"poiid":"B2094655D26BA2FE499C","title":"外环路地铁站","lon":"121.39309","lat":"31.12323","category":"36","category_name":"地铁站","address":""},{"poiid":"B2094757D068A3F9449C","title":"锦江乐园摩天轮","lon":"121.39376546","lat":"31.115948008","category":"195","category_name":"游乐场","address":"上海闵行区虹梅路201号锦江乐园内"},{"poiid":"B2094654DB6CA3FB4399","title":"上海市西南工程学校(梅陇西路)","lon":"121.39411","lat":"31.11976","category":"54","category_name":"职业技术学校","address":"闵行区梅陇西路1566号(近罗锦路)"},{"poiid":"B2094757D165A1F54893","title":"绿地科技岛","lon":"121.39573209529","lat":"31.11807358381","category":"249","category_name":"购物服务","address":"闵行区广通路18号(莘建东路口)"},{"poiid":"B2094757D068A1FA4693","title":"绿地蓝海","lon":"121.394","lat":"31.1219","category":"119","category_name":"商场","address":"闵行区莘建东路(近莘庄北广场)"},{"poiid":"B2094757D06FA5F9429D","title":"莲花河畔景苑","lon":"121.40162","lat":"31.124704","category":"47","category_name":"住宅区","address":"安波路569号(近营口路)"},{"poiid":"B2094757D068A3FC409F","title":"报春路沪闵路","lon":"121.39455413","lat":"31.126020431","category":"260","category_name":"其他","address":"上海报春路沪闵路"},{"poiid":"B2094757D068A0F9429E","title":"上海阳城","lon":"121.3962","lat":"31.120998","category":"47","category_name":"住宅区","address":"上海闵行区罗锦路888弄(近梅陇西路)"},{"poiid":"B2094654DB64A2F54192","title":"未名园","lon":"121.40447","lat":"31.120211","category":"47","category_name":"住宅区","address":"莲花南路588弄"},{"poiid":"B2094757D06FA5F8439D","title":"三洲花园","lon":"121.3972668","lat":"31.122852936","category":"47","category_name":"住宅区","address":"上海罗阳路800弄"},{"poiid":"B2094757D06FA0FC479D","title":"S20外环公路","lon":"121.40542158","lat":"31.11869442","category":"260","category_name":"其他","address":"上海市S20外环公路"},{"poiid":"B2094757DA69A1F9449A","title":"凯德龙之梦-闵行","lon":"121.39745","lat":"31.12681","category":"119","category_name":"商场","address":"沪闵路6088号"},{"poiid":"B2094757D068A6FC449F","title":"莘南花苑","lon":"121.403","lat":"31.1167","category":"47","category_name":"住宅区","address":"上海闵行区莘吉路畹町路"},{"poiid":"B2094750D269A1F9419A","title":"芋贵人甜品店 莘庄龙之梦店","lon":"121.39147996902","lat":"31.122192759554","category":"67","category_name":"甜品店","address":"闵行区沪闵路6088号莘庄龙之梦购物中心B2楼52号商铺(近莘建路)"},{"poiid":"B2094655D26BA6F54198","title":"重庆鸡公煲 罗锦路店","lon":"121.40362","lat":"31.1213","category":"71","category_name":"四川菜","address":"闵行区罗锦路750弄7-2号(近一号线外环路站)"},{"poiid":"B2094655D268A2F44598","title":"静安面包房(罗锦路)","lon":"121.40044","lat":"31.12188","category":"112","category_name":"糕饼店","address":"闵行区罗锦路(莲花南路罗锦路)"},{"poiid":"B2094654DB6CA3F4429E","title":"金龙酒家","lon":"121.39954724596","lat":"31.120804975886","category":"76","category_name":"上海菜","address":"闵行区罗锦路789号(上海印象对面)"},{"poiid":"B2094750D665A0FF429B","title":"十里洋小笼馆(罗锦路店)","lon":"121.4","lat":"31.122","category":"68","category_name":"快餐厅","address":"闵行区罗锦路767号(近景彩路)"},{"poiid":"B2094757D069A4FE4092","title":"华宝小区(罗阳七村)","lon":"121.40133","lat":"31.124051","category":"47","category_name":"住宅区","address":"上海罗阳路750弄"},{"poiid":"B2094654DB6CAAF84593","title":"中城绿苑·西苑","lon":"121.40098","lat":"31.11277","category":"47","category_name":"住宅区","address":"上海闵行区伟业路621弄"},{"poiid":"B2094655D264A4FC469C","title":"长旺香港仔茶餐厅罗锦店","lon":"121.40108","lat":"31.12173","category":"72","category_name":"广东菜","address":"闵行区罗锦路729号(近一号线外环路站)"},{"poiid":"B2094757D16DA6FC409D","title":"和禾烧烤","lon":"121.39433","lat":"31.12245","category":"68","category_name":"快餐厅","address":"闵行区罗锦路939号4号门(近梅陇西路)"},{"poiid":"B2094654DB6CA3F5439C","title":"闵行区梅陇社区卫生服务中心","lon":"121.40218","lat":"31.12088","category":"162","category_name":"医院","address":"景彩路100"},{"poiid":"B2094757D16FA4FA459A","title":"蜀千鸡公煲(罗锦路店)","lon":"121.40134","lat":"31.12146","category":"71","category_name":"四川菜","address":"闵行区罗锦路750弄6号(近景彩路)"},{"poiid":"B2094655D26FA5F84193","title":"东苑绿世界花园","lon":"121.39368","lat":"31.125216","category":"47","category_name":"住宅区","address":"沪闵路6918弄沪闵路6780弄报春路128弄"},{"poiid":"B2094751D368A3FC469C","title":"记得Cafe","lon":"121.39525","lat":"31.12209","category":"247","category_name":"餐饮美食","address":"闵行区梅陇西路1312号(近罗锦路)"},{"poiid":"B2094654DB6CA3F4499B","title":"快客(罗锦路)","lon":"121.39891","lat":"31.12191","category":"117","category_name":"便民商店/便利店","address":"罗锦路884"},{"poiid":"B2094655D26BA1FB4093","title":"罗阳七村","lon":"121.39954","lat":"31.12202","category":"38","category_name":"公交车站","address":""},{"poiid":"B2094655D264A0FB419C","title":"东苑利景花苑二期","lon":"121.396577","lat":"31.117612","category":"47","category_name":"住宅区","address":"上海市卢湾区徐家汇路515弄"},{"poiid":"B2094757D66CAAFF4393","title":"颐品居热气涮羊肉","lon":"121.39616085","lat":"31.122762817","category":"247","category_name":"餐饮美食","address":"闵行区罗锦路(近梅陇西路)"},{"poiid":"B2094654DB6CA3F4409A","title":"好德No.491","lon":"121.39813","lat":"31.12248","category":"117","category_name":"便民商店/便利店","address":"罗锦路"},{"poiid":"B2094757D06AABFD499D","title":"联华快客便利(罗锦店)","lon":"121.39901","lat":"31.1217","category":"117","category_name":"便民商店/便利店","address":"闵行区罗锦路884号"},{"poiid":"B2094655D265A1FA4398","title":"东苑利景花苑三期","lon":"121.398372","lat":"31.116849","category":"47","category_name":"住宅区","address":"上海市闵行区宝城路500号"},{"poiid":"B2094654DB65A3F5449E","title":"罗阳七村三洲花园","lon":"121.39839","lat":"31.123087","category":"47","category_name":"住宅区","address":"罗阳路800弄"},{"poiid":"B2094757D569A6FA479E","title":"名都新城四期","lon":"121.398","lat":"31.1148","category":"47","category_name":"住宅区","address":"上海市闵行区友情路50弄"},{"poiid":"B2094750DA6FA2F54493","title":"上海第二工业大学","lon":"121.395385","lat":"31.120998","category":"671","category_name":"高校中心点","address":"金海路2360号"},{"poiid":"B2094757D16CA5F4479C","title":"潮锦村","lon":"121.3979","lat":"31.12081","category":"500","category_name":"未知分类","address":"上海闵行区罗锦路939号近地铁外环线站南广场  "},{"poiid":"B2094757D168AAFD489C","title":"Mc Cafe(友誼南方店)","lon":"121.39696385","lat":"31.121041783","category":"500","category_name":"未知分类","address":"上海市闵行区沪闵路778南方商城F1"},{"poiid":"B2094757D168ABFA499F","title":"光头辣酱面大王","lon":"121.397267857","lat":"31.1225048127","category":"247","category_name":"餐饮美食","address":"上海罗锦路901号"},{"poiid":"B2094655D36DA6FE479A","title":"外环路","lon":"121.39286","lat":"31.12055","category":"38","category_name":"公交车站","address":""},{"poiid":"B2094655D26EA5F9479B","title":"汤家巷小区","lon":"121.39954","lat":"31.11684","category":"47","category_name":"住宅区","address":""},{"poiid":"B2094750DB6FA3FD439F","title":"上海交通大学闵行校区东上院","lon":"121.39537","lat":"31.120988","category":"500","category_name":"未知分类","address":"东川路800号"},{"poiid":"B2094654DB65A6FF429A","title":"闵行区罗阳小学","lon":"121.40024","lat":"31.12399","category":"56","category_name":"小学","address":"罗阳七村225"},{"poiid":"B2094655D268A3F94399","title":"张军擀面皮罗锦店","lon":"121.40166","lat":"31.12157","category":"68","category_name":"快餐厅","address":"闵行区罗锦路697号(近莲花南路)"},{"poiid":"B2094655D265A7FC4198","title":"如家粥馆","lon":"121.40166","lat":"31.12158","category":"257","category_name":"中餐厅","address":"罗锦路695号"},{"poiid":"B2094654DB64ABFA439C","title":"颐品居热气羊肉馆 罗锦路店","lon":"121.394825054","lat":"31.122123793","category":"86","category_name":"火锅店","address":"闵行区罗锦路949号(近梅珑西路)"},{"poiid":"B2094757D065A2FC499E","title":"焦点造型","lon":"121.40003","lat":"31.12165","category":"148","category_name":"美容美发店","address":"闵行区罗锦路852号(近一号线外环路站)"}]