[{"poiid":"B2094757D06FA4FD4692","title":"上海震旦学院","lon":"121.35632","lat":"31.41797","category":"500","category_name":"未知分类","address":"上海宝山区罗店镇市一路88号(近月罗路)  "},{"poiid":"B2094757D06EAAF44792","title":"美兰湖","lon":"121.3539524","lat":"31.399131614","category":"234","category_name":"海滨浴场","address":"宝山区罗芬路888号"},{"poiid":"B2094654D469A0F8499E","title":"美兰湖国际会议中心","lon":"121.35453","lat":"31.40151","category":"65","category_name":"咖啡厅","address":"宝山区罗店新镇罗芬路888号"},{"poiid":"B2094757D06FA7FB4798","title":"美兰湖高尔夫俱乐部","lon":"121.3651","lat":"31.40198","category":"220","category_name":"运动场所","address":"海市宝山区沪太路6655号(内美兰湖路9号)"},{"poiid":"B2094654D469ABFE409D","title":"美兰湖皇冠假日酒店","lon":"121.36484","lat":"31.40225","category":"217","category_name":"旅馆招待所","address":"宝山区沪太路6655号(近北欧新镇)"},{"poiid":"B2094757D06EAAFF4092","title":"美兰湖地铁站","lon":"121.35040708","lat":"31.4015480232","category":"36","category_name":"地铁站","address":"上海轨道交通 七号线 轨交美兰湖站 7"},{"poiid":"B2094655D26BA1FB459C","title":"罗店","lon":"121.34159","lat":"31.41009","category":"38","category_name":"公交车站","address":""},{"poiid":"B2094757D06AA7FD4099","title":"罗店医院","lon":"121.34698","lat":"31.41517","category":"162","category_name":"医院","address":"宝山区罗溪路121号(罗溪路市一路)"},{"poiid":"B2094757D568A1FF439E","title":"美兰湖高尔夫别墅","lon":"121.347665","lat":"31.40718","category":"47","category_name":"住宅区","address":"上海罗店北欧新镇美丹路8号"},{"poiid":"B2094757D069A1F9419F","title":"宝山净寺","lon":"121.34277498","lat":"31.417038888","category":"246","category_name":"回教寺","address":"宝山区罗店镇罗溪路518号(练祁河旁)"},{"poiid":"B2094654D469A7FA469D","title":"美兰湖别墅","lon":"121.36365672951","lat":"31.402259302461","category":"47","category_name":"住宅区","address":"上海市宝山区罗迎路558弄"},{"poiid":"B2094757D06BABFB459E","title":"美兰湖中华园","lon":"121.36041","lat":"31.409433","category":"500","category_name":"未知分类","address":"上海市宝山区抚远路1288弄"},{"poiid":"B2094655D264A0F9449B","title":"上置香岛原墅","lon":"121.35855","lat":"31.41063","category":"47","category_name":"住宅区","address":"宝山美兰湖美丰路88号(抚远路口)"},{"poiid":"B2094654D468A4F4429E","title":"震旦学院(市一路)","lon":"121.35604","lat":"31.41824","category":"52","category_name":"高等院校","address":"宝山区市一路88"},{"poiid":"B2094655D26BA1FB439D","title":"罗溪路市一路","lon":"121.347","lat":"31.41561","category":"38","category_name":"公交车站","address":""},{"poiid":"B2094757D065A4FE4392","title":"罗溪公园","lon":"121.35075","lat":"31.416","category":"196","category_name":"公园","address":"宝山区罗店市一路150号"},{"poiid":"B2094654D469A0FB4498","title":"都是客酒店","lon":"121.350095054","lat":"31.409544793","category":"76","category_name":"上海菜","address":"宝山区罗溪路5号(近月罗公路)"},{"poiid":"B2094654D468A4F5409C","title":"宝山寺","lon":"121.34278","lat":"31.41703","category":"244","category_name":"寺庙道观","address":"罗店镇"},{"poiid":"B2094757D16BABF9419D","title":"世纪联华 美食广场","lon":"121.350432153","lat":"31.4024306507","category":"257","category_name":"中餐厅","address":"上海美兰湖"},{"poiid":"B2094654D468A4F54193","title":"罗溪花苑","lon":"121.34593","lat":"31.419167","category":"47","category_name":"住宅区","address":"罗溪路671弄"},{"poiid":"B2094654D469A0FB4899","title":"顺驰美兰湖","lon":"121.35601","lat":"31.405182","category":"47","category_name":"住宅区","address":"宝山区罗店北欧新镇扶远路美丹路路口"},{"poiid":"B2094757D464A6FE489A","title":"重庆鸡公煲 罗溪路店","lon":"121.347158054","lat":"31.414862793","category":"247","category_name":"餐饮美食","address":"宝山区罗店镇罗溪路210号(近市一路)"},{"poiid":"B2094654D468A4FB4892","title":"金星绿苑","lon":"121.35493","lat":"31.423529","category":"47","category_name":"住宅区","address":"集贤路500弄501弄"},{"poiid":"B2094757D469A0FC499D","title":"客来多","lon":"121.351097","lat":"31.416477","category":"68","category_name":"快餐厅","address":"宝山区罗店镇祁北路(近市一路)"},{"poiid":"B2094654D468A4F4429C","title":"上海市宝山区罗店中心校","lon":"121.34926","lat":"31.41607","category":"55","category_name":"中学","address":"宝山区罗店镇市一路162号(近罗溪公园)"},{"poiid":"B2094757D66BABF9469E","title":"麦可茶饮 震旦店 Teamac","lon":"121.353465","lat":"31.417553","category":"111","category_name":"休闲餐饮场所","address":"宝山区市一路88号震旦学院内(集贤路市一路)"},{"poiid":"B2094757D069ABFE4692","title":"鼎中鼎澳门豆捞(罗芬路店)","lon":"121.35685","lat":"31.39889","category":"86","category_name":"火锅店","address":"宝山区罗芬路55号(近美艾路)"},{"poiid":"B2094757D165AAFF4798","title":"渔翁海鲜","lon":"121.347439653","lat":"31.4147068017","category":"247","category_name":"餐饮美食","address":"上海宝山区罗店镇市一路182号"},{"poiid":"B2094757D66BA4FC4292","title":"渔翁海鲜 宝山店","lon":"121.347973054","lat":"31.415537793","category":"88","category_name":"海鲜酒楼","address":"罗店市一路182号近罗溪路"},{"poiid":"B2094655D264A6FC439A","title":"罗店镇图书馆","lon":"121.34752","lat":"31.41514","category":"181","category_name":"图书馆","address":"宝山区市一路199号(罗溪路市一路)"},{"poiid":"B2094655D26BA1FB439C","title":"罗溪路月罗公路","lon":"121.34818","lat":"31.41298","category":"38","category_name":"公交车站","address":""},{"poiid":"B2094757D16CA2FC499C","title":"华方大酒店","lon":"121.344705","lat":"31.406938","category":"76","category_name":"上海菜","address":"宝山区沪太路7098号(沪太路月罗公路)"},{"poiid":"B2094654D468A4F44398","title":"古镇苑","lon":"121.34537","lat":"31.415161","category":"47","category_name":"住宅区","address":"市一路220弄"},{"poiid":"B2094757D16FA1FA469A","title":"上海市宝山区看守所","lon":"121.35733787","lat":"31.41223785","category":"500","category_name":"未知分类","address":"上海月罗路2099号"},{"poiid":"B2094655D26EA4FE449F","title":"九彩天江河鲜土菜馆 宝山店","lon":"121.34674571077","lat":"31.415515900232","category":"257","category_name":"中餐厅","address":"罗店镇市一路188号罗富大酒店2楼近罗溪路"},{"poiid":"B2094654D468A4F4439B","title":"罗富大酒店","lon":"121.34748","lat":"31.41551","category":"250","category_name":"公园户外","address":"罗店镇市一路188号"},{"poiid":"B2094757D665A4FE4593","title":"沪豫川老面馆","lon":"121.34748","lat":"31.41389","category":"87","category_name":"特色／地方风味餐厅","address":"宝山区罗溪路192号(近亭前街)"},{"poiid":"B2094757D06AA0F5439C","title":"美兰湖颐景园","lon":"121.3582","lat":"31.398161","category":"47","category_name":"住宅区","address":"上海市宝山区美艾路198弄"},{"poiid":"B2094757D164A3FA479C","title":"好客煲","lon":"121.346757653","lat":"31.4163158346","category":"247","category_name":"餐饮美食","address":"上海市宝山区塘西街"},{"poiid":"B2094654D468A4F5429B","title":"中国建设银行(市一路)","lon":"121.34867","lat":"31.41542","category":"150","category_name":"银行","address":""},{"poiid":"B2094757D165A2F8479A","title":"中国建设银行(罗店支行)","lon":"121.347341653","lat":"31.4152168121","category":"150","category_name":"银行","address":"宝山区罗店镇市一路169号(罗溪路市一路)"},{"poiid":"B2094750DB6DA5FC409F","title":"罗店中学","lon":"121.343872","lat":"31.422937","category":"55","category_name":"中学","address":"罗新路707号"},{"poiid":"B2094655D26BA4F8419E","title":"罗新苑","lon":"121.34994","lat":"31.424318","category":"47","category_name":"住宅区","address":"集贤路800弄"},{"poiid":"B2094654DB6AA2FC409A","title":"中国邮政(罗店邮政支局)","lon":"121.34912","lat":"31.41584","category":"248","category_name":"生活娱乐","address":"宝山区市一路166号"},{"poiid":"B2094654D469A0FB429A","title":"交通银行上海罗店支行","lon":"121.34775","lat":"31.41457","category":"150","category_name":"银行","address":"罗溪路239"},{"poiid":"B2094757D66FA0FF459A","title":"中国移动罗店营业厅","lon":"121.34794045","lat":"31.415086409","category":"150","category_name":"银行","address":"上海宝山区市一路188号"},{"poiid":"B2094654D468A4F54099","title":"东方文化学院(市一路)","lon":"121.3562","lat":"31.41835","category":"52","category_name":"高等院校","address":""},{"poiid":"B2094757D064A5FE4693","title":"肯德基 KFC 美兰湖店","lon":"121.34690175","lat":"31.404148685","category":"500","category_name":"未知分类","address":"上海市宝山区美兰湖世纪联华一楼"},{"poiid":"B2094654D468A4F5409D","title":"罗溪花园(祁北路)","lon":"121.34674","lat":"31.42082","category":"47","category_name":"住宅区","address":""},{"poiid":"B2094654D469A7FE479C","title":"元祖食品(塘西街)","lon":"121.34317","lat":"31.41437","category":"112","category_name":"糕饼店","address":""},{"poiid":"B2094757D06FA4FD4692","title":"上海震旦学院","lon":"121.35632","lat":"31.41797","category":"500","category_name":"未知分类","address":"上海宝山区罗店镇市一路88号(近月罗路)  "},{"poiid":"B2094757D06EAAF44792","title":"美兰湖","lon":"121.3539524","lat":"31.399131614","category":"234","category_name":"海滨浴场","address":"宝山区罗芬路888号"},{"poiid":"B2094654D469A0F8499E","title":"美兰湖国际会议中心","lon":"121.35453","lat":"31.40151","category":"65","category_name":"咖啡厅","address":"宝山区罗店新镇罗芬路888号"},{"poiid":"B2094757D06FA7FB4798","title":"美兰湖高尔夫俱乐部","lon":"121.3651","lat":"31.40198","category":"220","category_name":"运动场所","address":"海市宝山区沪太路6655号(内美兰湖路9号)"},{"poiid":"B2094654D469ABFE409D","title":"美兰湖皇冠假日酒店","lon":"121.36484","lat":"31.40225","category":"217","category_name":"旅馆招待所","address":"宝山区沪太路6655号(近北欧新镇)"},{"poiid":"B2094757D06EAAFF4092","title":"美兰湖地铁站","lon":"121.35040708","lat":"31.4015480232","category":"36","category_name":"地铁站","address":"上海轨道交通 七号线 轨交美兰湖站 7"},{"poiid":"B2094655D26BA1FB459C","title":"罗店","lon":"121.34159","lat":"31.41009","category":"38","category_name":"公交车站","address":""},{"poiid":"B2094757D06AA7FD4099","title":"罗店医院","lon":"121.34698","lat":"31.41517","category":"162","category_name":"医院","address":"宝山区罗溪路121号(罗溪路市一路)"},{"poiid":"B2094757D568A1FF439E","title":"美兰湖高尔夫别墅","lon":"121.347665","lat":"31.40718","category":"47","category_name":"住宅区","address":"上海罗店北欧新镇美丹路8号"},{"poiid":"B2094757D069A1F9419F","title":"宝山净寺","lon":"121.34277498","lat":"31.417038888","category":"246","category_name":"回教寺","address":"宝山区罗店镇罗溪路518号(练祁河旁)"},{"poiid":"B2094654D469A7FA469D","title":"美兰湖别墅","lon":"121.36365672951","lat":"31.402259302461","category":"47","category_name":"住宅区","address":"上海市宝山区罗迎路558弄"},{"poiid":"B2094757D06BABFB459E","title":"美兰湖中华园","lon":"121.36041","lat":"31.409433","category":"500","category_name":"未知分类","address":"上海市宝山区抚远路1288弄"},{"poiid":"B2094655D264A0F9449B","title":"上置香岛原墅","lon":"121.35855","lat":"31.41063","category":"47","category_name":"住宅区","address":"宝山美兰湖美丰路88号(抚远路口)"},{"poiid":"B2094654D468A4F4429E","title":"震旦学院(市一路)","lon":"121.35604","lat":"31.41824","category":"52","category_name":"高等院校","address":"宝山区市一路88"},{"poiid":"B2094655D26BA1FB439D","title":"罗溪路市一路","lon":"121.347","lat":"31.41561","category":"38","category_name":"公交车站","address":""},{"poiid":"B2094757D065A4FE4392","title":"罗溪公园","lon":"121.35075","lat":"31.416","category":"196","category_name":"公园","address":"宝山区罗店市一路150号"},{"poiid":"B2094654D469A0FB4498","title":"都是客酒店","lon":"121.350095054","lat":"31.409544793","category":"76","category_name":"上海菜","address":"宝山区罗溪路5号(近月罗公路)"},{"poiid":"B2094654D468A4F5409C","title":"宝山寺","lon":"121.34278","lat":"31.41703","category":"244","category_name":"寺庙道观","address":"罗店镇"},{"poiid":"B2094757D16BABF9419D","title":"世纪联华 美食广场","lon":"121.350432153","lat":"31.4024306507","category":"257","category_name":"中餐厅","address":"上海美兰湖"},{"poiid":"B2094654D468A4F54193","title":"罗溪花苑","lon":"121.34593","lat":"31.419167","category":"47","category_name":"住宅区","address":"罗溪路671弄"},{"poiid":"B2094654D469A0FB4899","title":"顺驰美兰湖","lon":"121.35601","lat":"31.405182","category":"47","category_name":"住宅区","address":"宝山区罗店北欧新镇扶远路美丹路路口"},{"poiid":"B2094757D464A6FE489A","title":"重庆鸡公煲 罗溪路店","lon":"121.347158054","lat":"31.414862793","category":"247","category_name":"餐饮美食","address":"宝山区罗店镇罗溪路210号(近市一路)"},{"poiid":"B2094654D468A4FB4892","title":"金星绿苑","lon":"121.35493","lat":"31.423529","category":"47","category_name":"住宅区","address":"集贤路500弄501弄"},{"poiid":"B2094757D469A0FC499D","title":"客来多","lon":"121.351097","lat":"31.416477","category":"68","category_name":"快餐厅","address":"宝山区罗店镇祁北路(近市一路)"},{"poiid":"B2094654D468A4F4429C","title":"上海市宝山区罗店中心校","lon":"121.34926","lat":"31.41607","category":"55","category_name":"中学","address":"宝山区罗店镇市一路162号(近罗溪公园)"},{"poiid":"B2094757D66BABF9469E","title":"麦可茶饮 震旦店 Teamac","lon":"121.353465","lat":"31.417553","category":"111","category_name":"休闲餐饮场所","address":"宝山区市一路88号震旦学院内(集贤路市一路)"},{"poiid":"B2094757D069ABFE4692","title":"鼎中鼎澳门豆捞(罗芬路店)","lon":"121.35685","lat":"31.39889","category":"86","category_name":"火锅店","address":"宝山区罗芬路55号(近美艾路)"},{"poiid":"B2094757D165AAFF4798","title":"渔翁海鲜","lon":"121.347439653","lat":"31.4147068017","category":"247","category_name":"餐饮美食","address":"上海宝山区罗店镇市一路182号"},{"poiid":"B2094757D66BA4FC4292","title":"渔翁海鲜 宝山店","lon":"121.347973054","lat":"31.415537793","category":"88","category_name":"海鲜酒楼","address":"罗店市一路182号近罗溪路"},{"poiid":"B2094655D264A6FC439A","title":"罗店镇图书馆","lon":"121.34752","lat":"31.41514","category":"181","category_name":"图书馆","address":"宝山区市一路199号(罗溪路市一路)"},{"poiid":"B2094655D26BA1FB439C","title":"罗溪路月罗公路","lon":"121.34818","lat":"31.41298","category":"38","category_name":"公交车站","address":""},{"poiid":"B2094757D16CA2FC499C","title":"华方大酒店","lon":"121.344705","lat":"31.406938","category":"76","category_name":"上海菜","address":"宝山区沪太路7098号(沪太路月罗公路)"},{"poiid":"B2094654D468A4F44398","title":"古镇苑","lon":"121.34537","lat":"31.415161","category":"47","category_name":"住宅区","address":"市一路220弄"},{"poiid":"B2094757D16FA1FA469A","title":"上海市宝山区看守所","lon":"121.35733787","lat":"31.41223785","category":"500","category_name":"未知分类","address":"上海月罗路2099号"},{"poiid":"B2094655D26EA4FE449F","title":"九彩天江河鲜土菜馆 宝山店","lon":"121.34674571077","lat":"31.415515900232","category":"257","category_name":"中餐厅","address":"罗店镇市一路188号罗富大酒店2楼近罗溪路"},{"poiid":"B2094654D468A4F4439B","title":"罗富大酒店","lon":"121.34748","lat":"31.41551","category":"250","category_name":"公园户外","address":"罗店镇市一路188号"},{"poiid":"B2094757D665A4FE4593","title":"沪豫川老面馆","lon":"121.34748","lat":"31.41389","category":"87","category_name":"特色／地方风味餐厅","address":"宝山区罗溪路192号(近亭前街)"},{"poiid":"B2094757D06AA0F5439C","title":"美兰湖颐景园","lon":"121.3582","lat":"31.398161","category":"47","category_name":"住宅区","address":"上海市宝山区美艾路198弄"},{"poiid":"B2094757D164A3FA479C","title":"好客煲","lon":"121.346757653","lat":"31.4163158346","category":"247","category_name":"餐饮美食","address":"上海市宝山区塘西街"},{"poiid":"B2094654D468A4F5429B","title":"中国建设银行(市一路)","lon":"121.34867","lat":"31.41542","category":"150","category_name":"银行","address":""},{"poiid":"B2094757D165A2F8479A","title":"中国建设银行(罗店支行)","lon":"121.347341653","lat":"31.4152168121","category":"150","category_name":"银行","address":"宝山区罗店镇市一路169号(罗溪路市一路)"},{"poiid":"B2094750DB6DA5FC409F","title":"罗店中学","lon":"121.343872","lat":"31.422937","category":"55","category_name":"中学","address":"罗新路707号"},{"poiid":"B2094655D26BA4F8419E","title":"罗新苑","lon":"121.34994","lat":"31.424318","category":"47","category_name":"住宅区","address":"集贤路800弄"},{"poiid":"B2094654DB6AA2FC409A","title":"中国邮政(罗店邮政支局)","lon":"121.34912","lat":"31.41584","category":"248","category_name":"生活娱乐","address":"宝山区市一路166号"},{"poiid":"B2094654D469A0FB429A","title":"交通银行上海罗店支行","lon":"121.34775","lat":"31.41457","category":"150","category_name":"银行","address":"罗溪路239"},{"poiid":"B2094757D66FA0FF459A","title":"中国移动罗店营业厅","lon":"121.34794045","lat":"31.415086409","category":"150","category_name":"银行","address":"上海宝山区市一路188号"},{"poiid":"B2094654D468A4F54099","title":"东方文化学院(市一路)","lon":"121.3562","lat":"31.41835","category":"52","category_name":"高等院校","address":""},{"poiid":"B2094757D064A5FE4693","title":"肯德基 KFC 美兰湖店","lon":"121.34690175","lat":"31.404148685","category":"500","category_name":"未知分类","address":"上海市宝山区美兰湖世纪联华一楼"},{"poiid":"B2094654D468A4F5409D","title":"罗溪花园(祁北路)","lon":"121.34674","lat":"31.42082","category":"47","category_name":"住宅区","address":""},{"poiid":"B2094654D469A7FE479C","title":"元祖食品(塘西街)","lon":"121.34317","lat":"31.41437","category":"112","category_name":"糕饼店","address":""},{"poiid":"B2094757D06FA4FD4692","title":"上海震旦学院","lon":"121.35632","lat":"31.41797","category":"500","category_name":"未知分类","address":"上海宝山区罗店镇市一路88号(近月罗路)  "},{"poiid":"B2094757D06EAAF44792","title":"美兰湖","lon":"121.3539524","lat":"31.399131614","category":"234","category_name":"海滨浴场","address":"宝山区罗芬路888号"},{"poiid":"B2094654D469A0F8499E","title":"美兰湖国际会议中心","lon":"121.35453","lat":"31.40151","category":"65","category_name":"咖啡厅","address":"宝山区罗店新镇罗芬路888号"},{"poiid":"B2094757D06FA7FB4798","title":"美兰湖高尔夫俱乐部","lon":"121.3651","lat":"31.40198","category":"220","category_name":"运动场所","address":"海市宝山区沪太路6655号(内美兰湖路9号)"},{"poiid":"B2094654D469ABFE409D","title":"美兰湖皇冠假日酒店","lon":"121.36484","lat":"31.40225","category":"217","category_name":"旅馆招待所","address":"宝山区沪太路6655号(近北欧新镇)"},{"poiid":"B2094757D06EAAFF4092","title":"美兰湖地铁站","lon":"121.35040708","lat":"31.4015480232","category":"36","category_name":"地铁站","address":"上海轨道交通 七号线 轨交美兰湖站 7"},{"poiid":"B2094655D26BA1FB459C","title":"罗店","lon":"121.34159","lat":"31.41009","category":"38","category_name":"公交车站","address":""},{"poiid":"B2094757D06AA7FD4099","title":"罗店医院","lon":"121.34698","lat":"31.41517","category":"162","category_name":"医院","address":"宝山区罗溪路121号(罗溪路市一路)"},{"poiid":"B2094757D568A1FF439E","title":"美兰湖高尔夫别墅","lon":"121.347665","lat":"31.40718","category":"47","category_name":"住宅区","address":"上海罗店北欧新镇美丹路8号"},{"poiid":"B2094757D069A1F9419F","title":"宝山净寺","lon":"121.34277498","lat":"31.417038888","category":"246","category_name":"回教寺","address":"宝山区罗店镇罗溪路518号(练祁河旁)"},{"poiid":"B2094654D469A7FA469D","title":"美兰湖别墅","lon":"121.36365672951","lat":"31.402259302461","category":"47","category_name":"住宅区","address":"上海市宝山区罗迎路558弄"},{"poiid":"B2094757D06BABFB459E","title":"美兰湖中华园","lon":"121.36041","lat":"31.409433","category":"500","category_name":"未知分类","address":"上海市宝山区抚远路1288弄"},{"poiid":"B2094655D264A0F9449B","title":"上置香岛原墅","lon":"121.35855","lat":"31.41063","category":"47","category_name":"住宅区","address":"宝山美兰湖美丰路88号(抚远路口)"},{"poiid":"B2094654D468A4F4429E","title":"震旦学院(市一路)","lon":"121.35604","lat":"31.41824","category":"52","category_name":"高等院校","address":"宝山区市一路88"},{"poiid":"B2094655D26BA1FB439D","title":"罗溪路市一路","lon":"121.347","lat":"31.41561","category":"38","category_name":"公交车站","address":""},{"poiid":"B2094757D065A4FE4392","title":"罗溪公园","lon":"121.35075","lat":"31.416","category":"196","category_name":"公园","address":"宝山区罗店市一路150号"},{"poiid":"B2094654D469A0FB4498","title":"都是客酒店","lon":"121.350095054","lat":"31.409544793","category":"76","category_name":"上海菜","address":"宝山区罗溪路5号(近月罗公路)"},{"poiid":"B2094654D468A4F5409C","title":"宝山寺","lon":"121.34278","lat":"31.41703","category":"244","category_name":"寺庙道观","address":"罗店镇"},{"poiid":"B2094757D16BABF9419D","title":"世纪联华 美食广场","lon":"121.350432153","lat":"31.4024306507","category":"257","category_name":"中餐厅","address":"上海美兰湖"},{"poiid":"B2094654D468A4F54193","title":"罗溪花苑","lon":"121.34593","lat":"31.419167","category":"47","category_name":"住宅区","address":"罗溪路671弄"},{"poiid":"B2094654D469A0FB4899","title":"顺驰美兰湖","lon":"121.35601","lat":"31.405182","category":"47","category_name":"住宅区","address":"宝山区罗店北欧新镇扶远路美丹路路口"},{"poiid":"B2094757D464A6FE489A","title":"重庆鸡公煲 罗溪路店","lon":"121.347158054","lat":"31.414862793","category":"247","category_name":"餐饮美食","address":"宝山区罗店镇罗溪路210号(近市一路)"},{"poiid":"B2094654D468A4FB4892","title":"金星绿苑","lon":"121.35493","lat":"31.423529","category":"47","category_name":"住宅区","address":"集贤路500弄501弄"},{"poiid":"B2094757D469A0FC499D","title":"客来多","lon":"121.351097","lat":"31.416477","category":"68","category_name":"快餐厅","address":"宝山区罗店镇祁北路(近市一路)"},{"poiid":"B2094654D468A4F4429C","title":"上海市宝山区罗店中心校","lon":"121.34926","lat":"31.41607","category":"55","category_name":"中学","address":"宝山区罗店镇市一路162号(近罗溪公园)"},{"poiid":"B2094757D66BABF9469E","title":"麦可茶饮 震旦店 Teamac","lon":"121.353465","lat":"31.417553","category":"111","category_name":"休闲餐饮场所","address":"宝山区市一路88号震旦学院内(集贤路市一路)"},{"poiid":"B2094757D069ABFE4692","title":"鼎中鼎澳门豆捞(罗芬路店)","lon":"121.35685","lat":"31.39889","category":"86","category_name":"火锅店","address":"宝山区罗芬路55号(近美艾路)"},{"poiid":"B2094757D165AAFF4798","title":"渔翁海鲜","lon":"121.347439653","lat":"31.4147068017","category":"247","category_name":"餐饮美食","address":"上海宝山区罗店镇市一路182号"},{"poiid":"B2094757D66BA4FC4292","title":"渔翁海鲜 宝山店","lon":"121.347973054","lat":"31.415537793","category":"88","category_name":"海鲜酒楼","address":"罗店市一路182号近罗溪路"},{"poiid":"B2094655D264A6FC439A","title":"罗店镇图书馆","lon":"121.34752","lat":"31.41514","category":"181","category_name":"图书馆","address":"宝山区市一路199号(罗溪路市一路)"},{"poiid":"B2094655D26BA1FB439C","title":"罗溪路月罗公路","lon":"121.34818","lat":"31.41298","category":"38","category_name":"公交车站","address":""},{"poiid":"B2094757D16CA2FC499C","title":"华方大酒店","lon":"121.344705","lat":"31.406938","category":"76","category_name":"上海菜","address":"宝山区沪太路7098号(沪太路月罗公路)"},{"poiid":"B2094654D468A4F44398","title":"古镇苑","lon":"121.34537","lat":"31.415161","category":"47","category_name":"住宅区","address":"市一路220弄"},{"poiid":"B2094757D16FA1FA469A","title":"上海市宝山区看守所","lon":"121.35733787","lat":"31.41223785","category":"500","category_name":"未知分类","address":"上海月罗路2099号"},{"poiid":"B2094655D26EA4FE449F","title":"九彩天江河鲜土菜馆 宝山店","lon":"121.34674571077","lat":"31.415515900232","category":"257","category_name":"中餐厅","address":"罗店镇市一路188号罗富大酒店2楼近罗溪路"},{"poiid":"B2094654D468A4F4439B","title":"罗富大酒店","lon":"121.34748","lat":"31.41551","category":"250","category_name":"公园户外","address":"罗店镇市一路188号"},{"poiid":"B2094757D665A4FE4593","title":"沪豫川老面馆","lon":"121.34748","lat":"31.41389","category":"87","category_name":"特色／地方风味餐厅","address":"宝山区罗溪路192号(近亭前街)"},{"poiid":"B2094757D06AA0F5439C","title":"美兰湖颐景园","lon":"121.3582","lat":"31.398161","category":"47","category_name":"住宅区","address":"上海市宝山区美艾路198弄"},{"poiid":"B2094757D164A3FA479C","title":"好客煲","lon":"121.346757653","lat":"31.4163158346","category":"247","category_name":"餐饮美食","address":"上海市宝山区塘西街"},{"poiid":"B2094654D468A4F5429B","title":"中国建设银行(市一路)","lon":"121.34867","lat":"31.41542","category":"150","category_name":"银行","address":""},{"poiid":"B2094757D165A2F8479A","title":"中国建设银行(罗店支行)","lon":"121.347341653","lat":"31.4152168121","category":"150","category_name":"银行","address":"宝山区罗店镇市一路169号(罗溪路市一路)"},{"poiid":"B2094750DB6DA5FC409F","title":"罗店中学","lon":"121.343872","lat":"31.422937","category":"55","category_name":"中学","address":"罗新路707号"},{"poiid":"B2094655D26BA4F8419E","title":"罗新苑","lon":"121.34994","lat":"31.424318","category":"47","category_name":"住宅区","address":"集贤路800弄"},{"poiid":"B2094654DB6AA2FC409A","title":"中国邮政(罗店邮政支局)","lon":"121.34912","lat":"31.41584","category":"248","category_name":"生活娱乐","address":"宝山区市一路166号"},{"poiid":"B2094654D469A0FB429A","title":"交通银行上海罗店支行","lon":"121.34775","lat":"31.41457","category":"150","category_name":"银行","address":"罗溪路239"},{"poiid":"B2094757D66FA0FF459A","title":"中国移动罗店营业厅","lon":"121.34794045","lat":"31.415086409","category":"150","category_name":"银行","address":"上海宝山区市一路188号"},{"poiid":"B2094654D468A4F54099","title":"东方文化学院(市一路)","lon":"121.3562","lat":"31.41835","category":"52","category_name":"高等院校","address":""},{"poiid":"B2094757D064A5FE4693","title":"肯德基 KFC 美兰湖店","lon":"121.34690175","lat":"31.404148685","category":"500","category_name":"未知分类","address":"上海市宝山区美兰湖世纪联华一楼"},{"poiid":"B2094654D468A4F5409D","title":"罗溪花园(祁北路)","lon":"121.34674","lat":"31.42082","category":"47","category_name":"住宅区","address":""},{"poiid":"B2094654D469A7FE479C","title":"元祖食品(塘西街)","lon":"121.34317","lat":"31.41437","category":"112","category_name":"糕饼店","address":""},{"poiid":"B2094757D06FA4FD4692","title":"上海震旦学院","lon":"121.35632","lat":"31.41797","category":"500","category_name":"未知分类","address":"上海宝山区罗店镇市一路88号(近月罗路)  "},{"poiid":"B2094757D06EAAF44792","title":"美兰湖","lon":"121.3539524","lat":"31.399131614","category":"234","category_name":"海滨浴场","address":"宝山区罗芬路888号"},{"poiid":"B2094654D469A0F8499E","title":"美兰湖国际会议中心","lon":"121.35453","lat":"31.40151","category":"65","category_name":"咖啡厅","address":"宝山区罗店新镇罗芬路888号"},{"poiid":"B2094757D06FA7FB4798","title":"美兰湖高尔夫俱乐部","lon":"121.3651","lat":"31.40198","category":"220","category_name":"运动场所","address":"海市宝山区沪太路6655号(内美兰湖路9号)"},{"poiid":"B2094654D469ABFE409D","title":"美兰湖皇冠假日酒店","lon":"121.36484","lat":"31.40225","category":"217","category_name":"旅馆招待所","address":"宝山区沪太路6655号(近北欧新镇)"},{"poiid":"B2094757D06EAAFF4092","title":"美兰湖地铁站","lon":"121.35040708","lat":"31.4015480232","category":"36","category_name":"地铁站","address":"上海轨道交通 七号线 轨交美兰湖站 7"},{"poiid":"B2094655D26BA1FB459C","title":"罗店","lon":"121.34159","lat":"31.41009","category":"38","category_name":"公交车站","address":""},{"poiid":"B2094757D06AA7FD4099","title":"罗店医院","lon":"121.34698","lat":"31.41517","category":"162","category_name":"医院","address":"宝山区罗溪路121号(罗溪路市一路)"},{"poiid":"B2094757D568A1FF439E","title":"美兰湖高尔夫别墅","lon":"121.347665","lat":"31.40718","category":"47","category_name":"住宅区","address":"上海罗店北欧新镇美丹路8号"},{"poiid":"B2094757D069A1F9419F","title":"宝山净寺","lon":"121.34277498","lat":"31.417038888","category":"246","category_name":"回教寺","address":"宝山区罗店镇罗溪路518号(练祁河旁)"},{"poiid":"B2094654D469A7FA469D","title":"美兰湖别墅","lon":"121.36365672951","lat":"31.402259302461","category":"47","category_name":"住宅区","address":"上海市宝山区罗迎路558弄"},{"poiid":"B2094757D06BABFB459E","title":"美兰湖中华园","lon":"121.36041","lat":"31.409433","category":"500","category_name":"未知分类","address":"上海市宝山区抚远路1288弄"},{"poiid":"B2094655D264A0F9449B","title":"上置香岛原墅","lon":"121.35855","lat":"31.41063","category":"47","category_name":"住宅区","address":"宝山美兰湖美丰路88号(抚远路口)"},{"poiid":"B2094654D468A4F4429E","title":"震旦学院(市一路)","lon":"121.35604","lat":"31.41824","category":"52","category_name":"高等院校","address":"宝山区市一路88"},{"poiid":"B2094655D26BA1FB439D","title":"罗溪路市一路","lon":"121.347","lat":"31.41561","category":"38","category_name":"公交车站","address":""},{"poiid":"B2094757D065A4FE4392","title":"罗溪公园","lon":"121.35075","lat":"31.416","category":"196","category_name":"公园","address":"宝山区罗店市一路150号"},{"poiid":"B2094654D469A0FB4498","title":"都是客酒店","lon":"121.350095054","lat":"31.409544793","category":"76","category_name":"上海菜","address":"宝山区罗溪路5号(近月罗公路)"},{"poiid":"B2094654D468A4F5409C","title":"宝山寺","lon":"121.34278","lat":"31.41703","category":"244","category_name":"寺庙道观","address":"罗店镇"},{"poiid":"B2094757D16BABF9419D","title":"世纪联华 美食广场","lon":"121.350432153","lat":"31.4024306507","category":"257","category_name":"中餐厅","address":"上海美兰湖"},{"poiid":"B2094654D468A4F54193","title":"罗溪花苑","lon":"121.34593","lat":"31.419167","category":"47","category_name":"住宅区","address":"罗溪路671弄"},{"poiid":"B2094654D469A0FB4899","title":"顺驰美兰湖","lon":"121.35601","lat":"31.405182","category":"47","category_name":"住宅区","address":"宝山区罗店北欧新镇扶远路美丹路路口"},{"poiid":"B2094757D464A6FE489A","title":"重庆鸡公煲 罗溪路店","lon":"121.347158054","lat":"31.414862793","category":"247","category_name":"餐饮美食","address":"宝山区罗店镇罗溪路210号(近市一路)"},{"poiid":"B2094654D468A4FB4892","title":"金星绿苑","lon":"121.35493","lat":"31.423529","category":"47","category_name":"住宅区","address":"集贤路500弄501弄"},{"poiid":"B2094757D469A0FC499D","title":"客来多","lon":"121.351097","lat":"31.416477","category":"68","category_name":"快餐厅","address":"宝山区罗店镇祁北路(近市一路)"},{"poiid":"B2094654D468A4F4429C","title":"上海市宝山区罗店中心校","lon":"121.34926","lat":"31.41607","category":"55","category_name":"中学","address":"宝山区罗店镇市一路162号(近罗溪公园)"},{"poiid":"B2094757D66BABF9469E","title":"麦可茶饮 震旦店 Teamac","lon":"121.353465","lat":"31.417553","category":"111","category_name":"休闲餐饮场所","address":"宝山区市一路88号震旦学院内(集贤路市一路)"},{"poiid":"B2094757D069ABFE4692","title":"鼎中鼎澳门豆捞(罗芬路店)","lon":"121.35685","lat":"31.39889","category":"86","category_name":"火锅店","address":"宝山区罗芬路55号(近美艾路)"},{"poiid":"B2094757D165AAFF4798","title":"渔翁海鲜","lon":"121.347439653","lat":"31.4147068017","category":"247","category_name":"餐饮美食","address":"上海宝山区罗店镇市一路182号"},{"poiid":"B2094757D66BA4FC4292","title":"渔翁海鲜 宝山店","lon":"121.347973054","lat":"31.415537793","category":"88","category_name":"海鲜酒楼","address":"罗店市一路182号近罗溪路"},{"poiid":"B2094655D264A6FC439A","title":"罗店镇图书馆","lon":"121.34752","lat":"31.41514","category":"181","category_name":"图书馆","address":"宝山区市一路199号(罗溪路市一路)"},{"poiid":"B2094655D26BA1FB439C","title":"罗溪路月罗公路","lon":"121.34818","lat":"31.41298","category":"38","category_name":"公交车站","address":""},{"poiid":"B2094757D16CA2FC499C","title":"华方大酒店","lon":"121.344705","lat":"31.406938","category":"76","category_name":"上海菜","address":"宝山区沪太路7098号(沪太路月罗公路)"},{"poiid":"B2094654D468A4F44398","title":"古镇苑","lon":"121.34537","lat":"31.415161","category":"47","category_name":"住宅区","address":"市一路220弄"},{"poiid":"B2094757D16FA1FA469A","title":"上海市宝山区看守所","lon":"121.35733787","lat":"31.41223785","category":"500","category_name":"未知分类","address":"上海月罗路2099号"},{"poiid":"B2094655D26EA4FE449F","title":"九彩天江河鲜土菜馆 宝山店","lon":"121.34674571077","lat":"31.415515900232","category":"257","category_name":"中餐厅","address":"罗店镇市一路188号罗富大酒店2楼近罗溪路"},{"poiid":"B2094654D468A4F4439B","title":"罗富大酒店","lon":"121.34748","lat":"31.41551","category":"250","category_name":"公园户外","address":"罗店镇市一路188号"},{"poiid":"B2094757D665A4FE4593","title":"沪豫川老面馆","lon":"121.34748","lat":"31.41389","category":"87","category_name":"特色／地方风味餐厅","address":"宝山区罗溪路192号(近亭前街)"},{"poiid":"B2094757D06AA0F5439C","title":"美兰湖颐景园","lon":"121.3582","lat":"31.398161","category":"47","category_name":"住宅区","address":"上海市宝山区美艾路198弄"},{"poiid":"B2094757D164A3FA479C","title":"好客煲","lon":"121.346757653","lat":"31.4163158346","category":"247","category_name":"餐饮美食","address":"上海市宝山区塘西街"},{"poiid":"B2094654D468A4F5429B","title":"中国建设银行(市一路)","lon":"121.34867","lat":"31.41542","category":"150","category_name":"银行","address":""},{"poiid":"B2094757D165A2F8479A","title":"中国建设银行(罗店支行)","lon":"121.347341653","lat":"31.4152168121","category":"150","category_name":"银行","address":"宝山区罗店镇市一路169号(罗溪路市一路)"},{"poiid":"B2094750DB6DA5FC409F","title":"罗店中学","lon":"121.343872","lat":"31.422937","category":"55","category_name":"中学","address":"罗新路707号"},{"poiid":"B2094655D26BA4F8419E","title":"罗新苑","lon":"121.34994","lat":"31.424318","category":"47","category_name":"住宅区","address":"集贤路800弄"},{"poiid":"B2094654DB6AA2FC409A","title":"中国邮政(罗店邮政支局)","lon":"121.34912","lat":"31.41584","category":"248","category_name":"生活娱乐","address":"宝山区市一路166号"},{"poiid":"B2094654D469A0FB429A","title":"交通银行上海罗店支行","lon":"121.34775","lat":"31.41457","category":"150","category_name":"银行","address":"罗溪路239"},{"poiid":"B2094757D66FA0FF459A","title":"中国移动罗店营业厅","lon":"121.34794045","lat":"31.415086409","category":"150","category_name":"银行","address":"上海宝山区市一路188号"},{"poiid":"B2094654D468A4F54099","title":"东方文化学院(市一路)","lon":"121.3562","lat":"31.41835","category":"52","category_name":"高等院校","address":""},{"poiid":"B2094757D064A5FE4693","title":"肯德基 KFC 美兰湖店","lon":"121.34690175","lat":"31.404148685","category":"500","category_name":"未知分类","address":"上海市宝山区美兰湖世纪联华一楼"},{"poiid":"B2094654D468A4F5409D","title":"罗溪花园(祁北路)","lon":"121.34674","lat":"31.42082","category":"47","category_name":"住宅区","address":""},{"poiid":"B2094654D469A7FE479C","title":"元祖食品(塘西街)","lon":"121.34317","lat":"31.41437","category":"112","category_name":"糕饼店","address":""}]