[{"poiid":"B2094757D068A7FC489E","title":"宝虹家园","lon":"121.33401","lat":"31.476709","category":"500","category_name":"未知分类","address":"上海市宝山区陈川路555弄"},{"poiid":"B2094655D26BA1FB409F","title":"罗泾","lon":"121.34946","lat":"31.47944","category":"38","category_name":"公交车站","address":""},{"poiid":"B2094757D16CA5FB469C","title":"都是客酒店(罗泾店)","lon":"121.34056","lat":"31.4832","category":"76","category_name":"上海菜","address":"宝山区陈镇路316号(陈川路口)"},{"poiid":"B2094757D16EA1FD4499","title":"宝悦家园","lon":"121.332549018","lat":"31.4879375983","category":"47","category_name":"住宅区","address":"上海集宁路3030弄"},{"poiid":"B2094654D468A4F44798","title":"罗泾中学","lon":"121.33569","lat":"31.48234","category":"55","category_name":"中学","address":"上海宝山区罗泾镇东朱路8号"},{"poiid":"B2094655D26BA1FD4499","title":"潘泾路潘新路","lon":"121.33357","lat":"31.48793","category":"38","category_name":"公交车站","address":""},{"poiid":"B2094654D468A4F5439D","title":"罗泾社区卫生服务中心","lon":"121.33699","lat":"31.48172","category":"162","category_name":"医院","address":"罗泾镇"},{"poiid":"B2094757D568A5F4439B","title":"海上御景苑","lon":"121.32863","lat":"31.480721","category":"47","category_name":"住宅区","address":"上海市宝山区罗宁路西侧、荻泾河东侧、潘沪路南侧、陈川路北侧"},{"poiid":"B2094750D56AA2FA4993","title":"宝通家园","lon":"121.33112","lat":"31.486431","category":"47","category_name":"住宅区","address":"上海市宝山区潘新路118弄"},{"poiid":"B2094757D06AA0F9449D","title":"罗泾中心幼儿园","lon":"121.33556701","lat":"31.488440608","category":"57","category_name":"幼儿园","address":"上海市宝山区罗宁路3030弄1号"},{"poiid":"B2094757D065A3FB419F","title":"陈行镇","lon":"121.343734018","lat":"31.4817434726","category":"500","category_name":"未知分类","address":"上海市宝山区徐介路"},{"poiid":"B2094757D66EA6FD489B","title":"coco都可茶饮(陈行店)","lon":"121.341660718","lat":"31.4806728509","category":"500","category_name":"未知分类","address":"宝山区罗泾镇陈镇路152号"},{"poiid":"B2094654D468A4FB4599","title":"阀门新村","lon":"121.34354","lat":"31.482084","category":"47","category_name":"住宅区","address":"陈东路185弄"},{"poiid":"B2094654D468A4F44799","title":"陈川新村","lon":"121.34092","lat":"31.48039","category":"47","category_name":"住宅区","address":"罗泾镇"},{"poiid":"B2094655D36DA1F54298","title":"萧月路集宁路","lon":"121.32743","lat":"31.4886","category":"38","category_name":"公交车站","address":""},{"poiid":"B2094757D169A2FC499A","title":"罗泾中心小学","lon":"121.343818","lat":"31.48067","category":"56","category_name":"小学","address":"宝山区罗泾镇陈东路118号(宝山陈东路陈川路)"},{"poiid":"B2094757D16EABFC479D","title":"麦当劳","lon":"121.343800018","lat":"31.4823464849","category":"500","category_name":"未知分类","address":"上海多家连锁店  "},{"poiid":"B2094757D16EA6FD4492","title":"PUMA(一百店)","lon":"121.34367301","lat":"31.482236482","category":"500","category_name":"未知分类","address":"上海南京东路800-830号7楼"},{"poiid":"B2094757D66BA3FE479D","title":"赵鱼头","lon":"121.3339642","lat":"31.4763546","category":"76","category_name":"上海菜","address":"宝山区陈川路(近罗泾镇)"},{"poiid":"B2094757D66EA2FB4999","title":"男人装","lon":"121.34352601","lat":"31.482342484","category":"249","category_name":"购物服务","address":"上海"},{"poiid":"B2094757D66CA2FB499D","title":"gokou","lon":"121.34380201","lat":"31.48211948","category":"500","category_name":"未知分类","address":"北京上海市宝山区陈镇路"},{"poiid":"B2094655D36CA0FB4493","title":"集宁路罗宁路(罗泾)","lon":"121.3233","lat":"31.48653","category":"38","category_name":"公交车站","address":""},{"poiid":"B2094654D468A4FB419F","title":"陈行大酒店","lon":"121.34377","lat":"31.47837","category":"250","category_name":"公园户外","address":""},{"poiid":"B2094654D468A4F4469F","title":"罗泾派出所","lon":"121.34294","lat":"31.47738","category":"609","category_name":"警察局","address":"宝山区新川沙路535号"},{"poiid":"B2094757D165A1FC409B","title":"塘湾村委会","lon":"121.328201","lat":"31.489779","category":"500","category_name":"未知分类","address":"上海宝山罗泾"},{"poiid":"B2094757D16AA3F94699","title":"勤益杂货店","lon":"121.343845","lat":"31.477485","category":"117","category_name":"便民商店/便利店","address":"上海宝山区罗泾镇新川沙路516号"},{"poiid":"B2094757D66FA7FF4893","title":"华联超市No.657(陈镇路店)","lon":"121.350182","lat":"31.485205","category":"118","category_name":"超级市场","address":"上海宝山区罗泾镇陈镇路55号"},{"poiid":"B2094654D468A4FB479D","title":"上海宝山罗泾镇敬老院","lon":"121.3282","lat":"31.48977","category":"615","category_name":"敬老院","address":"集宁路179"},{"poiid":"B2094757D66CA4FF4198","title":"中国移动通信罗泾营业厅","lon":"121.34409627","lat":"31.478285792","category":"150","category_name":"银行","address":"上海宝山区罗泾镇陈镇路28号"},{"poiid":"B2094655D36DA0FC419A","title":"新川沙路北蕰川路","lon":"121.35432","lat":"31.48076","category":"38","category_name":"公交车站","address":""},{"poiid":"B2094654D468A4FB4292","title":"川山峡火锅","lon":"121.329948","lat":"31.474712","category":"86","category_name":"火锅店","address":"宝山区陈川路98号(近菜场北门)"},{"poiid":"B2094757D66DA6FC4398","title":"罗泾母巢","lon":"121.339900518","lat":"31.4742119198","category":"500","category_name":"未知分类","address":null},{"poiid":"B2094655D36DA1F94493","title":"白家桥","lon":"121.33793","lat":"31.47236","category":"250","category_name":"公园户外","address":""},{"poiid":"B2094655D26BAAFB489D","title":"跳板桥","lon":"121.32122","lat":"31.48585","category":"250","category_name":"公园户外","address":""},{"poiid":"B2094655D36CA7F94692","title":"合建","lon":"121.33584","lat":"31.47047","category":"38","category_name":"公交车站","address":""},{"poiid":"B2094757D165A1F84298","title":"中国农业银行罗泾支行","lon":"121.34875001","lat":"31.476952375","category":"150","category_name":"银行","address":"宝山区罗泾陈行街25号(陈川路罗泾东升路)"},{"poiid":"B2094757D164AAFA4298","title":"上海市宝山区罗泾镇人民政府","lon":"121.32456791","lat":"31.471051355","category":"500","category_name":"未知分类","address":"上海宝山区罗泾镇飞达路85号"},{"poiid":"B2094654D468A4FB4592","title":"罗泾镇肖泾学校","lon":"121.32221","lat":"31.47415","category":"55","category_name":"中学","address":"沪太路9103号"},{"poiid":"B2094654D468A4FA4799","title":"上海日建大中冶金材料有限公司","lon":"121.3348","lat":"31.46779","category":"263","category_name":"公司","address":""}]