[{"poiid":"B2094757D06EAAF44792","title":"美兰湖","lon":"121.3539524","lat":"31.399131614","category":"234","category_name":"海滨浴场","address":"宝山区罗芬路888号"},{"poiid":"B2094654D469A0F8499E","title":"美兰湖国际会议中心","lon":"121.35453","lat":"31.40151","category":"65","category_name":"咖啡厅","address":"宝山区罗店新镇罗芬路888号"},{"poiid":"B2094757D06FA7FB4798","title":"美兰湖高尔夫俱乐部","lon":"121.3651","lat":"31.40198","category":"220","category_name":"运动场所","address":"海市宝山区沪太路6655号(内美兰湖路9号)"},{"poiid":"B2094654D469ABFE409D","title":"美兰湖皇冠假日酒店","lon":"121.36484","lat":"31.40225","category":"217","category_name":"旅馆招待所","address":"宝山区沪太路6655号(近北欧新镇)"},{"poiid":"B2094757D06FA4FD4692","title":"上海震旦学院","lon":"121.35632","lat":"31.41797","category":"500","category_name":"未知分类","address":"上海宝山区罗店镇市一路88号(近月罗路)  "},{"poiid":"B2094757D06EAAFF4092","title":"美兰湖地铁站","lon":"121.35040708","lat":"31.4015480232","category":"36","category_name":"地铁站","address":"上海轨道交通 七号线 轨交美兰湖站 7"},{"poiid":"B2094654D469A7FA469D","title":"美兰湖别墅","lon":"121.36365672951","lat":"31.402259302461","category":"47","category_name":"住宅区","address":"上海市宝山区罗迎路558弄"},{"poiid":"B2094757D06BABFB459E","title":"美兰湖中华园","lon":"121.36041","lat":"31.409433","category":"500","category_name":"未知分类","address":"上海市宝山区抚远路1288弄"},{"poiid":"B2094655D26BA1FB459C","title":"罗店","lon":"121.34159","lat":"31.41009","category":"38","category_name":"公交车站","address":""},{"poiid":"B2094757D568A1FF439E","title":"美兰湖高尔夫别墅","lon":"121.347665","lat":"31.40718","category":"47","category_name":"住宅区","address":"上海罗店北欧新镇美丹路8号"},{"poiid":"B2094655D264A0F9449B","title":"上置香岛原墅","lon":"121.35855","lat":"31.41063","category":"47","category_name":"住宅区","address":"宝山美兰湖美丰路88号(抚远路口)"},{"poiid":"B2094757D069ABF8409F","title":"美兰湖岭域","lon":"121.358414","lat":"31.396351","category":"47","category_name":"住宅区","address":"上海宝山区罗芬路98弄"},{"poiid":"B2094757D069ABFE4692","title":"鼎中鼎澳门豆捞(罗芬路店)","lon":"121.35685","lat":"31.39889","category":"86","category_name":"火锅店","address":"宝山区罗芬路55号(近美艾路)"},{"poiid":"B2094757D06FA0FA449C","title":"罗南新村地铁站","lon":"121.35741494","lat":"31.388478859","category":"36","category_name":"地铁站","address":"上海轨道交通 七号线 轨交罗南新村站 7"},{"poiid":"B2094757D06AA7FD4099","title":"罗店医院","lon":"121.34698","lat":"31.41517","category":"162","category_name":"医院","address":"宝山区罗溪路121号(罗溪路市一路)"},{"poiid":"B2094654D469A0FB4899","title":"顺驰美兰湖","lon":"121.35601","lat":"31.405182","category":"47","category_name":"住宅区","address":"宝山区罗店北欧新镇扶远路美丹路路口"},{"poiid":"B2094757D06AA0F5439C","title":"美兰湖颐景园","lon":"121.3582","lat":"31.398161","category":"47","category_name":"住宅区","address":"上海市宝山区美艾路198弄"},{"poiid":"B2094757D16BABF9419D","title":"世纪联华 美食广场","lon":"121.350432153","lat":"31.4024306507","category":"257","category_name":"中餐厅","address":"上海美兰湖"},{"poiid":"B2094757D16CAAF9409C","title":"美兰湖琥珀郡园","lon":"121.36056559","lat":"31.391858606","category":"47","category_name":"住宅区","address":"上海美艾路177弄"},{"poiid":"B2094757D06AA3FD4992","title":"伊诺咖啡 美兰湖店","lon":"121.356827054","lat":"31.401091793","category":"65","category_name":"咖啡厅","address":"宝山区沪太路6655号罗店北欧新镇内罗芬路789号"},{"poiid":"B2094654D469A0FB4498","title":"都是客酒店","lon":"121.350095054","lat":"31.409544793","category":"76","category_name":"上海菜","address":"宝山区罗溪路5号(近月罗公路)"},{"poiid":"B2094757D664A2F8459B","title":"品膳房酒楼","lon":"121.35601","lat":"31.40112","category":"76","category_name":"上海菜","address":"宝山区美兰湖罗芬路C区689弄13-14号"},{"poiid":"B2094750D56BA5FC4393","title":"远洋7号","lon":"121.3597401665","lat":"31.408080904354","category":"47","category_name":"住宅区","address":"美兰湖板块罗芬路1288弄"},{"poiid":"B2094757D568A1FD4098","title":"美兰金邸","lon":"121.365","lat":"31.4039","category":"47","category_name":"住宅区","address":"上海市宝山区美兰湖路333弄"},{"poiid":"B2094757D66FA7FB4993","title":"美兰湖畔雅苑","lon":"121.359508679","lat":"31.4047561096","category":"47","category_name":"住宅区","address":"上海罗迎路美丹路"},{"poiid":"B2094654D468A4F4429E","title":"震旦学院(市一路)","lon":"121.35604","lat":"31.41824","category":"52","category_name":"高等院校","address":"宝山区市一路88"},{"poiid":"B2094757D068A5F84793","title":"美兰湖奥特莱斯","lon":"121.355615709","lat":"31.3961190725","category":"119","category_name":"商场","address":"宝山区沪太路6655号(美兰湖口)"},{"poiid":"B2094654DB69A6FE499E","title":"金兰雅别墅","lon":"121.35919","lat":"31.40274","category":"47","category_name":"住宅区","address":"宝山区美兰湖路98弄68号"},{"poiid":"B2094757D465A3F9489F","title":"董大师金牌稻香蛙 美兰湖店","lon":"121.35815","lat":"31.39774","category":"71","category_name":"四川菜","address":"宝山区美兰湖大道罗芬路689弄北欧风情街16号(近沪太路)"},{"poiid":"B2094757D065AAF4469E","title":"美兰湖朗诗绿岛科技住宅","lon":"121.35753966","lat":"31.403614333","category":"500","category_name":"未知分类","address":"上海市宝山区罗芬路1199弄"},{"poiid":"B2094757D06BA6FD4498","title":"万科琥珀臻园","lon":"121.366708","lat":"31.411943","category":"500","category_name":"未知分类","address":"上海市宝山区美兰湖新镇美艾路与抚远路交汇处"},{"poiid":"B2094654D469A7FA469F","title":"诺贝尔科技公园","lon":"121.3602","lat":"31.4016","category":"196","category_name":"公园","address":""},{"poiid":"B2094757D16CAAF44793","title":"FLORA in the house","lon":"121.35397865","lat":"31.404620595","category":"500","category_name":"未知分类","address":"上海美兰湖高尔夫别墅"},{"poiid":"B2094757D16FA1FA469A","title":"上海市宝山区看守所","lon":"121.35733787","lat":"31.41223785","category":"500","category_name":"未知分类","address":"上海月罗路2099号"},{"poiid":"B2094655D265A1FF4993","title":"华府美墅","lon":"121.35477","lat":"31.40527","category":"47","category_name":"住宅区","address":""},{"poiid":"B2094757D66DABF8409E","title":"上海震旦职业学院","lon":"121.361549679","lat":"31.4120992483","category":"671","category_name":"高校中心点","address":"宝山区罗店镇市一路88号(近月罗路)"},{"poiid":"B2094757D469A6FF429B","title":"美兰湖粗菜馆","lon":"121.35169744492","lat":"31.402659855428","category":"76","category_name":"上海菜","address":"宝山区罗芬路1088号世纪联华4楼(近沪太路)"},{"poiid":"B2094655D26BA4F4439E","title":"华府美墅(东南门)","lon":"121.35503","lat":"31.40514","category":"47","category_name":"住宅区","address":""},{"poiid":"B2094454D365A6F44193","title":"星巴克美蘭湖店","lon":"121.355567","lat":"31.400953","category":"247","category_name":"餐饮美食","address":"上海市 上海市寶山區羅芬路1088號世紀聯華1樓"},{"poiid":"B2094757D064A5FE4693","title":"肯德基 KFC 美兰湖店","lon":"121.34690175","lat":"31.404148685","category":"500","category_name":"未知分类","address":"上海市宝山区美兰湖世纪联华一楼"},{"poiid":"B2094654D469A7FA4692","title":"美兰湖艺术博物馆","lon":"121.35875","lat":"31.39942","category":"182","category_name":"博物馆","address":"罗南镇"},{"poiid":"B2094654D469A0FB489E","title":"美兰沪高尔夫生活园","lon":"121.37506","lat":"31.40601","category":"206","category_name":"高尔夫相关","address":"宝山区沪太路6655号(内美兰湖路9号)"},{"poiid":"B2094655D26BA1FB439D","title":"罗溪路市一路","lon":"121.347","lat":"31.41561","category":"38","category_name":"公交车站","address":""},{"poiid":"B2094757D164A5FD469D","title":"肯德基(世纪联华美兰湖店)","lon":"121.35505127","lat":"31.405679677","category":"500","category_name":"未知分类","address":"上海沪太路美丹路"},{"poiid":"B2094757D469A0FA449D","title":"美兰湖高尔夫俱乐部会所餐厅 Lake Malaren Golf Resort","lon":"121.35400661812","lat":"31.397773991695","category":"91","category_name":"台湾菜","address":"沪太路6655号美兰湖高尔夫俱乐部会所1楼近美兰湖路"},{"poiid":"B2094655D36DA7FC4498","title":"月罗公路抚远路","lon":"121.35931","lat":"31.41389","category":"38","category_name":"公交车站","address":""},{"poiid":"B2094757D16CA2FC499C","title":"华方大酒店","lon":"121.344705","lat":"31.406938","category":"76","category_name":"上海菜","address":"宝山区沪太路7098号(沪太路月罗公路)"},{"poiid":"B2094757D065A4FE4392","title":"罗溪公园","lon":"121.35075","lat":"31.416","category":"196","category_name":"公园","address":"宝山区罗店市一路150号"},{"poiid":"B2094654D469A7FA4999","title":"美兰坊悠然生活会所","lon":"121.35737","lat":"31.40007","category":"148","category_name":"美容美发店","address":""},{"poiid":"B2094654D469A7FA489B","title":"味之都管理学院","lon":"121.35693","lat":"31.39942","category":"52","category_name":"高等院校","address":""},{"poiid":"B2094757D06EAAF44792","title":"美兰湖","lon":"121.3539524","lat":"31.399131614","category":"234","category_name":"海滨浴场","address":"宝山区罗芬路888号"},{"poiid":"B2094654D469A0F8499E","title":"美兰湖国际会议中心","lon":"121.35453","lat":"31.40151","category":"65","category_name":"咖啡厅","address":"宝山区罗店新镇罗芬路888号"},{"poiid":"B2094757D06FA7FB4798","title":"美兰湖高尔夫俱乐部","lon":"121.3651","lat":"31.40198","category":"220","category_name":"运动场所","address":"海市宝山区沪太路6655号(内美兰湖路9号)"},{"poiid":"B2094654D469ABFE409D","title":"美兰湖皇冠假日酒店","lon":"121.36484","lat":"31.40225","category":"217","category_name":"旅馆招待所","address":"宝山区沪太路6655号(近北欧新镇)"},{"poiid":"B2094757D06FA4FD4692","title":"上海震旦学院","lon":"121.35632","lat":"31.41797","category":"500","category_name":"未知分类","address":"上海宝山区罗店镇市一路88号(近月罗路)  "},{"poiid":"B2094757D06EAAFF4092","title":"美兰湖地铁站","lon":"121.35040708","lat":"31.4015480232","category":"36","category_name":"地铁站","address":"上海轨道交通 七号线 轨交美兰湖站 7"},{"poiid":"B2094654D469A7FA469D","title":"美兰湖别墅","lon":"121.36365672951","lat":"31.402259302461","category":"47","category_name":"住宅区","address":"上海市宝山区罗迎路558弄"},{"poiid":"B2094757D06BABFB459E","title":"美兰湖中华园","lon":"121.36041","lat":"31.409433","category":"500","category_name":"未知分类","address":"上海市宝山区抚远路1288弄"},{"poiid":"B2094655D26BA1FB459C","title":"罗店","lon":"121.34159","lat":"31.41009","category":"38","category_name":"公交车站","address":""},{"poiid":"B2094757D568A1FF439E","title":"美兰湖高尔夫别墅","lon":"121.347665","lat":"31.40718","category":"47","category_name":"住宅区","address":"上海罗店北欧新镇美丹路8号"},{"poiid":"B2094655D264A0F9449B","title":"上置香岛原墅","lon":"121.35855","lat":"31.41063","category":"47","category_name":"住宅区","address":"宝山美兰湖美丰路88号(抚远路口)"},{"poiid":"B2094757D069ABF8409F","title":"美兰湖岭域","lon":"121.358414","lat":"31.396351","category":"47","category_name":"住宅区","address":"上海宝山区罗芬路98弄"},{"poiid":"B2094757D069ABFE4692","title":"鼎中鼎澳门豆捞(罗芬路店)","lon":"121.35685","lat":"31.39889","category":"86","category_name":"火锅店","address":"宝山区罗芬路55号(近美艾路)"},{"poiid":"B2094757D06FA0FA449C","title":"罗南新村地铁站","lon":"121.35741494","lat":"31.388478859","category":"36","category_name":"地铁站","address":"上海轨道交通 七号线 轨交罗南新村站 7"},{"poiid":"B2094757D06AA7FD4099","title":"罗店医院","lon":"121.34698","lat":"31.41517","category":"162","category_name":"医院","address":"宝山区罗溪路121号(罗溪路市一路)"},{"poiid":"B2094654D469A0FB4899","title":"顺驰美兰湖","lon":"121.35601","lat":"31.405182","category":"47","category_name":"住宅区","address":"宝山区罗店北欧新镇扶远路美丹路路口"},{"poiid":"B2094757D06AA0F5439C","title":"美兰湖颐景园","lon":"121.3582","lat":"31.398161","category":"47","category_name":"住宅区","address":"上海市宝山区美艾路198弄"},{"poiid":"B2094757D16BABF9419D","title":"世纪联华 美食广场","lon":"121.350432153","lat":"31.4024306507","category":"257","category_name":"中餐厅","address":"上海美兰湖"},{"poiid":"B2094757D16CAAF9409C","title":"美兰湖琥珀郡园","lon":"121.36056559","lat":"31.391858606","category":"47","category_name":"住宅区","address":"上海美艾路177弄"},{"poiid":"B2094757D06AA3FD4992","title":"伊诺咖啡 美兰湖店","lon":"121.356827054","lat":"31.401091793","category":"65","category_name":"咖啡厅","address":"宝山区沪太路6655号罗店北欧新镇内罗芬路789号"},{"poiid":"B2094654D469A0FB4498","title":"都是客酒店","lon":"121.350095054","lat":"31.409544793","category":"76","category_name":"上海菜","address":"宝山区罗溪路5号(近月罗公路)"},{"poiid":"B2094757D664A2F8459B","title":"品膳房酒楼","lon":"121.35601","lat":"31.40112","category":"76","category_name":"上海菜","address":"宝山区美兰湖罗芬路C区689弄13-14号"},{"poiid":"B2094750D56BA5FC4393","title":"远洋7号","lon":"121.3597401665","lat":"31.408080904354","category":"47","category_name":"住宅区","address":"美兰湖板块罗芬路1288弄"},{"poiid":"B2094757D568A1FD4098","title":"美兰金邸","lon":"121.365","lat":"31.4039","category":"47","category_name":"住宅区","address":"上海市宝山区美兰湖路333弄"},{"poiid":"B2094757D66FA7FB4993","title":"美兰湖畔雅苑","lon":"121.359508679","lat":"31.4047561096","category":"47","category_name":"住宅区","address":"上海罗迎路美丹路"},{"poiid":"B2094654D468A4F4429E","title":"震旦学院(市一路)","lon":"121.35604","lat":"31.41824","category":"52","category_name":"高等院校","address":"宝山区市一路88"},{"poiid":"B2094757D068A5F84793","title":"美兰湖奥特莱斯","lon":"121.355615709","lat":"31.3961190725","category":"119","category_name":"商场","address":"宝山区沪太路6655号(美兰湖口)"},{"poiid":"B2094654DB69A6FE499E","title":"金兰雅别墅","lon":"121.35919","lat":"31.40274","category":"47","category_name":"住宅区","address":"宝山区美兰湖路98弄68号"},{"poiid":"B2094757D465A3F9489F","title":"董大师金牌稻香蛙 美兰湖店","lon":"121.35815","lat":"31.39774","category":"71","category_name":"四川菜","address":"宝山区美兰湖大道罗芬路689弄北欧风情街16号(近沪太路)"},{"poiid":"B2094757D065AAF4469E","title":"美兰湖朗诗绿岛科技住宅","lon":"121.35753966","lat":"31.403614333","category":"500","category_name":"未知分类","address":"上海市宝山区罗芬路1199弄"},{"poiid":"B2094757D06BA6FD4498","title":"万科琥珀臻园","lon":"121.366708","lat":"31.411943","category":"500","category_name":"未知分类","address":"上海市宝山区美兰湖新镇美艾路与抚远路交汇处"},{"poiid":"B2094654D469A7FA469F","title":"诺贝尔科技公园","lon":"121.3602","lat":"31.4016","category":"196","category_name":"公园","address":""},{"poiid":"B2094757D16CAAF44793","title":"FLORA in the house","lon":"121.35397865","lat":"31.404620595","category":"500","category_name":"未知分类","address":"上海美兰湖高尔夫别墅"},{"poiid":"B2094757D16FA1FA469A","title":"上海市宝山区看守所","lon":"121.35733787","lat":"31.41223785","category":"500","category_name":"未知分类","address":"上海月罗路2099号"},{"poiid":"B2094655D265A1FF4993","title":"华府美墅","lon":"121.35477","lat":"31.40527","category":"47","category_name":"住宅区","address":""},{"poiid":"B2094757D66DABF8409E","title":"上海震旦职业学院","lon":"121.361549679","lat":"31.4120992483","category":"671","category_name":"高校中心点","address":"宝山区罗店镇市一路88号(近月罗路)"},{"poiid":"B2094757D469A6FF429B","title":"美兰湖粗菜馆","lon":"121.35169744492","lat":"31.402659855428","category":"76","category_name":"上海菜","address":"宝山区罗芬路1088号世纪联华4楼(近沪太路)"},{"poiid":"B2094655D26BA4F4439E","title":"华府美墅(东南门)","lon":"121.35503","lat":"31.40514","category":"47","category_name":"住宅区","address":""},{"poiid":"B2094454D365A6F44193","title":"星巴克美蘭湖店","lon":"121.355567","lat":"31.400953","category":"247","category_name":"餐饮美食","address":"上海市 上海市寶山區羅芬路1088號世紀聯華1樓"},{"poiid":"B2094757D064A5FE4693","title":"肯德基 KFC 美兰湖店","lon":"121.34690175","lat":"31.404148685","category":"500","category_name":"未知分类","address":"上海市宝山区美兰湖世纪联华一楼"},{"poiid":"B2094654D469A7FA4692","title":"美兰湖艺术博物馆","lon":"121.35875","lat":"31.39942","category":"182","category_name":"博物馆","address":"罗南镇"},{"poiid":"B2094654D469A0FB489E","title":"美兰沪高尔夫生活园","lon":"121.37506","lat":"31.40601","category":"206","category_name":"高尔夫相关","address":"宝山区沪太路6655号(内美兰湖路9号)"},{"poiid":"B2094655D26BA1FB439D","title":"罗溪路市一路","lon":"121.347","lat":"31.41561","category":"38","category_name":"公交车站","address":""},{"poiid":"B2094757D164A5FD469D","title":"肯德基(世纪联华美兰湖店)","lon":"121.35505127","lat":"31.405679677","category":"500","category_name":"未知分类","address":"上海沪太路美丹路"},{"poiid":"B2094757D469A0FA449D","title":"美兰湖高尔夫俱乐部会所餐厅 Lake Malaren Golf Resort","lon":"121.35400661812","lat":"31.397773991695","category":"91","category_name":"台湾菜","address":"沪太路6655号美兰湖高尔夫俱乐部会所1楼近美兰湖路"},{"poiid":"B2094655D36DA7FC4498","title":"月罗公路抚远路","lon":"121.35931","lat":"31.41389","category":"38","category_name":"公交车站","address":""},{"poiid":"B2094757D16CA2FC499C","title":"华方大酒店","lon":"121.344705","lat":"31.406938","category":"76","category_name":"上海菜","address":"宝山区沪太路7098号(沪太路月罗公路)"},{"poiid":"B2094757D065A4FE4392","title":"罗溪公园","lon":"121.35075","lat":"31.416","category":"196","category_name":"公园","address":"宝山区罗店市一路150号"},{"poiid":"B2094654D469A7FA4999","title":"美兰坊悠然生活会所","lon":"121.35737","lat":"31.40007","category":"148","category_name":"美容美发店","address":""},{"poiid":"B2094654D469A7FA489B","title":"味之都管理学院","lon":"121.35693","lat":"31.39942","category":"52","category_name":"高等院校","address":""},{"poiid":"B2094757D06EAAF44792","title":"美兰湖","lon":"121.3539524","lat":"31.399131614","category":"234","category_name":"海滨浴场","address":"宝山区罗芬路888号"},{"poiid":"B2094654D469A0F8499E","title":"美兰湖国际会议中心","lon":"121.35453","lat":"31.40151","category":"65","category_name":"咖啡厅","address":"宝山区罗店新镇罗芬路888号"},{"poiid":"B2094757D06FA7FB4798","title":"美兰湖高尔夫俱乐部","lon":"121.3651","lat":"31.40198","category":"220","category_name":"运动场所","address":"海市宝山区沪太路6655号(内美兰湖路9号)"},{"poiid":"B2094654D469ABFE409D","title":"美兰湖皇冠假日酒店","lon":"121.36484","lat":"31.40225","category":"217","category_name":"旅馆招待所","address":"宝山区沪太路6655号(近北欧新镇)"},{"poiid":"B2094757D06FA4FD4692","title":"上海震旦学院","lon":"121.35632","lat":"31.41797","category":"500","category_name":"未知分类","address":"上海宝山区罗店镇市一路88号(近月罗路)  "},{"poiid":"B2094757D06EAAFF4092","title":"美兰湖地铁站","lon":"121.35040708","lat":"31.4015480232","category":"36","category_name":"地铁站","address":"上海轨道交通 七号线 轨交美兰湖站 7"},{"poiid":"B2094654D469A7FA469D","title":"美兰湖别墅","lon":"121.36365672951","lat":"31.402259302461","category":"47","category_name":"住宅区","address":"上海市宝山区罗迎路558弄"},{"poiid":"B2094757D06BABFB459E","title":"美兰湖中华园","lon":"121.36041","lat":"31.409433","category":"500","category_name":"未知分类","address":"上海市宝山区抚远路1288弄"},{"poiid":"B2094655D26BA1FB459C","title":"罗店","lon":"121.34159","lat":"31.41009","category":"38","category_name":"公交车站","address":""},{"poiid":"B2094757D568A1FF439E","title":"美兰湖高尔夫别墅","lon":"121.347665","lat":"31.40718","category":"47","category_name":"住宅区","address":"上海罗店北欧新镇美丹路8号"},{"poiid":"B2094655D264A0F9449B","title":"上置香岛原墅","lon":"121.35855","lat":"31.41063","category":"47","category_name":"住宅区","address":"宝山美兰湖美丰路88号(抚远路口)"},{"poiid":"B2094757D069ABF8409F","title":"美兰湖岭域","lon":"121.358414","lat":"31.396351","category":"47","category_name":"住宅区","address":"上海宝山区罗芬路98弄"},{"poiid":"B2094757D069ABFE4692","title":"鼎中鼎澳门豆捞(罗芬路店)","lon":"121.35685","lat":"31.39889","category":"86","category_name":"火锅店","address":"宝山区罗芬路55号(近美艾路)"},{"poiid":"B2094757D06FA0FA449C","title":"罗南新村地铁站","lon":"121.35741494","lat":"31.388478859","category":"36","category_name":"地铁站","address":"上海轨道交通 七号线 轨交罗南新村站 7"},{"poiid":"B2094757D06AA7FD4099","title":"罗店医院","lon":"121.34698","lat":"31.41517","category":"162","category_name":"医院","address":"宝山区罗溪路121号(罗溪路市一路)"},{"poiid":"B2094654D469A0FB4899","title":"顺驰美兰湖","lon":"121.35601","lat":"31.405182","category":"47","category_name":"住宅区","address":"宝山区罗店北欧新镇扶远路美丹路路口"},{"poiid":"B2094757D06AA0F5439C","title":"美兰湖颐景园","lon":"121.3582","lat":"31.398161","category":"47","category_name":"住宅区","address":"上海市宝山区美艾路198弄"},{"poiid":"B2094757D16BABF9419D","title":"世纪联华 美食广场","lon":"121.350432153","lat":"31.4024306507","category":"257","category_name":"中餐厅","address":"上海美兰湖"},{"poiid":"B2094757D16CAAF9409C","title":"美兰湖琥珀郡园","lon":"121.36056559","lat":"31.391858606","category":"47","category_name":"住宅区","address":"上海美艾路177弄"},{"poiid":"B2094757D06AA3FD4992","title":"伊诺咖啡 美兰湖店","lon":"121.356827054","lat":"31.401091793","category":"65","category_name":"咖啡厅","address":"宝山区沪太路6655号罗店北欧新镇内罗芬路789号"},{"poiid":"B2094654D469A0FB4498","title":"都是客酒店","lon":"121.350095054","lat":"31.409544793","category":"76","category_name":"上海菜","address":"宝山区罗溪路5号(近月罗公路)"},{"poiid":"B2094757D664A2F8459B","title":"品膳房酒楼","lon":"121.35601","lat":"31.40112","category":"76","category_name":"上海菜","address":"宝山区美兰湖罗芬路C区689弄13-14号"},{"poiid":"B2094750D56BA5FC4393","title":"远洋7号","lon":"121.3597401665","lat":"31.408080904354","category":"47","category_name":"住宅区","address":"美兰湖板块罗芬路1288弄"},{"poiid":"B2094757D568A1FD4098","title":"美兰金邸","lon":"121.365","lat":"31.4039","category":"47","category_name":"住宅区","address":"上海市宝山区美兰湖路333弄"},{"poiid":"B2094757D66FA7FB4993","title":"美兰湖畔雅苑","lon":"121.359508679","lat":"31.4047561096","category":"47","category_name":"住宅区","address":"上海罗迎路美丹路"},{"poiid":"B2094654D468A4F4429E","title":"震旦学院(市一路)","lon":"121.35604","lat":"31.41824","category":"52","category_name":"高等院校","address":"宝山区市一路88"},{"poiid":"B2094757D068A5F84793","title":"美兰湖奥特莱斯","lon":"121.355615709","lat":"31.3961190725","category":"119","category_name":"商场","address":"宝山区沪太路6655号(美兰湖口)"},{"poiid":"B2094654DB69A6FE499E","title":"金兰雅别墅","lon":"121.35919","lat":"31.40274","category":"47","category_name":"住宅区","address":"宝山区美兰湖路98弄68号"},{"poiid":"B2094757D465A3F9489F","title":"董大师金牌稻香蛙 美兰湖店","lon":"121.35815","lat":"31.39774","category":"71","category_name":"四川菜","address":"宝山区美兰湖大道罗芬路689弄北欧风情街16号(近沪太路)"},{"poiid":"B2094757D065AAF4469E","title":"美兰湖朗诗绿岛科技住宅","lon":"121.35753966","lat":"31.403614333","category":"500","category_name":"未知分类","address":"上海市宝山区罗芬路1199弄"},{"poiid":"B2094757D06BA6FD4498","title":"万科琥珀臻园","lon":"121.366708","lat":"31.411943","category":"500","category_name":"未知分类","address":"上海市宝山区美兰湖新镇美艾路与抚远路交汇处"},{"poiid":"B2094654D469A7FA469F","title":"诺贝尔科技公园","lon":"121.3602","lat":"31.4016","category":"196","category_name":"公园","address":""},{"poiid":"B2094757D16CAAF44793","title":"FLORA in the house","lon":"121.35397865","lat":"31.404620595","category":"500","category_name":"未知分类","address":"上海美兰湖高尔夫别墅"},{"poiid":"B2094757D16FA1FA469A","title":"上海市宝山区看守所","lon":"121.35733787","lat":"31.41223785","category":"500","category_name":"未知分类","address":"上海月罗路2099号"},{"poiid":"B2094655D265A1FF4993","title":"华府美墅","lon":"121.35477","lat":"31.40527","category":"47","category_name":"住宅区","address":""},{"poiid":"B2094757D66DABF8409E","title":"上海震旦职业学院","lon":"121.361549679","lat":"31.4120992483","category":"671","category_name":"高校中心点","address":"宝山区罗店镇市一路88号(近月罗路)"},{"poiid":"B2094757D469A6FF429B","title":"美兰湖粗菜馆","lon":"121.35169744492","lat":"31.402659855428","category":"76","category_name":"上海菜","address":"宝山区罗芬路1088号世纪联华4楼(近沪太路)"},{"poiid":"B2094655D26BA4F4439E","title":"华府美墅(东南门)","lon":"121.35503","lat":"31.40514","category":"47","category_name":"住宅区","address":""},{"poiid":"B2094454D365A6F44193","title":"星巴克美蘭湖店","lon":"121.355567","lat":"31.400953","category":"247","category_name":"餐饮美食","address":"上海市 上海市寶山區羅芬路1088號世紀聯華1樓"},{"poiid":"B2094757D064A5FE4693","title":"肯德基 KFC 美兰湖店","lon":"121.34690175","lat":"31.404148685","category":"500","category_name":"未知分类","address":"上海市宝山区美兰湖世纪联华一楼"},{"poiid":"B2094654D469A7FA4692","title":"美兰湖艺术博物馆","lon":"121.35875","lat":"31.39942","category":"182","category_name":"博物馆","address":"罗南镇"},{"poiid":"B2094654D469A0FB489E","title":"美兰沪高尔夫生活园","lon":"121.37506","lat":"31.40601","category":"206","category_name":"高尔夫相关","address":"宝山区沪太路6655号(内美兰湖路9号)"},{"poiid":"B2094655D26BA1FB439D","title":"罗溪路市一路","lon":"121.347","lat":"31.41561","category":"38","category_name":"公交车站","address":""},{"poiid":"B2094757D164A5FD469D","title":"肯德基(世纪联华美兰湖店)","lon":"121.35505127","lat":"31.405679677","category":"500","category_name":"未知分类","address":"上海沪太路美丹路"},{"poiid":"B2094757D469A0FA449D","title":"美兰湖高尔夫俱乐部会所餐厅 Lake Malaren Golf Resort","lon":"121.35400661812","lat":"31.397773991695","category":"91","category_name":"台湾菜","address":"沪太路6655号美兰湖高尔夫俱乐部会所1楼近美兰湖路"},{"poiid":"B2094655D36DA7FC4498","title":"月罗公路抚远路","lon":"121.35931","lat":"31.41389","category":"38","category_name":"公交车站","address":""},{"poiid":"B2094757D16CA2FC499C","title":"华方大酒店","lon":"121.344705","lat":"31.406938","category":"76","category_name":"上海菜","address":"宝山区沪太路7098号(沪太路月罗公路)"},{"poiid":"B2094757D065A4FE4392","title":"罗溪公园","lon":"121.35075","lat":"31.416","category":"196","category_name":"公园","address":"宝山区罗店市一路150号"},{"poiid":"B2094654D469A7FA4999","title":"美兰坊悠然生活会所","lon":"121.35737","lat":"31.40007","category":"148","category_name":"美容美发店","address":""},{"poiid":"B2094654D469A7FA489B","title":"味之都管理学院","lon":"121.35693","lat":"31.39942","category":"52","category_name":"高等院校","address":""},{"poiid":"B2094757D06EAAF44792","title":"美兰湖","lon":"121.3539524","lat":"31.399131614","category":"234","category_name":"海滨浴场","address":"宝山区罗芬路888号"},{"poiid":"B2094654D469A0F8499E","title":"美兰湖国际会议中心","lon":"121.35453","lat":"31.40151","category":"65","category_name":"咖啡厅","address":"宝山区罗店新镇罗芬路888号"},{"poiid":"B2094757D06FA7FB4798","title":"美兰湖高尔夫俱乐部","lon":"121.3651","lat":"31.40198","category":"220","category_name":"运动场所","address":"海市宝山区沪太路6655号(内美兰湖路9号)"},{"poiid":"B2094654D469ABFE409D","title":"美兰湖皇冠假日酒店","lon":"121.36484","lat":"31.40225","category":"217","category_name":"旅馆招待所","address":"宝山区沪太路6655号(近北欧新镇)"},{"poiid":"B2094757D06FA4FD4692","title":"上海震旦学院","lon":"121.35632","lat":"31.41797","category":"500","category_name":"未知分类","address":"上海宝山区罗店镇市一路88号(近月罗路)  "},{"poiid":"B2094757D06EAAFF4092","title":"美兰湖地铁站","lon":"121.35040708","lat":"31.4015480232","category":"36","category_name":"地铁站","address":"上海轨道交通 七号线 轨交美兰湖站 7"},{"poiid":"B2094654D469A7FA469D","title":"美兰湖别墅","lon":"121.36365672951","lat":"31.402259302461","category":"47","category_name":"住宅区","address":"上海市宝山区罗迎路558弄"},{"poiid":"B2094757D06BABFB459E","title":"美兰湖中华园","lon":"121.36041","lat":"31.409433","category":"500","category_name":"未知分类","address":"上海市宝山区抚远路1288弄"},{"poiid":"B2094655D26BA1FB459C","title":"罗店","lon":"121.34159","lat":"31.41009","category":"38","category_name":"公交车站","address":""},{"poiid":"B2094757D568A1FF439E","title":"美兰湖高尔夫别墅","lon":"121.347665","lat":"31.40718","category":"47","category_name":"住宅区","address":"上海罗店北欧新镇美丹路8号"},{"poiid":"B2094655D264A0F9449B","title":"上置香岛原墅","lon":"121.35855","lat":"31.41063","category":"47","category_name":"住宅区","address":"宝山美兰湖美丰路88号(抚远路口)"},{"poiid":"B2094757D069ABF8409F","title":"美兰湖岭域","lon":"121.358414","lat":"31.396351","category":"47","category_name":"住宅区","address":"上海宝山区罗芬路98弄"},{"poiid":"B2094757D069ABFE4692","title":"鼎中鼎澳门豆捞(罗芬路店)","lon":"121.35685","lat":"31.39889","category":"86","category_name":"火锅店","address":"宝山区罗芬路55号(近美艾路)"},{"poiid":"B2094757D06FA0FA449C","title":"罗南新村地铁站","lon":"121.35741494","lat":"31.388478859","category":"36","category_name":"地铁站","address":"上海轨道交通 七号线 轨交罗南新村站 7"},{"poiid":"B2094757D06AA7FD4099","title":"罗店医院","lon":"121.34698","lat":"31.41517","category":"162","category_name":"医院","address":"宝山区罗溪路121号(罗溪路市一路)"},{"poiid":"B2094654D469A0FB4899","title":"顺驰美兰湖","lon":"121.35601","lat":"31.405182","category":"47","category_name":"住宅区","address":"宝山区罗店北欧新镇扶远路美丹路路口"},{"poiid":"B2094757D06AA0F5439C","title":"美兰湖颐景园","lon":"121.3582","lat":"31.398161","category":"47","category_name":"住宅区","address":"上海市宝山区美艾路198弄"},{"poiid":"B2094757D16BABF9419D","title":"世纪联华 美食广场","lon":"121.350432153","lat":"31.4024306507","category":"257","category_name":"中餐厅","address":"上海美兰湖"},{"poiid":"B2094757D16CAAF9409C","title":"美兰湖琥珀郡园","lon":"121.36056559","lat":"31.391858606","category":"47","category_name":"住宅区","address":"上海美艾路177弄"},{"poiid":"B2094757D06AA3FD4992","title":"伊诺咖啡 美兰湖店","lon":"121.356827054","lat":"31.401091793","category":"65","category_name":"咖啡厅","address":"宝山区沪太路6655号罗店北欧新镇内罗芬路789号"},{"poiid":"B2094654D469A0FB4498","title":"都是客酒店","lon":"121.350095054","lat":"31.409544793","category":"76","category_name":"上海菜","address":"宝山区罗溪路5号(近月罗公路)"},{"poiid":"B2094757D664A2F8459B","title":"品膳房酒楼","lon":"121.35601","lat":"31.40112","category":"76","category_name":"上海菜","address":"宝山区美兰湖罗芬路C区689弄13-14号"},{"poiid":"B2094750D56BA5FC4393","title":"远洋7号","lon":"121.3597401665","lat":"31.408080904354","category":"47","category_name":"住宅区","address":"美兰湖板块罗芬路1288弄"},{"poiid":"B2094757D568A1FD4098","title":"美兰金邸","lon":"121.365","lat":"31.4039","category":"47","category_name":"住宅区","address":"上海市宝山区美兰湖路333弄"},{"poiid":"B2094757D66FA7FB4993","title":"美兰湖畔雅苑","lon":"121.359508679","lat":"31.4047561096","category":"47","category_name":"住宅区","address":"上海罗迎路美丹路"},{"poiid":"B2094654D468A4F4429E","title":"震旦学院(市一路)","lon":"121.35604","lat":"31.41824","category":"52","category_name":"高等院校","address":"宝山区市一路88"},{"poiid":"B2094757D068A5F84793","title":"美兰湖奥特莱斯","lon":"121.355615709","lat":"31.3961190725","category":"119","category_name":"商场","address":"宝山区沪太路6655号(美兰湖口)"},{"poiid":"B2094654DB69A6FE499E","title":"金兰雅别墅","lon":"121.35919","lat":"31.40274","category":"47","category_name":"住宅区","address":"宝山区美兰湖路98弄68号"},{"poiid":"B2094757D465A3F9489F","title":"董大师金牌稻香蛙 美兰湖店","lon":"121.35815","lat":"31.39774","category":"71","category_name":"四川菜","address":"宝山区美兰湖大道罗芬路689弄北欧风情街16号(近沪太路)"},{"poiid":"B2094757D065AAF4469E","title":"美兰湖朗诗绿岛科技住宅","lon":"121.35753966","lat":"31.403614333","category":"500","category_name":"未知分类","address":"上海市宝山区罗芬路1199弄"},{"poiid":"B2094757D06BA6FD4498","title":"万科琥珀臻园","lon":"121.366708","lat":"31.411943","category":"500","category_name":"未知分类","address":"上海市宝山区美兰湖新镇美艾路与抚远路交汇处"},{"poiid":"B2094654D469A7FA469F","title":"诺贝尔科技公园","lon":"121.3602","lat":"31.4016","category":"196","category_name":"公园","address":""},{"poiid":"B2094757D16CAAF44793","title":"FLORA in the house","lon":"121.35397865","lat":"31.404620595","category":"500","category_name":"未知分类","address":"上海美兰湖高尔夫别墅"},{"poiid":"B2094757D16FA1FA469A","title":"上海市宝山区看守所","lon":"121.35733787","lat":"31.41223785","category":"500","category_name":"未知分类","address":"上海月罗路2099号"},{"poiid":"B2094655D265A1FF4993","title":"华府美墅","lon":"121.35477","lat":"31.40527","category":"47","category_name":"住宅区","address":""},{"poiid":"B2094757D66DABF8409E","title":"上海震旦职业学院","lon":"121.361549679","lat":"31.4120992483","category":"671","category_name":"高校中心点","address":"宝山区罗店镇市一路88号(近月罗路)"},{"poiid":"B2094757D469A6FF429B","title":"美兰湖粗菜馆","lon":"121.35169744492","lat":"31.402659855428","category":"76","category_name":"上海菜","address":"宝山区罗芬路1088号世纪联华4楼(近沪太路)"},{"poiid":"B2094655D26BA4F4439E","title":"华府美墅(东南门)","lon":"121.35503","lat":"31.40514","category":"47","category_name":"住宅区","address":""},{"poiid":"B2094454D365A6F44193","title":"星巴克美蘭湖店","lon":"121.355567","lat":"31.400953","category":"247","category_name":"餐饮美食","address":"上海市 上海市寶山區羅芬路1088號世紀聯華1樓"},{"poiid":"B2094757D064A5FE4693","title":"肯德基 KFC 美兰湖店","lon":"121.34690175","lat":"31.404148685","category":"500","category_name":"未知分类","address":"上海市宝山区美兰湖世纪联华一楼"},{"poiid":"B2094654D469A7FA4692","title":"美兰湖艺术博物馆","lon":"121.35875","lat":"31.39942","category":"182","category_name":"博物馆","address":"罗南镇"},{"poiid":"B2094654D469A0FB489E","title":"美兰沪高尔夫生活园","lon":"121.37506","lat":"31.40601","category":"206","category_name":"高尔夫相关","address":"宝山区沪太路6655号(内美兰湖路9号)"},{"poiid":"B2094655D26BA1FB439D","title":"罗溪路市一路","lon":"121.347","lat":"31.41561","category":"38","category_name":"公交车站","address":""},{"poiid":"B2094757D164A5FD469D","title":"肯德基(世纪联华美兰湖店)","lon":"121.35505127","lat":"31.405679677","category":"500","category_name":"未知分类","address":"上海沪太路美丹路"},{"poiid":"B2094757D469A0FA449D","title":"美兰湖高尔夫俱乐部会所餐厅 Lake Malaren Golf Resort","lon":"121.35400661812","lat":"31.397773991695","category":"91","category_name":"台湾菜","address":"沪太路6655号美兰湖高尔夫俱乐部会所1楼近美兰湖路"},{"poiid":"B2094655D36DA7FC4498","title":"月罗公路抚远路","lon":"121.35931","lat":"31.41389","category":"38","category_name":"公交车站","address":""},{"poiid":"B2094757D16CA2FC499C","title":"华方大酒店","lon":"121.344705","lat":"31.406938","category":"76","category_name":"上海菜","address":"宝山区沪太路7098号(沪太路月罗公路)"},{"poiid":"B2094757D065A4FE4392","title":"罗溪公园","lon":"121.35075","lat":"31.416","category":"196","category_name":"公园","address":"宝山区罗店市一路150号"},{"poiid":"B2094654D469A7FA4999","title":"美兰坊悠然生活会所","lon":"121.35737","lat":"31.40007","category":"148","category_name":"美容美发店","address":""},{"poiid":"B2094654D469A7FA489B","title":"味之都管理学院","lon":"121.35693","lat":"31.39942","category":"52","category_name":"高等院校","address":""}]