[{"poiid":"B2094655D26CA4F94298","title":"尚街Loft","lon":"121.45912","lat":"31.20524","category":"116","category_name":"特色商业街","address":"中央商务区CBD22号"},{"poiid":"B2094654DB6AA7FB479E","title":"罗斯福顶级牛排馆","lon":"121.45432","lat":"31.20603","category":"94","category_name":"西餐厅","address":"徐汇区太原路160号太原别墅瑞金宾馆内(近永嘉路)"},{"poiid":"B2094654DA6DA6F94298","title":"大可堂普洱会所","lon":"121.45772","lat":"31.20758","category":"260","category_name":"其他","address":"徐汇区襄阳南路388弄25号(近永嘉路)"},{"poiid":"B2094753D76FAAFA449C","title":"上海滩国泰旗舰店","lon":"121.466011","lat":"31.216125","category":"249","category_name":"购物服务","address":"淮海中路868号"},{"poiid":"B209475CD564A7F84292","title":"上海滩新天地店","lon":"121.47463","lat":"31.22164","category":"119","category_name":"商场","address":"\"太仓路181弄新天地北里15号\r\n\""},{"poiid":"B209475CD564A7F8439E","title":"上海滩中信泰富店","lon":"121.45602","lat":"31.22851","category":"119","category_name":"商场","address":"\"南京西路1168号中信泰富广场，店铺号221.\r\n\""},{"poiid":"B2094757D069A7F5479F","title":"襄阳会馆","lon":"121.45852","lat":"31.20484","category":"76","category_name":"上海菜","address":"徐汇区建国西路296号(近襄阳南路)"},{"poiid":"B2094757D06FA0FF419B","title":"沃歌斯 建国西路店 wagas","lon":"121.46050136399","lat":"31.206048786127","category":"94","category_name":"西餐厅","address":"徐汇区建国西路283号尚街LOFT1104-1105室(近嘉善路)"},{"poiid":"B2094757D068A7FE499C","title":"上海五洲国际大厦","lon":"121.454","lat":"31.2043","category":"46","category_name":"楼宇","address":"徐汇区肇嘉浜路807号"},{"poiid":"B2094655D36CA0F94999","title":"建国西路","lon":"121.45565","lat":"31.20408","category":"38","category_name":"公交车站","address":"建国西路354弄"},{"poiid":"B2094750D16BA4FD449E","title":"板烧王","lon":"121.454582","lat":"31.20439","category":"247","category_name":"餐饮美食","address":"卢湾区徐家汇路618号日月光中心广场B2楼台湾美食馆BT20-23室(近瑞金二路)"},{"poiid":"B2094750D665A0FA409D","title":"水稻咖啡","lon":"121.456","lat":"31.208","category":"260","category_name":"其他","address":"徐汇区永嘉路394号(近太原路)"},{"poiid":"B2094757D06FA1F94199","title":"x-club镭战主题酒吧","lon":"121.4580286","lat":"31.202248626","category":"260","category_name":"其他","address":"徐汇区肇嘉浜路366号裕华大厦B1楼(襄阳南路口)"},{"poiid":"B2094751DA6FA3FC469F","title":"捞王猪肚鸡","lon":"121.45716","lat":"31.20452","category":"86","category_name":"火锅店","address":"徐汇区肇嘉浜路268号2楼(近嘉善路地铁站2号出口)"},{"poiid":"B2094654DA6DABFD4199","title":"伊泰利大厦","lon":"121.4552612","lat":"31.20184326","category":"46","category_name":"楼宇","address":"伊泰利大厦位于徐汇肇嘉浜路446弄"},{"poiid":"B2094757D068A6FA4299","title":"巴黎时韵","lon":"121.45768","lat":"31.205799","category":"46","category_name":"楼宇","address":"巴黎时韵位于卢湾襄阳南路500号建国西路口"},{"poiid":"B2094655D36DA1F44792","title":"襄阳南路建国西路","lon":"121.45804","lat":"31.20557","category":"38","category_name":"公交车站","address":"上海襄阳南路建国西路"},{"poiid":"B2094654DB69A7FD439F","title":"秋萍茶宴馆","lon":"121.4576585804","lat":"31.205616427492","category":"75","category_name":"浙江菜","address":"徐汇区襄阳南路500号(近建国西路)"},{"poiid":"B2094757D069A6FB4192","title":"The Chalet","lon":"121.45457","lat":"31.20623","category":"500","category_name":"未知分类","address":"上海徐汇区永嘉路385弄(近太原路)  "},{"poiid":"B2094757D069A5F44799","title":"Lola Club","lon":"121.455173279","lat":"31.2044100305","category":"500","category_name":"未知分类","address":"上海永嘉路570号"},{"poiid":"B2094654DB6BA5FA4799","title":"欧江大厦","lon":"121.453","lat":"31.2052","category":"46","category_name":"楼宇","address":"徐汇区肇嘉浜路768号"},{"poiid":"B2094757D068A0FF409A","title":"襄阳南路","lon":"121.45744273","lat":"31.201941697","category":"34","category_name":"港口码头","address":"上海卢湾区襄阳南路"},{"poiid":"B2094750D165A2F54499","title":"韩国首尔SUM STUDIO","lon":"121.454948","lat":"31.203849","category":"248","category_name":"生活娱乐","address":"徐汇区建国西路379号(近岳阳路)"},{"poiid":"B2094757D06AA3FA489E","title":"小荧星艺校(尚街校区)","lon":"121.457245738","lat":"31.2069285447","category":"500","category_name":"未知分类","address":"上海卢湾区建国西路283号(近嘉善路)"},{"poiid":"B2094750D664A3F54598","title":"鸿公馆","lon":"121.458","lat":"31.2034","category":"72","category_name":"广东菜","address":"徐汇区襄阳南路578号乙(近肇嘉浜路)"},{"poiid":"B2094750DA6AAAFC479F","title":"奈良本寿司","lon":"121.45543","lat":"31.20401","category":"95","category_name":"日本料理","address":"徐汇区永嘉路557号"},{"poiid":"B2094654DA6DA7F4429A","title":"金钟大厦","lon":"121.455","lat":"31.2058","category":"46","category_name":"楼宇","address":"沈河北中街123号"},{"poiid":"B2094757D16CA6FE4499","title":"Venus Spring Massage","lon":"121.460971","lat":"31.207268","category":"500","category_name":"未知分类","address":"上海市,陕西南路550弄37号嘉善坊E栋(近绍兴路)"},{"poiid":"B2094757D16AA2F54399","title":"瑞金宾馆太原别墅中餐厅","lon":"121.45543","lat":"31.20554","category":"76","category_name":"上海菜","address":"杨浦区靖宇南路16号(靖宇南路永吉路)"},{"poiid":"B2094654DA6DA4F5489C","title":"联业大厦","lon":"121.457","lat":"31.2063","category":"46","category_name":"楼宇","address":"联业大厦位于徐汇乌鲁木齐南路299号"},{"poiid":"B2094757D068A0F8469E","title":"龙头大厦","lon":"121.454","lat":"31.205","category":"46","category_name":"楼宇","address":"徐汇区肇嘉浜路736号(近高安路)"},{"poiid":"B2094753DB6CA4F4409C","title":"建国328小馆","lon":"121.457283","lat":"31.204849","category":"247","category_name":"餐饮美食","address":"建国西路328号"},{"poiid":"B2094750DB64A6F84193","title":"复旦大学眼耳喉鼻科医院","lon":"121.456497","lat":"31.207393","category":"162","category_name":"医院","address":null},{"poiid":"B2094654DA6DA6FA429A","title":"重庆麻辣烫(建国西路)","lon":"121.45778","lat":"31.20489","category":"68","category_name":"快餐厅","address":"徐汇区建国西路295号(近襄阳南路)"},{"poiid":"B2094654DA6DA7F54099","title":"怡甸大厦","lon":"121.453118","lat":"31.204807","category":"46","category_name":"楼宇","address":"上海市静安区南京西路555号"},{"poiid":"B2094750D76EA1F44392","title":"无名生煎","lon":"121.456","lat":"31.204","category":"68","category_name":"快餐厅","address":"徐汇区太原路236号(近建国西路)"},{"poiid":"B2094654DA6DA6F84892","title":"嘉善菜场","lon":"121.45581","lat":"31.20457","category":"117","category_name":"便民商店/便利店","address":"上海建国西路太原路"},{"poiid":"B2094757D06BA6F8449B","title":"EF英孚教育青少儿英语(太原路中心)","lon":"121.45518","lat":"31.20556","category":"190","category_name":"培训机构","address":"上海徐汇区太原路167号(近永嘉路)"},{"poiid":"B2094757D468AAF94898","title":"GRUB&GROOVE","lon":"121.4586568","lat":"31.2052323","category":"94","category_name":"西餐厅","address":"徐汇区建国西路283号2号楼附楼B单元(嘉善路口)"},{"poiid":"B2094757D16CAAF8489F","title":"中国科学院上海分院","lon":"121.45382308","lat":"31.203554409","category":"671","category_name":"高校中心点","address":"上海岳阳路319号"},{"poiid":"B2094757D568A0F5429B","title":"阿婆葱油饼","lon":"121.4582589","lat":"31.20335306","category":"68","category_name":"快餐厅","address":"徐汇区襄阳南路578弄口(近肇嘉浜路)"},{"poiid":"B2094654DA6DA4FB469C","title":"天平街道社区卫生服务中心","lon":"121.45476","lat":"31.20681","category":"162","category_name":"医院","address":"徐汇区太原路110号(近永嘉路)"},{"poiid":"B2094654DA6DA6F4459B","title":"合群坊","lon":"121.45727","lat":"31.205187","category":"47","category_name":"住宅区","address":"建国西路316弄1-42号"},{"poiid":"B2094655D264A6F44992","title":"David'sHouse","lon":"121.45604","lat":"31.2043","category":"247","category_name":"餐饮美食","address":"建国西路355弄9号"},{"poiid":"B2094654DB65A1FA4093","title":"三连山茶行(襄阳南路)","lon":"121.45817","lat":"31.20527","category":"66","category_name":"茶艺馆","address":"襄阳南路439-3乙识别"},{"poiid":"B2094750D76CAAF54698","title":"可颂坊(肇嘉浜路店)","lon":"121.458","lat":"31.2024","category":"112","category_name":"糕饼店","address":"徐汇区肇嘉浜路376号(近襄阳南路)"},{"poiid":"B2094654DA6DA6F9419C","title":"阿根厨房","lon":"121.45791","lat":"31.20689","category":"76","category_name":"上海菜","address":"徐汇区襄阳南路414号(建国西路永嘉路间)"},{"poiid":"B2094757D469A7FE459E","title":"吾饮良品 襄阳南路店","lon":"121.457903","lat":"31.204461","category":"113","category_name":"冷饮店","address":"徐汇区襄阳南路514号(近建国西路)"},{"poiid":"B2094753DB6EA2F8429E","title":"上海瑞金宾馆太原别墅","lon":"121.455098","lat":"31.206012","category":"214","category_name":"四星级宾馆","address":"上海徐汇区太原路160号"},{"poiid":"B2094654DA6DA6FA4193","title":"生煎锅贴","lon":"121.45815","lat":"31.20562","category":"68","category_name":"快餐厅","address":"徐汇区襄阳南路435号(近建国西路)"},{"poiid":"B2094655D26CA4F94298","title":"尚街Loft","lon":"121.45912","lat":"31.20524","category":"116","category_name":"特色商业街","address":"中央商务区CBD22号"},{"poiid":"B2094654DB6AA7FB479E","title":"罗斯福顶级牛排馆","lon":"121.45432","lat":"31.20603","category":"94","category_name":"西餐厅","address":"徐汇区太原路160号太原别墅瑞金宾馆内(近永嘉路)"},{"poiid":"B2094654DA6DA6F94298","title":"大可堂普洱会所","lon":"121.45772","lat":"31.20758","category":"260","category_name":"其他","address":"徐汇区襄阳南路388弄25号(近永嘉路)"},{"poiid":"B2094753D76FAAFA449C","title":"上海滩国泰旗舰店","lon":"121.466011","lat":"31.216125","category":"249","category_name":"购物服务","address":"淮海中路868号"},{"poiid":"B209475CD564A7F84292","title":"上海滩新天地店","lon":"121.47463","lat":"31.22164","category":"119","category_name":"商场","address":"\"太仓路181弄新天地北里15号\r\n\""},{"poiid":"B209475CD564A7F8439E","title":"上海滩中信泰富店","lon":"121.45602","lat":"31.22851","category":"119","category_name":"商场","address":"\"南京西路1168号中信泰富广场，店铺号221.\r\n\""},{"poiid":"B2094757D069A7F5479F","title":"襄阳会馆","lon":"121.45852","lat":"31.20484","category":"76","category_name":"上海菜","address":"徐汇区建国西路296号(近襄阳南路)"},{"poiid":"B2094757D06FA0FF419B","title":"沃歌斯 建国西路店 wagas","lon":"121.46050136399","lat":"31.206048786127","category":"94","category_name":"西餐厅","address":"徐汇区建国西路283号尚街LOFT1104-1105室(近嘉善路)"},{"poiid":"B2094757D068A7FE499C","title":"上海五洲国际大厦","lon":"121.454","lat":"31.2043","category":"46","category_name":"楼宇","address":"徐汇区肇嘉浜路807号"},{"poiid":"B2094655D36CA0F94999","title":"建国西路","lon":"121.45565","lat":"31.20408","category":"38","category_name":"公交车站","address":"建国西路354弄"},{"poiid":"B2094750D16BA4FD449E","title":"板烧王","lon":"121.454582","lat":"31.20439","category":"247","category_name":"餐饮美食","address":"卢湾区徐家汇路618号日月光中心广场B2楼台湾美食馆BT20-23室(近瑞金二路)"},{"poiid":"B2094750D665A0FA409D","title":"水稻咖啡","lon":"121.456","lat":"31.208","category":"260","category_name":"其他","address":"徐汇区永嘉路394号(近太原路)"},{"poiid":"B2094757D06FA1F94199","title":"x-club镭战主题酒吧","lon":"121.4580286","lat":"31.202248626","category":"260","category_name":"其他","address":"徐汇区肇嘉浜路366号裕华大厦B1楼(襄阳南路口)"},{"poiid":"B2094751DA6FA3FC469F","title":"捞王猪肚鸡","lon":"121.45716","lat":"31.20452","category":"86","category_name":"火锅店","address":"徐汇区肇嘉浜路268号2楼(近嘉善路地铁站2号出口)"},{"poiid":"B2094654DA6DABFD4199","title":"伊泰利大厦","lon":"121.4552612","lat":"31.20184326","category":"46","category_name":"楼宇","address":"伊泰利大厦位于徐汇肇嘉浜路446弄"},{"poiid":"B2094757D068A6FA4299","title":"巴黎时韵","lon":"121.45768","lat":"31.205799","category":"46","category_name":"楼宇","address":"巴黎时韵位于卢湾襄阳南路500号建国西路口"},{"poiid":"B2094655D36DA1F44792","title":"襄阳南路建国西路","lon":"121.45804","lat":"31.20557","category":"38","category_name":"公交车站","address":"上海襄阳南路建国西路"},{"poiid":"B2094654DB69A7FD439F","title":"秋萍茶宴馆","lon":"121.4576585804","lat":"31.205616427492","category":"75","category_name":"浙江菜","address":"徐汇区襄阳南路500号(近建国西路)"},{"poiid":"B2094757D069A6FB4192","title":"The Chalet","lon":"121.45457","lat":"31.20623","category":"500","category_name":"未知分类","address":"上海徐汇区永嘉路385弄(近太原路)  "},{"poiid":"B2094757D069A5F44799","title":"Lola Club","lon":"121.455173279","lat":"31.2044100305","category":"500","category_name":"未知分类","address":"上海永嘉路570号"},{"poiid":"B2094654DB6BA5FA4799","title":"欧江大厦","lon":"121.453","lat":"31.2052","category":"46","category_name":"楼宇","address":"徐汇区肇嘉浜路768号"},{"poiid":"B2094757D068A0FF409A","title":"襄阳南路","lon":"121.45744273","lat":"31.201941697","category":"34","category_name":"港口码头","address":"上海卢湾区襄阳南路"},{"poiid":"B2094750D165A2F54499","title":"韩国首尔SUM STUDIO","lon":"121.454948","lat":"31.203849","category":"248","category_name":"生活娱乐","address":"徐汇区建国西路379号(近岳阳路)"},{"poiid":"B2094757D06AA3FA489E","title":"小荧星艺校(尚街校区)","lon":"121.457245738","lat":"31.2069285447","category":"500","category_name":"未知分类","address":"上海卢湾区建国西路283号(近嘉善路)"},{"poiid":"B2094750D664A3F54598","title":"鸿公馆","lon":"121.458","lat":"31.2034","category":"72","category_name":"广东菜","address":"徐汇区襄阳南路578号乙(近肇嘉浜路)"},{"poiid":"B2094750DA6AAAFC479F","title":"奈良本寿司","lon":"121.45543","lat":"31.20401","category":"95","category_name":"日本料理","address":"徐汇区永嘉路557号"},{"poiid":"B2094654DA6DA7F4429A","title":"金钟大厦","lon":"121.455","lat":"31.2058","category":"46","category_name":"楼宇","address":"沈河北中街123号"},{"poiid":"B2094757D16CA6FE4499","title":"Venus Spring Massage","lon":"121.460971","lat":"31.207268","category":"500","category_name":"未知分类","address":"上海市,陕西南路550弄37号嘉善坊E栋(近绍兴路)"},{"poiid":"B2094757D16AA2F54399","title":"瑞金宾馆太原别墅中餐厅","lon":"121.45543","lat":"31.20554","category":"76","category_name":"上海菜","address":"杨浦区靖宇南路16号(靖宇南路永吉路)"},{"poiid":"B2094654DA6DA4F5489C","title":"联业大厦","lon":"121.457","lat":"31.2063","category":"46","category_name":"楼宇","address":"联业大厦位于徐汇乌鲁木齐南路299号"},{"poiid":"B2094757D068A0F8469E","title":"龙头大厦","lon":"121.454","lat":"31.205","category":"46","category_name":"楼宇","address":"徐汇区肇嘉浜路736号(近高安路)"},{"poiid":"B2094753DB6CA4F4409C","title":"建国328小馆","lon":"121.457283","lat":"31.204849","category":"247","category_name":"餐饮美食","address":"建国西路328号"},{"poiid":"B2094750DB64A6F84193","title":"复旦大学眼耳喉鼻科医院","lon":"121.456497","lat":"31.207393","category":"162","category_name":"医院","address":null},{"poiid":"B2094654DA6DA6FA429A","title":"重庆麻辣烫(建国西路)","lon":"121.45778","lat":"31.20489","category":"68","category_name":"快餐厅","address":"徐汇区建国西路295号(近襄阳南路)"},{"poiid":"B2094654DA6DA7F54099","title":"怡甸大厦","lon":"121.453118","lat":"31.204807","category":"46","category_name":"楼宇","address":"上海市静安区南京西路555号"},{"poiid":"B2094750D76EA1F44392","title":"无名生煎","lon":"121.456","lat":"31.204","category":"68","category_name":"快餐厅","address":"徐汇区太原路236号(近建国西路)"},{"poiid":"B2094654DA6DA6F84892","title":"嘉善菜场","lon":"121.45581","lat":"31.20457","category":"117","category_name":"便民商店/便利店","address":"上海建国西路太原路"},{"poiid":"B2094757D06BA6F8449B","title":"EF英孚教育青少儿英语(太原路中心)","lon":"121.45518","lat":"31.20556","category":"190","category_name":"培训机构","address":"上海徐汇区太原路167号(近永嘉路)"},{"poiid":"B2094757D468AAF94898","title":"GRUB&GROOVE","lon":"121.4586568","lat":"31.2052323","category":"94","category_name":"西餐厅","address":"徐汇区建国西路283号2号楼附楼B单元(嘉善路口)"},{"poiid":"B2094757D16CAAF8489F","title":"中国科学院上海分院","lon":"121.45382308","lat":"31.203554409","category":"671","category_name":"高校中心点","address":"上海岳阳路319号"},{"poiid":"B2094757D568A0F5429B","title":"阿婆葱油饼","lon":"121.4582589","lat":"31.20335306","category":"68","category_name":"快餐厅","address":"徐汇区襄阳南路578弄口(近肇嘉浜路)"},{"poiid":"B2094654DA6DA4FB469C","title":"天平街道社区卫生服务中心","lon":"121.45476","lat":"31.20681","category":"162","category_name":"医院","address":"徐汇区太原路110号(近永嘉路)"},{"poiid":"B2094654DA6DA6F4459B","title":"合群坊","lon":"121.45727","lat":"31.205187","category":"47","category_name":"住宅区","address":"建国西路316弄1-42号"},{"poiid":"B2094655D264A6F44992","title":"David'sHouse","lon":"121.45604","lat":"31.2043","category":"247","category_name":"餐饮美食","address":"建国西路355弄9号"},{"poiid":"B2094654DB65A1FA4093","title":"三连山茶行(襄阳南路)","lon":"121.45817","lat":"31.20527","category":"66","category_name":"茶艺馆","address":"襄阳南路439-3乙识别"},{"poiid":"B2094750D76CAAF54698","title":"可颂坊(肇嘉浜路店)","lon":"121.458","lat":"31.2024","category":"112","category_name":"糕饼店","address":"徐汇区肇嘉浜路376号(近襄阳南路)"},{"poiid":"B2094654DA6DA6F9419C","title":"阿根厨房","lon":"121.45791","lat":"31.20689","category":"76","category_name":"上海菜","address":"徐汇区襄阳南路414号(建国西路永嘉路间)"},{"poiid":"B2094757D469A7FE459E","title":"吾饮良品 襄阳南路店","lon":"121.457903","lat":"31.204461","category":"113","category_name":"冷饮店","address":"徐汇区襄阳南路514号(近建国西路)"},{"poiid":"B2094753DB6EA2F8429E","title":"上海瑞金宾馆太原别墅","lon":"121.455098","lat":"31.206012","category":"214","category_name":"四星级宾馆","address":"上海徐汇区太原路160号"},{"poiid":"B2094654DA6DA6FA4193","title":"生煎锅贴","lon":"121.45815","lat":"31.20562","category":"68","category_name":"快餐厅","address":"徐汇区襄阳南路435号(近建国西路)"},{"poiid":"B2094655D26CA4F94298","title":"尚街Loft","lon":"121.45912","lat":"31.20524","category":"116","category_name":"特色商业街","address":"中央商务区CBD22号"},{"poiid":"B2094654DB6AA7FB479E","title":"罗斯福顶级牛排馆","lon":"121.45432","lat":"31.20603","category":"94","category_name":"西餐厅","address":"徐汇区太原路160号太原别墅瑞金宾馆内(近永嘉路)"},{"poiid":"B2094654DA6DA6F94298","title":"大可堂普洱会所","lon":"121.45772","lat":"31.20758","category":"260","category_name":"其他","address":"徐汇区襄阳南路388弄25号(近永嘉路)"},{"poiid":"B2094753D76FAAFA449C","title":"上海滩国泰旗舰店","lon":"121.466011","lat":"31.216125","category":"249","category_name":"购物服务","address":"淮海中路868号"},{"poiid":"B209475CD564A7F84292","title":"上海滩新天地店","lon":"121.47463","lat":"31.22164","category":"119","category_name":"商场","address":"\"太仓路181弄新天地北里15号\r\n\""},{"poiid":"B209475CD564A7F8439E","title":"上海滩中信泰富店","lon":"121.45602","lat":"31.22851","category":"119","category_name":"商场","address":"\"南京西路1168号中信泰富广场，店铺号221.\r\n\""},{"poiid":"B2094757D069A7F5479F","title":"襄阳会馆","lon":"121.45852","lat":"31.20484","category":"76","category_name":"上海菜","address":"徐汇区建国西路296号(近襄阳南路)"},{"poiid":"B2094757D06FA0FF419B","title":"沃歌斯 建国西路店 wagas","lon":"121.46050136399","lat":"31.206048786127","category":"94","category_name":"西餐厅","address":"徐汇区建国西路283号尚街LOFT1104-1105室(近嘉善路)"},{"poiid":"B2094757D068A7FE499C","title":"上海五洲国际大厦","lon":"121.454","lat":"31.2043","category":"46","category_name":"楼宇","address":"徐汇区肇嘉浜路807号"},{"poiid":"B2094655D36CA0F94999","title":"建国西路","lon":"121.45565","lat":"31.20408","category":"38","category_name":"公交车站","address":"建国西路354弄"},{"poiid":"B2094750D16BA4FD449E","title":"板烧王","lon":"121.454582","lat":"31.20439","category":"247","category_name":"餐饮美食","address":"卢湾区徐家汇路618号日月光中心广场B2楼台湾美食馆BT20-23室(近瑞金二路)"},{"poiid":"B2094750D665A0FA409D","title":"水稻咖啡","lon":"121.456","lat":"31.208","category":"260","category_name":"其他","address":"徐汇区永嘉路394号(近太原路)"},{"poiid":"B2094757D06FA1F94199","title":"x-club镭战主题酒吧","lon":"121.4580286","lat":"31.202248626","category":"260","category_name":"其他","address":"徐汇区肇嘉浜路366号裕华大厦B1楼(襄阳南路口)"},{"poiid":"B2094751DA6FA3FC469F","title":"捞王猪肚鸡","lon":"121.45716","lat":"31.20452","category":"86","category_name":"火锅店","address":"徐汇区肇嘉浜路268号2楼(近嘉善路地铁站2号出口)"},{"poiid":"B2094654DA6DABFD4199","title":"伊泰利大厦","lon":"121.4552612","lat":"31.20184326","category":"46","category_name":"楼宇","address":"伊泰利大厦位于徐汇肇嘉浜路446弄"},{"poiid":"B2094757D068A6FA4299","title":"巴黎时韵","lon":"121.45768","lat":"31.205799","category":"46","category_name":"楼宇","address":"巴黎时韵位于卢湾襄阳南路500号建国西路口"},{"poiid":"B2094655D36DA1F44792","title":"襄阳南路建国西路","lon":"121.45804","lat":"31.20557","category":"38","category_name":"公交车站","address":"上海襄阳南路建国西路"},{"poiid":"B2094654DB69A7FD439F","title":"秋萍茶宴馆","lon":"121.4576585804","lat":"31.205616427492","category":"75","category_name":"浙江菜","address":"徐汇区襄阳南路500号(近建国西路)"},{"poiid":"B2094757D069A6FB4192","title":"The Chalet","lon":"121.45457","lat":"31.20623","category":"500","category_name":"未知分类","address":"上海徐汇区永嘉路385弄(近太原路)  "},{"poiid":"B2094757D069A5F44799","title":"Lola Club","lon":"121.455173279","lat":"31.2044100305","category":"500","category_name":"未知分类","address":"上海永嘉路570号"},{"poiid":"B2094654DB6BA5FA4799","title":"欧江大厦","lon":"121.453","lat":"31.2052","category":"46","category_name":"楼宇","address":"徐汇区肇嘉浜路768号"},{"poiid":"B2094757D068A0FF409A","title":"襄阳南路","lon":"121.45744273","lat":"31.201941697","category":"34","category_name":"港口码头","address":"上海卢湾区襄阳南路"},{"poiid":"B2094750D165A2F54499","title":"韩国首尔SUM STUDIO","lon":"121.454948","lat":"31.203849","category":"248","category_name":"生活娱乐","address":"徐汇区建国西路379号(近岳阳路)"},{"poiid":"B2094757D06AA3FA489E","title":"小荧星艺校(尚街校区)","lon":"121.457245738","lat":"31.2069285447","category":"500","category_name":"未知分类","address":"上海卢湾区建国西路283号(近嘉善路)"},{"poiid":"B2094750D664A3F54598","title":"鸿公馆","lon":"121.458","lat":"31.2034","category":"72","category_name":"广东菜","address":"徐汇区襄阳南路578号乙(近肇嘉浜路)"},{"poiid":"B2094750DA6AAAFC479F","title":"奈良本寿司","lon":"121.45543","lat":"31.20401","category":"95","category_name":"日本料理","address":"徐汇区永嘉路557号"},{"poiid":"B2094654DA6DA7F4429A","title":"金钟大厦","lon":"121.455","lat":"31.2058","category":"46","category_name":"楼宇","address":"沈河北中街123号"},{"poiid":"B2094757D16CA6FE4499","title":"Venus Spring Massage","lon":"121.460971","lat":"31.207268","category":"500","category_name":"未知分类","address":"上海市,陕西南路550弄37号嘉善坊E栋(近绍兴路)"},{"poiid":"B2094757D16AA2F54399","title":"瑞金宾馆太原别墅中餐厅","lon":"121.45543","lat":"31.20554","category":"76","category_name":"上海菜","address":"杨浦区靖宇南路16号(靖宇南路永吉路)"},{"poiid":"B2094654DA6DA4F5489C","title":"联业大厦","lon":"121.457","lat":"31.2063","category":"46","category_name":"楼宇","address":"联业大厦位于徐汇乌鲁木齐南路299号"},{"poiid":"B2094757D068A0F8469E","title":"龙头大厦","lon":"121.454","lat":"31.205","category":"46","category_name":"楼宇","address":"徐汇区肇嘉浜路736号(近高安路)"},{"poiid":"B2094753DB6CA4F4409C","title":"建国328小馆","lon":"121.457283","lat":"31.204849","category":"247","category_name":"餐饮美食","address":"建国西路328号"},{"poiid":"B2094750DB64A6F84193","title":"复旦大学眼耳喉鼻科医院","lon":"121.456497","lat":"31.207393","category":"162","category_name":"医院","address":null},{"poiid":"B2094654DA6DA6FA429A","title":"重庆麻辣烫(建国西路)","lon":"121.45778","lat":"31.20489","category":"68","category_name":"快餐厅","address":"徐汇区建国西路295号(近襄阳南路)"},{"poiid":"B2094654DA6DA7F54099","title":"怡甸大厦","lon":"121.453118","lat":"31.204807","category":"46","category_name":"楼宇","address":"上海市静安区南京西路555号"},{"poiid":"B2094750D76EA1F44392","title":"无名生煎","lon":"121.456","lat":"31.204","category":"68","category_name":"快餐厅","address":"徐汇区太原路236号(近建国西路)"},{"poiid":"B2094654DA6DA6F84892","title":"嘉善菜场","lon":"121.45581","lat":"31.20457","category":"117","category_name":"便民商店/便利店","address":"上海建国西路太原路"},{"poiid":"B2094757D06BA6F8449B","title":"EF英孚教育青少儿英语(太原路中心)","lon":"121.45518","lat":"31.20556","category":"190","category_name":"培训机构","address":"上海徐汇区太原路167号(近永嘉路)"},{"poiid":"B2094757D468AAF94898","title":"GRUB&GROOVE","lon":"121.4586568","lat":"31.2052323","category":"94","category_name":"西餐厅","address":"徐汇区建国西路283号2号楼附楼B单元(嘉善路口)"},{"poiid":"B2094757D16CAAF8489F","title":"中国科学院上海分院","lon":"121.45382308","lat":"31.203554409","category":"671","category_name":"高校中心点","address":"上海岳阳路319号"},{"poiid":"B2094757D568A0F5429B","title":"阿婆葱油饼","lon":"121.4582589","lat":"31.20335306","category":"68","category_name":"快餐厅","address":"徐汇区襄阳南路578弄口(近肇嘉浜路)"},{"poiid":"B2094654DA6DA4FB469C","title":"天平街道社区卫生服务中心","lon":"121.45476","lat":"31.20681","category":"162","category_name":"医院","address":"徐汇区太原路110号(近永嘉路)"},{"poiid":"B2094654DA6DA6F4459B","title":"合群坊","lon":"121.45727","lat":"31.205187","category":"47","category_name":"住宅区","address":"建国西路316弄1-42号"},{"poiid":"B2094655D264A6F44992","title":"David'sHouse","lon":"121.45604","lat":"31.2043","category":"247","category_name":"餐饮美食","address":"建国西路355弄9号"},{"poiid":"B2094654DB65A1FA4093","title":"三连山茶行(襄阳南路)","lon":"121.45817","lat":"31.20527","category":"66","category_name":"茶艺馆","address":"襄阳南路439-3乙识别"},{"poiid":"B2094750D76CAAF54698","title":"可颂坊(肇嘉浜路店)","lon":"121.458","lat":"31.2024","category":"112","category_name":"糕饼店","address":"徐汇区肇嘉浜路376号(近襄阳南路)"},{"poiid":"B2094654DA6DA6F9419C","title":"阿根厨房","lon":"121.45791","lat":"31.20689","category":"76","category_name":"上海菜","address":"徐汇区襄阳南路414号(建国西路永嘉路间)"},{"poiid":"B2094757D469A7FE459E","title":"吾饮良品 襄阳南路店","lon":"121.457903","lat":"31.204461","category":"113","category_name":"冷饮店","address":"徐汇区襄阳南路514号(近建国西路)"},{"poiid":"B2094753DB6EA2F8429E","title":"上海瑞金宾馆太原别墅","lon":"121.455098","lat":"31.206012","category":"214","category_name":"四星级宾馆","address":"上海徐汇区太原路160号"},{"poiid":"B2094654DA6DA6FA4193","title":"生煎锅贴","lon":"121.45815","lat":"31.20562","category":"68","category_name":"快餐厅","address":"徐汇区襄阳南路435号(近建国西路)"},{"poiid":"B2094655D26CA4F94298","title":"尚街Loft","lon":"121.45912","lat":"31.20524","category":"116","category_name":"特色商业街","address":"中央商务区CBD22号"},{"poiid":"B2094654DB6AA7FB479E","title":"罗斯福顶级牛排馆","lon":"121.45432","lat":"31.20603","category":"94","category_name":"西餐厅","address":"徐汇区太原路160号太原别墅瑞金宾馆内(近永嘉路)"},{"poiid":"B2094654DA6DA6F94298","title":"大可堂普洱会所","lon":"121.45772","lat":"31.20758","category":"260","category_name":"其他","address":"徐汇区襄阳南路388弄25号(近永嘉路)"},{"poiid":"B2094753D76FAAFA449C","title":"上海滩国泰旗舰店","lon":"121.466011","lat":"31.216125","category":"249","category_name":"购物服务","address":"淮海中路868号"},{"poiid":"B209475CD564A7F84292","title":"上海滩新天地店","lon":"121.47463","lat":"31.22164","category":"119","category_name":"商场","address":"\"太仓路181弄新天地北里15号\r\n\""},{"poiid":"B209475CD564A7F8439E","title":"上海滩中信泰富店","lon":"121.45602","lat":"31.22851","category":"119","category_name":"商场","address":"\"南京西路1168号中信泰富广场，店铺号221.\r\n\""},{"poiid":"B2094757D069A7F5479F","title":"襄阳会馆","lon":"121.45852","lat":"31.20484","category":"76","category_name":"上海菜","address":"徐汇区建国西路296号(近襄阳南路)"},{"poiid":"B2094757D06FA0FF419B","title":"沃歌斯 建国西路店 wagas","lon":"121.46050136399","lat":"31.206048786127","category":"94","category_name":"西餐厅","address":"徐汇区建国西路283号尚街LOFT1104-1105室(近嘉善路)"},{"poiid":"B2094757D068A7FE499C","title":"上海五洲国际大厦","lon":"121.454","lat":"31.2043","category":"46","category_name":"楼宇","address":"徐汇区肇嘉浜路807号"},{"poiid":"B2094655D36CA0F94999","title":"建国西路","lon":"121.45565","lat":"31.20408","category":"38","category_name":"公交车站","address":"建国西路354弄"},{"poiid":"B2094750D16BA4FD449E","title":"板烧王","lon":"121.454582","lat":"31.20439","category":"247","category_name":"餐饮美食","address":"卢湾区徐家汇路618号日月光中心广场B2楼台湾美食馆BT20-23室(近瑞金二路)"},{"poiid":"B2094750D665A0FA409D","title":"水稻咖啡","lon":"121.456","lat":"31.208","category":"260","category_name":"其他","address":"徐汇区永嘉路394号(近太原路)"},{"poiid":"B2094757D06FA1F94199","title":"x-club镭战主题酒吧","lon":"121.4580286","lat":"31.202248626","category":"260","category_name":"其他","address":"徐汇区肇嘉浜路366号裕华大厦B1楼(襄阳南路口)"},{"poiid":"B2094751DA6FA3FC469F","title":"捞王猪肚鸡","lon":"121.45716","lat":"31.20452","category":"86","category_name":"火锅店","address":"徐汇区肇嘉浜路268号2楼(近嘉善路地铁站2号出口)"},{"poiid":"B2094654DA6DABFD4199","title":"伊泰利大厦","lon":"121.4552612","lat":"31.20184326","category":"46","category_name":"楼宇","address":"伊泰利大厦位于徐汇肇嘉浜路446弄"},{"poiid":"B2094757D068A6FA4299","title":"巴黎时韵","lon":"121.45768","lat":"31.205799","category":"46","category_name":"楼宇","address":"巴黎时韵位于卢湾襄阳南路500号建国西路口"},{"poiid":"B2094655D36DA1F44792","title":"襄阳南路建国西路","lon":"121.45804","lat":"31.20557","category":"38","category_name":"公交车站","address":"上海襄阳南路建国西路"},{"poiid":"B2094654DB69A7FD439F","title":"秋萍茶宴馆","lon":"121.4576585804","lat":"31.205616427492","category":"75","category_name":"浙江菜","address":"徐汇区襄阳南路500号(近建国西路)"},{"poiid":"B2094757D069A6FB4192","title":"The Chalet","lon":"121.45457","lat":"31.20623","category":"500","category_name":"未知分类","address":"上海徐汇区永嘉路385弄(近太原路)  "},{"poiid":"B2094757D069A5F44799","title":"Lola Club","lon":"121.455173279","lat":"31.2044100305","category":"500","category_name":"未知分类","address":"上海永嘉路570号"},{"poiid":"B2094654DB6BA5FA4799","title":"欧江大厦","lon":"121.453","lat":"31.2052","category":"46","category_name":"楼宇","address":"徐汇区肇嘉浜路768号"},{"poiid":"B2094757D068A0FF409A","title":"襄阳南路","lon":"121.45744273","lat":"31.201941697","category":"34","category_name":"港口码头","address":"上海卢湾区襄阳南路"},{"poiid":"B2094750D165A2F54499","title":"韩国首尔SUM STUDIO","lon":"121.454948","lat":"31.203849","category":"248","category_name":"生活娱乐","address":"徐汇区建国西路379号(近岳阳路)"},{"poiid":"B2094757D06AA3FA489E","title":"小荧星艺校(尚街校区)","lon":"121.457245738","lat":"31.2069285447","category":"500","category_name":"未知分类","address":"上海卢湾区建国西路283号(近嘉善路)"},{"poiid":"B2094750D664A3F54598","title":"鸿公馆","lon":"121.458","lat":"31.2034","category":"72","category_name":"广东菜","address":"徐汇区襄阳南路578号乙(近肇嘉浜路)"},{"poiid":"B2094750DA6AAAFC479F","title":"奈良本寿司","lon":"121.45543","lat":"31.20401","category":"95","category_name":"日本料理","address":"徐汇区永嘉路557号"},{"poiid":"B2094654DA6DA7F4429A","title":"金钟大厦","lon":"121.455","lat":"31.2058","category":"46","category_name":"楼宇","address":"沈河北中街123号"},{"poiid":"B2094757D16CA6FE4499","title":"Venus Spring Massage","lon":"121.460971","lat":"31.207268","category":"500","category_name":"未知分类","address":"上海市,陕西南路550弄37号嘉善坊E栋(近绍兴路)"},{"poiid":"B2094757D16AA2F54399","title":"瑞金宾馆太原别墅中餐厅","lon":"121.45543","lat":"31.20554","category":"76","category_name":"上海菜","address":"杨浦区靖宇南路16号(靖宇南路永吉路)"},{"poiid":"B2094654DA6DA4F5489C","title":"联业大厦","lon":"121.457","lat":"31.2063","category":"46","category_name":"楼宇","address":"联业大厦位于徐汇乌鲁木齐南路299号"},{"poiid":"B2094757D068A0F8469E","title":"龙头大厦","lon":"121.454","lat":"31.205","category":"46","category_name":"楼宇","address":"徐汇区肇嘉浜路736号(近高安路)"},{"poiid":"B2094753DB6CA4F4409C","title":"建国328小馆","lon":"121.457283","lat":"31.204849","category":"247","category_name":"餐饮美食","address":"建国西路328号"},{"poiid":"B2094750DB64A6F84193","title":"复旦大学眼耳喉鼻科医院","lon":"121.456497","lat":"31.207393","category":"162","category_name":"医院","address":null},{"poiid":"B2094654DA6DA6FA429A","title":"重庆麻辣烫(建国西路)","lon":"121.45778","lat":"31.20489","category":"68","category_name":"快餐厅","address":"徐汇区建国西路295号(近襄阳南路)"},{"poiid":"B2094654DA6DA7F54099","title":"怡甸大厦","lon":"121.453118","lat":"31.204807","category":"46","category_name":"楼宇","address":"上海市静安区南京西路555号"},{"poiid":"B2094750D76EA1F44392","title":"无名生煎","lon":"121.456","lat":"31.204","category":"68","category_name":"快餐厅","address":"徐汇区太原路236号(近建国西路)"},{"poiid":"B2094654DA6DA6F84892","title":"嘉善菜场","lon":"121.45581","lat":"31.20457","category":"117","category_name":"便民商店/便利店","address":"上海建国西路太原路"},{"poiid":"B2094757D06BA6F8449B","title":"EF英孚教育青少儿英语(太原路中心)","lon":"121.45518","lat":"31.20556","category":"190","category_name":"培训机构","address":"上海徐汇区太原路167号(近永嘉路)"},{"poiid":"B2094757D468AAF94898","title":"GRUB&GROOVE","lon":"121.4586568","lat":"31.2052323","category":"94","category_name":"西餐厅","address":"徐汇区建国西路283号2号楼附楼B单元(嘉善路口)"},{"poiid":"B2094757D16CAAF8489F","title":"中国科学院上海分院","lon":"121.45382308","lat":"31.203554409","category":"671","category_name":"高校中心点","address":"上海岳阳路319号"},{"poiid":"B2094757D568A0F5429B","title":"阿婆葱油饼","lon":"121.4582589","lat":"31.20335306","category":"68","category_name":"快餐厅","address":"徐汇区襄阳南路578弄口(近肇嘉浜路)"},{"poiid":"B2094654DA6DA4FB469C","title":"天平街道社区卫生服务中心","lon":"121.45476","lat":"31.20681","category":"162","category_name":"医院","address":"徐汇区太原路110号(近永嘉路)"},{"poiid":"B2094654DA6DA6F4459B","title":"合群坊","lon":"121.45727","lat":"31.205187","category":"47","category_name":"住宅区","address":"建国西路316弄1-42号"},{"poiid":"B2094655D264A6F44992","title":"David'sHouse","lon":"121.45604","lat":"31.2043","category":"247","category_name":"餐饮美食","address":"建国西路355弄9号"},{"poiid":"B2094654DB65A1FA4093","title":"三连山茶行(襄阳南路)","lon":"121.45817","lat":"31.20527","category":"66","category_name":"茶艺馆","address":"襄阳南路439-3乙识别"},{"poiid":"B2094750D76CAAF54698","title":"可颂坊(肇嘉浜路店)","lon":"121.458","lat":"31.2024","category":"112","category_name":"糕饼店","address":"徐汇区肇嘉浜路376号(近襄阳南路)"},{"poiid":"B2094654DA6DA6F9419C","title":"阿根厨房","lon":"121.45791","lat":"31.20689","category":"76","category_name":"上海菜","address":"徐汇区襄阳南路414号(建国西路永嘉路间)"},{"poiid":"B2094757D469A7FE459E","title":"吾饮良品 襄阳南路店","lon":"121.457903","lat":"31.204461","category":"113","category_name":"冷饮店","address":"徐汇区襄阳南路514号(近建国西路)"},{"poiid":"B2094753DB6EA2F8429E","title":"上海瑞金宾馆太原别墅","lon":"121.455098","lat":"31.206012","category":"214","category_name":"四星级宾馆","address":"上海徐汇区太原路160号"},{"poiid":"B2094654DA6DA6FA4193","title":"生煎锅贴","lon":"121.45815","lat":"31.20562","category":"68","category_name":"快餐厅","address":"徐汇区襄阳南路435号(近建国西路)"}]