[{"poiid":"B2094757D06FA7F84593","title":"黔香阁(浦东店)","lon":"121.51129","lat":"31.22987","category":"83","category_name":"云贵菜","address":"浦东新区浦城路171号(近商城路)"},{"poiid":"B2094654DA6EA4F9439D","title":"新源广场","lon":"121.51","lat":"31.2273","category":"46","category_name":"楼宇","address":"中山南路268号"},{"poiid":"B2094654DA6EABFF439B","title":"久事大厦","lon":"121.507","lat":"31.2307","category":"46","category_name":"楼宇","address":"上海市黄浦区中山南路28号"},{"poiid":"B209475CD564A7F84392","title":"上海滩浦东香格里拉店","lon":"121.50058","lat":"31.23634","category":"119","category_name":"商场","address":"浦东富成路33号香格里拉酒店内大堂层"},{"poiid":"B2094757D16EA7FC419E","title":"滨江大道黄浦江畔","lon":"121.50977173","lat":"31.226162213","category":"500","category_name":"未知分类","address":"上海市浦东新区滨江大道"},{"poiid":"B2094757D068A7F8459A","title":"仁恒滨江园(Yanlord Garden)","lon":"121.50641632","lat":"31.228860855","category":"47","category_name":"住宅区","address":"上海浦东新区浦明路99弄(近商城路)"},{"poiid":"B2094757D068A6FE429C","title":"金外滩花园","lon":"121.507","lat":"31.228","category":"47","category_name":"住宅区","address":"上海市黄浦区中山南路222号"},{"poiid":"B2094757D06FA1FD4698","title":"星巴克(浦城路店)","lon":"121.512253","lat":"31.227622","category":"260","category_name":"其他","address":"浦东新区浦城路367号(启新路口)"},{"poiid":"B2094757D06AAAF9489E","title":"宏豪浦江一号","lon":"121.504989","lat":"31.228434","category":"72","category_name":"广东菜","address":"浦东新区滨江大道3788号(近商城路)"},{"poiid":"B2094757D465A0F44699","title":"尼藏花园餐厅酒吧 Nizang Himalaya","lon":"121.51071683753","lat":"31.232122106704","category":"110","category_name":"其他亚洲菜","address":"浦东新区东昌路498号东园一村内(近浦东南路)"},{"poiid":"B2094757D068A5F8439A","title":"商城路","lon":"121.51235199","lat":"31.2294406891","category":"260","category_name":"其他","address":"上海商城路"},{"poiid":"B2094655D26FA6F54399","title":"仁恒滨江园","lon":"121.50861","lat":"31.23017","category":"47","category_name":"住宅区","address":"浦城路99弄"},{"poiid":"B2094654DA69A1F54292","title":"财富广场","lon":"121.5063","lat":"31.2279","category":"46","category_name":"楼宇","address":"上海市浦明路68号"},{"poiid":"B2094757D06FA5FA459B","title":"上海新东方学校(陆家嘴校区)","lon":"121.51188","lat":"31.22923","category":"253","category_name":"校园生活","address":"浦东新区浦城路190号(商城路路口)"},{"poiid":"B2094757D06FA4F8459D","title":"一兆韦德(菊园店)","lon":"121.51270768","lat":"31.226597462","category":"148","category_name":"美容美发店","address":"浦东新区浦城路367号(近东昌路地铁站)"},{"poiid":"B2094757D16CA2F9439C","title":"浦之舟会所","lon":"121.503476638","lat":"31.2286266659","category":"500","category_name":"未知分类","address":"上海陆家嘴滨江大道3688号"},{"poiid":"B2094655D264A0FE4098","title":"华润外滩九里","lon":"121.508","lat":"31.224","category":"47","category_name":"住宅区","address":"黄浦区中山南路460号"},{"poiid":"B2094757D06BA5FA479A","title":"怡景坊海鲜酒家","lon":"121.5103","lat":"31.22614","category":"72","category_name":"广东菜","address":"浦东新区浦明路266号(近启新路)"},{"poiid":"B2094655D36CA1FD429C","title":"十六铺","lon":"121.507","lat":"31.2305","category":"38","category_name":"公交车站","address":"中山东二路88弄"},{"poiid":"B2094757D168AAF8429E","title":"汇豪天下","lon":"121.50957","lat":"31.227482","category":"500","category_name":"未知分类","address":"上海市浦东新区商城路108弄"},{"poiid":"B2094757D06AA3FE4492","title":"洋泾·菊园实验学校","lon":"121.512277683","lat":"31.2272614634","category":"55","category_name":"中学","address":"上海浦东新区浦城路333号"},{"poiid":"B2094757D068A2FD449A","title":"卡玛生活瑜伽会馆","lon":"121.51181","lat":"31.22961","category":"148","category_name":"美容美发店","address":"浦东新区浦城路172号3-4楼(近商城路)"},{"poiid":"B2094757D069A3F4439F","title":"凯德·江临天下(Summit Panorama)","lon":"121.51181768","lat":"31.2262234648","category":"47","category_name":"住宅区","address":"上海市浦东新区浦明路233弄"},{"poiid":"B2094654DA69A1F54192","title":"杨家渡轮渡站(张杨路)","lon":"121.50875","lat":"31.22412","category":"34","category_name":"港口码头","address":"张杨路1号"},{"poiid":"B2094757D16FA3F5409D","title":"嘉颐汇会所","lon":"121.508835","lat":"31.226796","category":"500","category_name":"未知分类","address":"上海浦东新区浦明路266号"},{"poiid":"B2094751D56FA7FE449C","title":"Ashley Steak","lon":"121.512278","lat":"31.230046","category":"247","category_name":"餐饮美食","address":"上海八佰伴9F"},{"poiid":"B2094757D064ABFA499D","title":"财富海景花园","lon":"121.5089","lat":"31.225681","category":"47","category_name":"住宅区","address":"上海市浦东新区浦明路258弄"},{"poiid":"B2094654DA69A1F54193","title":"东昌滨江绿地","lon":"121.50794","lat":"31.22484","category":"202","category_name":"公园广场","address":"浦东新区商城路(东方路商城路)"},{"poiid":"B2094757D06FA4FC499E","title":"安联中心","lon":"121.506704808","lat":"31.227666206","category":"46","category_name":"楼宇","address":"上海浦明路132号"},{"poiid":"B2094654DA69A1F54299","title":"东昌滨江绿地(北门)","lon":"121.50666","lat":"31.22709","category":"202","category_name":"公园广场","address":""},{"poiid":"B2094751DB6CA4FD4493","title":"浦东机场T2航站楼","lon":"121.5129","lat":"31.2273","category":"500","category_name":"未知分类","address":null},{"poiid":"B2094757D06BA6FA469D","title":"巴黎贝甜(商城路店)","lon":"121.511","lat":"31.22885","category":"67","category_name":"甜品店","address":"浦东新区商城路297号申金大厦1楼商铺C区(近浦城路)"},{"poiid":"B2094752D768A4FC489E","title":"cafe lugo八佰伴店","lon":"121.50869","lat":"31.230443","category":"247","category_name":"餐饮美食","address":"上海市浦东新区张杨路1333号八佰伴三楼"},{"poiid":"B2094757DB6CA6FC4199","title":"好乐迪","lon":"121.5043331429361","lat":"31.22490214062436","category":"248","category_name":"生活娱乐","address":"八佰伴"},{"poiid":"B2094757D06AA3FF4292","title":"E.Excel international group","lon":"121.50695073","lat":"31.227464241","category":"46","category_name":"楼宇","address":"上海市浦东新区浦明路198号"},{"poiid":"B2094654DB6BAAF5429E","title":"陆家嘴图书馆","lon":"121.5111","lat":"31.23073","category":"181","category_name":"图书馆","address":"浦东新区浦城路150号(浦城路商城路)"},{"poiid":"B2094757D069A3F4419C","title":"港泰风茶餐厅","lon":"121.50589822","lat":"31.230998536","category":"72","category_name":"广东菜","address":"浦东新区东昌路540号(近浦东南路)"},{"poiid":"B2094654DB6AA3FD489B","title":"宏名阁(水之篮婚礼会所)","lon":"121.50690093891","lat":"31.228248461299","category":"72","category_name":"广东菜","address":"浦东新区浦明路99弄23号仁恒滨江园会所内(东昌路富城路)"},{"poiid":"B2094757D168A7F54592","title":"大唐盲人按摩中心","lon":"121.51137","lat":"31.22904","category":"149","category_name":"洗浴推拿场所","address":"上海浦东新区商城路339号(近浦城路)  "},{"poiid":"B2094655D26DA7FB4799","title":"财富广场(南一门)","lon":"121.50675","lat":"31.22777","category":"46","category_name":"楼宇","address":"浦明路8-198"},{"poiid":"B2094757D56EA0FF439A","title":"宁波汤团馆","lon":"121.5064287","lat":"31.22784861","category":"247","category_name":"餐饮美食","address":"浦区豫园路112号(豫园九曲桥旁绿波廊对面)"},{"poiid":"B2094757DA65A7FA4699","title":"The Westin bind center Shanghai","lon":"121.5106414414889","lat":"31.22919482826353","category":"247","category_name":"餐饮美食","address":"上海市河南中路88号"},{"poiid":"B2094757D16FA0FC499D","title":"Juicy Couture(国金中心店)","lon":"121.50991173","lat":"31.226380218","category":"141","category_name":"服装鞋帽皮具店","address":"上海浦东新区陆家嘴世纪大道8号国金中心商场L3-13"},{"poiid":"B2094757D16EA6F8479C","title":"凯德·汇豪天下(Summit Residences)","lon":"121.509778683","lat":"31.2273094709","category":"47","category_name":"住宅区","address":"上海浦东新区商城路108弄"},{"poiid":"B2094654DB69A5FF429F","title":"莫泰168连锁旅店(商城路店)","lon":"121.51207","lat":"31.22941","category":"216","category_name":"经济型连锁酒店","address":"上海市浦东新区商城路365号（近浦东南路）"},{"poiid":"B2094654DB6BAAFD479E","title":"上海通用汽车金融有限责任公司","lon":"121.5064","lat":"31.22793","category":"263","category_name":"公司","address":"浦明路160号财富广场F座"},{"poiid":"B2094655D268A2FD499E","title":"公馆77","lon":"121.505","lat":"31.228","category":"47","category_name":"住宅区","address":"上海市卢湾区济南路8号"},{"poiid":"B2094654DB6AA3FE409C","title":"卡西巴 浦城店 La Casbah","lon":"121.51176645063","lat":"31.230116732362","category":"247","category_name":"餐饮美食","address":"浦东新区浦城路172号(近商城路)"},{"poiid":"B2094654DA69A1F5449D","title":"和中堂足道(商城路)","lon":"121.51052","lat":"31.2292","category":"149","category_name":"洗浴推拿场所","address":"浦东新区商城路333号(近浦城路)"},{"poiid":"B2094757D16FA1F44199","title":"国家开发银行上海市分行","lon":"121.50561077","lat":"31.229097597","category":"46","category_name":"楼宇","address":"上海浦东新区浦明路68号"},{"poiid":"B2094757D06FA7F84593","title":"黔香阁(浦东店)","lon":"121.51129","lat":"31.22987","category":"83","category_name":"云贵菜","address":"浦东新区浦城路171号(近商城路)"},{"poiid":"B2094654DA6EA4F9439D","title":"新源广场","lon":"121.51","lat":"31.2273","category":"46","category_name":"楼宇","address":"中山南路268号"},{"poiid":"B2094654DA6EABFF439B","title":"久事大厦","lon":"121.507","lat":"31.2307","category":"46","category_name":"楼宇","address":"上海市黄浦区中山南路28号"},{"poiid":"B209475CD564A7F84392","title":"上海滩浦东香格里拉店","lon":"121.50058","lat":"31.23634","category":"119","category_name":"商场","address":"浦东富成路33号香格里拉酒店内大堂层"},{"poiid":"B2094757D16EA7FC419E","title":"滨江大道黄浦江畔","lon":"121.50977173","lat":"31.226162213","category":"500","category_name":"未知分类","address":"上海市浦东新区滨江大道"},{"poiid":"B2094757D068A7F8459A","title":"仁恒滨江园(Yanlord Garden)","lon":"121.50641632","lat":"31.228860855","category":"47","category_name":"住宅区","address":"上海浦东新区浦明路99弄(近商城路)"},{"poiid":"B2094757D068A6FE429C","title":"金外滩花园","lon":"121.507","lat":"31.228","category":"47","category_name":"住宅区","address":"上海市黄浦区中山南路222号"},{"poiid":"B2094757D06FA1FD4698","title":"星巴克(浦城路店)","lon":"121.512253","lat":"31.227622","category":"260","category_name":"其他","address":"浦东新区浦城路367号(启新路口)"},{"poiid":"B2094757D06AAAF9489E","title":"宏豪浦江一号","lon":"121.504989","lat":"31.228434","category":"72","category_name":"广东菜","address":"浦东新区滨江大道3788号(近商城路)"},{"poiid":"B2094757D465A0F44699","title":"尼藏花园餐厅酒吧 Nizang Himalaya","lon":"121.51071683753","lat":"31.232122106704","category":"110","category_name":"其他亚洲菜","address":"浦东新区东昌路498号东园一村内(近浦东南路)"},{"poiid":"B2094757D068A5F8439A","title":"商城路","lon":"121.51235199","lat":"31.2294406891","category":"260","category_name":"其他","address":"上海商城路"},{"poiid":"B2094655D26FA6F54399","title":"仁恒滨江园","lon":"121.50861","lat":"31.23017","category":"47","category_name":"住宅区","address":"浦城路99弄"},{"poiid":"B2094654DA69A1F54292","title":"财富广场","lon":"121.5063","lat":"31.2279","category":"46","category_name":"楼宇","address":"上海市浦明路68号"},{"poiid":"B2094757D06FA5FA459B","title":"上海新东方学校(陆家嘴校区)","lon":"121.51188","lat":"31.22923","category":"253","category_name":"校园生活","address":"浦东新区浦城路190号(商城路路口)"},{"poiid":"B2094757D06FA4F8459D","title":"一兆韦德(菊园店)","lon":"121.51270768","lat":"31.226597462","category":"148","category_name":"美容美发店","address":"浦东新区浦城路367号(近东昌路地铁站)"},{"poiid":"B2094757D16CA2F9439C","title":"浦之舟会所","lon":"121.503476638","lat":"31.2286266659","category":"500","category_name":"未知分类","address":"上海陆家嘴滨江大道3688号"},{"poiid":"B2094655D264A0FE4098","title":"华润外滩九里","lon":"121.508","lat":"31.224","category":"47","category_name":"住宅区","address":"黄浦区中山南路460号"},{"poiid":"B2094757D06BA5FA479A","title":"怡景坊海鲜酒家","lon":"121.5103","lat":"31.22614","category":"72","category_name":"广东菜","address":"浦东新区浦明路266号(近启新路)"},{"poiid":"B2094655D36CA1FD429C","title":"十六铺","lon":"121.507","lat":"31.2305","category":"38","category_name":"公交车站","address":"中山东二路88弄"},{"poiid":"B2094757D168AAF8429E","title":"汇豪天下","lon":"121.50957","lat":"31.227482","category":"500","category_name":"未知分类","address":"上海市浦东新区商城路108弄"},{"poiid":"B2094757D06AA3FE4492","title":"洋泾·菊园实验学校","lon":"121.512277683","lat":"31.2272614634","category":"55","category_name":"中学","address":"上海浦东新区浦城路333号"},{"poiid":"B2094757D068A2FD449A","title":"卡玛生活瑜伽会馆","lon":"121.51181","lat":"31.22961","category":"148","category_name":"美容美发店","address":"浦东新区浦城路172号3-4楼(近商城路)"},{"poiid":"B2094757D069A3F4439F","title":"凯德·江临天下(Summit Panorama)","lon":"121.51181768","lat":"31.2262234648","category":"47","category_name":"住宅区","address":"上海市浦东新区浦明路233弄"},{"poiid":"B2094654DA69A1F54192","title":"杨家渡轮渡站(张杨路)","lon":"121.50875","lat":"31.22412","category":"34","category_name":"港口码头","address":"张杨路1号"},{"poiid":"B2094757D16FA3F5409D","title":"嘉颐汇会所","lon":"121.508835","lat":"31.226796","category":"500","category_name":"未知分类","address":"上海浦东新区浦明路266号"},{"poiid":"B2094751D56FA7FE449C","title":"Ashley Steak","lon":"121.512278","lat":"31.230046","category":"247","category_name":"餐饮美食","address":"上海八佰伴9F"},{"poiid":"B2094757D064ABFA499D","title":"财富海景花园","lon":"121.5089","lat":"31.225681","category":"47","category_name":"住宅区","address":"上海市浦东新区浦明路258弄"},{"poiid":"B2094654DA69A1F54193","title":"东昌滨江绿地","lon":"121.50794","lat":"31.22484","category":"202","category_name":"公园广场","address":"浦东新区商城路(东方路商城路)"},{"poiid":"B2094757D06FA4FC499E","title":"安联中心","lon":"121.506704808","lat":"31.227666206","category":"46","category_name":"楼宇","address":"上海浦明路132号"},{"poiid":"B2094654DA69A1F54299","title":"东昌滨江绿地(北门)","lon":"121.50666","lat":"31.22709","category":"202","category_name":"公园广场","address":""},{"poiid":"B2094751DB6CA4FD4493","title":"浦东机场T2航站楼","lon":"121.5129","lat":"31.2273","category":"500","category_name":"未知分类","address":null},{"poiid":"B2094757D06BA6FA469D","title":"巴黎贝甜(商城路店)","lon":"121.511","lat":"31.22885","category":"67","category_name":"甜品店","address":"浦东新区商城路297号申金大厦1楼商铺C区(近浦城路)"},{"poiid":"B2094752D768A4FC489E","title":"cafe lugo八佰伴店","lon":"121.50869","lat":"31.230443","category":"247","category_name":"餐饮美食","address":"上海市浦东新区张杨路1333号八佰伴三楼"},{"poiid":"B2094757DB6CA6FC4199","title":"好乐迪","lon":"121.5043331429361","lat":"31.22490214062436","category":"248","category_name":"生活娱乐","address":"八佰伴"},{"poiid":"B2094757D06AA3FF4292","title":"E.Excel international group","lon":"121.50695073","lat":"31.227464241","category":"46","category_name":"楼宇","address":"上海市浦东新区浦明路198号"},{"poiid":"B2094654DB6BAAF5429E","title":"陆家嘴图书馆","lon":"121.5111","lat":"31.23073","category":"181","category_name":"图书馆","address":"浦东新区浦城路150号(浦城路商城路)"},{"poiid":"B2094757D069A3F4419C","title":"港泰风茶餐厅","lon":"121.50589822","lat":"31.230998536","category":"72","category_name":"广东菜","address":"浦东新区东昌路540号(近浦东南路)"},{"poiid":"B2094654DB6AA3FD489B","title":"宏名阁(水之篮婚礼会所)","lon":"121.50690093891","lat":"31.228248461299","category":"72","category_name":"广东菜","address":"浦东新区浦明路99弄23号仁恒滨江园会所内(东昌路富城路)"},{"poiid":"B2094757D168A7F54592","title":"大唐盲人按摩中心","lon":"121.51137","lat":"31.22904","category":"149","category_name":"洗浴推拿场所","address":"上海浦东新区商城路339号(近浦城路)  "},{"poiid":"B2094655D26DA7FB4799","title":"财富广场(南一门)","lon":"121.50675","lat":"31.22777","category":"46","category_name":"楼宇","address":"浦明路8-198"},{"poiid":"B2094757D56EA0FF439A","title":"宁波汤团馆","lon":"121.5064287","lat":"31.22784861","category":"247","category_name":"餐饮美食","address":"浦区豫园路112号(豫园九曲桥旁绿波廊对面)"},{"poiid":"B2094757DA65A7FA4699","title":"The Westin bind center Shanghai","lon":"121.5106414414889","lat":"31.22919482826353","category":"247","category_name":"餐饮美食","address":"上海市河南中路88号"},{"poiid":"B2094757D16FA0FC499D","title":"Juicy Couture(国金中心店)","lon":"121.50991173","lat":"31.226380218","category":"141","category_name":"服装鞋帽皮具店","address":"上海浦东新区陆家嘴世纪大道8号国金中心商场L3-13"},{"poiid":"B2094757D16EA6F8479C","title":"凯德·汇豪天下(Summit Residences)","lon":"121.509778683","lat":"31.2273094709","category":"47","category_name":"住宅区","address":"上海浦东新区商城路108弄"},{"poiid":"B2094654DB69A5FF429F","title":"莫泰168连锁旅店(商城路店)","lon":"121.51207","lat":"31.22941","category":"216","category_name":"经济型连锁酒店","address":"上海市浦东新区商城路365号（近浦东南路）"},{"poiid":"B2094654DB6BAAFD479E","title":"上海通用汽车金融有限责任公司","lon":"121.5064","lat":"31.22793","category":"263","category_name":"公司","address":"浦明路160号财富广场F座"},{"poiid":"B2094655D268A2FD499E","title":"公馆77","lon":"121.505","lat":"31.228","category":"47","category_name":"住宅区","address":"上海市卢湾区济南路8号"},{"poiid":"B2094654DB6AA3FE409C","title":"卡西巴 浦城店 La Casbah","lon":"121.51176645063","lat":"31.230116732362","category":"247","category_name":"餐饮美食","address":"浦东新区浦城路172号(近商城路)"},{"poiid":"B2094654DA69A1F5449D","title":"和中堂足道(商城路)","lon":"121.51052","lat":"31.2292","category":"149","category_name":"洗浴推拿场所","address":"浦东新区商城路333号(近浦城路)"},{"poiid":"B2094757D16FA1F44199","title":"国家开发银行上海市分行","lon":"121.50561077","lat":"31.229097597","category":"46","category_name":"楼宇","address":"上海浦东新区浦明路68号"},{"poiid":"B2094757D06FA7F84593","title":"黔香阁(浦东店)","lon":"121.51129","lat":"31.22987","category":"83","category_name":"云贵菜","address":"浦东新区浦城路171号(近商城路)"},{"poiid":"B2094654DA6EA4F9439D","title":"新源广场","lon":"121.51","lat":"31.2273","category":"46","category_name":"楼宇","address":"中山南路268号"},{"poiid":"B2094654DA6EABFF439B","title":"久事大厦","lon":"121.507","lat":"31.2307","category":"46","category_name":"楼宇","address":"上海市黄浦区中山南路28号"},{"poiid":"B209475CD564A7F84392","title":"上海滩浦东香格里拉店","lon":"121.50058","lat":"31.23634","category":"119","category_name":"商场","address":"浦东富成路33号香格里拉酒店内大堂层"},{"poiid":"B2094757D16EA7FC419E","title":"滨江大道黄浦江畔","lon":"121.50977173","lat":"31.226162213","category":"500","category_name":"未知分类","address":"上海市浦东新区滨江大道"},{"poiid":"B2094757D068A7F8459A","title":"仁恒滨江园(Yanlord Garden)","lon":"121.50641632","lat":"31.228860855","category":"47","category_name":"住宅区","address":"上海浦东新区浦明路99弄(近商城路)"},{"poiid":"B2094757D068A6FE429C","title":"金外滩花园","lon":"121.507","lat":"31.228","category":"47","category_name":"住宅区","address":"上海市黄浦区中山南路222号"},{"poiid":"B2094757D06FA1FD4698","title":"星巴克(浦城路店)","lon":"121.512253","lat":"31.227622","category":"260","category_name":"其他","address":"浦东新区浦城路367号(启新路口)"},{"poiid":"B2094757D06AAAF9489E","title":"宏豪浦江一号","lon":"121.504989","lat":"31.228434","category":"72","category_name":"广东菜","address":"浦东新区滨江大道3788号(近商城路)"},{"poiid":"B2094757D465A0F44699","title":"尼藏花园餐厅酒吧 Nizang Himalaya","lon":"121.51071683753","lat":"31.232122106704","category":"110","category_name":"其他亚洲菜","address":"浦东新区东昌路498号东园一村内(近浦东南路)"},{"poiid":"B2094757D068A5F8439A","title":"商城路","lon":"121.51235199","lat":"31.2294406891","category":"260","category_name":"其他","address":"上海商城路"},{"poiid":"B2094655D26FA6F54399","title":"仁恒滨江园","lon":"121.50861","lat":"31.23017","category":"47","category_name":"住宅区","address":"浦城路99弄"},{"poiid":"B2094654DA69A1F54292","title":"财富广场","lon":"121.5063","lat":"31.2279","category":"46","category_name":"楼宇","address":"上海市浦明路68号"},{"poiid":"B2094757D06FA5FA459B","title":"上海新东方学校(陆家嘴校区)","lon":"121.51188","lat":"31.22923","category":"253","category_name":"校园生活","address":"浦东新区浦城路190号(商城路路口)"},{"poiid":"B2094757D06FA4F8459D","title":"一兆韦德(菊园店)","lon":"121.51270768","lat":"31.226597462","category":"148","category_name":"美容美发店","address":"浦东新区浦城路367号(近东昌路地铁站)"},{"poiid":"B2094757D16CA2F9439C","title":"浦之舟会所","lon":"121.503476638","lat":"31.2286266659","category":"500","category_name":"未知分类","address":"上海陆家嘴滨江大道3688号"},{"poiid":"B2094655D264A0FE4098","title":"华润外滩九里","lon":"121.508","lat":"31.224","category":"47","category_name":"住宅区","address":"黄浦区中山南路460号"},{"poiid":"B2094757D06BA5FA479A","title":"怡景坊海鲜酒家","lon":"121.5103","lat":"31.22614","category":"72","category_name":"广东菜","address":"浦东新区浦明路266号(近启新路)"},{"poiid":"B2094655D36CA1FD429C","title":"十六铺","lon":"121.507","lat":"31.2305","category":"38","category_name":"公交车站","address":"中山东二路88弄"},{"poiid":"B2094757D168AAF8429E","title":"汇豪天下","lon":"121.50957","lat":"31.227482","category":"500","category_name":"未知分类","address":"上海市浦东新区商城路108弄"},{"poiid":"B2094757D06AA3FE4492","title":"洋泾·菊园实验学校","lon":"121.512277683","lat":"31.2272614634","category":"55","category_name":"中学","address":"上海浦东新区浦城路333号"},{"poiid":"B2094757D068A2FD449A","title":"卡玛生活瑜伽会馆","lon":"121.51181","lat":"31.22961","category":"148","category_name":"美容美发店","address":"浦东新区浦城路172号3-4楼(近商城路)"},{"poiid":"B2094757D069A3F4439F","title":"凯德·江临天下(Summit Panorama)","lon":"121.51181768","lat":"31.2262234648","category":"47","category_name":"住宅区","address":"上海市浦东新区浦明路233弄"},{"poiid":"B2094654DA69A1F54192","title":"杨家渡轮渡站(张杨路)","lon":"121.50875","lat":"31.22412","category":"34","category_name":"港口码头","address":"张杨路1号"},{"poiid":"B2094757D16FA3F5409D","title":"嘉颐汇会所","lon":"121.508835","lat":"31.226796","category":"500","category_name":"未知分类","address":"上海浦东新区浦明路266号"},{"poiid":"B2094751D56FA7FE449C","title":"Ashley Steak","lon":"121.512278","lat":"31.230046","category":"247","category_name":"餐饮美食","address":"上海八佰伴9F"},{"poiid":"B2094757D064ABFA499D","title":"财富海景花园","lon":"121.5089","lat":"31.225681","category":"47","category_name":"住宅区","address":"上海市浦东新区浦明路258弄"},{"poiid":"B2094654DA69A1F54193","title":"东昌滨江绿地","lon":"121.50794","lat":"31.22484","category":"202","category_name":"公园广场","address":"浦东新区商城路(东方路商城路)"},{"poiid":"B2094757D06FA4FC499E","title":"安联中心","lon":"121.506704808","lat":"31.227666206","category":"46","category_name":"楼宇","address":"上海浦明路132号"},{"poiid":"B2094654DA69A1F54299","title":"东昌滨江绿地(北门)","lon":"121.50666","lat":"31.22709","category":"202","category_name":"公园广场","address":""},{"poiid":"B2094751DB6CA4FD4493","title":"浦东机场T2航站楼","lon":"121.5129","lat":"31.2273","category":"500","category_name":"未知分类","address":null},{"poiid":"B2094757D06BA6FA469D","title":"巴黎贝甜(商城路店)","lon":"121.511","lat":"31.22885","category":"67","category_name":"甜品店","address":"浦东新区商城路297号申金大厦1楼商铺C区(近浦城路)"},{"poiid":"B2094752D768A4FC489E","title":"cafe lugo八佰伴店","lon":"121.50869","lat":"31.230443","category":"247","category_name":"餐饮美食","address":"上海市浦东新区张杨路1333号八佰伴三楼"},{"poiid":"B2094757DB6CA6FC4199","title":"好乐迪","lon":"121.5043331429361","lat":"31.22490214062436","category":"248","category_name":"生活娱乐","address":"八佰伴"},{"poiid":"B2094757D06AA3FF4292","title":"E.Excel international group","lon":"121.50695073","lat":"31.227464241","category":"46","category_name":"楼宇","address":"上海市浦东新区浦明路198号"},{"poiid":"B2094654DB6BAAF5429E","title":"陆家嘴图书馆","lon":"121.5111","lat":"31.23073","category":"181","category_name":"图书馆","address":"浦东新区浦城路150号(浦城路商城路)"},{"poiid":"B2094757D069A3F4419C","title":"港泰风茶餐厅","lon":"121.50589822","lat":"31.230998536","category":"72","category_name":"广东菜","address":"浦东新区东昌路540号(近浦东南路)"},{"poiid":"B2094654DB6AA3FD489B","title":"宏名阁(水之篮婚礼会所)","lon":"121.50690093891","lat":"31.228248461299","category":"72","category_name":"广东菜","address":"浦东新区浦明路99弄23号仁恒滨江园会所内(东昌路富城路)"},{"poiid":"B2094757D168A7F54592","title":"大唐盲人按摩中心","lon":"121.51137","lat":"31.22904","category":"149","category_name":"洗浴推拿场所","address":"上海浦东新区商城路339号(近浦城路)  "},{"poiid":"B2094655D26DA7FB4799","title":"财富广场(南一门)","lon":"121.50675","lat":"31.22777","category":"46","category_name":"楼宇","address":"浦明路8-198"},{"poiid":"B2094757D56EA0FF439A","title":"宁波汤团馆","lon":"121.5064287","lat":"31.22784861","category":"247","category_name":"餐饮美食","address":"浦区豫园路112号(豫园九曲桥旁绿波廊对面)"},{"poiid":"B2094757DA65A7FA4699","title":"The Westin bind center Shanghai","lon":"121.5106414414889","lat":"31.22919482826353","category":"247","category_name":"餐饮美食","address":"上海市河南中路88号"},{"poiid":"B2094757D16FA0FC499D","title":"Juicy Couture(国金中心店)","lon":"121.50991173","lat":"31.226380218","category":"141","category_name":"服装鞋帽皮具店","address":"上海浦东新区陆家嘴世纪大道8号国金中心商场L3-13"},{"poiid":"B2094757D16EA6F8479C","title":"凯德·汇豪天下(Summit Residences)","lon":"121.509778683","lat":"31.2273094709","category":"47","category_name":"住宅区","address":"上海浦东新区商城路108弄"},{"poiid":"B2094654DB69A5FF429F","title":"莫泰168连锁旅店(商城路店)","lon":"121.51207","lat":"31.22941","category":"216","category_name":"经济型连锁酒店","address":"上海市浦东新区商城路365号（近浦东南路）"},{"poiid":"B2094654DB6BAAFD479E","title":"上海通用汽车金融有限责任公司","lon":"121.5064","lat":"31.22793","category":"263","category_name":"公司","address":"浦明路160号财富广场F座"},{"poiid":"B2094655D268A2FD499E","title":"公馆77","lon":"121.505","lat":"31.228","category":"47","category_name":"住宅区","address":"上海市卢湾区济南路8号"},{"poiid":"B2094654DB6AA3FE409C","title":"卡西巴 浦城店 La Casbah","lon":"121.51176645063","lat":"31.230116732362","category":"247","category_name":"餐饮美食","address":"浦东新区浦城路172号(近商城路)"},{"poiid":"B2094654DA69A1F5449D","title":"和中堂足道(商城路)","lon":"121.51052","lat":"31.2292","category":"149","category_name":"洗浴推拿场所","address":"浦东新区商城路333号(近浦城路)"},{"poiid":"B2094757D16FA1F44199","title":"国家开发银行上海市分行","lon":"121.50561077","lat":"31.229097597","category":"46","category_name":"楼宇","address":"上海浦东新区浦明路68号"},{"poiid":"B2094757D06FA7F84593","title":"黔香阁(浦东店)","lon":"121.51129","lat":"31.22987","category":"83","category_name":"云贵菜","address":"浦东新区浦城路171号(近商城路)"},{"poiid":"B2094654DA6EA4F9439D","title":"新源广场","lon":"121.51","lat":"31.2273","category":"46","category_name":"楼宇","address":"中山南路268号"},{"poiid":"B2094654DA6EABFF439B","title":"久事大厦","lon":"121.507","lat":"31.2307","category":"46","category_name":"楼宇","address":"上海市黄浦区中山南路28号"},{"poiid":"B209475CD564A7F84392","title":"上海滩浦东香格里拉店","lon":"121.50058","lat":"31.23634","category":"119","category_name":"商场","address":"浦东富成路33号香格里拉酒店内大堂层"},{"poiid":"B2094757D16EA7FC419E","title":"滨江大道黄浦江畔","lon":"121.50977173","lat":"31.226162213","category":"500","category_name":"未知分类","address":"上海市浦东新区滨江大道"},{"poiid":"B2094757D068A7F8459A","title":"仁恒滨江园(Yanlord Garden)","lon":"121.50641632","lat":"31.228860855","category":"47","category_name":"住宅区","address":"上海浦东新区浦明路99弄(近商城路)"},{"poiid":"B2094757D068A6FE429C","title":"金外滩花园","lon":"121.507","lat":"31.228","category":"47","category_name":"住宅区","address":"上海市黄浦区中山南路222号"},{"poiid":"B2094757D06FA1FD4698","title":"星巴克(浦城路店)","lon":"121.512253","lat":"31.227622","category":"260","category_name":"其他","address":"浦东新区浦城路367号(启新路口)"},{"poiid":"B2094757D06AAAF9489E","title":"宏豪浦江一号","lon":"121.504989","lat":"31.228434","category":"72","category_name":"广东菜","address":"浦东新区滨江大道3788号(近商城路)"},{"poiid":"B2094757D465A0F44699","title":"尼藏花园餐厅酒吧 Nizang Himalaya","lon":"121.51071683753","lat":"31.232122106704","category":"110","category_name":"其他亚洲菜","address":"浦东新区东昌路498号东园一村内(近浦东南路)"},{"poiid":"B2094757D068A5F8439A","title":"商城路","lon":"121.51235199","lat":"31.2294406891","category":"260","category_name":"其他","address":"上海商城路"},{"poiid":"B2094655D26FA6F54399","title":"仁恒滨江园","lon":"121.50861","lat":"31.23017","category":"47","category_name":"住宅区","address":"浦城路99弄"},{"poiid":"B2094654DA69A1F54292","title":"财富广场","lon":"121.5063","lat":"31.2279","category":"46","category_name":"楼宇","address":"上海市浦明路68号"},{"poiid":"B2094757D06FA5FA459B","title":"上海新东方学校(陆家嘴校区)","lon":"121.51188","lat":"31.22923","category":"253","category_name":"校园生活","address":"浦东新区浦城路190号(商城路路口)"},{"poiid":"B2094757D06FA4F8459D","title":"一兆韦德(菊园店)","lon":"121.51270768","lat":"31.226597462","category":"148","category_name":"美容美发店","address":"浦东新区浦城路367号(近东昌路地铁站)"},{"poiid":"B2094757D16CA2F9439C","title":"浦之舟会所","lon":"121.503476638","lat":"31.2286266659","category":"500","category_name":"未知分类","address":"上海陆家嘴滨江大道3688号"},{"poiid":"B2094655D264A0FE4098","title":"华润外滩九里","lon":"121.508","lat":"31.224","category":"47","category_name":"住宅区","address":"黄浦区中山南路460号"},{"poiid":"B2094757D06BA5FA479A","title":"怡景坊海鲜酒家","lon":"121.5103","lat":"31.22614","category":"72","category_name":"广东菜","address":"浦东新区浦明路266号(近启新路)"},{"poiid":"B2094655D36CA1FD429C","title":"十六铺","lon":"121.507","lat":"31.2305","category":"38","category_name":"公交车站","address":"中山东二路88弄"},{"poiid":"B2094757D168AAF8429E","title":"汇豪天下","lon":"121.50957","lat":"31.227482","category":"500","category_name":"未知分类","address":"上海市浦东新区商城路108弄"},{"poiid":"B2094757D06AA3FE4492","title":"洋泾·菊园实验学校","lon":"121.512277683","lat":"31.2272614634","category":"55","category_name":"中学","address":"上海浦东新区浦城路333号"},{"poiid":"B2094757D068A2FD449A","title":"卡玛生活瑜伽会馆","lon":"121.51181","lat":"31.22961","category":"148","category_name":"美容美发店","address":"浦东新区浦城路172号3-4楼(近商城路)"},{"poiid":"B2094757D069A3F4439F","title":"凯德·江临天下(Summit Panorama)","lon":"121.51181768","lat":"31.2262234648","category":"47","category_name":"住宅区","address":"上海市浦东新区浦明路233弄"},{"poiid":"B2094654DA69A1F54192","title":"杨家渡轮渡站(张杨路)","lon":"121.50875","lat":"31.22412","category":"34","category_name":"港口码头","address":"张杨路1号"},{"poiid":"B2094757D16FA3F5409D","title":"嘉颐汇会所","lon":"121.508835","lat":"31.226796","category":"500","category_name":"未知分类","address":"上海浦东新区浦明路266号"},{"poiid":"B2094751D56FA7FE449C","title":"Ashley Steak","lon":"121.512278","lat":"31.230046","category":"247","category_name":"餐饮美食","address":"上海八佰伴9F"},{"poiid":"B2094757D064ABFA499D","title":"财富海景花园","lon":"121.5089","lat":"31.225681","category":"47","category_name":"住宅区","address":"上海市浦东新区浦明路258弄"},{"poiid":"B2094654DA69A1F54193","title":"东昌滨江绿地","lon":"121.50794","lat":"31.22484","category":"202","category_name":"公园广场","address":"浦东新区商城路(东方路商城路)"},{"poiid":"B2094757D06FA4FC499E","title":"安联中心","lon":"121.506704808","lat":"31.227666206","category":"46","category_name":"楼宇","address":"上海浦明路132号"},{"poiid":"B2094654DA69A1F54299","title":"东昌滨江绿地(北门)","lon":"121.50666","lat":"31.22709","category":"202","category_name":"公园广场","address":""},{"poiid":"B2094751DB6CA4FD4493","title":"浦东机场T2航站楼","lon":"121.5129","lat":"31.2273","category":"500","category_name":"未知分类","address":null},{"poiid":"B2094757D06BA6FA469D","title":"巴黎贝甜(商城路店)","lon":"121.511","lat":"31.22885","category":"67","category_name":"甜品店","address":"浦东新区商城路297号申金大厦1楼商铺C区(近浦城路)"},{"poiid":"B2094752D768A4FC489E","title":"cafe lugo八佰伴店","lon":"121.50869","lat":"31.230443","category":"247","category_name":"餐饮美食","address":"上海市浦东新区张杨路1333号八佰伴三楼"},{"poiid":"B2094757DB6CA6FC4199","title":"好乐迪","lon":"121.5043331429361","lat":"31.22490214062436","category":"248","category_name":"生活娱乐","address":"八佰伴"},{"poiid":"B2094757D06AA3FF4292","title":"E.Excel international group","lon":"121.50695073","lat":"31.227464241","category":"46","category_name":"楼宇","address":"上海市浦东新区浦明路198号"},{"poiid":"B2094654DB6BAAF5429E","title":"陆家嘴图书馆","lon":"121.5111","lat":"31.23073","category":"181","category_name":"图书馆","address":"浦东新区浦城路150号(浦城路商城路)"},{"poiid":"B2094757D069A3F4419C","title":"港泰风茶餐厅","lon":"121.50589822","lat":"31.230998536","category":"72","category_name":"广东菜","address":"浦东新区东昌路540号(近浦东南路)"},{"poiid":"B2094654DB6AA3FD489B","title":"宏名阁(水之篮婚礼会所)","lon":"121.50690093891","lat":"31.228248461299","category":"72","category_name":"广东菜","address":"浦东新区浦明路99弄23号仁恒滨江园会所内(东昌路富城路)"},{"poiid":"B2094757D168A7F54592","title":"大唐盲人按摩中心","lon":"121.51137","lat":"31.22904","category":"149","category_name":"洗浴推拿场所","address":"上海浦东新区商城路339号(近浦城路)  "},{"poiid":"B2094655D26DA7FB4799","title":"财富广场(南一门)","lon":"121.50675","lat":"31.22777","category":"46","category_name":"楼宇","address":"浦明路8-198"},{"poiid":"B2094757D56EA0FF439A","title":"宁波汤团馆","lon":"121.5064287","lat":"31.22784861","category":"247","category_name":"餐饮美食","address":"浦区豫园路112号(豫园九曲桥旁绿波廊对面)"},{"poiid":"B2094757DA65A7FA4699","title":"The Westin bind center Shanghai","lon":"121.5106414414889","lat":"31.22919482826353","category":"247","category_name":"餐饮美食","address":"上海市河南中路88号"},{"poiid":"B2094757D16FA0FC499D","title":"Juicy Couture(国金中心店)","lon":"121.50991173","lat":"31.226380218","category":"141","category_name":"服装鞋帽皮具店","address":"上海浦东新区陆家嘴世纪大道8号国金中心商场L3-13"},{"poiid":"B2094757D16EA6F8479C","title":"凯德·汇豪天下(Summit Residences)","lon":"121.509778683","lat":"31.2273094709","category":"47","category_name":"住宅区","address":"上海浦东新区商城路108弄"},{"poiid":"B2094654DB69A5FF429F","title":"莫泰168连锁旅店(商城路店)","lon":"121.51207","lat":"31.22941","category":"216","category_name":"经济型连锁酒店","address":"上海市浦东新区商城路365号（近浦东南路）"},{"poiid":"B2094654DB6BAAFD479E","title":"上海通用汽车金融有限责任公司","lon":"121.5064","lat":"31.22793","category":"263","category_name":"公司","address":"浦明路160号财富广场F座"},{"poiid":"B2094655D268A2FD499E","title":"公馆77","lon":"121.505","lat":"31.228","category":"47","category_name":"住宅区","address":"上海市卢湾区济南路8号"},{"poiid":"B2094654DB6AA3FE409C","title":"卡西巴 浦城店 La Casbah","lon":"121.51176645063","lat":"31.230116732362","category":"247","category_name":"餐饮美食","address":"浦东新区浦城路172号(近商城路)"},{"poiid":"B2094654DA69A1F5449D","title":"和中堂足道(商城路)","lon":"121.51052","lat":"31.2292","category":"149","category_name":"洗浴推拿场所","address":"浦东新区商城路333号(近浦城路)"},{"poiid":"B2094757D16FA1F44199","title":"国家开发银行上海市分行","lon":"121.50561077","lat":"31.229097597","category":"46","category_name":"楼宇","address":"上海浦东新区浦明路68号"}]