[{"poiid":"B2094757D06FA6FC4992","title":"Yasmine's Steakhouse and Butcher Shop","lon":"121.5744174","lat":"31.235780929","category":"94","category_name":"西餐厅","address":"浦东新区碧云路178号(近白桦路)"},{"poiid":"B2094757D06FA5F84992","title":"汉舍中国菜馆(丁香路店)","lon":"121.56411","lat":"31.22915","category":"71","category_name":"四川菜","address":"浦东新区丁香路1399弄30号3楼(近紫槐路)"},{"poiid":"B2094757D06FA2FF499C","title":"光头烧烤吧(德平路店)","lon":"121.56891","lat":"31.24135","category":"68","category_name":"快餐厅","address":"浦东新区德平路1072号(近灵山路)"},{"poiid":"B2094757D06AA7FE489B","title":"万和亚隆国际酒店","lon":"121.55862081","lat":"31.235370223","category":"217","category_name":"旅馆招待所","address":"上海浦东新区崮山路688号"},{"poiid":"B2094757D06FA7F4479C","title":"仁恒河滨城","lon":"121.5674189","lat":"31.227980431","category":"47","category_name":"住宅区","address":"奉贤区南桥南奉公路8889号"},{"poiid":"B2094757D568A6F9479E","title":"仁恒河滨城三期","lon":"121.574256","lat":"31.234036","category":"47","category_name":"住宅区","address":"上海市浦东新区丁香路1299弄"},{"poiid":"B2094757D06AA4F5479A","title":"德平路灵山路","lon":"121.569121","lat":"31.2407548","category":"500","category_name":"未知分类","address":"上海德平路灵山路"},{"poiid":"B2094757D068AAFB4699","title":"罗山路立交桥","lon":"121.56602928","lat":"31.236537863","category":"260","category_name":"其他","address":"上海罗山路杨高中路"},{"poiid":"B2094757D068A4FB499E","title":"证大立方大厦","lon":"121.559","lat":"31.2311","category":"46","category_name":"楼宇","address":"上海浦东新区长柳路58号"},{"poiid":"B2094757D068A4F8499D","title":"普陀山海鲜大酒店(德平路店)","lon":"121.56941","lat":"31.24064","category":"88","category_name":"海鲜酒楼","address":"浦东新区德平路1141号(近灵山路)"},{"poiid":"B2094757D069A5F54793","title":"上海市实验学校东校","lon":"121.5734","lat":"31.2331","category":"253","category_name":"校园生活","address":"浦东新区黑松路251号(近碧云路)"},{"poiid":"B2094654DB6BAAFD419D","title":"当代清水园","lon":"121.56539381496","lat":"31.236603120845","category":"47","category_name":"住宅区","address":"芳甸路77弄1-33号"},{"poiid":"B2094757D064ABFA429C","title":"进才实验小学","lon":"121.562418475","lat":"31.2299315537","category":"56","category_name":"小学","address":"上海丁香路1289号"},{"poiid":"B2094757D56CA0F94699","title":"鼎中鼎澳门豆捞 崮山路店","lon":"121.560459","lat":"31.239118","category":"86","category_name":"火锅店","address":"浦东新区崮山路717号(羽山路口)"},{"poiid":"B2094757D068A3F5409E","title":"第九城市二期","lon":"121.56994409049","lat":"31.233744453762","category":"47","category_name":"住宅区","address":"上海浦东新区迎春路1355弄"},{"poiid":"B2094654DA69A1FA439B","title":"康氏龙虾城 德平路店","lon":"121.5691633223","lat":"31.241419821509","category":"247","category_name":"餐饮美食","address":"上海浦东新区德平路1120号(近灵山路)  "},{"poiid":"B2094757D16CA7F44398","title":"水清木华","lon":"121.566","lat":"31.2308","category":"47","category_name":"住宅区","address":"浦东新区芳甸路333号水清木华会所高档内(近锦绣路)"},{"poiid":"B2094757D569A0FE409B","title":"星程酒店(新国际博览中心)","lon":"121.567275","lat":"31.23316","category":"216","category_name":"经济型连锁酒店","address":"罗山路1505号"},{"poiid":"B2094757D469A3F5429C","title":"瑞亚湖滨酒店多功能厅","lon":"121.570945","lat":"31.226697","category":"76","category_name":"上海菜","address":"罗山路1609号瑞亚湖滨酒店1楼近锦绣路"},{"poiid":"B2094757D06AA3F8419D","title":"仁恒河滨城邻里之家","lon":"121.56327257","lat":"31.228929767","category":"500","category_name":"未知分类","address":"上海浦东丁香路1399弄30号"},{"poiid":"B2094757D065A3FB439F","title":"第三十九机动车检测中心","lon":"121.56143188","lat":"31.235708236","category":"500","category_name":"未知分类","address":"上海固山路930号近杨浦大桥"},{"poiid":"B2094757D569A3FB409D","title":"仁恒河滨城一期","lon":"121.566375","lat":"31.22726806","category":"47","category_name":"住宅区","address":"上海市浦东新区丁香路1599弄"},{"poiid":"B2094654DA69A1FC439D","title":"罗山怡景苑","lon":"121.56423","lat":"31.235649","category":"47","category_name":"住宅区","address":"上海市浦东新区杨高中路1708弄"},{"poiid":"B2094757D068ABFF459F","title":"永达东风日产4s店","lon":"121.570136","lat":"31.226448","category":"158","category_name":"汽车销售","address":"上海罗山路1447号"},{"poiid":"B2094757D068A7FE429B","title":"肯德基 KFC (灵山店)","lon":"121.569603","lat":"31.241162","category":"68","category_name":"快餐厅","address":"浦东新区灵山路1785号(德平路灵山路)"},{"poiid":"B2094757D06BA7F4449D","title":"张杨路罗山路立交桥路口","lon":"121.566127148","lat":"31.2361401146","category":"500","category_name":"未知分类","address":"上海张杨路罗山路立交桥路口"},{"poiid":"B2094750D26BA1F4489A","title":"BAR•StarryNight 星空酒吧","lon":"121.564208","lat":"31.229431","category":"247","category_name":"餐饮美食","address":"浦东新区丁香路1396号(近大拇指广场)"},{"poiid":"B2094757D16FAAFC489B","title":"百度风暴KTV","lon":"121.56955719","lat":"31.235752105","category":"170","category_name":"KTV","address":"上海浦东新区"},{"poiid":"B2094757D66DA2FB439D","title":"上海浦东新区公路建设发展有限公司","lon":"121.56426797","lat":"31.233691141","category":"500","category_name":"未知分类","address":"上海市浦东新区杨高中路2423号"},{"poiid":"B2094655D268A7FC459F","title":"邻里之家","lon":"121.56402","lat":"31.22946","category":"119","category_name":"商场","address":"浦东新区丁香路1399弄仁恒河滨城(近紫槐路)"},{"poiid":"B2094757D069AAFE459C","title":"崮山小区","lon":"121.5635","lat":"31.236462","category":"47","category_name":"住宅区","address":"上海市浦东新区崮山路"},{"poiid":"B2094757D568A0F44493","title":"当代清水园二期","lon":"121.56517886211","lat":"31.237134871867","category":"47","category_name":"住宅区","address":"上海市浦东新区芳甸路78号"},{"poiid":"B2094655D36CA0FD459E","title":"锦绣路罗山路","lon":"121.56943","lat":"31.22644","category":"38","category_name":"公交车站","address":""},{"poiid":"B2094757D069A7F8449E","title":"中国工商银行上海市丁香路支行","lon":"121.565007975","lat":"31.2311650826","category":"500","category_name":"未知分类","address":"上海丁香路1399弄30号"},{"poiid":"B2094654DB6BAAFD449F","title":"上海市香山中学(灵山路)","lon":"121.56674","lat":"31.23887","category":"55","category_name":"中学","address":"浦东新区灵山路1672弄36号(灵山路罗山路)"},{"poiid":"B2094655D268A3FC419B","title":"汉家中国特色菜","lon":"121.56401","lat":"31.22945","category":"257","category_name":"中餐厅","address":"丁香路1399弄30号邻里之家"},{"poiid":"B2094757D66CA6F54792","title":"德平路","lon":"121.57052197","lat":"31.241272319","category":"500","category_name":"未知分类","address":"上海市浦东新区张杨路"},{"poiid":"B2094753D36DA5F84292","title":"茉莉西餐厅","lon":"121.57371","lat":"31.23523","category":"94","category_name":"西餐厅","address":"浦东新区碧云路178号"},{"poiid":"B2094655D36CA6F4469D","title":"丁香路紫槐路","lon":"121.5623","lat":"31.22939","category":"38","category_name":"公交车站","address":""},{"poiid":"B2094757D06BA7FF469B","title":"方师傅小笼(德平路店)","lon":"121.57081","lat":"31.2388","category":"68","category_name":"快餐厅","address":"浦东新区德平路1169号(近灵山路)"},{"poiid":"B2094654DA69A1FD479F","title":"蓝星大厦","lon":"121.56228","lat":"31.23589","category":"46","category_name":"楼宇","address":"崮山路951"},{"poiid":"B2094753D66AA7FB449D","title":"上外贤达","lon":"121.569557","lat":"31.230854","category":"500","category_name":"未知分类","address":"上海市 上海市崇明县陈家镇东滩大道"},{"poiid":"B2094757D66AA4FA4898","title":"巴厘妃艺术咖啡馆 Putri Bali Art Cafe","lon":"121.568932054","lat":"31.229242793","category":"65","category_name":"咖啡厅","address":"浦东新区柳杉路75号(近锦绣路)"},{"poiid":"B2094757D468ABF44993","title":"金湘阁 崮山路店","lon":"121.5604","lat":"31.2389","category":"77","category_name":"湖南菜","address":"浦东新区崮山路717号(近羽山路)"},{"poiid":"B2094654DA69A1FD459E","title":"崮山小区(北门)","lon":"121.56315","lat":"31.23757","category":"47","category_name":"住宅区","address":"灵山路1396弄1-34号"},{"poiid":"B2094757D168ABFA409C","title":"沪南驾校","lon":"121.562557","lat":"31.235196","category":"253","category_name":"校园生活","address":"浦东新区北蔡镇芳华路281号(近浦建路)"},{"poiid":"B2094757D06AA2F84499","title":"棒约翰比萨 芳甸路店 Papa John's Pizza","lon":"121.559246054","lat":"31.227108793","category":"94","category_name":"西餐厅","address":"浦东新区芳甸路199弄大拇指广场15号(丁香路紫槐路)"},{"poiid":"B2094757D169A6F5469D","title":"卡布拉蛋糕店","lon":"121.56211797","lat":"31.229062483","category":"67","category_name":"甜品店","address":"浦东新区丁香路1322号(近紫槐路)"},{"poiid":"B2094757D06BA2FF479E","title":"志权拉面","lon":"121.57002","lat":"31.24066","category":"68","category_name":"快餐厅","address":"浦东新区灵山路1742号(近德平路)"},{"poiid":"B2094655D26AA7F9439E","title":"星鑫保洁","lon":"121.56139","lat":"31.23378","category":"247","category_name":"餐饮美食","address":"浦东新区杨高中路1892号602室(近芳甸路)"},{"poiid":"B2094757D06FA6FC4992","title":"Yasmine's Steakhouse and Butcher Shop","lon":"121.5744174","lat":"31.235780929","category":"94","category_name":"西餐厅","address":"浦东新区碧云路178号(近白桦路)"},{"poiid":"B2094757D06FA5F84992","title":"汉舍中国菜馆(丁香路店)","lon":"121.56411","lat":"31.22915","category":"71","category_name":"四川菜","address":"浦东新区丁香路1399弄30号3楼(近紫槐路)"},{"poiid":"B2094757D06FA2FF499C","title":"光头烧烤吧(德平路店)","lon":"121.56891","lat":"31.24135","category":"68","category_name":"快餐厅","address":"浦东新区德平路1072号(近灵山路)"},{"poiid":"B2094757D06AA7FE489B","title":"万和亚隆国际酒店","lon":"121.55862081","lat":"31.235370223","category":"217","category_name":"旅馆招待所","address":"上海浦东新区崮山路688号"},{"poiid":"B2094757D06FA7F4479C","title":"仁恒河滨城","lon":"121.5674189","lat":"31.227980431","category":"47","category_name":"住宅区","address":"奉贤区南桥南奉公路8889号"},{"poiid":"B2094757D568A6F9479E","title":"仁恒河滨城三期","lon":"121.574256","lat":"31.234036","category":"47","category_name":"住宅区","address":"上海市浦东新区丁香路1299弄"},{"poiid":"B2094757D06AA4F5479A","title":"德平路灵山路","lon":"121.569121","lat":"31.2407548","category":"500","category_name":"未知分类","address":"上海德平路灵山路"},{"poiid":"B2094757D068AAFB4699","title":"罗山路立交桥","lon":"121.56602928","lat":"31.236537863","category":"260","category_name":"其他","address":"上海罗山路杨高中路"},{"poiid":"B2094757D068A4FB499E","title":"证大立方大厦","lon":"121.559","lat":"31.2311","category":"46","category_name":"楼宇","address":"上海浦东新区长柳路58号"},{"poiid":"B2094757D068A4F8499D","title":"普陀山海鲜大酒店(德平路店)","lon":"121.56941","lat":"31.24064","category":"88","category_name":"海鲜酒楼","address":"浦东新区德平路1141号(近灵山路)"},{"poiid":"B2094757D069A5F54793","title":"上海市实验学校东校","lon":"121.5734","lat":"31.2331","category":"253","category_name":"校园生活","address":"浦东新区黑松路251号(近碧云路)"},{"poiid":"B2094654DB6BAAFD419D","title":"当代清水园","lon":"121.56539381496","lat":"31.236603120845","category":"47","category_name":"住宅区","address":"芳甸路77弄1-33号"},{"poiid":"B2094757D064ABFA429C","title":"进才实验小学","lon":"121.562418475","lat":"31.2299315537","category":"56","category_name":"小学","address":"上海丁香路1289号"},{"poiid":"B2094757D56CA0F94699","title":"鼎中鼎澳门豆捞 崮山路店","lon":"121.560459","lat":"31.239118","category":"86","category_name":"火锅店","address":"浦东新区崮山路717号(羽山路口)"},{"poiid":"B2094757D068A3F5409E","title":"第九城市二期","lon":"121.56994409049","lat":"31.233744453762","category":"47","category_name":"住宅区","address":"上海浦东新区迎春路1355弄"},{"poiid":"B2094654DA69A1FA439B","title":"康氏龙虾城 德平路店","lon":"121.5691633223","lat":"31.241419821509","category":"247","category_name":"餐饮美食","address":"上海浦东新区德平路1120号(近灵山路)  "},{"poiid":"B2094757D16CA7F44398","title":"水清木华","lon":"121.566","lat":"31.2308","category":"47","category_name":"住宅区","address":"浦东新区芳甸路333号水清木华会所高档内(近锦绣路)"},{"poiid":"B2094757D569A0FE409B","title":"星程酒店(新国际博览中心)","lon":"121.567275","lat":"31.23316","category":"216","category_name":"经济型连锁酒店","address":"罗山路1505号"},{"poiid":"B2094757D469A3F5429C","title":"瑞亚湖滨酒店多功能厅","lon":"121.570945","lat":"31.226697","category":"76","category_name":"上海菜","address":"罗山路1609号瑞亚湖滨酒店1楼近锦绣路"},{"poiid":"B2094757D06AA3F8419D","title":"仁恒河滨城邻里之家","lon":"121.56327257","lat":"31.228929767","category":"500","category_name":"未知分类","address":"上海浦东丁香路1399弄30号"},{"poiid":"B2094757D065A3FB439F","title":"第三十九机动车检测中心","lon":"121.56143188","lat":"31.235708236","category":"500","category_name":"未知分类","address":"上海固山路930号近杨浦大桥"},{"poiid":"B2094757D569A3FB409D","title":"仁恒河滨城一期","lon":"121.566375","lat":"31.22726806","category":"47","category_name":"住宅区","address":"上海市浦东新区丁香路1599弄"},{"poiid":"B2094654DA69A1FC439D","title":"罗山怡景苑","lon":"121.56423","lat":"31.235649","category":"47","category_name":"住宅区","address":"上海市浦东新区杨高中路1708弄"},{"poiid":"B2094757D068ABFF459F","title":"永达东风日产4s店","lon":"121.570136","lat":"31.226448","category":"158","category_name":"汽车销售","address":"上海罗山路1447号"},{"poiid":"B2094757D068A7FE429B","title":"肯德基 KFC (灵山店)","lon":"121.569603","lat":"31.241162","category":"68","category_name":"快餐厅","address":"浦东新区灵山路1785号(德平路灵山路)"},{"poiid":"B2094757D06BA7F4449D","title":"张杨路罗山路立交桥路口","lon":"121.566127148","lat":"31.2361401146","category":"500","category_name":"未知分类","address":"上海张杨路罗山路立交桥路口"},{"poiid":"B2094750D26BA1F4489A","title":"BAR•StarryNight 星空酒吧","lon":"121.564208","lat":"31.229431","category":"247","category_name":"餐饮美食","address":"浦东新区丁香路1396号(近大拇指广场)"},{"poiid":"B2094757D16FAAFC489B","title":"百度风暴KTV","lon":"121.56955719","lat":"31.235752105","category":"170","category_name":"KTV","address":"上海浦东新区"},{"poiid":"B2094757D66DA2FB439D","title":"上海浦东新区公路建设发展有限公司","lon":"121.56426797","lat":"31.233691141","category":"500","category_name":"未知分类","address":"上海市浦东新区杨高中路2423号"},{"poiid":"B2094655D268A7FC459F","title":"邻里之家","lon":"121.56402","lat":"31.22946","category":"119","category_name":"商场","address":"浦东新区丁香路1399弄仁恒河滨城(近紫槐路)"},{"poiid":"B2094757D069AAFE459C","title":"崮山小区","lon":"121.5635","lat":"31.236462","category":"47","category_name":"住宅区","address":"上海市浦东新区崮山路"},{"poiid":"B2094757D568A0F44493","title":"当代清水园二期","lon":"121.56517886211","lat":"31.237134871867","category":"47","category_name":"住宅区","address":"上海市浦东新区芳甸路78号"},{"poiid":"B2094655D36CA0FD459E","title":"锦绣路罗山路","lon":"121.56943","lat":"31.22644","category":"38","category_name":"公交车站","address":""},{"poiid":"B2094757D069A7F8449E","title":"中国工商银行上海市丁香路支行","lon":"121.565007975","lat":"31.2311650826","category":"500","category_name":"未知分类","address":"上海丁香路1399弄30号"},{"poiid":"B2094654DB6BAAFD449F","title":"上海市香山中学(灵山路)","lon":"121.56674","lat":"31.23887","category":"55","category_name":"中学","address":"浦东新区灵山路1672弄36号(灵山路罗山路)"},{"poiid":"B2094655D268A3FC419B","title":"汉家中国特色菜","lon":"121.56401","lat":"31.22945","category":"257","category_name":"中餐厅","address":"丁香路1399弄30号邻里之家"},{"poiid":"B2094757D66CA6F54792","title":"德平路","lon":"121.57052197","lat":"31.241272319","category":"500","category_name":"未知分类","address":"上海市浦东新区张杨路"},{"poiid":"B2094753D36DA5F84292","title":"茉莉西餐厅","lon":"121.57371","lat":"31.23523","category":"94","category_name":"西餐厅","address":"浦东新区碧云路178号"},{"poiid":"B2094655D36CA6F4469D","title":"丁香路紫槐路","lon":"121.5623","lat":"31.22939","category":"38","category_name":"公交车站","address":""},{"poiid":"B2094757D06BA7FF469B","title":"方师傅小笼(德平路店)","lon":"121.57081","lat":"31.2388","category":"68","category_name":"快餐厅","address":"浦东新区德平路1169号(近灵山路)"},{"poiid":"B2094654DA69A1FD479F","title":"蓝星大厦","lon":"121.56228","lat":"31.23589","category":"46","category_name":"楼宇","address":"崮山路951"},{"poiid":"B2094753D66AA7FB449D","title":"上外贤达","lon":"121.569557","lat":"31.230854","category":"500","category_name":"未知分类","address":"上海市 上海市崇明县陈家镇东滩大道"},{"poiid":"B2094757D66AA4FA4898","title":"巴厘妃艺术咖啡馆 Putri Bali Art Cafe","lon":"121.568932054","lat":"31.229242793","category":"65","category_name":"咖啡厅","address":"浦东新区柳杉路75号(近锦绣路)"},{"poiid":"B2094757D468ABF44993","title":"金湘阁 崮山路店","lon":"121.5604","lat":"31.2389","category":"77","category_name":"湖南菜","address":"浦东新区崮山路717号(近羽山路)"},{"poiid":"B2094654DA69A1FD459E","title":"崮山小区(北门)","lon":"121.56315","lat":"31.23757","category":"47","category_name":"住宅区","address":"灵山路1396弄1-34号"},{"poiid":"B2094757D168ABFA409C","title":"沪南驾校","lon":"121.562557","lat":"31.235196","category":"253","category_name":"校园生活","address":"浦东新区北蔡镇芳华路281号(近浦建路)"},{"poiid":"B2094757D06AA2F84499","title":"棒约翰比萨 芳甸路店 Papa John's Pizza","lon":"121.559246054","lat":"31.227108793","category":"94","category_name":"西餐厅","address":"浦东新区芳甸路199弄大拇指广场15号(丁香路紫槐路)"},{"poiid":"B2094757D169A6F5469D","title":"卡布拉蛋糕店","lon":"121.56211797","lat":"31.229062483","category":"67","category_name":"甜品店","address":"浦东新区丁香路1322号(近紫槐路)"},{"poiid":"B2094757D06BA2FF479E","title":"志权拉面","lon":"121.57002","lat":"31.24066","category":"68","category_name":"快餐厅","address":"浦东新区灵山路1742号(近德平路)"},{"poiid":"B2094655D26AA7F9439E","title":"星鑫保洁","lon":"121.56139","lat":"31.23378","category":"247","category_name":"餐饮美食","address":"浦东新区杨高中路1892号602室(近芳甸路)"},{"poiid":"B2094757D06FA6FC4992","title":"Yasmine's Steakhouse and Butcher Shop","lon":"121.5744174","lat":"31.235780929","category":"94","category_name":"西餐厅","address":"浦东新区碧云路178号(近白桦路)"},{"poiid":"B2094757D06FA5F84992","title":"汉舍中国菜馆(丁香路店)","lon":"121.56411","lat":"31.22915","category":"71","category_name":"四川菜","address":"浦东新区丁香路1399弄30号3楼(近紫槐路)"},{"poiid":"B2094757D06FA2FF499C","title":"光头烧烤吧(德平路店)","lon":"121.56891","lat":"31.24135","category":"68","category_name":"快餐厅","address":"浦东新区德平路1072号(近灵山路)"},{"poiid":"B2094757D06AA7FE489B","title":"万和亚隆国际酒店","lon":"121.55862081","lat":"31.235370223","category":"217","category_name":"旅馆招待所","address":"上海浦东新区崮山路688号"},{"poiid":"B2094757D06FA7F4479C","title":"仁恒河滨城","lon":"121.5674189","lat":"31.227980431","category":"47","category_name":"住宅区","address":"奉贤区南桥南奉公路8889号"},{"poiid":"B2094757D568A6F9479E","title":"仁恒河滨城三期","lon":"121.574256","lat":"31.234036","category":"47","category_name":"住宅区","address":"上海市浦东新区丁香路1299弄"},{"poiid":"B2094757D06AA4F5479A","title":"德平路灵山路","lon":"121.569121","lat":"31.2407548","category":"500","category_name":"未知分类","address":"上海德平路灵山路"},{"poiid":"B2094757D068AAFB4699","title":"罗山路立交桥","lon":"121.56602928","lat":"31.236537863","category":"260","category_name":"其他","address":"上海罗山路杨高中路"},{"poiid":"B2094757D068A4FB499E","title":"证大立方大厦","lon":"121.559","lat":"31.2311","category":"46","category_name":"楼宇","address":"上海浦东新区长柳路58号"},{"poiid":"B2094757D068A4F8499D","title":"普陀山海鲜大酒店(德平路店)","lon":"121.56941","lat":"31.24064","category":"88","category_name":"海鲜酒楼","address":"浦东新区德平路1141号(近灵山路)"},{"poiid":"B2094757D069A5F54793","title":"上海市实验学校东校","lon":"121.5734","lat":"31.2331","category":"253","category_name":"校园生活","address":"浦东新区黑松路251号(近碧云路)"},{"poiid":"B2094654DB6BAAFD419D","title":"当代清水园","lon":"121.56539381496","lat":"31.236603120845","category":"47","category_name":"住宅区","address":"芳甸路77弄1-33号"},{"poiid":"B2094757D064ABFA429C","title":"进才实验小学","lon":"121.562418475","lat":"31.2299315537","category":"56","category_name":"小学","address":"上海丁香路1289号"},{"poiid":"B2094757D56CA0F94699","title":"鼎中鼎澳门豆捞 崮山路店","lon":"121.560459","lat":"31.239118","category":"86","category_name":"火锅店","address":"浦东新区崮山路717号(羽山路口)"},{"poiid":"B2094757D068A3F5409E","title":"第九城市二期","lon":"121.56994409049","lat":"31.233744453762","category":"47","category_name":"住宅区","address":"上海浦东新区迎春路1355弄"},{"poiid":"B2094654DA69A1FA439B","title":"康氏龙虾城 德平路店","lon":"121.5691633223","lat":"31.241419821509","category":"247","category_name":"餐饮美食","address":"上海浦东新区德平路1120号(近灵山路)  "},{"poiid":"B2094757D16CA7F44398","title":"水清木华","lon":"121.566","lat":"31.2308","category":"47","category_name":"住宅区","address":"浦东新区芳甸路333号水清木华会所高档内(近锦绣路)"},{"poiid":"B2094757D569A0FE409B","title":"星程酒店(新国际博览中心)","lon":"121.567275","lat":"31.23316","category":"216","category_name":"经济型连锁酒店","address":"罗山路1505号"},{"poiid":"B2094757D469A3F5429C","title":"瑞亚湖滨酒店多功能厅","lon":"121.570945","lat":"31.226697","category":"76","category_name":"上海菜","address":"罗山路1609号瑞亚湖滨酒店1楼近锦绣路"},{"poiid":"B2094757D06AA3F8419D","title":"仁恒河滨城邻里之家","lon":"121.56327257","lat":"31.228929767","category":"500","category_name":"未知分类","address":"上海浦东丁香路1399弄30号"},{"poiid":"B2094757D065A3FB439F","title":"第三十九机动车检测中心","lon":"121.56143188","lat":"31.235708236","category":"500","category_name":"未知分类","address":"上海固山路930号近杨浦大桥"},{"poiid":"B2094757D569A3FB409D","title":"仁恒河滨城一期","lon":"121.566375","lat":"31.22726806","category":"47","category_name":"住宅区","address":"上海市浦东新区丁香路1599弄"},{"poiid":"B2094654DA69A1FC439D","title":"罗山怡景苑","lon":"121.56423","lat":"31.235649","category":"47","category_name":"住宅区","address":"上海市浦东新区杨高中路1708弄"},{"poiid":"B2094757D068ABFF459F","title":"永达东风日产4s店","lon":"121.570136","lat":"31.226448","category":"158","category_name":"汽车销售","address":"上海罗山路1447号"},{"poiid":"B2094757D068A7FE429B","title":"肯德基 KFC (灵山店)","lon":"121.569603","lat":"31.241162","category":"68","category_name":"快餐厅","address":"浦东新区灵山路1785号(德平路灵山路)"},{"poiid":"B2094757D06BA7F4449D","title":"张杨路罗山路立交桥路口","lon":"121.566127148","lat":"31.2361401146","category":"500","category_name":"未知分类","address":"上海张杨路罗山路立交桥路口"},{"poiid":"B2094750D26BA1F4489A","title":"BAR•StarryNight 星空酒吧","lon":"121.564208","lat":"31.229431","category":"247","category_name":"餐饮美食","address":"浦东新区丁香路1396号(近大拇指广场)"},{"poiid":"B2094757D16FAAFC489B","title":"百度风暴KTV","lon":"121.56955719","lat":"31.235752105","category":"170","category_name":"KTV","address":"上海浦东新区"},{"poiid":"B2094757D66DA2FB439D","title":"上海浦东新区公路建设发展有限公司","lon":"121.56426797","lat":"31.233691141","category":"500","category_name":"未知分类","address":"上海市浦东新区杨高中路2423号"},{"poiid":"B2094655D268A7FC459F","title":"邻里之家","lon":"121.56402","lat":"31.22946","category":"119","category_name":"商场","address":"浦东新区丁香路1399弄仁恒河滨城(近紫槐路)"},{"poiid":"B2094757D069AAFE459C","title":"崮山小区","lon":"121.5635","lat":"31.236462","category":"47","category_name":"住宅区","address":"上海市浦东新区崮山路"},{"poiid":"B2094757D568A0F44493","title":"当代清水园二期","lon":"121.56517886211","lat":"31.237134871867","category":"47","category_name":"住宅区","address":"上海市浦东新区芳甸路78号"},{"poiid":"B2094655D36CA0FD459E","title":"锦绣路罗山路","lon":"121.56943","lat":"31.22644","category":"38","category_name":"公交车站","address":""},{"poiid":"B2094757D069A7F8449E","title":"中国工商银行上海市丁香路支行","lon":"121.565007975","lat":"31.2311650826","category":"500","category_name":"未知分类","address":"上海丁香路1399弄30号"},{"poiid":"B2094654DB6BAAFD449F","title":"上海市香山中学(灵山路)","lon":"121.56674","lat":"31.23887","category":"55","category_name":"中学","address":"浦东新区灵山路1672弄36号(灵山路罗山路)"},{"poiid":"B2094655D268A3FC419B","title":"汉家中国特色菜","lon":"121.56401","lat":"31.22945","category":"257","category_name":"中餐厅","address":"丁香路1399弄30号邻里之家"},{"poiid":"B2094757D66CA6F54792","title":"德平路","lon":"121.57052197","lat":"31.241272319","category":"500","category_name":"未知分类","address":"上海市浦东新区张杨路"},{"poiid":"B2094753D36DA5F84292","title":"茉莉西餐厅","lon":"121.57371","lat":"31.23523","category":"94","category_name":"西餐厅","address":"浦东新区碧云路178号"},{"poiid":"B2094655D36CA6F4469D","title":"丁香路紫槐路","lon":"121.5623","lat":"31.22939","category":"38","category_name":"公交车站","address":""},{"poiid":"B2094757D06BA7FF469B","title":"方师傅小笼(德平路店)","lon":"121.57081","lat":"31.2388","category":"68","category_name":"快餐厅","address":"浦东新区德平路1169号(近灵山路)"},{"poiid":"B2094654DA69A1FD479F","title":"蓝星大厦","lon":"121.56228","lat":"31.23589","category":"46","category_name":"楼宇","address":"崮山路951"},{"poiid":"B2094753D66AA7FB449D","title":"上外贤达","lon":"121.569557","lat":"31.230854","category":"500","category_name":"未知分类","address":"上海市 上海市崇明县陈家镇东滩大道"},{"poiid":"B2094757D66AA4FA4898","title":"巴厘妃艺术咖啡馆 Putri Bali Art Cafe","lon":"121.568932054","lat":"31.229242793","category":"65","category_name":"咖啡厅","address":"浦东新区柳杉路75号(近锦绣路)"},{"poiid":"B2094757D468ABF44993","title":"金湘阁 崮山路店","lon":"121.5604","lat":"31.2389","category":"77","category_name":"湖南菜","address":"浦东新区崮山路717号(近羽山路)"},{"poiid":"B2094654DA69A1FD459E","title":"崮山小区(北门)","lon":"121.56315","lat":"31.23757","category":"47","category_name":"住宅区","address":"灵山路1396弄1-34号"},{"poiid":"B2094757D168ABFA409C","title":"沪南驾校","lon":"121.562557","lat":"31.235196","category":"253","category_name":"校园生活","address":"浦东新区北蔡镇芳华路281号(近浦建路)"},{"poiid":"B2094757D06AA2F84499","title":"棒约翰比萨 芳甸路店 Papa John's Pizza","lon":"121.559246054","lat":"31.227108793","category":"94","category_name":"西餐厅","address":"浦东新区芳甸路199弄大拇指广场15号(丁香路紫槐路)"},{"poiid":"B2094757D169A6F5469D","title":"卡布拉蛋糕店","lon":"121.56211797","lat":"31.229062483","category":"67","category_name":"甜品店","address":"浦东新区丁香路1322号(近紫槐路)"},{"poiid":"B2094757D06BA2FF479E","title":"志权拉面","lon":"121.57002","lat":"31.24066","category":"68","category_name":"快餐厅","address":"浦东新区灵山路1742号(近德平路)"},{"poiid":"B2094655D26AA7F9439E","title":"星鑫保洁","lon":"121.56139","lat":"31.23378","category":"247","category_name":"餐饮美食","address":"浦东新区杨高中路1892号602室(近芳甸路)"},{"poiid":"B2094757D06FA6FC4992","title":"Yasmine's Steakhouse and Butcher Shop","lon":"121.5744174","lat":"31.235780929","category":"94","category_name":"西餐厅","address":"浦东新区碧云路178号(近白桦路)"},{"poiid":"B2094757D06FA5F84992","title":"汉舍中国菜馆(丁香路店)","lon":"121.56411","lat":"31.22915","category":"71","category_name":"四川菜","address":"浦东新区丁香路1399弄30号3楼(近紫槐路)"},{"poiid":"B2094757D06FA2FF499C","title":"光头烧烤吧(德平路店)","lon":"121.56891","lat":"31.24135","category":"68","category_name":"快餐厅","address":"浦东新区德平路1072号(近灵山路)"},{"poiid":"B2094757D06AA7FE489B","title":"万和亚隆国际酒店","lon":"121.55862081","lat":"31.235370223","category":"217","category_name":"旅馆招待所","address":"上海浦东新区崮山路688号"},{"poiid":"B2094757D06FA7F4479C","title":"仁恒河滨城","lon":"121.5674189","lat":"31.227980431","category":"47","category_name":"住宅区","address":"奉贤区南桥南奉公路8889号"},{"poiid":"B2094757D568A6F9479E","title":"仁恒河滨城三期","lon":"121.574256","lat":"31.234036","category":"47","category_name":"住宅区","address":"上海市浦东新区丁香路1299弄"},{"poiid":"B2094757D06AA4F5479A","title":"德平路灵山路","lon":"121.569121","lat":"31.2407548","category":"500","category_name":"未知分类","address":"上海德平路灵山路"},{"poiid":"B2094757D068AAFB4699","title":"罗山路立交桥","lon":"121.56602928","lat":"31.236537863","category":"260","category_name":"其他","address":"上海罗山路杨高中路"},{"poiid":"B2094757D068A4FB499E","title":"证大立方大厦","lon":"121.559","lat":"31.2311","category":"46","category_name":"楼宇","address":"上海浦东新区长柳路58号"},{"poiid":"B2094757D068A4F8499D","title":"普陀山海鲜大酒店(德平路店)","lon":"121.56941","lat":"31.24064","category":"88","category_name":"海鲜酒楼","address":"浦东新区德平路1141号(近灵山路)"},{"poiid":"B2094757D069A5F54793","title":"上海市实验学校东校","lon":"121.5734","lat":"31.2331","category":"253","category_name":"校园生活","address":"浦东新区黑松路251号(近碧云路)"},{"poiid":"B2094654DB6BAAFD419D","title":"当代清水园","lon":"121.56539381496","lat":"31.236603120845","category":"47","category_name":"住宅区","address":"芳甸路77弄1-33号"},{"poiid":"B2094757D064ABFA429C","title":"进才实验小学","lon":"121.562418475","lat":"31.2299315537","category":"56","category_name":"小学","address":"上海丁香路1289号"},{"poiid":"B2094757D56CA0F94699","title":"鼎中鼎澳门豆捞 崮山路店","lon":"121.560459","lat":"31.239118","category":"86","category_name":"火锅店","address":"浦东新区崮山路717号(羽山路口)"},{"poiid":"B2094757D068A3F5409E","title":"第九城市二期","lon":"121.56994409049","lat":"31.233744453762","category":"47","category_name":"住宅区","address":"上海浦东新区迎春路1355弄"},{"poiid":"B2094654DA69A1FA439B","title":"康氏龙虾城 德平路店","lon":"121.5691633223","lat":"31.241419821509","category":"247","category_name":"餐饮美食","address":"上海浦东新区德平路1120号(近灵山路)  "},{"poiid":"B2094757D16CA7F44398","title":"水清木华","lon":"121.566","lat":"31.2308","category":"47","category_name":"住宅区","address":"浦东新区芳甸路333号水清木华会所高档内(近锦绣路)"},{"poiid":"B2094757D569A0FE409B","title":"星程酒店(新国际博览中心)","lon":"121.567275","lat":"31.23316","category":"216","category_name":"经济型连锁酒店","address":"罗山路1505号"},{"poiid":"B2094757D469A3F5429C","title":"瑞亚湖滨酒店多功能厅","lon":"121.570945","lat":"31.226697","category":"76","category_name":"上海菜","address":"罗山路1609号瑞亚湖滨酒店1楼近锦绣路"},{"poiid":"B2094757D06AA3F8419D","title":"仁恒河滨城邻里之家","lon":"121.56327257","lat":"31.228929767","category":"500","category_name":"未知分类","address":"上海浦东丁香路1399弄30号"},{"poiid":"B2094757D065A3FB439F","title":"第三十九机动车检测中心","lon":"121.56143188","lat":"31.235708236","category":"500","category_name":"未知分类","address":"上海固山路930号近杨浦大桥"},{"poiid":"B2094757D569A3FB409D","title":"仁恒河滨城一期","lon":"121.566375","lat":"31.22726806","category":"47","category_name":"住宅区","address":"上海市浦东新区丁香路1599弄"},{"poiid":"B2094654DA69A1FC439D","title":"罗山怡景苑","lon":"121.56423","lat":"31.235649","category":"47","category_name":"住宅区","address":"上海市浦东新区杨高中路1708弄"},{"poiid":"B2094757D068ABFF459F","title":"永达东风日产4s店","lon":"121.570136","lat":"31.226448","category":"158","category_name":"汽车销售","address":"上海罗山路1447号"},{"poiid":"B2094757D068A7FE429B","title":"肯德基 KFC (灵山店)","lon":"121.569603","lat":"31.241162","category":"68","category_name":"快餐厅","address":"浦东新区灵山路1785号(德平路灵山路)"},{"poiid":"B2094757D06BA7F4449D","title":"张杨路罗山路立交桥路口","lon":"121.566127148","lat":"31.2361401146","category":"500","category_name":"未知分类","address":"上海张杨路罗山路立交桥路口"},{"poiid":"B2094750D26BA1F4489A","title":"BAR•StarryNight 星空酒吧","lon":"121.564208","lat":"31.229431","category":"247","category_name":"餐饮美食","address":"浦东新区丁香路1396号(近大拇指广场)"},{"poiid":"B2094757D16FAAFC489B","title":"百度风暴KTV","lon":"121.56955719","lat":"31.235752105","category":"170","category_name":"KTV","address":"上海浦东新区"},{"poiid":"B2094757D66DA2FB439D","title":"上海浦东新区公路建设发展有限公司","lon":"121.56426797","lat":"31.233691141","category":"500","category_name":"未知分类","address":"上海市浦东新区杨高中路2423号"},{"poiid":"B2094655D268A7FC459F","title":"邻里之家","lon":"121.56402","lat":"31.22946","category":"119","category_name":"商场","address":"浦东新区丁香路1399弄仁恒河滨城(近紫槐路)"},{"poiid":"B2094757D069AAFE459C","title":"崮山小区","lon":"121.5635","lat":"31.236462","category":"47","category_name":"住宅区","address":"上海市浦东新区崮山路"},{"poiid":"B2094757D568A0F44493","title":"当代清水园二期","lon":"121.56517886211","lat":"31.237134871867","category":"47","category_name":"住宅区","address":"上海市浦东新区芳甸路78号"},{"poiid":"B2094655D36CA0FD459E","title":"锦绣路罗山路","lon":"121.56943","lat":"31.22644","category":"38","category_name":"公交车站","address":""},{"poiid":"B2094757D069A7F8449E","title":"中国工商银行上海市丁香路支行","lon":"121.565007975","lat":"31.2311650826","category":"500","category_name":"未知分类","address":"上海丁香路1399弄30号"},{"poiid":"B2094654DB6BAAFD449F","title":"上海市香山中学(灵山路)","lon":"121.56674","lat":"31.23887","category":"55","category_name":"中学","address":"浦东新区灵山路1672弄36号(灵山路罗山路)"},{"poiid":"B2094655D268A3FC419B","title":"汉家中国特色菜","lon":"121.56401","lat":"31.22945","category":"257","category_name":"中餐厅","address":"丁香路1399弄30号邻里之家"},{"poiid":"B2094757D66CA6F54792","title":"德平路","lon":"121.57052197","lat":"31.241272319","category":"500","category_name":"未知分类","address":"上海市浦东新区张杨路"},{"poiid":"B2094753D36DA5F84292","title":"茉莉西餐厅","lon":"121.57371","lat":"31.23523","category":"94","category_name":"西餐厅","address":"浦东新区碧云路178号"},{"poiid":"B2094655D36CA6F4469D","title":"丁香路紫槐路","lon":"121.5623","lat":"31.22939","category":"38","category_name":"公交车站","address":""},{"poiid":"B2094757D06BA7FF469B","title":"方师傅小笼(德平路店)","lon":"121.57081","lat":"31.2388","category":"68","category_name":"快餐厅","address":"浦东新区德平路1169号(近灵山路)"},{"poiid":"B2094654DA69A1FD479F","title":"蓝星大厦","lon":"121.56228","lat":"31.23589","category":"46","category_name":"楼宇","address":"崮山路951"},{"poiid":"B2094753D66AA7FB449D","title":"上外贤达","lon":"121.569557","lat":"31.230854","category":"500","category_name":"未知分类","address":"上海市 上海市崇明县陈家镇东滩大道"},{"poiid":"B2094757D66AA4FA4898","title":"巴厘妃艺术咖啡馆 Putri Bali Art Cafe","lon":"121.568932054","lat":"31.229242793","category":"65","category_name":"咖啡厅","address":"浦东新区柳杉路75号(近锦绣路)"},{"poiid":"B2094757D468ABF44993","title":"金湘阁 崮山路店","lon":"121.5604","lat":"31.2389","category":"77","category_name":"湖南菜","address":"浦东新区崮山路717号(近羽山路)"},{"poiid":"B2094654DA69A1FD459E","title":"崮山小区(北门)","lon":"121.56315","lat":"31.23757","category":"47","category_name":"住宅区","address":"灵山路1396弄1-34号"},{"poiid":"B2094757D168ABFA409C","title":"沪南驾校","lon":"121.562557","lat":"31.235196","category":"253","category_name":"校园生活","address":"浦东新区北蔡镇芳华路281号(近浦建路)"},{"poiid":"B2094757D06AA2F84499","title":"棒约翰比萨 芳甸路店 Papa John's Pizza","lon":"121.559246054","lat":"31.227108793","category":"94","category_name":"西餐厅","address":"浦东新区芳甸路199弄大拇指广场15号(丁香路紫槐路)"},{"poiid":"B2094757D169A6F5469D","title":"卡布拉蛋糕店","lon":"121.56211797","lat":"31.229062483","category":"67","category_name":"甜品店","address":"浦东新区丁香路1322号(近紫槐路)"},{"poiid":"B2094757D06BA2FF479E","title":"志权拉面","lon":"121.57002","lat":"31.24066","category":"68","category_name":"快餐厅","address":"浦东新区灵山路1742号(近德平路)"},{"poiid":"B2094655D26AA7F9439E","title":"星鑫保洁","lon":"121.56139","lat":"31.23378","category":"247","category_name":"餐饮美食","address":"浦东新区杨高中路1892号602室(近芳甸路)"}]