[{"poiid":"B2094655D26BA1FB4792","title":"吕巷","lon":"121.18481","lat":"30.83238","category":"38","category_name":"公交车站","address":""},{"poiid":"B2094654DB68A1F5439C","title":"胥浦蟠桃园","lon":"121.17153","lat":"30.85033","category":"248","category_name":"生活娱乐","address":""},{"poiid":"B2094757D568A0FE4992","title":"施普都市桃源","lon":"121.177847","lat":"30.856744","category":"257","category_name":"中餐厅","address":"近郊金山区吕巷镇姚家村"},{"poiid":"B2094655D26FA4FC479E","title":"五龙禅寺","lon":"121.18193","lat":"30.85701","category":"244","category_name":"寺庙道观","address":"新农镇"},{"poiid":"B2094757D16BA4FA419E","title":"吕巷镇社区文化中心","lon":"121.17893137","lat":"30.831426601","category":"500","category_name":"未知分类","address":"上海金山路"},{"poiid":"B2094655D26BA3F5479C","title":"五龙桥","lon":"121.1811","lat":"30.85767","category":"38","category_name":"公交车站","address":""},{"poiid":"B2094655D26BA3F5409E","title":"幸福时光","lon":"121.185","lat":"30.8345","category":"47","category_name":"住宅区","address":"上海市金山区吕巷镇田欢路255弄"},{"poiid":"B2094655D268ABFF4692","title":"上海通行费吕清征收稽查站","lon":"121.16099","lat":"30.83381","category":"250","category_name":"公园户外","address":""},{"poiid":"B2094654DB6AA3FC479A","title":"金山区地税局第六税务所","lon":"121.17828","lat":"30.82883","category":"250","category_name":"公园户外","address":"金山区金张公路4865号"},{"poiid":"B2094654DB69A7F8429A","title":"吕巷派出所","lon":"121.17964","lat":"30.83196","category":"609","category_name":"警察局","address":"金山区朱吕公路6899号"},{"poiid":"B2094654DB68ABF5499F","title":"上海宾佳超市吕巷购物中心","lon":"121.17855","lat":"30.8283","category":"119","category_name":"商场","address":"吕巷镇"},{"poiid":"B2094654DB68ABF5479A","title":"吕巷小学","lon":"121.17672","lat":"30.82617","category":"56","category_name":"小学","address":"近郊吕巷镇璜溪东街63号"},{"poiid":"B2094654DB68ABF5409A","title":"上海联乐制衣有限公司","lon":"121.17411","lat":"30.83037","category":"263","category_name":"公司","address":""},{"poiid":"B2094654DB6AA1FA489D","title":"金山区吕巷镇中学","lon":"121.17267","lat":"30.82669","category":"55","category_name":"中学","address":"金山区吕巷镇南文街1号"},{"poiid":"B2094654DB68A1F54398","title":"金山综合便民服务有限公司大茫村店","lon":"121.15409","lat":"30.8552","category":"117","category_name":"便民商店/便利店","address":""},{"poiid":"B2094757D66CA5FB479D","title":"莘廊线","lon":"121.18285864","lat":"30.83181219","category":"500","category_name":"未知分类","address":"上海莘庄到廊下"},{"poiid":"B2094757D66FA0FE419B","title":"吕巷镇社区卫生服务中心","lon":"121.175288","lat":"30.826652","category":"500","category_name":"未知分类","address":"上海市金山区吕巷镇溪南路"},{"poiid":"B2094654DB69A7F8459E","title":"邮政储蓄吕巷支所","lon":"121.17874","lat":"30.82782","category":"150","category_name":"银行","address":"近郊吕巷镇新东街3号"},{"poiid":"B2094654DB68ABF5479B","title":"上海农村商业银行吕巷支行","lon":"121.17694","lat":"30.82622","category":"150","category_name":"银行","address":"璜溪东街57"}]