[{"poiid":"B2094757D568A4FE479B","title":"麦盛莉（崇明陈家镇店）","lon":"121.83882","lat":"31.52165","category":"76","category_name":"上海菜","address":"近郊崇明县陈家镇裕盛路3弄3号"},{"poiid":"B2094757D16AAAF4409F","title":"裕盛路","lon":"121.83968405","lat":"31.520452239","category":"500","category_name":"未知分类","address":"上海裕鸿佳苑"},{"poiid":"B2094655D36DA0F54699","title":"裕安镇","lon":"121.83169","lat":"31.52466","category":"38","category_name":"公交车站","address":""},{"poiid":"B2094654D468A5FB479F","title":"海东饭店","lon":"121.83596","lat":"31.52562","category":"257","category_name":"中餐厅","address":"近郊崇明裕安乡牛棚镇"},{"poiid":"B2094757D66DA6FE4292","title":"麥盛莉","lon":"121.83754345","lat":"31.5240683149","category":"249","category_name":"购物服务","address":"上海崇明縣城橋鎮東門路268號"},{"poiid":"B2094654D468A5FB489A","title":"崇明县裕安中学","lon":"121.83727","lat":"31.52643","category":"55","category_name":"中学","address":"裕民路34"},{"poiid":"B2094654D468A5FB479C","title":"裕安商场","lon":"121.83616","lat":"31.52595","category":"119","category_name":"商场","address":""},{"poiid":"B2094654D468A5FB4793","title":"华联超市(崇明县裕安中学西南)","lon":"121.83578","lat":"31.52571","category":"118","category_name":"超级市场","address":""},{"poiid":"B2094750D76EA3F4479A","title":"新虹楼饭庄","lon":"121.829","lat":"31.522","category":"76","category_name":"上海菜","address":"近郊崇明岛陈家镇北陈公路1395号(陈家镇收费口)"},{"poiid":"B2094757DB69A2FE4499","title":"裕鸿佳苑","lon":"121.8434634603882","lat":"31.518963245773413","category":"47","category_name":"住宅区","address":"崇明县陈家镇裕国路581弄"},{"poiid":"B2094757D165ABFA479A","title":"新博潮大酒店","lon":"121.83384","lat":"31.52501","category":"75","category_name":"浙江菜","address":"近郊崇明县陈桥镇"},{"poiid":"B2094757D66CAAF94799","title":"腾而皇农家园","lon":"121.83629316","lat":"31.525480794","category":"500","category_name":"未知分类","address":"上海崇明陈家镇裕民路二十号"},{"poiid":"B2094654D468A5F4479E","title":"崇明县陈家镇畜牧兽医站","lon":"121.83328","lat":"31.52393","category":"162","category_name":"医院","address":""},{"poiid":"B2094757D065A0F44498","title":"东滩国际会议中心","lon":"121.83285","lat":"31.52603","category":"217","category_name":"旅馆招待所","address":"近郊崇明县陈家镇东滩团结沙"},{"poiid":"B2094654D468A5FB489D","title":"中国农业银行崇明县裕安分理处","lon":"121.83337","lat":"31.52655","category":"150","category_name":"银行","address":"近郊裕安镇北陈公路1462号"},{"poiid":"B2094654D468A5FB489F","title":"上海市崇明县公安局裕安派出所","lon":"121.83135","lat":"31.5237","category":"609","category_name":"警察局","address":"崇明县陈家镇北陈公路1406号"},{"poiid":"B2094655D264A3FE469B","title":"裕鸿桥","lon":"121.83775","lat":"31.51711","category":"250","category_name":"公园户外","address":""},{"poiid":"B2094655D36CA7FF499D","title":"鸿田村","lon":"121.82748","lat":"31.51897","category":"38","category_name":"公交车站","address":""},{"poiid":"B2094654D468A5FB4899","title":"崇明县裕安镇中心小学","lon":"121.8283","lat":"31.51964","category":"56","category_name":"小学","address":""},{"poiid":"B2094655D264A3FE4799","title":"老庙路排涝河桥","lon":"121.83921","lat":"31.54603","category":"250","category_name":"公园户外","address":""}]