[{"poiid":"B2094757D068A7FE439B","title":"航东路沪青平公路","lon":"121.353289","lat":"31.178933","category":"500","category_name":"未知分类","address":"上海709 519 925B 739 776公交车站点"},{"poiid":"B2094757D06AA3FA469C","title":"旭龙鱼头王","lon":"121.356894586","lat":"31.1717832886","category":"88","category_name":"海鲜酒楼","address":"闵行区航东路271号(近航北路)"},{"poiid":"B2094752DA6CA1F54899","title":"KyoChon 校村","lon":"121.360379","lat":"31.175684","category":"247","category_name":"餐饮美食","address":"闵行区紫藤路182号"},{"poiid":"B2094655D26EA0F4449A","title":"新明星花园","lon":"121.35749","lat":"31.17371","category":"47","category_name":"住宅区","address":"航北路180弄1-66号"},{"poiid":"B2094757D069A1F8439A","title":"外环沪青平立交桥","lon":"121.358230547","lat":"31.1821009256","category":"260","category_name":"其他","address":"上海市闵行区沪青平公路"},{"poiid":"B2094757D16DA0F44192","title":"汉庭快捷酒店(虹桥机场店)","lon":"121.356521","lat":"31.183054","category":"217","category_name":"旅馆招待所","address":"上海市长宁区沪青平公路58号(近延安西路)"},{"poiid":"B2094654D56AA1FD4192","title":"丹桂南苑","lon":"121.361","lat":"31.1788","category":"47","category_name":"住宅区","address":"航北路245号"},{"poiid":"B2094654D56AA1FF4593","title":"航华一村一街坊北小区","lon":"121.35714","lat":"31.17753","category":"47","category_name":"住宅区","address":"航东路528弄"},{"poiid":"B2094757D068A0F4449A","title":"龙柏西郊公寓","lon":"121.36044","lat":"31.179611","category":"500","category_name":"未知分类","address":"闵行区红松路700弄30号(红松路兰竹路)"},{"poiid":"B2094757D06AA2F84199","title":"得悦捞","lon":"121.355263054","lat":"31.173794793","category":"86","category_name":"火锅店","address":"闵行区航东路358号(近航北路)"},{"poiid":"B2094757D06FA5FF419D","title":"龙柏七村","lon":"121.36246","lat":"31.174889","category":"47","category_name":"住宅区","address":"上海青杉路417弄"},{"poiid":"B2094654DB6AA2FC4398","title":"上岛咖啡(航北店)","lon":"121.35535","lat":"31.1737","category":"65","category_name":"咖啡厅","address":"闵行区航北路208号2楼(航东路口)"},{"poiid":"B2094757D065ABFA469C","title":"鸿禧花园","lon":"121.35889","lat":"31.175158","category":"47","category_name":"住宅区","address":"上海鸿禧花园位于长宁航北路38号"},{"poiid":"B2094757D06AA3FE4599","title":"丹桂花园","lon":"121.361","lat":"31.179","category":"47","category_name":"住宅区","address":"上海市闵行区航北路228弄"},{"poiid":"B2094654D56AA1FF469F","title":"春之苑","lon":"121.35613","lat":"31.177111","category":"47","category_name":"住宅区","address":"航东路528弄69支弄"},{"poiid":"B2094750D464A5FD4799","title":"中环百联","lon":"121.36045","lat":"31.176506","category":"249","category_name":"购物服务","address":null},{"poiid":"B2094757D16EA2F4479A","title":"外环线延安中路出口","lon":"121.35888948","lat":"31.176778686","category":"500","category_name":"未知分类","address":"上海外环线延安中路出口"},{"poiid":"B2094757D168A1FE4192","title":"博爱双语幼儿园","lon":"121.357785","lat":"31.176973","category":"57","category_name":"幼儿园","address":"上海市闵行区航华一村一街坊"},{"poiid":"B2094757D064AAFF4993","title":"华菁公寓","lon":"121.35464","lat":"31.181465","category":"500","category_name":"未知分类","address":"上海沪青平公路101弄"},{"poiid":"B2094757D069A5F84698","title":"四海游龙(航东店)","lon":"121.35458","lat":"31.17555","category":"68","category_name":"快餐厅","address":"闵行区航东路532号(航华路口)"},{"poiid":"B2094757D068AAF9469F","title":"崔记牛肉拉面馆","lon":"121.35448","lat":"31.17271","category":"68","category_name":"快餐厅","address":"闵行区航北路416号(近航中路)"},{"poiid":"B2094757D064ABF54499","title":"LK发研社","lon":"121.357043","lat":"31.174291","category":"148","category_name":"美容美发店","address":"闵行区航华航东路528弄23号"},{"poiid":"B2094750D76CA1FF479B","title":"惠明轩养生汤馆","lon":"121.355","lat":"31.1754","category":"68","category_name":"快餐厅","address":"闵行区航东路490号"},{"poiid":"B2094757D465A2F4419A","title":"喜来民","lon":"121.359017054","lat":"31.174502793","category":"96","category_name":"韩国料理","address":"闵行区航北路17号(近航东路)"},{"poiid":"B2094757D06AA1FC499E","title":"意畅园麻辣烫","lon":"121.35541","lat":"31.1743","category":"68","category_name":"快餐厅","address":"闵行区航东路542号(航北路航东路)"},{"poiid":"B2094750D664A4FA429B","title":"重庆南湖王毛肚火锅","lon":"121.355","lat":"31.1813","category":"86","category_name":"火锅店","address":"长宁区沪青平公路(近航东路)"},{"poiid":"B209475CD76CA1FA469D","title":"上海虹桥机场","lon":"121.353713","lat":"31.177688","category":"500","category_name":"未知分类","address":"上海市 上海虹桥机场"},{"poiid":"B2094654D56AA1FF469E","title":"好德(春之苑东)","lon":"121.35601","lat":"31.17675","category":"117","category_name":"便民商店/便利店","address":""},{"poiid":"B2094750D269A2FA429D","title":"上海虹桥飞机场2号航站楼26号登机口","lon":"121.35839","lat":"31.175895","category":"627","category_name":"一般地点标志","address":"上海虹桥飞机场2号航站楼26号登机口"},{"poiid":"B2094654D56AA6FF499D","title":"重庆鸡公煲航东路店","lon":"121.35491","lat":"31.17542","category":"71","category_name":"四川菜","address":"闵行区航东路(航华一村车站对面)"},{"poiid":"B2094757D06BA6FD489D","title":"泰煌鸡 航华店","lon":"121.35195418394","lat":"31.181172529749","category":"68","category_name":"快餐厅","address":"闵行区沪青平公路157号(近航东路)"},{"poiid":"B2094654D569A6FC419D","title":"上海市龙柏中学","lon":"121.3618","lat":"31.1785","category":"55","category_name":"中学","address":"闵行区兰竹路8"},{"poiid":"B2094757D06AA1F84993","title":"龙柏社区卫生服务中心","lon":"121.354047","lat":"31.177606","category":"500","category_name":"未知分类","address":"上海航东路608号"},{"poiid":"B2094654D569A6FC419E","title":"龙柏四村(2号门)","lon":"121.36197","lat":"31.17712","category":"47","category_name":"住宅区","address":"龙柏四村1-153号"},{"poiid":"B2094757D16AA4FD419D","title":"上海航空基地飞行楼","lon":"121.361361","lat":"31.177762","category":"500","category_name":"未知分类","address":"上海虹桥机场北大门"},{"poiid":"B2094654DB6BA0F8429D","title":"湘味人家","lon":"121.35488","lat":"31.1758","category":"77","category_name":"湖南菜","address":"闵行区航东路522号(航北路沪青平公路间)"},{"poiid":"B2094654D569A6FA4699","title":"丰品小馆","lon":"121.364390054","lat":"31.175824793","category":"91","category_name":"台湾菜","address":"闵行区紫藤路321号(近青杉路)"},{"poiid":"B2094757D165A3FA409E","title":"梅川路美式桌球","lon":"121.356897","lat":"31.176969","category":"500","category_name":"未知分类","address":"上海梅川路1353号3楼"},{"poiid":"B2094757D765A0FB4593","title":"美乐地 航东路店","lon":"121.3538554","lat":"31.1766422","category":"94","category_name":"西餐厅","address":"闵行区航东路597号(卫生院斜对面)"},{"poiid":"B2094654DB6BA0F8439A","title":"快客","lon":"121.35566","lat":"31.17621","category":"117","category_name":"便民商店/便利店","address":"吴中路1369-106室"},{"poiid":"B2094757D16DA7F9419C","title":"吉祥馄饨(航东路店)","lon":"121.355797586","lat":"31.1737573271","category":"68","category_name":"快餐厅","address":"闵行区航北路208号(近航东路)"},{"poiid":"B2094757D06AA7FF4593","title":"叶家庄园","lon":"121.35926358","lat":"31.176815586","category":"500","category_name":"未知分类","address":"上海航华一村一街坊"},{"poiid":"B2094757D164A2FE459D","title":"味多美 红松路店 Wedome","lon":"121.3659259","lat":"31.1810459","category":"112","category_name":"糕饼店","address":"闵行区红松路518号(近黄桦路)"},{"poiid":"B2094757D164A2F54092","title":"龙柏四村鸡蛋饼摊","lon":"121.36082058","lat":"31.178223414","category":"247","category_name":"餐饮美食","address":"上海龙柏中学"},{"poiid":"B2094750D56EA0FC4292","title":"上海欢乐谷","lon":"121.360122","lat":"31.181159","category":"250","category_name":"公园户外","address":null},{"poiid":"B2094654D56AA1FD4293","title":"华景花苑","lon":"121.35903","lat":"31.174084","category":"47","category_name":"住宅区","address":"上海市闵行区航北路35弄"},{"poiid":"B2094655D26FA7F4469D","title":"龙柏四村三小区(东门)","lon":"121.36164","lat":"31.17671","category":"47","category_name":"住宅区","address":"兰竹路17弄识别"},{"poiid":"B2094654DB69A4FA4092","title":"中国移动(龙柏新村营业厅)","lon":"121.35487","lat":"31.17631","category":"151","category_name":"电讯营业厅","address":"闵行区龙柏街道航东路528弄60-66号"},{"poiid":"B2094654DB6BA0F8419D","title":"好德","lon":"121.3586","lat":"31.17469","category":"117","category_name":"便民商店/便利店","address":"航北路"},{"poiid":"B2094757D66BA6FD4792","title":"故乡明太鱼屋 航北店","lon":"121.35913","lat":"31.17454","category":"96","category_name":"韩国料理","address":"闵行区航北路23号"},{"poiid":"B2094757D068A7FE439B","title":"航东路沪青平公路","lon":"121.353289","lat":"31.178933","category":"500","category_name":"未知分类","address":"上海709 519 925B 739 776公交车站点"},{"poiid":"B2094757D06AA3FA469C","title":"旭龙鱼头王","lon":"121.356894586","lat":"31.1717832886","category":"88","category_name":"海鲜酒楼","address":"闵行区航东路271号(近航北路)"},{"poiid":"B2094752DA6CA1F54899","title":"KyoChon 校村","lon":"121.360379","lat":"31.175684","category":"247","category_name":"餐饮美食","address":"闵行区紫藤路182号"},{"poiid":"B2094655D26EA0F4449A","title":"新明星花园","lon":"121.35749","lat":"31.17371","category":"47","category_name":"住宅区","address":"航北路180弄1-66号"},{"poiid":"B2094757D069A1F8439A","title":"外环沪青平立交桥","lon":"121.358230547","lat":"31.1821009256","category":"260","category_name":"其他","address":"上海市闵行区沪青平公路"},{"poiid":"B2094757D16DA0F44192","title":"汉庭快捷酒店(虹桥机场店)","lon":"121.356521","lat":"31.183054","category":"217","category_name":"旅馆招待所","address":"上海市长宁区沪青平公路58号(近延安西路)"},{"poiid":"B2094654D56AA1FD4192","title":"丹桂南苑","lon":"121.361","lat":"31.1788","category":"47","category_name":"住宅区","address":"航北路245号"},{"poiid":"B2094654D56AA1FF4593","title":"航华一村一街坊北小区","lon":"121.35714","lat":"31.17753","category":"47","category_name":"住宅区","address":"航东路528弄"},{"poiid":"B2094757D068A0F4449A","title":"龙柏西郊公寓","lon":"121.36044","lat":"31.179611","category":"500","category_name":"未知分类","address":"闵行区红松路700弄30号(红松路兰竹路)"},{"poiid":"B2094757D06AA2F84199","title":"得悦捞","lon":"121.355263054","lat":"31.173794793","category":"86","category_name":"火锅店","address":"闵行区航东路358号(近航北路)"},{"poiid":"B2094757D06FA5FF419D","title":"龙柏七村","lon":"121.36246","lat":"31.174889","category":"47","category_name":"住宅区","address":"上海青杉路417弄"},{"poiid":"B2094654DB6AA2FC4398","title":"上岛咖啡(航北店)","lon":"121.35535","lat":"31.1737","category":"65","category_name":"咖啡厅","address":"闵行区航北路208号2楼(航东路口)"},{"poiid":"B2094757D065ABFA469C","title":"鸿禧花园","lon":"121.35889","lat":"31.175158","category":"47","category_name":"住宅区","address":"上海鸿禧花园位于长宁航北路38号"},{"poiid":"B2094757D06AA3FE4599","title":"丹桂花园","lon":"121.361","lat":"31.179","category":"47","category_name":"住宅区","address":"上海市闵行区航北路228弄"},{"poiid":"B2094654D56AA1FF469F","title":"春之苑","lon":"121.35613","lat":"31.177111","category":"47","category_name":"住宅区","address":"航东路528弄69支弄"},{"poiid":"B2094750D464A5FD4799","title":"中环百联","lon":"121.36045","lat":"31.176506","category":"249","category_name":"购物服务","address":null},{"poiid":"B2094757D16EA2F4479A","title":"外环线延安中路出口","lon":"121.35888948","lat":"31.176778686","category":"500","category_name":"未知分类","address":"上海外环线延安中路出口"},{"poiid":"B2094757D168A1FE4192","title":"博爱双语幼儿园","lon":"121.357785","lat":"31.176973","category":"57","category_name":"幼儿园","address":"上海市闵行区航华一村一街坊"},{"poiid":"B2094757D064AAFF4993","title":"华菁公寓","lon":"121.35464","lat":"31.181465","category":"500","category_name":"未知分类","address":"上海沪青平公路101弄"},{"poiid":"B2094757D069A5F84698","title":"四海游龙(航东店)","lon":"121.35458","lat":"31.17555","category":"68","category_name":"快餐厅","address":"闵行区航东路532号(航华路口)"},{"poiid":"B2094757D068AAF9469F","title":"崔记牛肉拉面馆","lon":"121.35448","lat":"31.17271","category":"68","category_name":"快餐厅","address":"闵行区航北路416号(近航中路)"},{"poiid":"B2094757D064ABF54499","title":"LK发研社","lon":"121.357043","lat":"31.174291","category":"148","category_name":"美容美发店","address":"闵行区航华航东路528弄23号"},{"poiid":"B2094750D76CA1FF479B","title":"惠明轩养生汤馆","lon":"121.355","lat":"31.1754","category":"68","category_name":"快餐厅","address":"闵行区航东路490号"},{"poiid":"B2094757D465A2F4419A","title":"喜来民","lon":"121.359017054","lat":"31.174502793","category":"96","category_name":"韩国料理","address":"闵行区航北路17号(近航东路)"},{"poiid":"B2094757D06AA1FC499E","title":"意畅园麻辣烫","lon":"121.35541","lat":"31.1743","category":"68","category_name":"快餐厅","address":"闵行区航东路542号(航北路航东路)"},{"poiid":"B2094750D664A4FA429B","title":"重庆南湖王毛肚火锅","lon":"121.355","lat":"31.1813","category":"86","category_name":"火锅店","address":"长宁区沪青平公路(近航东路)"},{"poiid":"B209475CD76CA1FA469D","title":"上海虹桥机场","lon":"121.353713","lat":"31.177688","category":"500","category_name":"未知分类","address":"上海市 上海虹桥机场"},{"poiid":"B2094654D56AA1FF469E","title":"好德(春之苑东)","lon":"121.35601","lat":"31.17675","category":"117","category_name":"便民商店/便利店","address":""},{"poiid":"B2094750D269A2FA429D","title":"上海虹桥飞机场2号航站楼26号登机口","lon":"121.35839","lat":"31.175895","category":"627","category_name":"一般地点标志","address":"上海虹桥飞机场2号航站楼26号登机口"},{"poiid":"B2094654D56AA6FF499D","title":"重庆鸡公煲航东路店","lon":"121.35491","lat":"31.17542","category":"71","category_name":"四川菜","address":"闵行区航东路(航华一村车站对面)"},{"poiid":"B2094757D06BA6FD489D","title":"泰煌鸡 航华店","lon":"121.35195418394","lat":"31.181172529749","category":"68","category_name":"快餐厅","address":"闵行区沪青平公路157号(近航东路)"},{"poiid":"B2094654D569A6FC419D","title":"上海市龙柏中学","lon":"121.3618","lat":"31.1785","category":"55","category_name":"中学","address":"闵行区兰竹路8"},{"poiid":"B2094757D06AA1F84993","title":"龙柏社区卫生服务中心","lon":"121.354047","lat":"31.177606","category":"500","category_name":"未知分类","address":"上海航东路608号"},{"poiid":"B2094654D569A6FC419E","title":"龙柏四村(2号门)","lon":"121.36197","lat":"31.17712","category":"47","category_name":"住宅区","address":"龙柏四村1-153号"},{"poiid":"B2094757D16AA4FD419D","title":"上海航空基地飞行楼","lon":"121.361361","lat":"31.177762","category":"500","category_name":"未知分类","address":"上海虹桥机场北大门"},{"poiid":"B2094654DB6BA0F8429D","title":"湘味人家","lon":"121.35488","lat":"31.1758","category":"77","category_name":"湖南菜","address":"闵行区航东路522号(航北路沪青平公路间)"},{"poiid":"B2094654D569A6FA4699","title":"丰品小馆","lon":"121.364390054","lat":"31.175824793","category":"91","category_name":"台湾菜","address":"闵行区紫藤路321号(近青杉路)"},{"poiid":"B2094757D165A3FA409E","title":"梅川路美式桌球","lon":"121.356897","lat":"31.176969","category":"500","category_name":"未知分类","address":"上海梅川路1353号3楼"},{"poiid":"B2094757D765A0FB4593","title":"美乐地 航东路店","lon":"121.3538554","lat":"31.1766422","category":"94","category_name":"西餐厅","address":"闵行区航东路597号(卫生院斜对面)"},{"poiid":"B2094654DB6BA0F8439A","title":"快客","lon":"121.35566","lat":"31.17621","category":"117","category_name":"便民商店/便利店","address":"吴中路1369-106室"},{"poiid":"B2094757D16DA7F9419C","title":"吉祥馄饨(航东路店)","lon":"121.355797586","lat":"31.1737573271","category":"68","category_name":"快餐厅","address":"闵行区航北路208号(近航东路)"},{"poiid":"B2094757D06AA7FF4593","title":"叶家庄园","lon":"121.35926358","lat":"31.176815586","category":"500","category_name":"未知分类","address":"上海航华一村一街坊"},{"poiid":"B2094757D164A2FE459D","title":"味多美 红松路店 Wedome","lon":"121.3659259","lat":"31.1810459","category":"112","category_name":"糕饼店","address":"闵行区红松路518号(近黄桦路)"},{"poiid":"B2094757D164A2F54092","title":"龙柏四村鸡蛋饼摊","lon":"121.36082058","lat":"31.178223414","category":"247","category_name":"餐饮美食","address":"上海龙柏中学"},{"poiid":"B2094750D56EA0FC4292","title":"上海欢乐谷","lon":"121.360122","lat":"31.181159","category":"250","category_name":"公园户外","address":null},{"poiid":"B2094654D56AA1FD4293","title":"华景花苑","lon":"121.35903","lat":"31.174084","category":"47","category_name":"住宅区","address":"上海市闵行区航北路35弄"},{"poiid":"B2094655D26FA7F4469D","title":"龙柏四村三小区(东门)","lon":"121.36164","lat":"31.17671","category":"47","category_name":"住宅区","address":"兰竹路17弄识别"},{"poiid":"B2094654DB69A4FA4092","title":"中国移动(龙柏新村营业厅)","lon":"121.35487","lat":"31.17631","category":"151","category_name":"电讯营业厅","address":"闵行区龙柏街道航东路528弄60-66号"},{"poiid":"B2094654DB6BA0F8419D","title":"好德","lon":"121.3586","lat":"31.17469","category":"117","category_name":"便民商店/便利店","address":"航北路"},{"poiid":"B2094757D66BA6FD4792","title":"故乡明太鱼屋 航北店","lon":"121.35913","lat":"31.17454","category":"96","category_name":"韩国料理","address":"闵行区航北路23号"},{"poiid":"B2094757D068A7FE439B","title":"航东路沪青平公路","lon":"121.353289","lat":"31.178933","category":"500","category_name":"未知分类","address":"上海709 519 925B 739 776公交车站点"},{"poiid":"B2094757D06AA3FA469C","title":"旭龙鱼头王","lon":"121.356894586","lat":"31.1717832886","category":"88","category_name":"海鲜酒楼","address":"闵行区航东路271号(近航北路)"},{"poiid":"B2094752DA6CA1F54899","title":"KyoChon 校村","lon":"121.360379","lat":"31.175684","category":"247","category_name":"餐饮美食","address":"闵行区紫藤路182号"},{"poiid":"B2094655D26EA0F4449A","title":"新明星花园","lon":"121.35749","lat":"31.17371","category":"47","category_name":"住宅区","address":"航北路180弄1-66号"},{"poiid":"B2094757D069A1F8439A","title":"外环沪青平立交桥","lon":"121.358230547","lat":"31.1821009256","category":"260","category_name":"其他","address":"上海市闵行区沪青平公路"},{"poiid":"B2094757D16DA0F44192","title":"汉庭快捷酒店(虹桥机场店)","lon":"121.356521","lat":"31.183054","category":"217","category_name":"旅馆招待所","address":"上海市长宁区沪青平公路58号(近延安西路)"},{"poiid":"B2094654D56AA1FD4192","title":"丹桂南苑","lon":"121.361","lat":"31.1788","category":"47","category_name":"住宅区","address":"航北路245号"},{"poiid":"B2094654D56AA1FF4593","title":"航华一村一街坊北小区","lon":"121.35714","lat":"31.17753","category":"47","category_name":"住宅区","address":"航东路528弄"},{"poiid":"B2094757D068A0F4449A","title":"龙柏西郊公寓","lon":"121.36044","lat":"31.179611","category":"500","category_name":"未知分类","address":"闵行区红松路700弄30号(红松路兰竹路)"},{"poiid":"B2094757D06AA2F84199","title":"得悦捞","lon":"121.355263054","lat":"31.173794793","category":"86","category_name":"火锅店","address":"闵行区航东路358号(近航北路)"},{"poiid":"B2094757D06FA5FF419D","title":"龙柏七村","lon":"121.36246","lat":"31.174889","category":"47","category_name":"住宅区","address":"上海青杉路417弄"},{"poiid":"B2094654DB6AA2FC4398","title":"上岛咖啡(航北店)","lon":"121.35535","lat":"31.1737","category":"65","category_name":"咖啡厅","address":"闵行区航北路208号2楼(航东路口)"},{"poiid":"B2094757D065ABFA469C","title":"鸿禧花园","lon":"121.35889","lat":"31.175158","category":"47","category_name":"住宅区","address":"上海鸿禧花园位于长宁航北路38号"},{"poiid":"B2094757D06AA3FE4599","title":"丹桂花园","lon":"121.361","lat":"31.179","category":"47","category_name":"住宅区","address":"上海市闵行区航北路228弄"},{"poiid":"B2094654D56AA1FF469F","title":"春之苑","lon":"121.35613","lat":"31.177111","category":"47","category_name":"住宅区","address":"航东路528弄69支弄"},{"poiid":"B2094750D464A5FD4799","title":"中环百联","lon":"121.36045","lat":"31.176506","category":"249","category_name":"购物服务","address":null},{"poiid":"B2094757D16EA2F4479A","title":"外环线延安中路出口","lon":"121.35888948","lat":"31.176778686","category":"500","category_name":"未知分类","address":"上海外环线延安中路出口"},{"poiid":"B2094757D168A1FE4192","title":"博爱双语幼儿园","lon":"121.357785","lat":"31.176973","category":"57","category_name":"幼儿园","address":"上海市闵行区航华一村一街坊"},{"poiid":"B2094757D064AAFF4993","title":"华菁公寓","lon":"121.35464","lat":"31.181465","category":"500","category_name":"未知分类","address":"上海沪青平公路101弄"},{"poiid":"B2094757D069A5F84698","title":"四海游龙(航东店)","lon":"121.35458","lat":"31.17555","category":"68","category_name":"快餐厅","address":"闵行区航东路532号(航华路口)"},{"poiid":"B2094757D068AAF9469F","title":"崔记牛肉拉面馆","lon":"121.35448","lat":"31.17271","category":"68","category_name":"快餐厅","address":"闵行区航北路416号(近航中路)"},{"poiid":"B2094757D064ABF54499","title":"LK发研社","lon":"121.357043","lat":"31.174291","category":"148","category_name":"美容美发店","address":"闵行区航华航东路528弄23号"},{"poiid":"B2094750D76CA1FF479B","title":"惠明轩养生汤馆","lon":"121.355","lat":"31.1754","category":"68","category_name":"快餐厅","address":"闵行区航东路490号"},{"poiid":"B2094757D465A2F4419A","title":"喜来民","lon":"121.359017054","lat":"31.174502793","category":"96","category_name":"韩国料理","address":"闵行区航北路17号(近航东路)"},{"poiid":"B2094757D06AA1FC499E","title":"意畅园麻辣烫","lon":"121.35541","lat":"31.1743","category":"68","category_name":"快餐厅","address":"闵行区航东路542号(航北路航东路)"},{"poiid":"B2094750D664A4FA429B","title":"重庆南湖王毛肚火锅","lon":"121.355","lat":"31.1813","category":"86","category_name":"火锅店","address":"长宁区沪青平公路(近航东路)"},{"poiid":"B209475CD76CA1FA469D","title":"上海虹桥机场","lon":"121.353713","lat":"31.177688","category":"500","category_name":"未知分类","address":"上海市 上海虹桥机场"},{"poiid":"B2094654D56AA1FF469E","title":"好德(春之苑东)","lon":"121.35601","lat":"31.17675","category":"117","category_name":"便民商店/便利店","address":""},{"poiid":"B2094750D269A2FA429D","title":"上海虹桥飞机场2号航站楼26号登机口","lon":"121.35839","lat":"31.175895","category":"627","category_name":"一般地点标志","address":"上海虹桥飞机场2号航站楼26号登机口"},{"poiid":"B2094654D56AA6FF499D","title":"重庆鸡公煲航东路店","lon":"121.35491","lat":"31.17542","category":"71","category_name":"四川菜","address":"闵行区航东路(航华一村车站对面)"},{"poiid":"B2094757D06BA6FD489D","title":"泰煌鸡 航华店","lon":"121.35195418394","lat":"31.181172529749","category":"68","category_name":"快餐厅","address":"闵行区沪青平公路157号(近航东路)"},{"poiid":"B2094654D569A6FC419D","title":"上海市龙柏中学","lon":"121.3618","lat":"31.1785","category":"55","category_name":"中学","address":"闵行区兰竹路8"},{"poiid":"B2094757D06AA1F84993","title":"龙柏社区卫生服务中心","lon":"121.354047","lat":"31.177606","category":"500","category_name":"未知分类","address":"上海航东路608号"},{"poiid":"B2094654D569A6FC419E","title":"龙柏四村(2号门)","lon":"121.36197","lat":"31.17712","category":"47","category_name":"住宅区","address":"龙柏四村1-153号"},{"poiid":"B2094757D16AA4FD419D","title":"上海航空基地飞行楼","lon":"121.361361","lat":"31.177762","category":"500","category_name":"未知分类","address":"上海虹桥机场北大门"},{"poiid":"B2094654DB6BA0F8429D","title":"湘味人家","lon":"121.35488","lat":"31.1758","category":"77","category_name":"湖南菜","address":"闵行区航东路522号(航北路沪青平公路间)"},{"poiid":"B2094654D569A6FA4699","title":"丰品小馆","lon":"121.364390054","lat":"31.175824793","category":"91","category_name":"台湾菜","address":"闵行区紫藤路321号(近青杉路)"},{"poiid":"B2094757D165A3FA409E","title":"梅川路美式桌球","lon":"121.356897","lat":"31.176969","category":"500","category_name":"未知分类","address":"上海梅川路1353号3楼"},{"poiid":"B2094757D765A0FB4593","title":"美乐地 航东路店","lon":"121.3538554","lat":"31.1766422","category":"94","category_name":"西餐厅","address":"闵行区航东路597号(卫生院斜对面)"},{"poiid":"B2094654DB6BA0F8439A","title":"快客","lon":"121.35566","lat":"31.17621","category":"117","category_name":"便民商店/便利店","address":"吴中路1369-106室"},{"poiid":"B2094757D16DA7F9419C","title":"吉祥馄饨(航东路店)","lon":"121.355797586","lat":"31.1737573271","category":"68","category_name":"快餐厅","address":"闵行区航北路208号(近航东路)"},{"poiid":"B2094757D06AA7FF4593","title":"叶家庄园","lon":"121.35926358","lat":"31.176815586","category":"500","category_name":"未知分类","address":"上海航华一村一街坊"},{"poiid":"B2094757D164A2FE459D","title":"味多美 红松路店 Wedome","lon":"121.3659259","lat":"31.1810459","category":"112","category_name":"糕饼店","address":"闵行区红松路518号(近黄桦路)"},{"poiid":"B2094757D164A2F54092","title":"龙柏四村鸡蛋饼摊","lon":"121.36082058","lat":"31.178223414","category":"247","category_name":"餐饮美食","address":"上海龙柏中学"},{"poiid":"B2094750D56EA0FC4292","title":"上海欢乐谷","lon":"121.360122","lat":"31.181159","category":"250","category_name":"公园户外","address":null},{"poiid":"B2094654D56AA1FD4293","title":"华景花苑","lon":"121.35903","lat":"31.174084","category":"47","category_name":"住宅区","address":"上海市闵行区航北路35弄"},{"poiid":"B2094655D26FA7F4469D","title":"龙柏四村三小区(东门)","lon":"121.36164","lat":"31.17671","category":"47","category_name":"住宅区","address":"兰竹路17弄识别"},{"poiid":"B2094654DB69A4FA4092","title":"中国移动(龙柏新村营业厅)","lon":"121.35487","lat":"31.17631","category":"151","category_name":"电讯营业厅","address":"闵行区龙柏街道航东路528弄60-66号"},{"poiid":"B2094654DB6BA0F8419D","title":"好德","lon":"121.3586","lat":"31.17469","category":"117","category_name":"便民商店/便利店","address":"航北路"},{"poiid":"B2094757D66BA6FD4792","title":"故乡明太鱼屋 航北店","lon":"121.35913","lat":"31.17454","category":"96","category_name":"韩国料理","address":"闵行区航北路23号"}]