[{"poiid":"B2094654D569AAFC449B","title":"上海动物园","lon":"121.36272202550413","lat":"31.194404631992096","category":"197","category_name":"动物园","address":"虹桥路2381号。"},{"poiid":"B2094757D168A5FB479C","title":"西郊动物园","lon":"121.357255586","lat":"31.1915996757","category":"500","category_name":"未知分类","address":"上海"},{"poiid":"B2094757D06BABFE4698","title":"虹桥机场2号航站楼21号登机口","lon":"121.35440496","lat":"31.1979483666","category":"21","category_name":"飞机场","address":"上海虹桥机场T2"},{"poiid":"B2094757D06AA3FA439E","title":"虹桥1号楼","lon":"121.3544507","lat":"31.1985262788","category":"252","category_name":"楼宇机构","address":"上海虹桥机场"},{"poiid":"B2094757D06FA7FA4699","title":"上海市交通警察总队车辆管理所(一分所)","lon":"121.366082","lat":"31.2012371","category":"252","category_name":"楼宇机构","address":"上海长宁区哈密路1330号"},{"poiid":"B2094757D06FA5F9469C","title":"西郊公园","lon":"121.366499424","lat":"31.1906089622","category":"196","category_name":"公园","address":"上海虹桥路"},{"poiid":"B2094757D06FA1F5499E","title":"龙柏饭店","lon":"121.35993957","lat":"31.190093994","category":"217","category_name":"旅馆招待所","address":"上海市长宁区虹桥路2419号(近沪青平公路)"},{"poiid":"B2094757D068A5F9469D","title":"上海国际旅行卫生保健中心","lon":"121.36435699","lat":"31.198169708","category":"162","category_name":"医院","address":"长宁区金浜路15号(近哈密路)"},{"poiid":"B2094757D165A1F44792","title":"上海动物园大猩猩馆","lon":"121.362465586","lat":"31.1930057032","category":"500","category_name":"未知分类","address":"上海动物园"},{"poiid":"B2094757D06FA3FC4599","title":"上海动物园地铁站","lon":"121.36693938","lat":"31.19022555","category":"36","category_name":"地铁站","address":"上海轨道交通 十号线 轨交上海动物园站 10"},{"poiid":"B2094757D06FA5F5469B","title":"顽皮家族宠物医院(虹桥路总店)","lon":"121.36548934","lat":"31.190155323","category":"162","category_name":"医院","address":"长宁区虹桥路2393号(近动物园)"},{"poiid":"B2094654D569AAFC429C","title":"阿山饭店","lon":"121.36647159056","lat":"31.189958417134","category":"76","category_name":"上海菜","address":"长宁区虹桥路2378号(近动物园)"},{"poiid":"B2094757D069A3FE419A","title":"上海出入境检验检疫局/上海国际旅行卫生保健中心","lon":"121.36445758","lat":"31.197729795","category":"162","category_name":"医院","address":"上海市长宁区金浜路15号"},{"poiid":"B2094654D569AAFC439C","title":"长江商学院","lon":"121.36066","lat":"31.18813","category":"671","category_name":"高校中心点","address":""},{"poiid":"B2094757D065A1FD4298","title":"老虎山","lon":"121.360507586","lat":"31.1949827418","category":"500","category_name":"未知分类","address":"上海西郊公园"},{"poiid":"B2094757D068A7FA419A","title":"绿谷别墅","lon":"121.365924","lat":"31.198598","category":"47","category_name":"住宅区","address":"上海哈密路1500号"},{"poiid":"B2094750D66FA6FB4092","title":"医院","lon":"121.364761","lat":"31.195802","category":"162","category_name":"医院","address":"哈密路青溪路"},{"poiid":"B2094757D66DABF4499C","title":"浦东机场T1航站楼VVIP A区","lon":"121.361251336","lat":"31.198727265","category":"21","category_name":"飞机场","address":"上海浦东机场T1航站楼VVIP A区"},{"poiid":"B2094757D069A3F94898","title":"特警总队","lon":"121.366982","lat":"31.202182","category":"500","category_name":"未知分类","address":"上海哈密路1330号"},{"poiid":"B2094757D465ABFE429A","title":"满月","lon":"121.360967","lat":"31.198553","category":"269","category_name":"烧烤","address":"长宁区金浜路112号(近福泉路)"},{"poiid":"B2094655D26EA3FA4593","title":"格林豪泰(上海虹桥机场酒店公寓)","lon":"121.36744","lat":"31.19583","category":"216","category_name":"经济型连锁酒店","address":"长宁区哈密路1721号(近虹桥路)"},{"poiid":"B2094752D36DABFF4599","title":"Geneva","lon":"121.364115","lat":"31.196543","category":"247","category_name":"餐饮美食","address":"哈密路1876弄6号"},{"poiid":"B2094757D069ABFA4498","title":"中国人民解放军第四五五医院(哈密路分院)","lon":"121.36747","lat":"31.19587","category":"162","category_name":"医院","address":"长宁区哈密路1713号(近虹桥路)"},{"poiid":"B2094655D269A4F54293","title":"金庭庄园会所","lon":"121.35679","lat":"31.20289","category":"247","category_name":"餐饮美食","address":"长宁区虹桥路2489弄66号"},{"poiid":"B2094654D569AAFE479F","title":"新泾苑","lon":"121.36304","lat":"31.200182","category":"47","category_name":"住宅区","address":"中泾路18弄1-85号"},{"poiid":"B2094654DB6BA1F4419C","title":"虹桥龙柏公寓","lon":"121.36544851952","lat":"31.193572126218","category":"47","category_name":"住宅区","address":"绿苑路21弄识别"},{"poiid":"B2094757D66BA4F5419C","title":"pizzasun","lon":"121.36725256124","lat":"31.189778276359","category":"94","category_name":"西餐厅","address":"长宁区虹井路989号(近虹桥路)"},{"poiid":"B2094757D16FA1F9409A","title":"锦江之星(哈密路店)","lon":"121.36583","lat":"31.19993","category":"500","category_name":"未知分类","address":"上海长宁区哈密路1358号(近金滨路)  "},{"poiid":"B2094757D069A7FB4192","title":"舒友海鲜大酒楼(西郊店)","lon":"121.36363","lat":"31.18867","category":"260","category_name":"其他","address":"长宁区虹桥路2399号(近虹井路)"},{"poiid":"B2094757D06FA1FE469D","title":"绿园十一居","lon":"121.35897258","lat":"31.204185921","category":"47","category_name":"住宅区","address":"上海福泉路435弄(近新泾路)"},{"poiid":"B2094655D26AA4FD459A","title":"海立阁哈密路店","lon":"121.36662","lat":"31.19685","category":"247","category_name":"餐饮美食","address":"长宁区哈密路2010号(近虹桥路)"},{"poiid":"B2094757D069A1F84898","title":"车管所一分所","lon":"121.36568521","lat":"31.202140621","category":"500","category_name":"未知分类","address":"上海哈密路"},{"poiid":"B2094654DB6BA0FD4993","title":"西郊宝成花苑一期","lon":"121.36219","lat":"31.19782","category":"47","category_name":"住宅区","address":"金浜路101"},{"poiid":"B2094751DA6BA7FB419B","title":"日内瓦酒吧","lon":"121.363965","lat":"31.19656","category":"247","category_name":"餐饮美食","address":"哈密路1876号"},{"poiid":"B2094757D66DAAFC489C","title":"复旦大学(邯郸校区)正门","lon":"121.35829468","lat":"31.197275886","category":"52","category_name":"高等院校","address":"上海邯郸路220号"},{"poiid":"B2094655D36CA6FF4699","title":"福泉路新泾路","lon":"121.35998","lat":"31.20366","category":"38","category_name":"公交车站","address":""},{"poiid":"B2094757D06BA1F9459F","title":"西郊宝成花苑","lon":"121.36429595","lat":"31.199365615","category":"252","category_name":"楼宇机构","address":"上海市长宁区金浜路100号"},{"poiid":"B2094655D36CA0FD489B","title":"金浜路福泉路","lon":"121.36125","lat":"31.19846","category":"38","category_name":"公交车站","address":""},{"poiid":"B2094757D065A4FF4493","title":"721路公交","lon":"121.362161","lat":"31.198281","category":"38","category_name":"公交车站","address":"上海动物园-上海体育馆"},{"poiid":"B2094654D569AAFE459A","title":"松园别墅","lon":"121.36489","lat":"31.19793","category":"47","category_name":"住宅区","address":"长宁区哈密路1705号(哈密路金浜路)"},{"poiid":"B2094757D16EA3F5469B","title":"名颂人家","lon":"121.36799","lat":"31.19575","category":"76","category_name":"上海菜","address":"长宁区哈密路1799号(近青溪路)"},{"poiid":"B2094655D26FA0F54092","title":"绿五小区","lon":"121.36326","lat":"31.20291","category":"47","category_name":"住宅区","address":"淞虹路1005弄1-80号"},{"poiid":"B2094757D16BA1FA489E","title":"虹桥机场航友宾馆会议中心","lon":"121.35617998","lat":"31.191082165","category":"21","category_name":"飞机场","address":"上海迎宾一路425号"},{"poiid":"B2094654D569AAFE459E","title":"西郊佳景苑","lon":"121.36359","lat":"31.199295","category":"47","category_name":"住宅区","address":"金浜路50号"},{"poiid":"B2094654D569AAFE4592","title":"上海市长宁区一郎食品店","lon":"121.36125","lat":"31.19828","category":"117","category_name":"便民商店/便利店","address":"金浜路107-117号"},{"poiid":"B2094750DA65ABFE489E","title":"上海一零八医院","lon":"121.358589","lat":"31.195766","category":"162","category_name":"医院","address":"长宁区哈密路1713号"},{"poiid":"B2094654D569AAFE4699","title":"满庭芳花园","lon":"121.358","lat":"31.200369","category":"47","category_name":"住宅区","address":"上海市虹桥路2489弄222号"},{"poiid":"B2094655D26CA4FF449B","title":"西郊佳景苑(南门)","lon":"121.3637","lat":"31.19863","category":"47","category_name":"住宅区","address":"金浜路50"},{"poiid":"B2094655D26EA2FD449D","title":"龙柏饭店宴会厅","lon":"121.36071","lat":"31.18758","category":"247","category_name":"餐饮美食","address":"长宁区虹桥路2409号龙柏饭店2楼(近虹井路)查看地图"},{"poiid":"B2094752D46DA3FA419C","title":"108医院","lon":"121.366393","lat":"31.195627","category":"162","category_name":"医院","address":"上海市哈密路1713号"},{"poiid":"B2094654D569AAFC449B","title":"上海动物园","lon":"121.36272202550413","lat":"31.194404631992096","category":"197","category_name":"动物园","address":"虹桥路2381号。"},{"poiid":"B2094757D168A5FB479C","title":"西郊动物园","lon":"121.357255586","lat":"31.1915996757","category":"500","category_name":"未知分类","address":"上海"},{"poiid":"B2094757D06BABFE4698","title":"虹桥机场2号航站楼21号登机口","lon":"121.35440496","lat":"31.1979483666","category":"21","category_name":"飞机场","address":"上海虹桥机场T2"},{"poiid":"B2094757D06AA3FA439E","title":"虹桥1号楼","lon":"121.3544507","lat":"31.1985262788","category":"252","category_name":"楼宇机构","address":"上海虹桥机场"},{"poiid":"B2094757D06FA7FA4699","title":"上海市交通警察总队车辆管理所(一分所)","lon":"121.366082","lat":"31.2012371","category":"252","category_name":"楼宇机构","address":"上海长宁区哈密路1330号"},{"poiid":"B2094757D06FA5F9469C","title":"西郊公园","lon":"121.366499424","lat":"31.1906089622","category":"196","category_name":"公园","address":"上海虹桥路"},{"poiid":"B2094757D06FA1F5499E","title":"龙柏饭店","lon":"121.35993957","lat":"31.190093994","category":"217","category_name":"旅馆招待所","address":"上海市长宁区虹桥路2419号(近沪青平公路)"},{"poiid":"B2094757D068A5F9469D","title":"上海国际旅行卫生保健中心","lon":"121.36435699","lat":"31.198169708","category":"162","category_name":"医院","address":"长宁区金浜路15号(近哈密路)"},{"poiid":"B2094757D165A1F44792","title":"上海动物园大猩猩馆","lon":"121.362465586","lat":"31.1930057032","category":"500","category_name":"未知分类","address":"上海动物园"},{"poiid":"B2094757D06FA3FC4599","title":"上海动物园地铁站","lon":"121.36693938","lat":"31.19022555","category":"36","category_name":"地铁站","address":"上海轨道交通 十号线 轨交上海动物园站 10"},{"poiid":"B2094757D06FA5F5469B","title":"顽皮家族宠物医院(虹桥路总店)","lon":"121.36548934","lat":"31.190155323","category":"162","category_name":"医院","address":"长宁区虹桥路2393号(近动物园)"},{"poiid":"B2094654D569AAFC429C","title":"阿山饭店","lon":"121.36647159056","lat":"31.189958417134","category":"76","category_name":"上海菜","address":"长宁区虹桥路2378号(近动物园)"},{"poiid":"B2094757D069A3FE419A","title":"上海出入境检验检疫局/上海国际旅行卫生保健中心","lon":"121.36445758","lat":"31.197729795","category":"162","category_name":"医院","address":"上海市长宁区金浜路15号"},{"poiid":"B2094654D569AAFC439C","title":"长江商学院","lon":"121.36066","lat":"31.18813","category":"671","category_name":"高校中心点","address":""},{"poiid":"B2094757D065A1FD4298","title":"老虎山","lon":"121.360507586","lat":"31.1949827418","category":"500","category_name":"未知分类","address":"上海西郊公园"},{"poiid":"B2094757D068A7FA419A","title":"绿谷别墅","lon":"121.365924","lat":"31.198598","category":"47","category_name":"住宅区","address":"上海哈密路1500号"},{"poiid":"B2094750D66FA6FB4092","title":"医院","lon":"121.364761","lat":"31.195802","category":"162","category_name":"医院","address":"哈密路青溪路"},{"poiid":"B2094757D66DABF4499C","title":"浦东机场T1航站楼VVIP A区","lon":"121.361251336","lat":"31.198727265","category":"21","category_name":"飞机场","address":"上海浦东机场T1航站楼VVIP A区"},{"poiid":"B2094757D069A3F94898","title":"特警总队","lon":"121.366982","lat":"31.202182","category":"500","category_name":"未知分类","address":"上海哈密路1330号"},{"poiid":"B2094757D465ABFE429A","title":"满月","lon":"121.360967","lat":"31.198553","category":"269","category_name":"烧烤","address":"长宁区金浜路112号(近福泉路)"},{"poiid":"B2094655D26EA3FA4593","title":"格林豪泰(上海虹桥机场酒店公寓)","lon":"121.36744","lat":"31.19583","category":"216","category_name":"经济型连锁酒店","address":"长宁区哈密路1721号(近虹桥路)"},{"poiid":"B2094752D36DABFF4599","title":"Geneva","lon":"121.364115","lat":"31.196543","category":"247","category_name":"餐饮美食","address":"哈密路1876弄6号"},{"poiid":"B2094757D069ABFA4498","title":"中国人民解放军第四五五医院(哈密路分院)","lon":"121.36747","lat":"31.19587","category":"162","category_name":"医院","address":"长宁区哈密路1713号(近虹桥路)"},{"poiid":"B2094655D269A4F54293","title":"金庭庄园会所","lon":"121.35679","lat":"31.20289","category":"247","category_name":"餐饮美食","address":"长宁区虹桥路2489弄66号"},{"poiid":"B2094654D569AAFE479F","title":"新泾苑","lon":"121.36304","lat":"31.200182","category":"47","category_name":"住宅区","address":"中泾路18弄1-85号"},{"poiid":"B2094654DB6BA1F4419C","title":"虹桥龙柏公寓","lon":"121.36544851952","lat":"31.193572126218","category":"47","category_name":"住宅区","address":"绿苑路21弄识别"},{"poiid":"B2094757D66BA4F5419C","title":"pizzasun","lon":"121.36725256124","lat":"31.189778276359","category":"94","category_name":"西餐厅","address":"长宁区虹井路989号(近虹桥路)"},{"poiid":"B2094757D16FA1F9409A","title":"锦江之星(哈密路店)","lon":"121.36583","lat":"31.19993","category":"500","category_name":"未知分类","address":"上海长宁区哈密路1358号(近金滨路)  "},{"poiid":"B2094757D069A7FB4192","title":"舒友海鲜大酒楼(西郊店)","lon":"121.36363","lat":"31.18867","category":"260","category_name":"其他","address":"长宁区虹桥路2399号(近虹井路)"},{"poiid":"B2094757D06FA1FE469D","title":"绿园十一居","lon":"121.35897258","lat":"31.204185921","category":"47","category_name":"住宅区","address":"上海福泉路435弄(近新泾路)"},{"poiid":"B2094655D26AA4FD459A","title":"海立阁哈密路店","lon":"121.36662","lat":"31.19685","category":"247","category_name":"餐饮美食","address":"长宁区哈密路2010号(近虹桥路)"},{"poiid":"B2094757D069A1F84898","title":"车管所一分所","lon":"121.36568521","lat":"31.202140621","category":"500","category_name":"未知分类","address":"上海哈密路"},{"poiid":"B2094654DB6BA0FD4993","title":"西郊宝成花苑一期","lon":"121.36219","lat":"31.19782","category":"47","category_name":"住宅区","address":"金浜路101"},{"poiid":"B2094751DA6BA7FB419B","title":"日内瓦酒吧","lon":"121.363965","lat":"31.19656","category":"247","category_name":"餐饮美食","address":"哈密路1876号"},{"poiid":"B2094757D66DAAFC489C","title":"复旦大学(邯郸校区)正门","lon":"121.35829468","lat":"31.197275886","category":"52","category_name":"高等院校","address":"上海邯郸路220号"},{"poiid":"B2094655D36CA6FF4699","title":"福泉路新泾路","lon":"121.35998","lat":"31.20366","category":"38","category_name":"公交车站","address":""},{"poiid":"B2094757D06BA1F9459F","title":"西郊宝成花苑","lon":"121.36429595","lat":"31.199365615","category":"252","category_name":"楼宇机构","address":"上海市长宁区金浜路100号"},{"poiid":"B2094655D36CA0FD489B","title":"金浜路福泉路","lon":"121.36125","lat":"31.19846","category":"38","category_name":"公交车站","address":""},{"poiid":"B2094757D065A4FF4493","title":"721路公交","lon":"121.362161","lat":"31.198281","category":"38","category_name":"公交车站","address":"上海动物园-上海体育馆"},{"poiid":"B2094654D569AAFE459A","title":"松园别墅","lon":"121.36489","lat":"31.19793","category":"47","category_name":"住宅区","address":"长宁区哈密路1705号(哈密路金浜路)"},{"poiid":"B2094757D16EA3F5469B","title":"名颂人家","lon":"121.36799","lat":"31.19575","category":"76","category_name":"上海菜","address":"长宁区哈密路1799号(近青溪路)"},{"poiid":"B2094655D26FA0F54092","title":"绿五小区","lon":"121.36326","lat":"31.20291","category":"47","category_name":"住宅区","address":"淞虹路1005弄1-80号"},{"poiid":"B2094757D16BA1FA489E","title":"虹桥机场航友宾馆会议中心","lon":"121.35617998","lat":"31.191082165","category":"21","category_name":"飞机场","address":"上海迎宾一路425号"},{"poiid":"B2094654D569AAFE459E","title":"西郊佳景苑","lon":"121.36359","lat":"31.199295","category":"47","category_name":"住宅区","address":"金浜路50号"},{"poiid":"B2094654D569AAFE4592","title":"上海市长宁区一郎食品店","lon":"121.36125","lat":"31.19828","category":"117","category_name":"便民商店/便利店","address":"金浜路107-117号"},{"poiid":"B2094750DA65ABFE489E","title":"上海一零八医院","lon":"121.358589","lat":"31.195766","category":"162","category_name":"医院","address":"长宁区哈密路1713号"},{"poiid":"B2094654D569AAFE4699","title":"满庭芳花园","lon":"121.358","lat":"31.200369","category":"47","category_name":"住宅区","address":"上海市虹桥路2489弄222号"},{"poiid":"B2094655D26CA4FF449B","title":"西郊佳景苑(南门)","lon":"121.3637","lat":"31.19863","category":"47","category_name":"住宅区","address":"金浜路50"},{"poiid":"B2094655D26EA2FD449D","title":"龙柏饭店宴会厅","lon":"121.36071","lat":"31.18758","category":"247","category_name":"餐饮美食","address":"长宁区虹桥路2409号龙柏饭店2楼(近虹井路)查看地图"},{"poiid":"B2094752D46DA3FA419C","title":"108医院","lon":"121.366393","lat":"31.195627","category":"162","category_name":"医院","address":"上海市哈密路1713号"},{"poiid":"B2094654D569AAFC449B","title":"上海动物园","lon":"121.36272202550413","lat":"31.194404631992096","category":"197","category_name":"动物园","address":"虹桥路2381号。"},{"poiid":"B2094757D168A5FB479C","title":"西郊动物园","lon":"121.357255586","lat":"31.1915996757","category":"500","category_name":"未知分类","address":"上海"},{"poiid":"B2094757D06BABFE4698","title":"虹桥机场2号航站楼21号登机口","lon":"121.35440496","lat":"31.1979483666","category":"21","category_name":"飞机场","address":"上海虹桥机场T2"},{"poiid":"B2094757D06AA3FA439E","title":"虹桥1号楼","lon":"121.3544507","lat":"31.1985262788","category":"252","category_name":"楼宇机构","address":"上海虹桥机场"},{"poiid":"B2094757D06FA7FA4699","title":"上海市交通警察总队车辆管理所(一分所)","lon":"121.366082","lat":"31.2012371","category":"252","category_name":"楼宇机构","address":"上海长宁区哈密路1330号"},{"poiid":"B2094757D06FA5F9469C","title":"西郊公园","lon":"121.366499424","lat":"31.1906089622","category":"196","category_name":"公园","address":"上海虹桥路"},{"poiid":"B2094757D06FA1F5499E","title":"龙柏饭店","lon":"121.35993957","lat":"31.190093994","category":"217","category_name":"旅馆招待所","address":"上海市长宁区虹桥路2419号(近沪青平公路)"},{"poiid":"B2094757D068A5F9469D","title":"上海国际旅行卫生保健中心","lon":"121.36435699","lat":"31.198169708","category":"162","category_name":"医院","address":"长宁区金浜路15号(近哈密路)"},{"poiid":"B2094757D165A1F44792","title":"上海动物园大猩猩馆","lon":"121.362465586","lat":"31.1930057032","category":"500","category_name":"未知分类","address":"上海动物园"},{"poiid":"B2094757D06FA3FC4599","title":"上海动物园地铁站","lon":"121.36693938","lat":"31.19022555","category":"36","category_name":"地铁站","address":"上海轨道交通 十号线 轨交上海动物园站 10"},{"poiid":"B2094757D06FA5F5469B","title":"顽皮家族宠物医院(虹桥路总店)","lon":"121.36548934","lat":"31.190155323","category":"162","category_name":"医院","address":"长宁区虹桥路2393号(近动物园)"},{"poiid":"B2094654D569AAFC429C","title":"阿山饭店","lon":"121.36647159056","lat":"31.189958417134","category":"76","category_name":"上海菜","address":"长宁区虹桥路2378号(近动物园)"},{"poiid":"B2094757D069A3FE419A","title":"上海出入境检验检疫局/上海国际旅行卫生保健中心","lon":"121.36445758","lat":"31.197729795","category":"162","category_name":"医院","address":"上海市长宁区金浜路15号"},{"poiid":"B2094654D569AAFC439C","title":"长江商学院","lon":"121.36066","lat":"31.18813","category":"671","category_name":"高校中心点","address":""},{"poiid":"B2094757D065A1FD4298","title":"老虎山","lon":"121.360507586","lat":"31.1949827418","category":"500","category_name":"未知分类","address":"上海西郊公园"},{"poiid":"B2094757D068A7FA419A","title":"绿谷别墅","lon":"121.365924","lat":"31.198598","category":"47","category_name":"住宅区","address":"上海哈密路1500号"},{"poiid":"B2094750D66FA6FB4092","title":"医院","lon":"121.364761","lat":"31.195802","category":"162","category_name":"医院","address":"哈密路青溪路"},{"poiid":"B2094757D66DABF4499C","title":"浦东机场T1航站楼VVIP A区","lon":"121.361251336","lat":"31.198727265","category":"21","category_name":"飞机场","address":"上海浦东机场T1航站楼VVIP A区"},{"poiid":"B2094757D069A3F94898","title":"特警总队","lon":"121.366982","lat":"31.202182","category":"500","category_name":"未知分类","address":"上海哈密路1330号"},{"poiid":"B2094757D465ABFE429A","title":"满月","lon":"121.360967","lat":"31.198553","category":"269","category_name":"烧烤","address":"长宁区金浜路112号(近福泉路)"},{"poiid":"B2094655D26EA3FA4593","title":"格林豪泰(上海虹桥机场酒店公寓)","lon":"121.36744","lat":"31.19583","category":"216","category_name":"经济型连锁酒店","address":"长宁区哈密路1721号(近虹桥路)"},{"poiid":"B2094752D36DABFF4599","title":"Geneva","lon":"121.364115","lat":"31.196543","category":"247","category_name":"餐饮美食","address":"哈密路1876弄6号"},{"poiid":"B2094757D069ABFA4498","title":"中国人民解放军第四五五医院(哈密路分院)","lon":"121.36747","lat":"31.19587","category":"162","category_name":"医院","address":"长宁区哈密路1713号(近虹桥路)"},{"poiid":"B2094655D269A4F54293","title":"金庭庄园会所","lon":"121.35679","lat":"31.20289","category":"247","category_name":"餐饮美食","address":"长宁区虹桥路2489弄66号"},{"poiid":"B2094654D569AAFE479F","title":"新泾苑","lon":"121.36304","lat":"31.200182","category":"47","category_name":"住宅区","address":"中泾路18弄1-85号"},{"poiid":"B2094654DB6BA1F4419C","title":"虹桥龙柏公寓","lon":"121.36544851952","lat":"31.193572126218","category":"47","category_name":"住宅区","address":"绿苑路21弄识别"},{"poiid":"B2094757D66BA4F5419C","title":"pizzasun","lon":"121.36725256124","lat":"31.189778276359","category":"94","category_name":"西餐厅","address":"长宁区虹井路989号(近虹桥路)"},{"poiid":"B2094757D16FA1F9409A","title":"锦江之星(哈密路店)","lon":"121.36583","lat":"31.19993","category":"500","category_name":"未知分类","address":"上海长宁区哈密路1358号(近金滨路)  "},{"poiid":"B2094757D069A7FB4192","title":"舒友海鲜大酒楼(西郊店)","lon":"121.36363","lat":"31.18867","category":"260","category_name":"其他","address":"长宁区虹桥路2399号(近虹井路)"},{"poiid":"B2094757D06FA1FE469D","title":"绿园十一居","lon":"121.35897258","lat":"31.204185921","category":"47","category_name":"住宅区","address":"上海福泉路435弄(近新泾路)"},{"poiid":"B2094655D26AA4FD459A","title":"海立阁哈密路店","lon":"121.36662","lat":"31.19685","category":"247","category_name":"餐饮美食","address":"长宁区哈密路2010号(近虹桥路)"},{"poiid":"B2094757D069A1F84898","title":"车管所一分所","lon":"121.36568521","lat":"31.202140621","category":"500","category_name":"未知分类","address":"上海哈密路"},{"poiid":"B2094654DB6BA0FD4993","title":"西郊宝成花苑一期","lon":"121.36219","lat":"31.19782","category":"47","category_name":"住宅区","address":"金浜路101"},{"poiid":"B2094751DA6BA7FB419B","title":"日内瓦酒吧","lon":"121.363965","lat":"31.19656","category":"247","category_name":"餐饮美食","address":"哈密路1876号"},{"poiid":"B2094757D66DAAFC489C","title":"复旦大学(邯郸校区)正门","lon":"121.35829468","lat":"31.197275886","category":"52","category_name":"高等院校","address":"上海邯郸路220号"},{"poiid":"B2094655D36CA6FF4699","title":"福泉路新泾路","lon":"121.35998","lat":"31.20366","category":"38","category_name":"公交车站","address":""},{"poiid":"B2094757D06BA1F9459F","title":"西郊宝成花苑","lon":"121.36429595","lat":"31.199365615","category":"252","category_name":"楼宇机构","address":"上海市长宁区金浜路100号"},{"poiid":"B2094655D36CA0FD489B","title":"金浜路福泉路","lon":"121.36125","lat":"31.19846","category":"38","category_name":"公交车站","address":""},{"poiid":"B2094757D065A4FF4493","title":"721路公交","lon":"121.362161","lat":"31.198281","category":"38","category_name":"公交车站","address":"上海动物园-上海体育馆"},{"poiid":"B2094654D569AAFE459A","title":"松园别墅","lon":"121.36489","lat":"31.19793","category":"47","category_name":"住宅区","address":"长宁区哈密路1705号(哈密路金浜路)"},{"poiid":"B2094757D16EA3F5469B","title":"名颂人家","lon":"121.36799","lat":"31.19575","category":"76","category_name":"上海菜","address":"长宁区哈密路1799号(近青溪路)"},{"poiid":"B2094655D26FA0F54092","title":"绿五小区","lon":"121.36326","lat":"31.20291","category":"47","category_name":"住宅区","address":"淞虹路1005弄1-80号"},{"poiid":"B2094757D16BA1FA489E","title":"虹桥机场航友宾馆会议中心","lon":"121.35617998","lat":"31.191082165","category":"21","category_name":"飞机场","address":"上海迎宾一路425号"},{"poiid":"B2094654D569AAFE459E","title":"西郊佳景苑","lon":"121.36359","lat":"31.199295","category":"47","category_name":"住宅区","address":"金浜路50号"},{"poiid":"B2094654D569AAFE4592","title":"上海市长宁区一郎食品店","lon":"121.36125","lat":"31.19828","category":"117","category_name":"便民商店/便利店","address":"金浜路107-117号"},{"poiid":"B2094750DA65ABFE489E","title":"上海一零八医院","lon":"121.358589","lat":"31.195766","category":"162","category_name":"医院","address":"长宁区哈密路1713号"},{"poiid":"B2094654D569AAFE4699","title":"满庭芳花园","lon":"121.358","lat":"31.200369","category":"47","category_name":"住宅区","address":"上海市虹桥路2489弄222号"},{"poiid":"B2094655D26CA4FF449B","title":"西郊佳景苑(南门)","lon":"121.3637","lat":"31.19863","category":"47","category_name":"住宅区","address":"金浜路50"},{"poiid":"B2094655D26EA2FD449D","title":"龙柏饭店宴会厅","lon":"121.36071","lat":"31.18758","category":"247","category_name":"餐饮美食","address":"长宁区虹桥路2409号龙柏饭店2楼(近虹井路)查看地图"},{"poiid":"B2094752D46DA3FA419C","title":"108医院","lon":"121.366393","lat":"31.195627","category":"162","category_name":"医院","address":"上海市哈密路1713号"},{"poiid":"B2094654D569AAFC449B","title":"上海动物园","lon":"121.36272202550413","lat":"31.194404631992096","category":"197","category_name":"动物园","address":"虹桥路2381号。"},{"poiid":"B2094757D168A5FB479C","title":"西郊动物园","lon":"121.357255586","lat":"31.1915996757","category":"500","category_name":"未知分类","address":"上海"},{"poiid":"B2094757D06BABFE4698","title":"虹桥机场2号航站楼21号登机口","lon":"121.35440496","lat":"31.1979483666","category":"21","category_name":"飞机场","address":"上海虹桥机场T2"},{"poiid":"B2094757D06AA3FA439E","title":"虹桥1号楼","lon":"121.3544507","lat":"31.1985262788","category":"252","category_name":"楼宇机构","address":"上海虹桥机场"},{"poiid":"B2094757D06FA7FA4699","title":"上海市交通警察总队车辆管理所(一分所)","lon":"121.366082","lat":"31.2012371","category":"252","category_name":"楼宇机构","address":"上海长宁区哈密路1330号"},{"poiid":"B2094757D06FA5F9469C","title":"西郊公园","lon":"121.366499424","lat":"31.1906089622","category":"196","category_name":"公园","address":"上海虹桥路"},{"poiid":"B2094757D06FA1F5499E","title":"龙柏饭店","lon":"121.35993957","lat":"31.190093994","category":"217","category_name":"旅馆招待所","address":"上海市长宁区虹桥路2419号(近沪青平公路)"},{"poiid":"B2094757D068A5F9469D","title":"上海国际旅行卫生保健中心","lon":"121.36435699","lat":"31.198169708","category":"162","category_name":"医院","address":"长宁区金浜路15号(近哈密路)"},{"poiid":"B2094757D165A1F44792","title":"上海动物园大猩猩馆","lon":"121.362465586","lat":"31.1930057032","category":"500","category_name":"未知分类","address":"上海动物园"},{"poiid":"B2094757D06FA3FC4599","title":"上海动物园地铁站","lon":"121.36693938","lat":"31.19022555","category":"36","category_name":"地铁站","address":"上海轨道交通 十号线 轨交上海动物园站 10"},{"poiid":"B2094757D06FA5F5469B","title":"顽皮家族宠物医院(虹桥路总店)","lon":"121.36548934","lat":"31.190155323","category":"162","category_name":"医院","address":"长宁区虹桥路2393号(近动物园)"},{"poiid":"B2094654D569AAFC429C","title":"阿山饭店","lon":"121.36647159056","lat":"31.189958417134","category":"76","category_name":"上海菜","address":"长宁区虹桥路2378号(近动物园)"},{"poiid":"B2094757D069A3FE419A","title":"上海出入境检验检疫局/上海国际旅行卫生保健中心","lon":"121.36445758","lat":"31.197729795","category":"162","category_name":"医院","address":"上海市长宁区金浜路15号"},{"poiid":"B2094654D569AAFC439C","title":"长江商学院","lon":"121.36066","lat":"31.18813","category":"671","category_name":"高校中心点","address":""},{"poiid":"B2094757D065A1FD4298","title":"老虎山","lon":"121.360507586","lat":"31.1949827418","category":"500","category_name":"未知分类","address":"上海西郊公园"},{"poiid":"B2094757D068A7FA419A","title":"绿谷别墅","lon":"121.365924","lat":"31.198598","category":"47","category_name":"住宅区","address":"上海哈密路1500号"},{"poiid":"B2094750D66FA6FB4092","title":"医院","lon":"121.364761","lat":"31.195802","category":"162","category_name":"医院","address":"哈密路青溪路"},{"poiid":"B2094757D66DABF4499C","title":"浦东机场T1航站楼VVIP A区","lon":"121.361251336","lat":"31.198727265","category":"21","category_name":"飞机场","address":"上海浦东机场T1航站楼VVIP A区"},{"poiid":"B2094757D069A3F94898","title":"特警总队","lon":"121.366982","lat":"31.202182","category":"500","category_name":"未知分类","address":"上海哈密路1330号"},{"poiid":"B2094757D465ABFE429A","title":"满月","lon":"121.360967","lat":"31.198553","category":"269","category_name":"烧烤","address":"长宁区金浜路112号(近福泉路)"},{"poiid":"B2094655D26EA3FA4593","title":"格林豪泰(上海虹桥机场酒店公寓)","lon":"121.36744","lat":"31.19583","category":"216","category_name":"经济型连锁酒店","address":"长宁区哈密路1721号(近虹桥路)"},{"poiid":"B2094752D36DABFF4599","title":"Geneva","lon":"121.364115","lat":"31.196543","category":"247","category_name":"餐饮美食","address":"哈密路1876弄6号"},{"poiid":"B2094757D069ABFA4498","title":"中国人民解放军第四五五医院(哈密路分院)","lon":"121.36747","lat":"31.19587","category":"162","category_name":"医院","address":"长宁区哈密路1713号(近虹桥路)"},{"poiid":"B2094655D269A4F54293","title":"金庭庄园会所","lon":"121.35679","lat":"31.20289","category":"247","category_name":"餐饮美食","address":"长宁区虹桥路2489弄66号"},{"poiid":"B2094654D569AAFE479F","title":"新泾苑","lon":"121.36304","lat":"31.200182","category":"47","category_name":"住宅区","address":"中泾路18弄1-85号"},{"poiid":"B2094654DB6BA1F4419C","title":"虹桥龙柏公寓","lon":"121.36544851952","lat":"31.193572126218","category":"47","category_name":"住宅区","address":"绿苑路21弄识别"},{"poiid":"B2094757D66BA4F5419C","title":"pizzasun","lon":"121.36725256124","lat":"31.189778276359","category":"94","category_name":"西餐厅","address":"长宁区虹井路989号(近虹桥路)"},{"poiid":"B2094757D16FA1F9409A","title":"锦江之星(哈密路店)","lon":"121.36583","lat":"31.19993","category":"500","category_name":"未知分类","address":"上海长宁区哈密路1358号(近金滨路)  "},{"poiid":"B2094757D069A7FB4192","title":"舒友海鲜大酒楼(西郊店)","lon":"121.36363","lat":"31.18867","category":"260","category_name":"其他","address":"长宁区虹桥路2399号(近虹井路)"},{"poiid":"B2094757D06FA1FE469D","title":"绿园十一居","lon":"121.35897258","lat":"31.204185921","category":"47","category_name":"住宅区","address":"上海福泉路435弄(近新泾路)"},{"poiid":"B2094655D26AA4FD459A","title":"海立阁哈密路店","lon":"121.36662","lat":"31.19685","category":"247","category_name":"餐饮美食","address":"长宁区哈密路2010号(近虹桥路)"},{"poiid":"B2094757D069A1F84898","title":"车管所一分所","lon":"121.36568521","lat":"31.202140621","category":"500","category_name":"未知分类","address":"上海哈密路"},{"poiid":"B2094654DB6BA0FD4993","title":"西郊宝成花苑一期","lon":"121.36219","lat":"31.19782","category":"47","category_name":"住宅区","address":"金浜路101"},{"poiid":"B2094751DA6BA7FB419B","title":"日内瓦酒吧","lon":"121.363965","lat":"31.19656","category":"247","category_name":"餐饮美食","address":"哈密路1876号"},{"poiid":"B2094757D66DAAFC489C","title":"复旦大学(邯郸校区)正门","lon":"121.35829468","lat":"31.197275886","category":"52","category_name":"高等院校","address":"上海邯郸路220号"},{"poiid":"B2094655D36CA6FF4699","title":"福泉路新泾路","lon":"121.35998","lat":"31.20366","category":"38","category_name":"公交车站","address":""},{"poiid":"B2094757D06BA1F9459F","title":"西郊宝成花苑","lon":"121.36429595","lat":"31.199365615","category":"252","category_name":"楼宇机构","address":"上海市长宁区金浜路100号"},{"poiid":"B2094655D36CA0FD489B","title":"金浜路福泉路","lon":"121.36125","lat":"31.19846","category":"38","category_name":"公交车站","address":""},{"poiid":"B2094757D065A4FF4493","title":"721路公交","lon":"121.362161","lat":"31.198281","category":"38","category_name":"公交车站","address":"上海动物园-上海体育馆"},{"poiid":"B2094654D569AAFE459A","title":"松园别墅","lon":"121.36489","lat":"31.19793","category":"47","category_name":"住宅区","address":"长宁区哈密路1705号(哈密路金浜路)"},{"poiid":"B2094757D16EA3F5469B","title":"名颂人家","lon":"121.36799","lat":"31.19575","category":"76","category_name":"上海菜","address":"长宁区哈密路1799号(近青溪路)"},{"poiid":"B2094655D26FA0F54092","title":"绿五小区","lon":"121.36326","lat":"31.20291","category":"47","category_name":"住宅区","address":"淞虹路1005弄1-80号"},{"poiid":"B2094757D16BA1FA489E","title":"虹桥机场航友宾馆会议中心","lon":"121.35617998","lat":"31.191082165","category":"21","category_name":"飞机场","address":"上海迎宾一路425号"},{"poiid":"B2094654D569AAFE459E","title":"西郊佳景苑","lon":"121.36359","lat":"31.199295","category":"47","category_name":"住宅区","address":"金浜路50号"},{"poiid":"B2094654D569AAFE4592","title":"上海市长宁区一郎食品店","lon":"121.36125","lat":"31.19828","category":"117","category_name":"便民商店/便利店","address":"金浜路107-117号"},{"poiid":"B2094750DA65ABFE489E","title":"上海一零八医院","lon":"121.358589","lat":"31.195766","category":"162","category_name":"医院","address":"长宁区哈密路1713号"},{"poiid":"B2094654D569AAFE4699","title":"满庭芳花园","lon":"121.358","lat":"31.200369","category":"47","category_name":"住宅区","address":"上海市虹桥路2489弄222号"},{"poiid":"B2094655D26CA4FF449B","title":"西郊佳景苑(南门)","lon":"121.3637","lat":"31.19863","category":"47","category_name":"住宅区","address":"金浜路50"},{"poiid":"B2094655D26EA2FD449D","title":"龙柏饭店宴会厅","lon":"121.36071","lat":"31.18758","category":"247","category_name":"餐饮美食","address":"长宁区虹桥路2409号龙柏饭店2楼(近虹井路)查看地图"},{"poiid":"B2094752D46DA3FA419C","title":"108医院","lon":"121.366393","lat":"31.195627","category":"162","category_name":"医院","address":"上海市哈密路1713号"}]