[{"poiid":"B2094655D265A1FA489E","title":"上海交通大学闵行校区新图书馆","lon":"121.43763","lat":"31.02597","category":"181","category_name":"图书馆","address":"闵行区东川路800号上海交通大学内"},{"poiid":"B2094757D06FA2FF479F","title":"上海交通大学东中院","lon":"121.43776435","lat":"31.023405148","category":"253","category_name":"校园生活","address":"上海闵行区东川路800号上海交通大学闵行校区"},{"poiid":"B2094757D06FAAFE4292","title":"上海交通大学电信群楼","lon":"121.441542","lat":"31.025742","category":"253","category_name":"校园生活","address":"上海市闵行区东川路800号"},{"poiid":"B2094757D068ABFF449D","title":"上海交通大学陈瑞球楼","lon":"121.43767007","lat":"31.024972687","category":"253","category_name":"校园生活","address":"上海闵行区东川路800号上海交通大学闵行校区"},{"poiid":"B2094757D06FA4F9429D","title":"上海交通大学东下院","lon":"121.43689785","lat":"31.0239478291","category":"253","category_name":"校园生活","address":"上海闵行区东川路800号上海交通大学闵行校区"},{"poiid":"B2094757D06FA6FF4293","title":"微软 上海","lon":"121.45035963","lat":"31.019618749","category":"46","category_name":"楼宇","address":"上海紫星路999号"},{"poiid":"B2094654DB6EAAFF4092","title":"第二餐饮大楼","lon":"121.43634","lat":"31.02269","category":"257","category_name":"中餐厅","address":""},{"poiid":"B2094757D064A6FC4098","title":"英特尔亚太研发有限公司","lon":"121.448820678","lat":"31.0199671956","category":"46","category_name":"楼宇","address":"上海闵行区紫竹科学园区紫星路880号"},{"poiid":"B2094757D06FA1F54293","title":"上海交通大学第一餐饮大楼(闵行校区)","lon":"121.43191","lat":"31.0217","category":"253","category_name":"校园生活","address":"上海闵行区东川路800号上海交通大学闵行校区"},{"poiid":"B2094757D06FA4FB4599","title":"上海交通大学下院","lon":"121.4311441","lat":"31.021094838","category":"253","category_name":"校园生活","address":"上海闵行区东川路800号"},{"poiid":"B2094757D169AAF8419F","title":"上海交通大学光彪楼博雅厅","lon":"121.437901128","lat":"31.0234186666","category":"500","category_name":"未知分类","address":"上海东川路800号"},{"poiid":"B2094757D06BA7FC449B","title":"甜魔咖啡 交大店 Timo Coffee","lon":"121.4325478","lat":"31.0178311","category":"65","category_name":"咖啡厅","address":"闵行区东川路800号上海交通大学内"},{"poiid":"B2094757D06AA0F8459A","title":"闵行交大","lon":"121.445414","lat":"31.030615","category":"253","category_name":"校园生活","address":"上海市闵行区东川路800号"},{"poiid":"B2094757D16FA7FA419B","title":"上海交通大学机械与动力学院","lon":"121.444980328","lat":"31.0271016423","category":"500","category_name":"未知分类","address":"上海市闵行区东川路800号"},{"poiid":"B2094757D165A5FE409C","title":"可口可乐中国总部","lon":"121.436242228","lat":"31.0205795082","category":"500","category_name":"未知分类","address":"上海闵行区东川路800号"},{"poiid":"B2094757D065A3F4439B","title":"上海交通大学软件学院","lon":"121.4423294","lat":"31.02226448","category":"253","category_name":"校园生活","address":"中国上海东川路800号上海交通大学软件学院（闵行校区）"},{"poiid":"B2094757D068A2F5429E","title":"华东师范大学秋实阁","lon":"121.44468689","lat":"31.0217113495","category":"68","category_name":"快餐厅","address":"闵行区东川路500号闵行华师大本科生公寓内(近莲花南路)"},{"poiid":"B2094750D664A5FB409E","title":"大学路韩国料理","lon":"121.432","lat":"31.0172","category":"96","category_name":"韩国料理","address":"闵行区东川路(安宁路东川路)"},{"poiid":"B2094757D06BA4F8409E","title":"吉姆丽德乡村西餐厅(闵行交大二店)","lon":"121.44121708","lat":"31.023639945","category":"94","category_name":"西餐厅","address":"闵行区东川路800号上海交通大学第五餐饮大楼3楼(近永平路)"},{"poiid":"B2094655D264A0FF429A","title":"微软中国上海科技园区","lon":"121.45018","lat":"31.02005","category":"45","category_name":"产业园区","address":"紫星路999"},{"poiid":"B2094757D16CABFE459B","title":"上海交通大学新行政楼B楼","lon":"121.439769128","lat":"31.0266667334","category":"500","category_name":"未知分类","address":"上海闵行区东川路800号上海交通大学闵行校区"},{"poiid":"B2094757D06AABF5479F","title":"上海交通大学东下院200","lon":"121.441798","lat":"31.021804","category":"500","category_name":"未知分类","address":null},{"poiid":"B2094750DB6EA5FC4592","title":"上海交通大学媒体与设计学院","lon":"121.439659","lat":"31.023038","category":"253","category_name":"校园生活","address":null},{"poiid":"B2094757D568AAFF499A","title":"嘉映驿站","lon":"121.444335","lat":"31.021315","category":"257","category_name":"中餐厅","address":"闵行区东川路811弄45号(近交通大学)"},{"poiid":"B2094757D06BA1FC4499","title":"上海交通大学东下院300","lon":"121.44248359","lat":"31.020455761","category":"253","category_name":"校园生活","address":"上海市闵行区东川路800号"},{"poiid":"B2094757D168ABF44298","title":"上海交通大学D楼","lon":"121.44246273","lat":"31.020488432","category":"253","category_name":"校园生活","address":"上海市闵行区东川路800号"},{"poiid":"B2094655D26BA6FF4399","title":"好第坊三期","lon":"121.439","lat":"31.0209","category":"47","category_name":"住宅区","address":"闵行区东川路856弄"},{"poiid":"B2094757D568A4F8499B","title":"交大闵行校区第二餐饮大楼","lon":"121.4349739","lat":"31.02481806","category":"257","category_name":"中餐厅","address":"闵行区东川路800号上海交通大学内(近永平路)"},{"poiid":"B2094757D66CA2FA4193","title":"上海交通大学学术活动中心宾馆","lon":"121.43309783","lat":"31.01861763","category":"76","category_name":"上海菜","address":"闵行区东川路800号上海交通大学校区内(近永平路)"},{"poiid":"B2094655D36CA6F44299","title":"东川路淡水河桥","lon":"121.44553","lat":"31.02193","category":"38","category_name":"公交车站","address":""},{"poiid":"B2094757D06BA5F54392","title":"可口可乐闵行工厂","lon":"121.44213632","lat":"31.01633112","category":"500","category_name":"未知分类","address":"上海紫月路"},{"poiid":"B2094757D169A3F84399","title":"上海交通大学外国语学院","lon":"121.438821803","lat":"31.023488418","category":"500","category_name":"未知分类","address":"上海市闵行区东川路800号"},{"poiid":"B2094757D165AAF8449E","title":"川香缘","lon":"121.444686","lat":"31.021712","category":"500","category_name":"未知分类","address":"上海东川路500号华师大河西综合商场二楼"},{"poiid":"B2094757D16FA7FF4893","title":"金榜世家四期","lon":"121.44","lat":"31.0236","category":"252","category_name":"楼宇机构","address":"上海市闵行区沧源路770弄"},{"poiid":"B2094757D16AA7F9499F","title":"上海交通大学微电子学院","lon":"121.43782408","lat":"31.02345464","category":"500","category_name":"未知分类","address":"上海市东川路600号"},{"poiid":"B2094750DB69A0F94199","title":"BCD半导体制造有限公司","lon":"121.441735157425","lat":"31.018333158313943","category":"263","category_name":"公司","address":"闵行区紫星路1600号"},{"poiid":"B2094654DB6AA7FF419F","title":"留园","lon":"121.43172","lat":"31.01908","category":"76","category_name":"上海菜","address":"闵行区东川路880号上海交大校内(近交通大学)"},{"poiid":"B2094757D065A2FE4199","title":"上海交通大学逸夫楼","lon":"121.43533739","lat":"31.025255937","category":"500","category_name":"未知分类","address":"上海学森路"},{"poiid":"B2094757D169A2F8449E","title":"上海交通大学光彪楼演唱厅","lon":"121.43719972","lat":"31.02410698","category":"170","category_name":"KTV","address":"上海交通大学闵行校区光彪楼3楼"},{"poiid":"B2094757D068A0F44892","title":"蜀香村川菜(东川路店)","lon":"121.43301","lat":"31.0167","category":"71","category_name":"四川菜","address":"闵行区东川路811弄1号(近交通大学)"},{"poiid":"B2094757D16DA4F54699","title":"交大闵行校区校车候车点","lon":"121.44556912","lat":"31.020377604","category":"500","category_name":"未知分类","address":"上海市闵行区"},{"poiid":"B2094757D568A7FF4598","title":"第五餐饮大楼","lon":"121.4349739","lat":"31.02481806","category":"247","category_name":"餐饮美食","address":"闵行区东川路800号上海交通大学电院楼群(近永平路)"},{"poiid":"B2094757D16EA1FF429F","title":"上海交通大学电信群楼2号楼","lon":"121.44180797","lat":"31.025373923","category":"500","category_name":"未知分类","address":"上海闵行区东川路800号上海交通大学闵行校区"},{"poiid":"B2094757D069ABF84498","title":"上海交通大学东中院4","lon":"121.44583892","lat":"31.020683288","category":"253","category_name":"校园生活","address":"上海东川路800号"},{"poiid":"B2094757D66CA6FB409A","title":"180路华东师大站","lon":"121.43798812","lat":"31.021586628","category":"500","category_name":"未知分类","address":"上海市闵行区莲花南路"},{"poiid":"B2094757D16AAAFF4893","title":"上海交大机动群楼","lon":"121.44770412","lat":"31.025469708","category":"500","category_name":"未知分类","address":"上海市闵行区宣怀大道"},{"poiid":"B2094750D66EA5FC4699","title":"华东师范大学行政楼","lon":"121.446281","lat":"31.021865","category":"252","category_name":"楼宇机构","address":null},{"poiid":"B2094757D06AA6FD4999","title":"上海交通大学智源餐厅","lon":"121.43988042","lat":"31.018498801","category":"253","category_name":"校园生活","address":"上海市闵行区东川路800号上海交通大学内"},{"poiid":"B2094757D16FA6FD4999","title":"东北饺子王","lon":"121.43563","lat":"31.02045","category":"247","category_name":"餐饮美食","address":"闵行区东川路889号(近交通大学)"},{"poiid":"B2094751D46AA7FE429E","title":"上海交通大学船舶海洋与建筑工程学院","lon":"121.44445355029302","lat":"31.024381028812517","category":"253","category_name":"校园生活","address":"上海闵行区东川路800号上海交通大学闵行校区"},{"poiid":"B2094655D265A1FA489E","title":"上海交通大学闵行校区新图书馆","lon":"121.43763","lat":"31.02597","category":"181","category_name":"图书馆","address":"闵行区东川路800号上海交通大学内"},{"poiid":"B2094757D06FA2FF479F","title":"上海交通大学东中院","lon":"121.43776435","lat":"31.023405148","category":"253","category_name":"校园生活","address":"上海闵行区东川路800号上海交通大学闵行校区"},{"poiid":"B2094757D06FAAFE4292","title":"上海交通大学电信群楼","lon":"121.441542","lat":"31.025742","category":"253","category_name":"校园生活","address":"上海市闵行区东川路800号"},{"poiid":"B2094757D068ABFF449D","title":"上海交通大学陈瑞球楼","lon":"121.43767007","lat":"31.024972687","category":"253","category_name":"校园生活","address":"上海闵行区东川路800号上海交通大学闵行校区"},{"poiid":"B2094757D06FA4F9429D","title":"上海交通大学东下院","lon":"121.43689785","lat":"31.0239478291","category":"253","category_name":"校园生活","address":"上海闵行区东川路800号上海交通大学闵行校区"},{"poiid":"B2094757D06FA6FF4293","title":"微软 上海","lon":"121.45035963","lat":"31.019618749","category":"46","category_name":"楼宇","address":"上海紫星路999号"},{"poiid":"B2094654DB6EAAFF4092","title":"第二餐饮大楼","lon":"121.43634","lat":"31.02269","category":"257","category_name":"中餐厅","address":""},{"poiid":"B2094757D064A6FC4098","title":"英特尔亚太研发有限公司","lon":"121.448820678","lat":"31.0199671956","category":"46","category_name":"楼宇","address":"上海闵行区紫竹科学园区紫星路880号"},{"poiid":"B2094757D06FA1F54293","title":"上海交通大学第一餐饮大楼(闵行校区)","lon":"121.43191","lat":"31.0217","category":"253","category_name":"校园生活","address":"上海闵行区东川路800号上海交通大学闵行校区"},{"poiid":"B2094757D06FA4FB4599","title":"上海交通大学下院","lon":"121.4311441","lat":"31.021094838","category":"253","category_name":"校园生活","address":"上海闵行区东川路800号"},{"poiid":"B2094757D169AAF8419F","title":"上海交通大学光彪楼博雅厅","lon":"121.437901128","lat":"31.0234186666","category":"500","category_name":"未知分类","address":"上海东川路800号"},{"poiid":"B2094757D06BA7FC449B","title":"甜魔咖啡 交大店 Timo Coffee","lon":"121.4325478","lat":"31.0178311","category":"65","category_name":"咖啡厅","address":"闵行区东川路800号上海交通大学内"},{"poiid":"B2094757D06AA0F8459A","title":"闵行交大","lon":"121.445414","lat":"31.030615","category":"253","category_name":"校园生活","address":"上海市闵行区东川路800号"},{"poiid":"B2094757D16FA7FA419B","title":"上海交通大学机械与动力学院","lon":"121.444980328","lat":"31.0271016423","category":"500","category_name":"未知分类","address":"上海市闵行区东川路800号"},{"poiid":"B2094757D165A5FE409C","title":"可口可乐中国总部","lon":"121.436242228","lat":"31.0205795082","category":"500","category_name":"未知分类","address":"上海闵行区东川路800号"},{"poiid":"B2094757D065A3F4439B","title":"上海交通大学软件学院","lon":"121.4423294","lat":"31.02226448","category":"253","category_name":"校园生活","address":"中国上海东川路800号上海交通大学软件学院（闵行校区）"},{"poiid":"B2094757D068A2F5429E","title":"华东师范大学秋实阁","lon":"121.44468689","lat":"31.0217113495","category":"68","category_name":"快餐厅","address":"闵行区东川路500号闵行华师大本科生公寓内(近莲花南路)"},{"poiid":"B2094750D664A5FB409E","title":"大学路韩国料理","lon":"121.432","lat":"31.0172","category":"96","category_name":"韩国料理","address":"闵行区东川路(安宁路东川路)"},{"poiid":"B2094757D06BA4F8409E","title":"吉姆丽德乡村西餐厅(闵行交大二店)","lon":"121.44121708","lat":"31.023639945","category":"94","category_name":"西餐厅","address":"闵行区东川路800号上海交通大学第五餐饮大楼3楼(近永平路)"},{"poiid":"B2094655D264A0FF429A","title":"微软中国上海科技园区","lon":"121.45018","lat":"31.02005","category":"45","category_name":"产业园区","address":"紫星路999"},{"poiid":"B2094757D16CABFE459B","title":"上海交通大学新行政楼B楼","lon":"121.439769128","lat":"31.0266667334","category":"500","category_name":"未知分类","address":"上海闵行区东川路800号上海交通大学闵行校区"},{"poiid":"B2094757D06AABF5479F","title":"上海交通大学东下院200","lon":"121.441798","lat":"31.021804","category":"500","category_name":"未知分类","address":null},{"poiid":"B2094750DB6EA5FC4592","title":"上海交通大学媒体与设计学院","lon":"121.439659","lat":"31.023038","category":"253","category_name":"校园生活","address":null},{"poiid":"B2094757D568AAFF499A","title":"嘉映驿站","lon":"121.444335","lat":"31.021315","category":"257","category_name":"中餐厅","address":"闵行区东川路811弄45号(近交通大学)"},{"poiid":"B2094757D06BA1FC4499","title":"上海交通大学东下院300","lon":"121.44248359","lat":"31.020455761","category":"253","category_name":"校园生活","address":"上海市闵行区东川路800号"},{"poiid":"B2094757D168ABF44298","title":"上海交通大学D楼","lon":"121.44246273","lat":"31.020488432","category":"253","category_name":"校园生活","address":"上海市闵行区东川路800号"},{"poiid":"B2094655D26BA6FF4399","title":"好第坊三期","lon":"121.439","lat":"31.0209","category":"47","category_name":"住宅区","address":"闵行区东川路856弄"},{"poiid":"B2094757D568A4F8499B","title":"交大闵行校区第二餐饮大楼","lon":"121.4349739","lat":"31.02481806","category":"257","category_name":"中餐厅","address":"闵行区东川路800号上海交通大学内(近永平路)"},{"poiid":"B2094757D66CA2FA4193","title":"上海交通大学学术活动中心宾馆","lon":"121.43309783","lat":"31.01861763","category":"76","category_name":"上海菜","address":"闵行区东川路800号上海交通大学校区内(近永平路)"},{"poiid":"B2094655D36CA6F44299","title":"东川路淡水河桥","lon":"121.44553","lat":"31.02193","category":"38","category_name":"公交车站","address":""},{"poiid":"B2094757D06BA5F54392","title":"可口可乐闵行工厂","lon":"121.44213632","lat":"31.01633112","category":"500","category_name":"未知分类","address":"上海紫月路"},{"poiid":"B2094757D169A3F84399","title":"上海交通大学外国语学院","lon":"121.438821803","lat":"31.023488418","category":"500","category_name":"未知分类","address":"上海市闵行区东川路800号"},{"poiid":"B2094757D165AAF8449E","title":"川香缘","lon":"121.444686","lat":"31.021712","category":"500","category_name":"未知分类","address":"上海东川路500号华师大河西综合商场二楼"},{"poiid":"B2094757D16FA7FF4893","title":"金榜世家四期","lon":"121.44","lat":"31.0236","category":"252","category_name":"楼宇机构","address":"上海市闵行区沧源路770弄"},{"poiid":"B2094757D16AA7F9499F","title":"上海交通大学微电子学院","lon":"121.43782408","lat":"31.02345464","category":"500","category_name":"未知分类","address":"上海市东川路600号"},{"poiid":"B2094750DB69A0F94199","title":"BCD半导体制造有限公司","lon":"121.441735157425","lat":"31.018333158313943","category":"263","category_name":"公司","address":"闵行区紫星路1600号"},{"poiid":"B2094654DB6AA7FF419F","title":"留园","lon":"121.43172","lat":"31.01908","category":"76","category_name":"上海菜","address":"闵行区东川路880号上海交大校内(近交通大学)"},{"poiid":"B2094757D065A2FE4199","title":"上海交通大学逸夫楼","lon":"121.43533739","lat":"31.025255937","category":"500","category_name":"未知分类","address":"上海学森路"},{"poiid":"B2094757D169A2F8449E","title":"上海交通大学光彪楼演唱厅","lon":"121.43719972","lat":"31.02410698","category":"170","category_name":"KTV","address":"上海交通大学闵行校区光彪楼3楼"},{"poiid":"B2094757D068A0F44892","title":"蜀香村川菜(东川路店)","lon":"121.43301","lat":"31.0167","category":"71","category_name":"四川菜","address":"闵行区东川路811弄1号(近交通大学)"},{"poiid":"B2094757D16DA4F54699","title":"交大闵行校区校车候车点","lon":"121.44556912","lat":"31.020377604","category":"500","category_name":"未知分类","address":"上海市闵行区"},{"poiid":"B2094757D568A7FF4598","title":"第五餐饮大楼","lon":"121.4349739","lat":"31.02481806","category":"247","category_name":"餐饮美食","address":"闵行区东川路800号上海交通大学电院楼群(近永平路)"},{"poiid":"B2094757D16EA1FF429F","title":"上海交通大学电信群楼2号楼","lon":"121.44180797","lat":"31.025373923","category":"500","category_name":"未知分类","address":"上海闵行区东川路800号上海交通大学闵行校区"},{"poiid":"B2094757D069ABF84498","title":"上海交通大学东中院4","lon":"121.44583892","lat":"31.020683288","category":"253","category_name":"校园生活","address":"上海东川路800号"},{"poiid":"B2094757D66CA6FB409A","title":"180路华东师大站","lon":"121.43798812","lat":"31.021586628","category":"500","category_name":"未知分类","address":"上海市闵行区莲花南路"},{"poiid":"B2094757D16AAAFF4893","title":"上海交大机动群楼","lon":"121.44770412","lat":"31.025469708","category":"500","category_name":"未知分类","address":"上海市闵行区宣怀大道"},{"poiid":"B2094750D66EA5FC4699","title":"华东师范大学行政楼","lon":"121.446281","lat":"31.021865","category":"252","category_name":"楼宇机构","address":null},{"poiid":"B2094757D06AA6FD4999","title":"上海交通大学智源餐厅","lon":"121.43988042","lat":"31.018498801","category":"253","category_name":"校园生活","address":"上海市闵行区东川路800号上海交通大学内"},{"poiid":"B2094757D16FA6FD4999","title":"东北饺子王","lon":"121.43563","lat":"31.02045","category":"247","category_name":"餐饮美食","address":"闵行区东川路889号(近交通大学)"},{"poiid":"B2094751D46AA7FE429E","title":"上海交通大学船舶海洋与建筑工程学院","lon":"121.44445355029302","lat":"31.024381028812517","category":"253","category_name":"校园生活","address":"上海闵行区东川路800号上海交通大学闵行校区"},{"poiid":"B2094655D265A1FA489E","title":"上海交通大学闵行校区新图书馆","lon":"121.43763","lat":"31.02597","category":"181","category_name":"图书馆","address":"闵行区东川路800号上海交通大学内"},{"poiid":"B2094757D06FA2FF479F","title":"上海交通大学东中院","lon":"121.43776435","lat":"31.023405148","category":"253","category_name":"校园生活","address":"上海闵行区东川路800号上海交通大学闵行校区"},{"poiid":"B2094757D06FAAFE4292","title":"上海交通大学电信群楼","lon":"121.441542","lat":"31.025742","category":"253","category_name":"校园生活","address":"上海市闵行区东川路800号"},{"poiid":"B2094757D068ABFF449D","title":"上海交通大学陈瑞球楼","lon":"121.43767007","lat":"31.024972687","category":"253","category_name":"校园生活","address":"上海闵行区东川路800号上海交通大学闵行校区"},{"poiid":"B2094757D06FA4F9429D","title":"上海交通大学东下院","lon":"121.43689785","lat":"31.0239478291","category":"253","category_name":"校园生活","address":"上海闵行区东川路800号上海交通大学闵行校区"},{"poiid":"B2094757D06FA6FF4293","title":"微软 上海","lon":"121.45035963","lat":"31.019618749","category":"46","category_name":"楼宇","address":"上海紫星路999号"},{"poiid":"B2094654DB6EAAFF4092","title":"第二餐饮大楼","lon":"121.43634","lat":"31.02269","category":"257","category_name":"中餐厅","address":""},{"poiid":"B2094757D064A6FC4098","title":"英特尔亚太研发有限公司","lon":"121.448820678","lat":"31.0199671956","category":"46","category_name":"楼宇","address":"上海闵行区紫竹科学园区紫星路880号"},{"poiid":"B2094757D06FA1F54293","title":"上海交通大学第一餐饮大楼(闵行校区)","lon":"121.43191","lat":"31.0217","category":"253","category_name":"校园生活","address":"上海闵行区东川路800号上海交通大学闵行校区"},{"poiid":"B2094757D06FA4FB4599","title":"上海交通大学下院","lon":"121.4311441","lat":"31.021094838","category":"253","category_name":"校园生活","address":"上海闵行区东川路800号"},{"poiid":"B2094757D169AAF8419F","title":"上海交通大学光彪楼博雅厅","lon":"121.437901128","lat":"31.0234186666","category":"500","category_name":"未知分类","address":"上海东川路800号"},{"poiid":"B2094757D06BA7FC449B","title":"甜魔咖啡 交大店 Timo Coffee","lon":"121.4325478","lat":"31.0178311","category":"65","category_name":"咖啡厅","address":"闵行区东川路800号上海交通大学内"},{"poiid":"B2094757D06AA0F8459A","title":"闵行交大","lon":"121.445414","lat":"31.030615","category":"253","category_name":"校园生活","address":"上海市闵行区东川路800号"},{"poiid":"B2094757D16FA7FA419B","title":"上海交通大学机械与动力学院","lon":"121.444980328","lat":"31.0271016423","category":"500","category_name":"未知分类","address":"上海市闵行区东川路800号"},{"poiid":"B2094757D165A5FE409C","title":"可口可乐中国总部","lon":"121.436242228","lat":"31.0205795082","category":"500","category_name":"未知分类","address":"上海闵行区东川路800号"},{"poiid":"B2094757D065A3F4439B","title":"上海交通大学软件学院","lon":"121.4423294","lat":"31.02226448","category":"253","category_name":"校园生活","address":"中国上海东川路800号上海交通大学软件学院（闵行校区）"},{"poiid":"B2094757D068A2F5429E","title":"华东师范大学秋实阁","lon":"121.44468689","lat":"31.0217113495","category":"68","category_name":"快餐厅","address":"闵行区东川路500号闵行华师大本科生公寓内(近莲花南路)"},{"poiid":"B2094750D664A5FB409E","title":"大学路韩国料理","lon":"121.432","lat":"31.0172","category":"96","category_name":"韩国料理","address":"闵行区东川路(安宁路东川路)"},{"poiid":"B2094757D06BA4F8409E","title":"吉姆丽德乡村西餐厅(闵行交大二店)","lon":"121.44121708","lat":"31.023639945","category":"94","category_name":"西餐厅","address":"闵行区东川路800号上海交通大学第五餐饮大楼3楼(近永平路)"},{"poiid":"B2094655D264A0FF429A","title":"微软中国上海科技园区","lon":"121.45018","lat":"31.02005","category":"45","category_name":"产业园区","address":"紫星路999"},{"poiid":"B2094757D16CABFE459B","title":"上海交通大学新行政楼B楼","lon":"121.439769128","lat":"31.0266667334","category":"500","category_name":"未知分类","address":"上海闵行区东川路800号上海交通大学闵行校区"},{"poiid":"B2094757D06AABF5479F","title":"上海交通大学东下院200","lon":"121.441798","lat":"31.021804","category":"500","category_name":"未知分类","address":null},{"poiid":"B2094750DB6EA5FC4592","title":"上海交通大学媒体与设计学院","lon":"121.439659","lat":"31.023038","category":"253","category_name":"校园生活","address":null},{"poiid":"B2094757D568AAFF499A","title":"嘉映驿站","lon":"121.444335","lat":"31.021315","category":"257","category_name":"中餐厅","address":"闵行区东川路811弄45号(近交通大学)"},{"poiid":"B2094757D06BA1FC4499","title":"上海交通大学东下院300","lon":"121.44248359","lat":"31.020455761","category":"253","category_name":"校园生活","address":"上海市闵行区东川路800号"},{"poiid":"B2094757D168ABF44298","title":"上海交通大学D楼","lon":"121.44246273","lat":"31.020488432","category":"253","category_name":"校园生活","address":"上海市闵行区东川路800号"},{"poiid":"B2094655D26BA6FF4399","title":"好第坊三期","lon":"121.439","lat":"31.0209","category":"47","category_name":"住宅区","address":"闵行区东川路856弄"},{"poiid":"B2094757D568A4F8499B","title":"交大闵行校区第二餐饮大楼","lon":"121.4349739","lat":"31.02481806","category":"257","category_name":"中餐厅","address":"闵行区东川路800号上海交通大学内(近永平路)"},{"poiid":"B2094757D66CA2FA4193","title":"上海交通大学学术活动中心宾馆","lon":"121.43309783","lat":"31.01861763","category":"76","category_name":"上海菜","address":"闵行区东川路800号上海交通大学校区内(近永平路)"},{"poiid":"B2094655D36CA6F44299","title":"东川路淡水河桥","lon":"121.44553","lat":"31.02193","category":"38","category_name":"公交车站","address":""},{"poiid":"B2094757D06BA5F54392","title":"可口可乐闵行工厂","lon":"121.44213632","lat":"31.01633112","category":"500","category_name":"未知分类","address":"上海紫月路"},{"poiid":"B2094757D169A3F84399","title":"上海交通大学外国语学院","lon":"121.438821803","lat":"31.023488418","category":"500","category_name":"未知分类","address":"上海市闵行区东川路800号"},{"poiid":"B2094757D165AAF8449E","title":"川香缘","lon":"121.444686","lat":"31.021712","category":"500","category_name":"未知分类","address":"上海东川路500号华师大河西综合商场二楼"},{"poiid":"B2094757D16FA7FF4893","title":"金榜世家四期","lon":"121.44","lat":"31.0236","category":"252","category_name":"楼宇机构","address":"上海市闵行区沧源路770弄"},{"poiid":"B2094757D16AA7F9499F","title":"上海交通大学微电子学院","lon":"121.43782408","lat":"31.02345464","category":"500","category_name":"未知分类","address":"上海市东川路600号"},{"poiid":"B2094750DB69A0F94199","title":"BCD半导体制造有限公司","lon":"121.441735157425","lat":"31.018333158313943","category":"263","category_name":"公司","address":"闵行区紫星路1600号"},{"poiid":"B2094654DB6AA7FF419F","title":"留园","lon":"121.43172","lat":"31.01908","category":"76","category_name":"上海菜","address":"闵行区东川路880号上海交大校内(近交通大学)"},{"poiid":"B2094757D065A2FE4199","title":"上海交通大学逸夫楼","lon":"121.43533739","lat":"31.025255937","category":"500","category_name":"未知分类","address":"上海学森路"},{"poiid":"B2094757D169A2F8449E","title":"上海交通大学光彪楼演唱厅","lon":"121.43719972","lat":"31.02410698","category":"170","category_name":"KTV","address":"上海交通大学闵行校区光彪楼3楼"},{"poiid":"B2094757D068A0F44892","title":"蜀香村川菜(东川路店)","lon":"121.43301","lat":"31.0167","category":"71","category_name":"四川菜","address":"闵行区东川路811弄1号(近交通大学)"},{"poiid":"B2094757D16DA4F54699","title":"交大闵行校区校车候车点","lon":"121.44556912","lat":"31.020377604","category":"500","category_name":"未知分类","address":"上海市闵行区"},{"poiid":"B2094757D568A7FF4598","title":"第五餐饮大楼","lon":"121.4349739","lat":"31.02481806","category":"247","category_name":"餐饮美食","address":"闵行区东川路800号上海交通大学电院楼群(近永平路)"},{"poiid":"B2094757D16EA1FF429F","title":"上海交通大学电信群楼2号楼","lon":"121.44180797","lat":"31.025373923","category":"500","category_name":"未知分类","address":"上海闵行区东川路800号上海交通大学闵行校区"},{"poiid":"B2094757D069ABF84498","title":"上海交通大学东中院4","lon":"121.44583892","lat":"31.020683288","category":"253","category_name":"校园生活","address":"上海东川路800号"},{"poiid":"B2094757D66CA6FB409A","title":"180路华东师大站","lon":"121.43798812","lat":"31.021586628","category":"500","category_name":"未知分类","address":"上海市闵行区莲花南路"},{"poiid":"B2094757D16AAAFF4893","title":"上海交大机动群楼","lon":"121.44770412","lat":"31.025469708","category":"500","category_name":"未知分类","address":"上海市闵行区宣怀大道"},{"poiid":"B2094750D66EA5FC4699","title":"华东师范大学行政楼","lon":"121.446281","lat":"31.021865","category":"252","category_name":"楼宇机构","address":null},{"poiid":"B2094757D06AA6FD4999","title":"上海交通大学智源餐厅","lon":"121.43988042","lat":"31.018498801","category":"253","category_name":"校园生活","address":"上海市闵行区东川路800号上海交通大学内"},{"poiid":"B2094757D16FA6FD4999","title":"东北饺子王","lon":"121.43563","lat":"31.02045","category":"247","category_name":"餐饮美食","address":"闵行区东川路889号(近交通大学)"},{"poiid":"B2094751D46AA7FE429E","title":"上海交通大学船舶海洋与建筑工程学院","lon":"121.44445355029302","lat":"31.024381028812517","category":"253","category_name":"校园生活","address":"上海闵行区东川路800号上海交通大学闵行校区"},{"poiid":"B2094655D265A1FA489E","title":"上海交通大学闵行校区新图书馆","lon":"121.43763","lat":"31.02597","category":"181","category_name":"图书馆","address":"闵行区东川路800号上海交通大学内"},{"poiid":"B2094757D06FA2FF479F","title":"上海交通大学东中院","lon":"121.43776435","lat":"31.023405148","category":"253","category_name":"校园生活","address":"上海闵行区东川路800号上海交通大学闵行校区"},{"poiid":"B2094757D06FAAFE4292","title":"上海交通大学电信群楼","lon":"121.441542","lat":"31.025742","category":"253","category_name":"校园生活","address":"上海市闵行区东川路800号"},{"poiid":"B2094757D068ABFF449D","title":"上海交通大学陈瑞球楼","lon":"121.43767007","lat":"31.024972687","category":"253","category_name":"校园生活","address":"上海闵行区东川路800号上海交通大学闵行校区"},{"poiid":"B2094757D06FA4F9429D","title":"上海交通大学东下院","lon":"121.43689785","lat":"31.0239478291","category":"253","category_name":"校园生活","address":"上海闵行区东川路800号上海交通大学闵行校区"},{"poiid":"B2094757D06FA6FF4293","title":"微软 上海","lon":"121.45035963","lat":"31.019618749","category":"46","category_name":"楼宇","address":"上海紫星路999号"},{"poiid":"B2094654DB6EAAFF4092","title":"第二餐饮大楼","lon":"121.43634","lat":"31.02269","category":"257","category_name":"中餐厅","address":""},{"poiid":"B2094757D064A6FC4098","title":"英特尔亚太研发有限公司","lon":"121.448820678","lat":"31.0199671956","category":"46","category_name":"楼宇","address":"上海闵行区紫竹科学园区紫星路880号"},{"poiid":"B2094757D06FA1F54293","title":"上海交通大学第一餐饮大楼(闵行校区)","lon":"121.43191","lat":"31.0217","category":"253","category_name":"校园生活","address":"上海闵行区东川路800号上海交通大学闵行校区"},{"poiid":"B2094757D06FA4FB4599","title":"上海交通大学下院","lon":"121.4311441","lat":"31.021094838","category":"253","category_name":"校园生活","address":"上海闵行区东川路800号"},{"poiid":"B2094757D169AAF8419F","title":"上海交通大学光彪楼博雅厅","lon":"121.437901128","lat":"31.0234186666","category":"500","category_name":"未知分类","address":"上海东川路800号"},{"poiid":"B2094757D06BA7FC449B","title":"甜魔咖啡 交大店 Timo Coffee","lon":"121.4325478","lat":"31.0178311","category":"65","category_name":"咖啡厅","address":"闵行区东川路800号上海交通大学内"},{"poiid":"B2094757D06AA0F8459A","title":"闵行交大","lon":"121.445414","lat":"31.030615","category":"253","category_name":"校园生活","address":"上海市闵行区东川路800号"},{"poiid":"B2094757D16FA7FA419B","title":"上海交通大学机械与动力学院","lon":"121.444980328","lat":"31.0271016423","category":"500","category_name":"未知分类","address":"上海市闵行区东川路800号"},{"poiid":"B2094757D165A5FE409C","title":"可口可乐中国总部","lon":"121.436242228","lat":"31.0205795082","category":"500","category_name":"未知分类","address":"上海闵行区东川路800号"},{"poiid":"B2094757D065A3F4439B","title":"上海交通大学软件学院","lon":"121.4423294","lat":"31.02226448","category":"253","category_name":"校园生活","address":"中国上海东川路800号上海交通大学软件学院（闵行校区）"},{"poiid":"B2094757D068A2F5429E","title":"华东师范大学秋实阁","lon":"121.44468689","lat":"31.0217113495","category":"68","category_name":"快餐厅","address":"闵行区东川路500号闵行华师大本科生公寓内(近莲花南路)"},{"poiid":"B2094750D664A5FB409E","title":"大学路韩国料理","lon":"121.432","lat":"31.0172","category":"96","category_name":"韩国料理","address":"闵行区东川路(安宁路东川路)"},{"poiid":"B2094757D06BA4F8409E","title":"吉姆丽德乡村西餐厅(闵行交大二店)","lon":"121.44121708","lat":"31.023639945","category":"94","category_name":"西餐厅","address":"闵行区东川路800号上海交通大学第五餐饮大楼3楼(近永平路)"},{"poiid":"B2094655D264A0FF429A","title":"微软中国上海科技园区","lon":"121.45018","lat":"31.02005","category":"45","category_name":"产业园区","address":"紫星路999"},{"poiid":"B2094757D16CABFE459B","title":"上海交通大学新行政楼B楼","lon":"121.439769128","lat":"31.0266667334","category":"500","category_name":"未知分类","address":"上海闵行区东川路800号上海交通大学闵行校区"},{"poiid":"B2094757D06AABF5479F","title":"上海交通大学东下院200","lon":"121.441798","lat":"31.021804","category":"500","category_name":"未知分类","address":null},{"poiid":"B2094750DB6EA5FC4592","title":"上海交通大学媒体与设计学院","lon":"121.439659","lat":"31.023038","category":"253","category_name":"校园生活","address":null},{"poiid":"B2094757D568AAFF499A","title":"嘉映驿站","lon":"121.444335","lat":"31.021315","category":"257","category_name":"中餐厅","address":"闵行区东川路811弄45号(近交通大学)"},{"poiid":"B2094757D06BA1FC4499","title":"上海交通大学东下院300","lon":"121.44248359","lat":"31.020455761","category":"253","category_name":"校园生活","address":"上海市闵行区东川路800号"},{"poiid":"B2094757D168ABF44298","title":"上海交通大学D楼","lon":"121.44246273","lat":"31.020488432","category":"253","category_name":"校园生活","address":"上海市闵行区东川路800号"},{"poiid":"B2094655D26BA6FF4399","title":"好第坊三期","lon":"121.439","lat":"31.0209","category":"47","category_name":"住宅区","address":"闵行区东川路856弄"},{"poiid":"B2094757D568A4F8499B","title":"交大闵行校区第二餐饮大楼","lon":"121.4349739","lat":"31.02481806","category":"257","category_name":"中餐厅","address":"闵行区东川路800号上海交通大学内(近永平路)"},{"poiid":"B2094757D66CA2FA4193","title":"上海交通大学学术活动中心宾馆","lon":"121.43309783","lat":"31.01861763","category":"76","category_name":"上海菜","address":"闵行区东川路800号上海交通大学校区内(近永平路)"},{"poiid":"B2094655D36CA6F44299","title":"东川路淡水河桥","lon":"121.44553","lat":"31.02193","category":"38","category_name":"公交车站","address":""},{"poiid":"B2094757D06BA5F54392","title":"可口可乐闵行工厂","lon":"121.44213632","lat":"31.01633112","category":"500","category_name":"未知分类","address":"上海紫月路"},{"poiid":"B2094757D169A3F84399","title":"上海交通大学外国语学院","lon":"121.438821803","lat":"31.023488418","category":"500","category_name":"未知分类","address":"上海市闵行区东川路800号"},{"poiid":"B2094757D165AAF8449E","title":"川香缘","lon":"121.444686","lat":"31.021712","category":"500","category_name":"未知分类","address":"上海东川路500号华师大河西综合商场二楼"},{"poiid":"B2094757D16FA7FF4893","title":"金榜世家四期","lon":"121.44","lat":"31.0236","category":"252","category_name":"楼宇机构","address":"上海市闵行区沧源路770弄"},{"poiid":"B2094757D16AA7F9499F","title":"上海交通大学微电子学院","lon":"121.43782408","lat":"31.02345464","category":"500","category_name":"未知分类","address":"上海市东川路600号"},{"poiid":"B2094750DB69A0F94199","title":"BCD半导体制造有限公司","lon":"121.441735157425","lat":"31.018333158313943","category":"263","category_name":"公司","address":"闵行区紫星路1600号"},{"poiid":"B2094654DB6AA7FF419F","title":"留园","lon":"121.43172","lat":"31.01908","category":"76","category_name":"上海菜","address":"闵行区东川路880号上海交大校内(近交通大学)"},{"poiid":"B2094757D065A2FE4199","title":"上海交通大学逸夫楼","lon":"121.43533739","lat":"31.025255937","category":"500","category_name":"未知分类","address":"上海学森路"},{"poiid":"B2094757D169A2F8449E","title":"上海交通大学光彪楼演唱厅","lon":"121.43719972","lat":"31.02410698","category":"170","category_name":"KTV","address":"上海交通大学闵行校区光彪楼3楼"},{"poiid":"B2094757D068A0F44892","title":"蜀香村川菜(东川路店)","lon":"121.43301","lat":"31.0167","category":"71","category_name":"四川菜","address":"闵行区东川路811弄1号(近交通大学)"},{"poiid":"B2094757D16DA4F54699","title":"交大闵行校区校车候车点","lon":"121.44556912","lat":"31.020377604","category":"500","category_name":"未知分类","address":"上海市闵行区"},{"poiid":"B2094757D568A7FF4598","title":"第五餐饮大楼","lon":"121.4349739","lat":"31.02481806","category":"247","category_name":"餐饮美食","address":"闵行区东川路800号上海交通大学电院楼群(近永平路)"},{"poiid":"B2094757D16EA1FF429F","title":"上海交通大学电信群楼2号楼","lon":"121.44180797","lat":"31.025373923","category":"500","category_name":"未知分类","address":"上海闵行区东川路800号上海交通大学闵行校区"},{"poiid":"B2094757D069ABF84498","title":"上海交通大学东中院4","lon":"121.44583892","lat":"31.020683288","category":"253","category_name":"校园生活","address":"上海东川路800号"},{"poiid":"B2094757D66CA6FB409A","title":"180路华东师大站","lon":"121.43798812","lat":"31.021586628","category":"500","category_name":"未知分类","address":"上海市闵行区莲花南路"},{"poiid":"B2094757D16AAAFF4893","title":"上海交大机动群楼","lon":"121.44770412","lat":"31.025469708","category":"500","category_name":"未知分类","address":"上海市闵行区宣怀大道"},{"poiid":"B2094750D66EA5FC4699","title":"华东师范大学行政楼","lon":"121.446281","lat":"31.021865","category":"252","category_name":"楼宇机构","address":null},{"poiid":"B2094757D06AA6FD4999","title":"上海交通大学智源餐厅","lon":"121.43988042","lat":"31.018498801","category":"253","category_name":"校园生活","address":"上海市闵行区东川路800号上海交通大学内"},{"poiid":"B2094757D16FA6FD4999","title":"东北饺子王","lon":"121.43563","lat":"31.02045","category":"247","category_name":"餐饮美食","address":"闵行区东川路889号(近交通大学)"},{"poiid":"B2094751D46AA7FE429E","title":"上海交通大学船舶海洋与建筑工程学院","lon":"121.44445355029302","lat":"31.024381028812517","category":"253","category_name":"校园生活","address":"上海闵行区东川路800号上海交通大学闵行校区"}]