[{"poiid":"B2094654DA6CA0FD4993","title":"恒隆广场(南京西路)","lon":"121.45369","lat":"31.22739","category":"116","category_name":"特色商业街","address":"静安区南京西路1266号(近陕西北路)"},{"poiid":"B2094655D26FA7FA4199","title":"上海锦沧文华大酒店","lon":"121.45378","lat":"31.22667","category":"213","category_name":"五星级宾馆","address":"静安区南京西路1225号(近西康路)"},{"poiid":"B2094654DB65A6F54493","title":"金鹰国际购物中心(陕西北路店)","lon":"121.45463","lat":"31.22855","category":"119","category_name":"商场","address":"静安区陕西北路278号金鹰国际购物中心内(近南京西路)"},{"poiid":"B2094753D76FAAFA449C","title":"上海滩国泰旗舰店","lon":"121.466011","lat":"31.216125","category":"249","category_name":"购物服务","address":"淮海中路868号"},{"poiid":"B209475CD564A7F84292","title":"上海滩新天地店","lon":"121.47463","lat":"31.22164","category":"119","category_name":"商场","address":"\"太仓路181弄新天地北里15号\r\n\""},{"poiid":"B209475CD564A7F8439E","title":"上海滩中信泰富店","lon":"121.45602","lat":"31.22851","category":"119","category_name":"商场","address":"\"南京西路1168号中信泰富广场，店铺号221.\r\n\""},{"poiid":"B2094655D26DA2F8409F","title":"恒隆广场2号楼","lon":"121.45288","lat":"31.22806","category":"46","category_name":"楼宇","address":""},{"poiid":"B2094655D265A5FF499D","title":"揽香川菜馆 金鹰店","lon":"121.45493030548","lat":"31.228215580823","category":"71","category_name":"四川菜","address":"静安区陕西北路278号金鹰国际购物中心8楼(近南京西路)"},{"poiid":"B2094757D06FA7FA409B","title":"恒隆广场一期","lon":"121.454415685","lat":"31.228063637","category":"47","category_name":"住宅区","address":"上海南京西路1266号"},{"poiid":"B2094757D068ABFD479A","title":"鹭鹭酒家 恒隆店","lon":"121.453506054","lat":"31.227113793","category":"76","category_name":"上海菜","address":"静安区南京西路1266号恒隆广场5楼(近陕西北路)"},{"poiid":"B2094655D265A1F54693","title":"豆捞坊(南京西路店)","lon":"121.4547","lat":"31.22855","category":"86","category_name":"火锅店","address":"静安区陕西北路278号金鹰国际购物广场6楼(近南京西路)"},{"poiid":"B2094655D36CA3FD4993","title":"相当香港餐厅南京西路店","lon":"121.4547","lat":"31.22855","category":"72","category_name":"广东菜","address":"静安区陕西北路278号金鹰国际购物广场7楼(近南京西路)"},{"poiid":"B2094757D06EAAFB4192","title":"恒隆广场二期","lon":"121.45439147","lat":"31.227611541","category":"47","category_name":"住宅区","address":"杨浦区大学路33号"},{"poiid":"B2094757D06FA0FD489E","title":"南京西路","lon":"121.45435","lat":"31.22661","category":"260","category_name":"其他","address":"静安区南京西路(南京西路西康路)"},{"poiid":"B2094654DB6BA6F5409D","title":"星巴克(金鹰店)","lon":"121.454368","lat":"31.228431","category":"65","category_name":"咖啡厅","address":"静安区陕西北路278号金鹰国际购物中心1楼(近南京西路)"},{"poiid":"B2094757D06FA0F44693","title":"琳怡","lon":"121.45236","lat":"31.22731","category":"76","category_name":"上海菜","address":"静安区西康路99-1号静安体育馆1楼"},{"poiid":"B2094757D068A1FE479F","title":"桃花源小厨(恒隆店)","lon":"121.4545385754036","lat":"31.227524079570962","category":"72","category_name":"广东菜","address":"上海市静安区南京西路1266号恒隆广场5楼"},{"poiid":"B2094757D06FABFC4992","title":"小南国烧烤(恒隆店)","lon":"121.453696","lat":"31.227388","category":"269","category_name":"烧烤","address":"静安区南京西路1266号恒隆广场5楼(近陕西北路)"},{"poiid":"B2094655D265A0FD469F","title":"镜子咖啡馆 Caffe Specchi","lon":"121.453597","lat":"31.227215","category":"67","category_name":"甜品店","address":"静安区南京西路1266号恒隆广场103铺(近西康路)"},{"poiid":"B2094757D068A0FB4093","title":"海云台","lon":"121.453265644","lat":"31.2274601452","category":"96","category_name":"韩国料理","address":"静安区南京西路1266号恒隆广场5楼(近陕西北路)"},{"poiid":"B2094757D068A2F8409F","title":"夏面馆(恒隆)","lon":"121.45297166","lat":"31.22762966","category":"68","category_name":"快餐厅","address":"静安区南京西路1266号恒隆广场5楼(近陕西北路)"},{"poiid":"B2094757D06FA0F54793","title":"香奈儿上海恒隆广场精品店","lon":"121.45360772311528","lat":"31.227562874217075","category":"122","category_name":"个人用品/化妆品店","address":"上海市静安区南京西路1266号恒隆广场首层"},{"poiid":"B2094757D069A2F54598","title":"Benson salon(金鹰店)","lon":"121.454544","lat":"31.22855","category":"148","category_name":"美容美发店","address":"上海陕西北路278号金鹰购物广场8楼"},{"poiid":"B2094757D069A3FC409E","title":"锦沧文华大酒店宴会厅","lon":"121.45396","lat":"31.22653","category":"217","category_name":"旅馆招待所","address":"静安区南京西路1225号锦沧文华大酒店内(近西康路)查看地图"},{"poiid":"B2094757D06FA0FC4292","title":"网鱼网咖(江宁店)","lon":"121.454064053","lat":"31.2287617756","category":"173","category_name":"游戏厅","address":"静安区江宁路77号5楼"},{"poiid":"B2094757D06FA7FB4598","title":"健康煮(金鹰店)","lon":"121.45405583","lat":"31.227760917","category":"68","category_name":"快餐厅","address":"静安区陕西北路278号金鹰国际购物中心6楼(近南京西路)"},{"poiid":"B2094757D06FA3F44792","title":"ZARA(南京西路店)","lon":"121.45491766","lat":"31.227113854","category":"141","category_name":"服装鞋帽皮具店","address":"静安区南京西路1201号(近陕西北路)"},{"poiid":"B2094757D06FA7FF4898","title":"吉惠日式料理(江宁路店)","lon":"121.45468873","lat":"31.227172234","category":"95","category_name":"日本料理","address":"上海市静安区江宁路77号三楼"},{"poiid":"B2094753D065A0F8449B","title":"平成屋日式料理店(西康路店)","lon":"121.45201","lat":"31.22773","category":"95","category_name":"日本料理","address":"静安区西康路101号(近南京西路)"},{"poiid":"B2094757D064A1FC419A","title":"南阳路粢饭团","lon":"121.45226","lat":"31.22807","category":"68","category_name":"快餐厅","address":"静安区南阳路100号(西康路口)"},{"poiid":"B2094655D26EA4FD4798","title":"卡地亚(恒隆店)","lon":"121.45439","lat":"31.22758","category":"248","category_name":"生活娱乐","address":"静安区南京西路1266号恒隆广场1楼(近陕西北路)查看地图"},{"poiid":"B2094757D46FA0F4439C","title":"鹤舞 恒隆广场店","lon":"121.454537","lat":"31.227248","category":"95","category_name":"日本料理","address":"静安区南京西路1266号上海恒隆广场5楼(近陕西北路)"},{"poiid":"B2094757D06FA0F9479C","title":"McDonald Citic","lon":"121.45477327","lat":"31.227719613","category":"68","category_name":"快餐厅","address":"上海中信泰富1635"},{"poiid":"B2094655D26DAAFD459D","title":"彩蝶轩","lon":"121.45441","lat":"31.22758","category":"257","category_name":"中餐厅","address":"静安区南京西路1266号恒隆广场5楼(近陕西北路)"},{"poiid":"B2094757DB68A1FA469F","title":"梅陇镇酒家","lon":"121.452277492211","lat":"31.22734107127845","category":"247","category_name":"餐饮美食","address":"南京西路1038号梅龙镇广场10楼(近江宁路)"},{"poiid":"B2094757D06AA0FF4392","title":"Bros Wasabi 日本料理和佐美","lon":"121.45182","lat":"31.22815","category":"95","category_name":"日本料理","address":"上海市静安区西康路101号(近南阳路)"},{"poiid":"B2094654DA6CA7FC479F","title":"阿波罗大厦","lon":"121.454","lat":"31.2279","category":"46","category_name":"楼宇","address":"静安延安中路1440号,华山路"},{"poiid":"B2094655D26CABFE4198","title":"恒隆广场1号楼","lon":"121.45421","lat":"31.22814","category":"46","category_name":"楼宇","address":""},{"poiid":"B2094757D069A6FB409E","title":"毕马威华振会计师事务所上海分所","lon":"121.453734398","lat":"31.227435606","category":"46","category_name":"楼宇","address":"上海市南京西路1266号恒隆广场一期50楼"},{"poiid":"B2094757DB64A3FD449E","title":"瑞尔齿科（恒隆广场店）","lon":"121.454","lat":"31.2274","category":"162","category_name":"医院","address":"静安区南京西路1266号恒隆广场512室"},{"poiid":"B2094757D068A3FC419E","title":"PRADA(南京西路店)","lon":"121.454247321","lat":"31.2274819474","category":"141","category_name":"服装鞋帽皮具店","address":"静安区南京西路1266号恒隆广场1-2楼(近陕西北路)"},{"poiid":"B2094751DA6CABFB4793","title":"帅锅Handsome Hotpot","lon":"121.453646","lat":"31.2279","category":"247","category_name":"餐饮美食","address":"静安区威海路720号(近陕西北路)"},{"poiid":"B2094757D06BA5FF4292","title":"镜子西餐","lon":"121.45317988","lat":"31.227598019","category":"247","category_name":"餐饮美食","address":"上海南京西路1266号地下2层"},{"poiid":"B2094750D665A4FD459B","title":"汉宫精菜坊","lon":"121.455","lat":"31.2277","category":"76","category_name":"上海菜","address":"静安区南京西路1168号中信泰富广场商场5楼"},{"poiid":"B2094654DA6CA0FC4598","title":"上海展览中心(9号门)","lon":"121.4533","lat":"31.22675","category":"183","category_name":"展览馆","address":""},{"poiid":"B2094757D464A7FC4792","title":"alfie's by KEE","lon":"121.453506054","lat":"31.227113793","category":"247","category_name":"餐饮美食","address":"南京西路1266号恒隆广场111A室近陕西北路"},{"poiid":"B2094655D36CA2FB4899","title":"陕西北路","lon":"121.45385","lat":"31.22708","category":"38","category_name":"公交车站","address":""},{"poiid":"B2094751D56BA3F8429C","title":"5戈比diy烘焙乐园","lon":"121.452616","lat":"31.228782","category":"247","category_name":"餐饮美食","address":"静安区南京西路1129弄75号"},{"poiid":"B2094757D16DA2F8439E","title":"瑞尔齿科恒隆店","lon":"121.45317758","lat":"31.227369375","category":"500","category_name":"未知分类","address":"上海市静安区南京西路1266号恒隆广场5楼"},{"poiid":"B2094757DA69A2F8469C","title":"上海金鹰国际购物广场","lon":"121.45463","lat":"31.22855","category":"119","category_name":"商场","address":"上海市陕西北路278号"},{"poiid":"B2094654DA6CA0FD4993","title":"恒隆广场(南京西路)","lon":"121.45369","lat":"31.22739","category":"116","category_name":"特色商业街","address":"静安区南京西路1266号(近陕西北路)"},{"poiid":"B2094655D26FA7FA4199","title":"上海锦沧文华大酒店","lon":"121.45378","lat":"31.22667","category":"213","category_name":"五星级宾馆","address":"静安区南京西路1225号(近西康路)"},{"poiid":"B2094654DB65A6F54493","title":"金鹰国际购物中心(陕西北路店)","lon":"121.45463","lat":"31.22855","category":"119","category_name":"商场","address":"静安区陕西北路278号金鹰国际购物中心内(近南京西路)"},{"poiid":"B2094753D76FAAFA449C","title":"上海滩国泰旗舰店","lon":"121.466011","lat":"31.216125","category":"249","category_name":"购物服务","address":"淮海中路868号"},{"poiid":"B209475CD564A7F84292","title":"上海滩新天地店","lon":"121.47463","lat":"31.22164","category":"119","category_name":"商场","address":"\"太仓路181弄新天地北里15号\r\n\""},{"poiid":"B209475CD564A7F8439E","title":"上海滩中信泰富店","lon":"121.45602","lat":"31.22851","category":"119","category_name":"商场","address":"\"南京西路1168号中信泰富广场，店铺号221.\r\n\""},{"poiid":"B2094655D26DA2F8409F","title":"恒隆广场2号楼","lon":"121.45288","lat":"31.22806","category":"46","category_name":"楼宇","address":""},{"poiid":"B2094655D265A5FF499D","title":"揽香川菜馆 金鹰店","lon":"121.45493030548","lat":"31.228215580823","category":"71","category_name":"四川菜","address":"静安区陕西北路278号金鹰国际购物中心8楼(近南京西路)"},{"poiid":"B2094757D06FA7FA409B","title":"恒隆广场一期","lon":"121.454415685","lat":"31.228063637","category":"47","category_name":"住宅区","address":"上海南京西路1266号"},{"poiid":"B2094757D068ABFD479A","title":"鹭鹭酒家 恒隆店","lon":"121.453506054","lat":"31.227113793","category":"76","category_name":"上海菜","address":"静安区南京西路1266号恒隆广场5楼(近陕西北路)"},{"poiid":"B2094655D265A1F54693","title":"豆捞坊(南京西路店)","lon":"121.4547","lat":"31.22855","category":"86","category_name":"火锅店","address":"静安区陕西北路278号金鹰国际购物广场6楼(近南京西路)"},{"poiid":"B2094655D36CA3FD4993","title":"相当香港餐厅南京西路店","lon":"121.4547","lat":"31.22855","category":"72","category_name":"广东菜","address":"静安区陕西北路278号金鹰国际购物广场7楼(近南京西路)"},{"poiid":"B2094757D06EAAFB4192","title":"恒隆广场二期","lon":"121.45439147","lat":"31.227611541","category":"47","category_name":"住宅区","address":"杨浦区大学路33号"},{"poiid":"B2094757D06FA0FD489E","title":"南京西路","lon":"121.45435","lat":"31.22661","category":"260","category_name":"其他","address":"静安区南京西路(南京西路西康路)"},{"poiid":"B2094654DB6BA6F5409D","title":"星巴克(金鹰店)","lon":"121.454368","lat":"31.228431","category":"65","category_name":"咖啡厅","address":"静安区陕西北路278号金鹰国际购物中心1楼(近南京西路)"},{"poiid":"B2094757D06FA0F44693","title":"琳怡","lon":"121.45236","lat":"31.22731","category":"76","category_name":"上海菜","address":"静安区西康路99-1号静安体育馆1楼"},{"poiid":"B2094757D068A1FE479F","title":"桃花源小厨(恒隆店)","lon":"121.4545385754036","lat":"31.227524079570962","category":"72","category_name":"广东菜","address":"上海市静安区南京西路1266号恒隆广场5楼"},{"poiid":"B2094757D06FABFC4992","title":"小南国烧烤(恒隆店)","lon":"121.453696","lat":"31.227388","category":"269","category_name":"烧烤","address":"静安区南京西路1266号恒隆广场5楼(近陕西北路)"},{"poiid":"B2094655D265A0FD469F","title":"镜子咖啡馆 Caffe Specchi","lon":"121.453597","lat":"31.227215","category":"67","category_name":"甜品店","address":"静安区南京西路1266号恒隆广场103铺(近西康路)"},{"poiid":"B2094757D068A0FB4093","title":"海云台","lon":"121.453265644","lat":"31.2274601452","category":"96","category_name":"韩国料理","address":"静安区南京西路1266号恒隆广场5楼(近陕西北路)"},{"poiid":"B2094757D068A2F8409F","title":"夏面馆(恒隆)","lon":"121.45297166","lat":"31.22762966","category":"68","category_name":"快餐厅","address":"静安区南京西路1266号恒隆广场5楼(近陕西北路)"},{"poiid":"B2094757D06FA0F54793","title":"香奈儿上海恒隆广场精品店","lon":"121.45360772311528","lat":"31.227562874217075","category":"122","category_name":"个人用品/化妆品店","address":"上海市静安区南京西路1266号恒隆广场首层"},{"poiid":"B2094757D069A2F54598","title":"Benson salon(金鹰店)","lon":"121.454544","lat":"31.22855","category":"148","category_name":"美容美发店","address":"上海陕西北路278号金鹰购物广场8楼"},{"poiid":"B2094757D069A3FC409E","title":"锦沧文华大酒店宴会厅","lon":"121.45396","lat":"31.22653","category":"217","category_name":"旅馆招待所","address":"静安区南京西路1225号锦沧文华大酒店内(近西康路)查看地图"},{"poiid":"B2094757D06FA0FC4292","title":"网鱼网咖(江宁店)","lon":"121.454064053","lat":"31.2287617756","category":"173","category_name":"游戏厅","address":"静安区江宁路77号5楼"},{"poiid":"B2094757D06FA7FB4598","title":"健康煮(金鹰店)","lon":"121.45405583","lat":"31.227760917","category":"68","category_name":"快餐厅","address":"静安区陕西北路278号金鹰国际购物中心6楼(近南京西路)"},{"poiid":"B2094757D06FA3F44792","title":"ZARA(南京西路店)","lon":"121.45491766","lat":"31.227113854","category":"141","category_name":"服装鞋帽皮具店","address":"静安区南京西路1201号(近陕西北路)"},{"poiid":"B2094757D06FA7FF4898","title":"吉惠日式料理(江宁路店)","lon":"121.45468873","lat":"31.227172234","category":"95","category_name":"日本料理","address":"上海市静安区江宁路77号三楼"},{"poiid":"B2094753D065A0F8449B","title":"平成屋日式料理店(西康路店)","lon":"121.45201","lat":"31.22773","category":"95","category_name":"日本料理","address":"静安区西康路101号(近南京西路)"},{"poiid":"B2094757D064A1FC419A","title":"南阳路粢饭团","lon":"121.45226","lat":"31.22807","category":"68","category_name":"快餐厅","address":"静安区南阳路100号(西康路口)"},{"poiid":"B2094655D26EA4FD4798","title":"卡地亚(恒隆店)","lon":"121.45439","lat":"31.22758","category":"248","category_name":"生活娱乐","address":"静安区南京西路1266号恒隆广场1楼(近陕西北路)查看地图"},{"poiid":"B2094757D46FA0F4439C","title":"鹤舞 恒隆广场店","lon":"121.454537","lat":"31.227248","category":"95","category_name":"日本料理","address":"静安区南京西路1266号上海恒隆广场5楼(近陕西北路)"},{"poiid":"B2094757D06FA0F9479C","title":"McDonald Citic","lon":"121.45477327","lat":"31.227719613","category":"68","category_name":"快餐厅","address":"上海中信泰富1635"},{"poiid":"B2094655D26DAAFD459D","title":"彩蝶轩","lon":"121.45441","lat":"31.22758","category":"257","category_name":"中餐厅","address":"静安区南京西路1266号恒隆广场5楼(近陕西北路)"},{"poiid":"B2094757DB68A1FA469F","title":"梅陇镇酒家","lon":"121.452277492211","lat":"31.22734107127845","category":"247","category_name":"餐饮美食","address":"南京西路1038号梅龙镇广场10楼(近江宁路)"},{"poiid":"B2094757D06AA0FF4392","title":"Bros Wasabi 日本料理和佐美","lon":"121.45182","lat":"31.22815","category":"95","category_name":"日本料理","address":"上海市静安区西康路101号(近南阳路)"},{"poiid":"B2094654DA6CA7FC479F","title":"阿波罗大厦","lon":"121.454","lat":"31.2279","category":"46","category_name":"楼宇","address":"静安延安中路1440号,华山路"},{"poiid":"B2094655D26CABFE4198","title":"恒隆广场1号楼","lon":"121.45421","lat":"31.22814","category":"46","category_name":"楼宇","address":""},{"poiid":"B2094757D069A6FB409E","title":"毕马威华振会计师事务所上海分所","lon":"121.453734398","lat":"31.227435606","category":"46","category_name":"楼宇","address":"上海市南京西路1266号恒隆广场一期50楼"},{"poiid":"B2094757DB64A3FD449E","title":"瑞尔齿科（恒隆广场店）","lon":"121.454","lat":"31.2274","category":"162","category_name":"医院","address":"静安区南京西路1266号恒隆广场512室"},{"poiid":"B2094757D068A3FC419E","title":"PRADA(南京西路店)","lon":"121.454247321","lat":"31.2274819474","category":"141","category_name":"服装鞋帽皮具店","address":"静安区南京西路1266号恒隆广场1-2楼(近陕西北路)"},{"poiid":"B2094751DA6CABFB4793","title":"帅锅Handsome Hotpot","lon":"121.453646","lat":"31.2279","category":"247","category_name":"餐饮美食","address":"静安区威海路720号(近陕西北路)"},{"poiid":"B2094757D06BA5FF4292","title":"镜子西餐","lon":"121.45317988","lat":"31.227598019","category":"247","category_name":"餐饮美食","address":"上海南京西路1266号地下2层"},{"poiid":"B2094750D665A4FD459B","title":"汉宫精菜坊","lon":"121.455","lat":"31.2277","category":"76","category_name":"上海菜","address":"静安区南京西路1168号中信泰富广场商场5楼"},{"poiid":"B2094654DA6CA0FC4598","title":"上海展览中心(9号门)","lon":"121.4533","lat":"31.22675","category":"183","category_name":"展览馆","address":""},{"poiid":"B2094757D464A7FC4792","title":"alfie's by KEE","lon":"121.453506054","lat":"31.227113793","category":"247","category_name":"餐饮美食","address":"南京西路1266号恒隆广场111A室近陕西北路"},{"poiid":"B2094655D36CA2FB4899","title":"陕西北路","lon":"121.45385","lat":"31.22708","category":"38","category_name":"公交车站","address":""},{"poiid":"B2094751D56BA3F8429C","title":"5戈比diy烘焙乐园","lon":"121.452616","lat":"31.228782","category":"247","category_name":"餐饮美食","address":"静安区南京西路1129弄75号"},{"poiid":"B2094757D16DA2F8439E","title":"瑞尔齿科恒隆店","lon":"121.45317758","lat":"31.227369375","category":"500","category_name":"未知分类","address":"上海市静安区南京西路1266号恒隆广场5楼"},{"poiid":"B2094757DA69A2F8469C","title":"上海金鹰国际购物广场","lon":"121.45463","lat":"31.22855","category":"119","category_name":"商场","address":"上海市陕西北路278号"},{"poiid":"B2094654DA6CA0FD4993","title":"恒隆广场(南京西路)","lon":"121.45369","lat":"31.22739","category":"116","category_name":"特色商业街","address":"静安区南京西路1266号(近陕西北路)"},{"poiid":"B2094655D26FA7FA4199","title":"上海锦沧文华大酒店","lon":"121.45378","lat":"31.22667","category":"213","category_name":"五星级宾馆","address":"静安区南京西路1225号(近西康路)"},{"poiid":"B2094654DB65A6F54493","title":"金鹰国际购物中心(陕西北路店)","lon":"121.45463","lat":"31.22855","category":"119","category_name":"商场","address":"静安区陕西北路278号金鹰国际购物中心内(近南京西路)"},{"poiid":"B2094753D76FAAFA449C","title":"上海滩国泰旗舰店","lon":"121.466011","lat":"31.216125","category":"249","category_name":"购物服务","address":"淮海中路868号"},{"poiid":"B209475CD564A7F84292","title":"上海滩新天地店","lon":"121.47463","lat":"31.22164","category":"119","category_name":"商场","address":"\"太仓路181弄新天地北里15号\r\n\""},{"poiid":"B209475CD564A7F8439E","title":"上海滩中信泰富店","lon":"121.45602","lat":"31.22851","category":"119","category_name":"商场","address":"\"南京西路1168号中信泰富广场，店铺号221.\r\n\""},{"poiid":"B2094655D26DA2F8409F","title":"恒隆广场2号楼","lon":"121.45288","lat":"31.22806","category":"46","category_name":"楼宇","address":""},{"poiid":"B2094655D265A5FF499D","title":"揽香川菜馆 金鹰店","lon":"121.45493030548","lat":"31.228215580823","category":"71","category_name":"四川菜","address":"静安区陕西北路278号金鹰国际购物中心8楼(近南京西路)"},{"poiid":"B2094757D06FA7FA409B","title":"恒隆广场一期","lon":"121.454415685","lat":"31.228063637","category":"47","category_name":"住宅区","address":"上海南京西路1266号"},{"poiid":"B2094757D068ABFD479A","title":"鹭鹭酒家 恒隆店","lon":"121.453506054","lat":"31.227113793","category":"76","category_name":"上海菜","address":"静安区南京西路1266号恒隆广场5楼(近陕西北路)"},{"poiid":"B2094655D265A1F54693","title":"豆捞坊(南京西路店)","lon":"121.4547","lat":"31.22855","category":"86","category_name":"火锅店","address":"静安区陕西北路278号金鹰国际购物广场6楼(近南京西路)"},{"poiid":"B2094655D36CA3FD4993","title":"相当香港餐厅南京西路店","lon":"121.4547","lat":"31.22855","category":"72","category_name":"广东菜","address":"静安区陕西北路278号金鹰国际购物广场7楼(近南京西路)"},{"poiid":"B2094757D06EAAFB4192","title":"恒隆广场二期","lon":"121.45439147","lat":"31.227611541","category":"47","category_name":"住宅区","address":"杨浦区大学路33号"},{"poiid":"B2094757D06FA0FD489E","title":"南京西路","lon":"121.45435","lat":"31.22661","category":"260","category_name":"其他","address":"静安区南京西路(南京西路西康路)"},{"poiid":"B2094654DB6BA6F5409D","title":"星巴克(金鹰店)","lon":"121.454368","lat":"31.228431","category":"65","category_name":"咖啡厅","address":"静安区陕西北路278号金鹰国际购物中心1楼(近南京西路)"},{"poiid":"B2094757D06FA0F44693","title":"琳怡","lon":"121.45236","lat":"31.22731","category":"76","category_name":"上海菜","address":"静安区西康路99-1号静安体育馆1楼"},{"poiid":"B2094757D068A1FE479F","title":"桃花源小厨(恒隆店)","lon":"121.4545385754036","lat":"31.227524079570962","category":"72","category_name":"广东菜","address":"上海市静安区南京西路1266号恒隆广场5楼"},{"poiid":"B2094757D06FABFC4992","title":"小南国烧烤(恒隆店)","lon":"121.453696","lat":"31.227388","category":"269","category_name":"烧烤","address":"静安区南京西路1266号恒隆广场5楼(近陕西北路)"},{"poiid":"B2094655D265A0FD469F","title":"镜子咖啡馆 Caffe Specchi","lon":"121.453597","lat":"31.227215","category":"67","category_name":"甜品店","address":"静安区南京西路1266号恒隆广场103铺(近西康路)"},{"poiid":"B2094757D068A0FB4093","title":"海云台","lon":"121.453265644","lat":"31.2274601452","category":"96","category_name":"韩国料理","address":"静安区南京西路1266号恒隆广场5楼(近陕西北路)"},{"poiid":"B2094757D068A2F8409F","title":"夏面馆(恒隆)","lon":"121.45297166","lat":"31.22762966","category":"68","category_name":"快餐厅","address":"静安区南京西路1266号恒隆广场5楼(近陕西北路)"},{"poiid":"B2094757D06FA0F54793","title":"香奈儿上海恒隆广场精品店","lon":"121.45360772311528","lat":"31.227562874217075","category":"122","category_name":"个人用品/化妆品店","address":"上海市静安区南京西路1266号恒隆广场首层"},{"poiid":"B2094757D069A2F54598","title":"Benson salon(金鹰店)","lon":"121.454544","lat":"31.22855","category":"148","category_name":"美容美发店","address":"上海陕西北路278号金鹰购物广场8楼"},{"poiid":"B2094757D069A3FC409E","title":"锦沧文华大酒店宴会厅","lon":"121.45396","lat":"31.22653","category":"217","category_name":"旅馆招待所","address":"静安区南京西路1225号锦沧文华大酒店内(近西康路)查看地图"},{"poiid":"B2094757D06FA0FC4292","title":"网鱼网咖(江宁店)","lon":"121.454064053","lat":"31.2287617756","category":"173","category_name":"游戏厅","address":"静安区江宁路77号5楼"},{"poiid":"B2094757D06FA7FB4598","title":"健康煮(金鹰店)","lon":"121.45405583","lat":"31.227760917","category":"68","category_name":"快餐厅","address":"静安区陕西北路278号金鹰国际购物中心6楼(近南京西路)"},{"poiid":"B2094757D06FA3F44792","title":"ZARA(南京西路店)","lon":"121.45491766","lat":"31.227113854","category":"141","category_name":"服装鞋帽皮具店","address":"静安区南京西路1201号(近陕西北路)"},{"poiid":"B2094757D06FA7FF4898","title":"吉惠日式料理(江宁路店)","lon":"121.45468873","lat":"31.227172234","category":"95","category_name":"日本料理","address":"上海市静安区江宁路77号三楼"},{"poiid":"B2094753D065A0F8449B","title":"平成屋日式料理店(西康路店)","lon":"121.45201","lat":"31.22773","category":"95","category_name":"日本料理","address":"静安区西康路101号(近南京西路)"},{"poiid":"B2094757D064A1FC419A","title":"南阳路粢饭团","lon":"121.45226","lat":"31.22807","category":"68","category_name":"快餐厅","address":"静安区南阳路100号(西康路口)"},{"poiid":"B2094655D26EA4FD4798","title":"卡地亚(恒隆店)","lon":"121.45439","lat":"31.22758","category":"248","category_name":"生活娱乐","address":"静安区南京西路1266号恒隆广场1楼(近陕西北路)查看地图"},{"poiid":"B2094757D46FA0F4439C","title":"鹤舞 恒隆广场店","lon":"121.454537","lat":"31.227248","category":"95","category_name":"日本料理","address":"静安区南京西路1266号上海恒隆广场5楼(近陕西北路)"},{"poiid":"B2094757D06FA0F9479C","title":"McDonald Citic","lon":"121.45477327","lat":"31.227719613","category":"68","category_name":"快餐厅","address":"上海中信泰富1635"},{"poiid":"B2094655D26DAAFD459D","title":"彩蝶轩","lon":"121.45441","lat":"31.22758","category":"257","category_name":"中餐厅","address":"静安区南京西路1266号恒隆广场5楼(近陕西北路)"},{"poiid":"B2094757DB68A1FA469F","title":"梅陇镇酒家","lon":"121.452277492211","lat":"31.22734107127845","category":"247","category_name":"餐饮美食","address":"南京西路1038号梅龙镇广场10楼(近江宁路)"},{"poiid":"B2094757D06AA0FF4392","title":"Bros Wasabi 日本料理和佐美","lon":"121.45182","lat":"31.22815","category":"95","category_name":"日本料理","address":"上海市静安区西康路101号(近南阳路)"},{"poiid":"B2094654DA6CA7FC479F","title":"阿波罗大厦","lon":"121.454","lat":"31.2279","category":"46","category_name":"楼宇","address":"静安延安中路1440号,华山路"},{"poiid":"B2094655D26CABFE4198","title":"恒隆广场1号楼","lon":"121.45421","lat":"31.22814","category":"46","category_name":"楼宇","address":""},{"poiid":"B2094757D069A6FB409E","title":"毕马威华振会计师事务所上海分所","lon":"121.453734398","lat":"31.227435606","category":"46","category_name":"楼宇","address":"上海市南京西路1266号恒隆广场一期50楼"},{"poiid":"B2094757DB64A3FD449E","title":"瑞尔齿科（恒隆广场店）","lon":"121.454","lat":"31.2274","category":"162","category_name":"医院","address":"静安区南京西路1266号恒隆广场512室"},{"poiid":"B2094757D068A3FC419E","title":"PRADA(南京西路店)","lon":"121.454247321","lat":"31.2274819474","category":"141","category_name":"服装鞋帽皮具店","address":"静安区南京西路1266号恒隆广场1-2楼(近陕西北路)"},{"poiid":"B2094751DA6CABFB4793","title":"帅锅Handsome Hotpot","lon":"121.453646","lat":"31.2279","category":"247","category_name":"餐饮美食","address":"静安区威海路720号(近陕西北路)"},{"poiid":"B2094757D06BA5FF4292","title":"镜子西餐","lon":"121.45317988","lat":"31.227598019","category":"247","category_name":"餐饮美食","address":"上海南京西路1266号地下2层"},{"poiid":"B2094750D665A4FD459B","title":"汉宫精菜坊","lon":"121.455","lat":"31.2277","category":"76","category_name":"上海菜","address":"静安区南京西路1168号中信泰富广场商场5楼"},{"poiid":"B2094654DA6CA0FC4598","title":"上海展览中心(9号门)","lon":"121.4533","lat":"31.22675","category":"183","category_name":"展览馆","address":""},{"poiid":"B2094757D464A7FC4792","title":"alfie's by KEE","lon":"121.453506054","lat":"31.227113793","category":"247","category_name":"餐饮美食","address":"南京西路1266号恒隆广场111A室近陕西北路"},{"poiid":"B2094655D36CA2FB4899","title":"陕西北路","lon":"121.45385","lat":"31.22708","category":"38","category_name":"公交车站","address":""},{"poiid":"B2094751D56BA3F8429C","title":"5戈比diy烘焙乐园","lon":"121.452616","lat":"31.228782","category":"247","category_name":"餐饮美食","address":"静安区南京西路1129弄75号"},{"poiid":"B2094757D16DA2F8439E","title":"瑞尔齿科恒隆店","lon":"121.45317758","lat":"31.227369375","category":"500","category_name":"未知分类","address":"上海市静安区南京西路1266号恒隆广场5楼"},{"poiid":"B2094757DA69A2F8469C","title":"上海金鹰国际购物广场","lon":"121.45463","lat":"31.22855","category":"119","category_name":"商场","address":"上海市陕西北路278号"},{"poiid":"B2094654DA6CA0FD4993","title":"恒隆广场(南京西路)","lon":"121.45369","lat":"31.22739","category":"116","category_name":"特色商业街","address":"静安区南京西路1266号(近陕西北路)"},{"poiid":"B2094655D26FA7FA4199","title":"上海锦沧文华大酒店","lon":"121.45378","lat":"31.22667","category":"213","category_name":"五星级宾馆","address":"静安区南京西路1225号(近西康路)"},{"poiid":"B2094654DB65A6F54493","title":"金鹰国际购物中心(陕西北路店)","lon":"121.45463","lat":"31.22855","category":"119","category_name":"商场","address":"静安区陕西北路278号金鹰国际购物中心内(近南京西路)"},{"poiid":"B2094753D76FAAFA449C","title":"上海滩国泰旗舰店","lon":"121.466011","lat":"31.216125","category":"249","category_name":"购物服务","address":"淮海中路868号"},{"poiid":"B209475CD564A7F84292","title":"上海滩新天地店","lon":"121.47463","lat":"31.22164","category":"119","category_name":"商场","address":"\"太仓路181弄新天地北里15号\r\n\""},{"poiid":"B209475CD564A7F8439E","title":"上海滩中信泰富店","lon":"121.45602","lat":"31.22851","category":"119","category_name":"商场","address":"\"南京西路1168号中信泰富广场，店铺号221.\r\n\""},{"poiid":"B2094655D26DA2F8409F","title":"恒隆广场2号楼","lon":"121.45288","lat":"31.22806","category":"46","category_name":"楼宇","address":""},{"poiid":"B2094655D265A5FF499D","title":"揽香川菜馆 金鹰店","lon":"121.45493030548","lat":"31.228215580823","category":"71","category_name":"四川菜","address":"静安区陕西北路278号金鹰国际购物中心8楼(近南京西路)"},{"poiid":"B2094757D06FA7FA409B","title":"恒隆广场一期","lon":"121.454415685","lat":"31.228063637","category":"47","category_name":"住宅区","address":"上海南京西路1266号"},{"poiid":"B2094757D068ABFD479A","title":"鹭鹭酒家 恒隆店","lon":"121.453506054","lat":"31.227113793","category":"76","category_name":"上海菜","address":"静安区南京西路1266号恒隆广场5楼(近陕西北路)"},{"poiid":"B2094655D265A1F54693","title":"豆捞坊(南京西路店)","lon":"121.4547","lat":"31.22855","category":"86","category_name":"火锅店","address":"静安区陕西北路278号金鹰国际购物广场6楼(近南京西路)"},{"poiid":"B2094655D36CA3FD4993","title":"相当香港餐厅南京西路店","lon":"121.4547","lat":"31.22855","category":"72","category_name":"广东菜","address":"静安区陕西北路278号金鹰国际购物广场7楼(近南京西路)"},{"poiid":"B2094757D06EAAFB4192","title":"恒隆广场二期","lon":"121.45439147","lat":"31.227611541","category":"47","category_name":"住宅区","address":"杨浦区大学路33号"},{"poiid":"B2094757D06FA0FD489E","title":"南京西路","lon":"121.45435","lat":"31.22661","category":"260","category_name":"其他","address":"静安区南京西路(南京西路西康路)"},{"poiid":"B2094654DB6BA6F5409D","title":"星巴克(金鹰店)","lon":"121.454368","lat":"31.228431","category":"65","category_name":"咖啡厅","address":"静安区陕西北路278号金鹰国际购物中心1楼(近南京西路)"},{"poiid":"B2094757D06FA0F44693","title":"琳怡","lon":"121.45236","lat":"31.22731","category":"76","category_name":"上海菜","address":"静安区西康路99-1号静安体育馆1楼"},{"poiid":"B2094757D068A1FE479F","title":"桃花源小厨(恒隆店)","lon":"121.4545385754036","lat":"31.227524079570962","category":"72","category_name":"广东菜","address":"上海市静安区南京西路1266号恒隆广场5楼"},{"poiid":"B2094757D06FABFC4992","title":"小南国烧烤(恒隆店)","lon":"121.453696","lat":"31.227388","category":"269","category_name":"烧烤","address":"静安区南京西路1266号恒隆广场5楼(近陕西北路)"},{"poiid":"B2094655D265A0FD469F","title":"镜子咖啡馆 Caffe Specchi","lon":"121.453597","lat":"31.227215","category":"67","category_name":"甜品店","address":"静安区南京西路1266号恒隆广场103铺(近西康路)"},{"poiid":"B2094757D068A0FB4093","title":"海云台","lon":"121.453265644","lat":"31.2274601452","category":"96","category_name":"韩国料理","address":"静安区南京西路1266号恒隆广场5楼(近陕西北路)"},{"poiid":"B2094757D068A2F8409F","title":"夏面馆(恒隆)","lon":"121.45297166","lat":"31.22762966","category":"68","category_name":"快餐厅","address":"静安区南京西路1266号恒隆广场5楼(近陕西北路)"},{"poiid":"B2094757D06FA0F54793","title":"香奈儿上海恒隆广场精品店","lon":"121.45360772311528","lat":"31.227562874217075","category":"122","category_name":"个人用品/化妆品店","address":"上海市静安区南京西路1266号恒隆广场首层"},{"poiid":"B2094757D069A2F54598","title":"Benson salon(金鹰店)","lon":"121.454544","lat":"31.22855","category":"148","category_name":"美容美发店","address":"上海陕西北路278号金鹰购物广场8楼"},{"poiid":"B2094757D069A3FC409E","title":"锦沧文华大酒店宴会厅","lon":"121.45396","lat":"31.22653","category":"217","category_name":"旅馆招待所","address":"静安区南京西路1225号锦沧文华大酒店内(近西康路)查看地图"},{"poiid":"B2094757D06FA0FC4292","title":"网鱼网咖(江宁店)","lon":"121.454064053","lat":"31.2287617756","category":"173","category_name":"游戏厅","address":"静安区江宁路77号5楼"},{"poiid":"B2094757D06FA7FB4598","title":"健康煮(金鹰店)","lon":"121.45405583","lat":"31.227760917","category":"68","category_name":"快餐厅","address":"静安区陕西北路278号金鹰国际购物中心6楼(近南京西路)"},{"poiid":"B2094757D06FA3F44792","title":"ZARA(南京西路店)","lon":"121.45491766","lat":"31.227113854","category":"141","category_name":"服装鞋帽皮具店","address":"静安区南京西路1201号(近陕西北路)"},{"poiid":"B2094757D06FA7FF4898","title":"吉惠日式料理(江宁路店)","lon":"121.45468873","lat":"31.227172234","category":"95","category_name":"日本料理","address":"上海市静安区江宁路77号三楼"},{"poiid":"B2094753D065A0F8449B","title":"平成屋日式料理店(西康路店)","lon":"121.45201","lat":"31.22773","category":"95","category_name":"日本料理","address":"静安区西康路101号(近南京西路)"},{"poiid":"B2094757D064A1FC419A","title":"南阳路粢饭团","lon":"121.45226","lat":"31.22807","category":"68","category_name":"快餐厅","address":"静安区南阳路100号(西康路口)"},{"poiid":"B2094655D26EA4FD4798","title":"卡地亚(恒隆店)","lon":"121.45439","lat":"31.22758","category":"248","category_name":"生活娱乐","address":"静安区南京西路1266号恒隆广场1楼(近陕西北路)查看地图"},{"poiid":"B2094757D46FA0F4439C","title":"鹤舞 恒隆广场店","lon":"121.454537","lat":"31.227248","category":"95","category_name":"日本料理","address":"静安区南京西路1266号上海恒隆广场5楼(近陕西北路)"},{"poiid":"B2094757D06FA0F9479C","title":"McDonald Citic","lon":"121.45477327","lat":"31.227719613","category":"68","category_name":"快餐厅","address":"上海中信泰富1635"},{"poiid":"B2094655D26DAAFD459D","title":"彩蝶轩","lon":"121.45441","lat":"31.22758","category":"257","category_name":"中餐厅","address":"静安区南京西路1266号恒隆广场5楼(近陕西北路)"},{"poiid":"B2094757DB68A1FA469F","title":"梅陇镇酒家","lon":"121.452277492211","lat":"31.22734107127845","category":"247","category_name":"餐饮美食","address":"南京西路1038号梅龙镇广场10楼(近江宁路)"},{"poiid":"B2094757D06AA0FF4392","title":"Bros Wasabi 日本料理和佐美","lon":"121.45182","lat":"31.22815","category":"95","category_name":"日本料理","address":"上海市静安区西康路101号(近南阳路)"},{"poiid":"B2094654DA6CA7FC479F","title":"阿波罗大厦","lon":"121.454","lat":"31.2279","category":"46","category_name":"楼宇","address":"静安延安中路1440号,华山路"},{"poiid":"B2094655D26CABFE4198","title":"恒隆广场1号楼","lon":"121.45421","lat":"31.22814","category":"46","category_name":"楼宇","address":""},{"poiid":"B2094757D069A6FB409E","title":"毕马威华振会计师事务所上海分所","lon":"121.453734398","lat":"31.227435606","category":"46","category_name":"楼宇","address":"上海市南京西路1266号恒隆广场一期50楼"},{"poiid":"B2094757DB64A3FD449E","title":"瑞尔齿科（恒隆广场店）","lon":"121.454","lat":"31.2274","category":"162","category_name":"医院","address":"静安区南京西路1266号恒隆广场512室"},{"poiid":"B2094757D068A3FC419E","title":"PRADA(南京西路店)","lon":"121.454247321","lat":"31.2274819474","category":"141","category_name":"服装鞋帽皮具店","address":"静安区南京西路1266号恒隆广场1-2楼(近陕西北路)"},{"poiid":"B2094751DA6CABFB4793","title":"帅锅Handsome Hotpot","lon":"121.453646","lat":"31.2279","category":"247","category_name":"餐饮美食","address":"静安区威海路720号(近陕西北路)"},{"poiid":"B2094757D06BA5FF4292","title":"镜子西餐","lon":"121.45317988","lat":"31.227598019","category":"247","category_name":"餐饮美食","address":"上海南京西路1266号地下2层"},{"poiid":"B2094750D665A4FD459B","title":"汉宫精菜坊","lon":"121.455","lat":"31.2277","category":"76","category_name":"上海菜","address":"静安区南京西路1168号中信泰富广场商场5楼"},{"poiid":"B2094654DA6CA0FC4598","title":"上海展览中心(9号门)","lon":"121.4533","lat":"31.22675","category":"183","category_name":"展览馆","address":""},{"poiid":"B2094757D464A7FC4792","title":"alfie's by KEE","lon":"121.453506054","lat":"31.227113793","category":"247","category_name":"餐饮美食","address":"南京西路1266号恒隆广场111A室近陕西北路"},{"poiid":"B2094655D36CA2FB4899","title":"陕西北路","lon":"121.45385","lat":"31.22708","category":"38","category_name":"公交车站","address":""},{"poiid":"B2094751D56BA3F8429C","title":"5戈比diy烘焙乐园","lon":"121.452616","lat":"31.228782","category":"247","category_name":"餐饮美食","address":"静安区南京西路1129弄75号"},{"poiid":"B2094757D16DA2F8439E","title":"瑞尔齿科恒隆店","lon":"121.45317758","lat":"31.227369375","category":"500","category_name":"未知分类","address":"上海市静安区南京西路1266号恒隆广场5楼"},{"poiid":"B2094757DA69A2F8469C","title":"上海金鹰国际购物广场","lon":"121.45463","lat":"31.22855","category":"119","category_name":"商场","address":"上海市陕西北路278号"},{"poiid":"B2094654DA6CA0FD4993","title":"恒隆广场(南京西路)","lon":"121.45369","lat":"31.22739","category":"116","category_name":"特色商业街","address":"静安区南京西路1266号(近陕西北路)"},{"poiid":"B2094655D26FA7FA4199","title":"上海锦沧文华大酒店","lon":"121.45378","lat":"31.22667","category":"213","category_name":"五星级宾馆","address":"静安区南京西路1225号(近西康路)"},{"poiid":"B2094654DB65A6F54493","title":"金鹰国际购物中心(陕西北路店)","lon":"121.45463","lat":"31.22855","category":"119","category_name":"商场","address":"静安区陕西北路278号金鹰国际购物中心内(近南京西路)"},{"poiid":"B2094753D76FAAFA449C","title":"上海滩国泰旗舰店","lon":"121.466011","lat":"31.216125","category":"249","category_name":"购物服务","address":"淮海中路868号"},{"poiid":"B209475CD564A7F84292","title":"上海滩新天地店","lon":"121.47463","lat":"31.22164","category":"119","category_name":"商场","address":"\"太仓路181弄新天地北里15号\r\n\""},{"poiid":"B209475CD564A7F8439E","title":"上海滩中信泰富店","lon":"121.45602","lat":"31.22851","category":"119","category_name":"商场","address":"\"南京西路1168号中信泰富广场，店铺号221.\r\n\""},{"poiid":"B2094655D26DA2F8409F","title":"恒隆广场2号楼","lon":"121.45288","lat":"31.22806","category":"46","category_name":"楼宇","address":""},{"poiid":"B2094655D265A5FF499D","title":"揽香川菜馆 金鹰店","lon":"121.45493030548","lat":"31.228215580823","category":"71","category_name":"四川菜","address":"静安区陕西北路278号金鹰国际购物中心8楼(近南京西路)"},{"poiid":"B2094757D06FA7FA409B","title":"恒隆广场一期","lon":"121.454415685","lat":"31.228063637","category":"47","category_name":"住宅区","address":"上海南京西路1266号"},{"poiid":"B2094757D068ABFD479A","title":"鹭鹭酒家 恒隆店","lon":"121.453506054","lat":"31.227113793","category":"76","category_name":"上海菜","address":"静安区南京西路1266号恒隆广场5楼(近陕西北路)"},{"poiid":"B2094655D265A1F54693","title":"豆捞坊(南京西路店)","lon":"121.4547","lat":"31.22855","category":"86","category_name":"火锅店","address":"静安区陕西北路278号金鹰国际购物广场6楼(近南京西路)"},{"poiid":"B2094655D36CA3FD4993","title":"相当香港餐厅南京西路店","lon":"121.4547","lat":"31.22855","category":"72","category_name":"广东菜","address":"静安区陕西北路278号金鹰国际购物广场7楼(近南京西路)"},{"poiid":"B2094757D06EAAFB4192","title":"恒隆广场二期","lon":"121.45439147","lat":"31.227611541","category":"47","category_name":"住宅区","address":"杨浦区大学路33号"},{"poiid":"B2094757D06FA0FD489E","title":"南京西路","lon":"121.45435","lat":"31.22661","category":"260","category_name":"其他","address":"静安区南京西路(南京西路西康路)"},{"poiid":"B2094654DB6BA6F5409D","title":"星巴克(金鹰店)","lon":"121.454368","lat":"31.228431","category":"65","category_name":"咖啡厅","address":"静安区陕西北路278号金鹰国际购物中心1楼(近南京西路)"},{"poiid":"B2094757D06FA0F44693","title":"琳怡","lon":"121.45236","lat":"31.22731","category":"76","category_name":"上海菜","address":"静安区西康路99-1号静安体育馆1楼"},{"poiid":"B2094757D068A1FE479F","title":"桃花源小厨(恒隆店)","lon":"121.4545385754036","lat":"31.227524079570962","category":"72","category_name":"广东菜","address":"上海市静安区南京西路1266号恒隆广场5楼"},{"poiid":"B2094757D06FABFC4992","title":"小南国烧烤(恒隆店)","lon":"121.453696","lat":"31.227388","category":"269","category_name":"烧烤","address":"静安区南京西路1266号恒隆广场5楼(近陕西北路)"},{"poiid":"B2094655D265A0FD469F","title":"镜子咖啡馆 Caffe Specchi","lon":"121.453597","lat":"31.227215","category":"67","category_name":"甜品店","address":"静安区南京西路1266号恒隆广场103铺(近西康路)"},{"poiid":"B2094757D068A0FB4093","title":"海云台","lon":"121.453265644","lat":"31.2274601452","category":"96","category_name":"韩国料理","address":"静安区南京西路1266号恒隆广场5楼(近陕西北路)"},{"poiid":"B2094757D068A2F8409F","title":"夏面馆(恒隆)","lon":"121.45297166","lat":"31.22762966","category":"68","category_name":"快餐厅","address":"静安区南京西路1266号恒隆广场5楼(近陕西北路)"},{"poiid":"B2094757D06FA0F54793","title":"香奈儿上海恒隆广场精品店","lon":"121.45360772311528","lat":"31.227562874217075","category":"122","category_name":"个人用品/化妆品店","address":"上海市静安区南京西路1266号恒隆广场首层"},{"poiid":"B2094757D069A2F54598","title":"Benson salon(金鹰店)","lon":"121.454544","lat":"31.22855","category":"148","category_name":"美容美发店","address":"上海陕西北路278号金鹰购物广场8楼"},{"poiid":"B2094757D069A3FC409E","title":"锦沧文华大酒店宴会厅","lon":"121.45396","lat":"31.22653","category":"217","category_name":"旅馆招待所","address":"静安区南京西路1225号锦沧文华大酒店内(近西康路)查看地图"},{"poiid":"B2094757D06FA0FC4292","title":"网鱼网咖(江宁店)","lon":"121.454064053","lat":"31.2287617756","category":"173","category_name":"游戏厅","address":"静安区江宁路77号5楼"},{"poiid":"B2094757D06FA7FB4598","title":"健康煮(金鹰店)","lon":"121.45405583","lat":"31.227760917","category":"68","category_name":"快餐厅","address":"静安区陕西北路278号金鹰国际购物中心6楼(近南京西路)"},{"poiid":"B2094757D06FA3F44792","title":"ZARA(南京西路店)","lon":"121.45491766","lat":"31.227113854","category":"141","category_name":"服装鞋帽皮具店","address":"静安区南京西路1201号(近陕西北路)"},{"poiid":"B2094757D06FA7FF4898","title":"吉惠日式料理(江宁路店)","lon":"121.45468873","lat":"31.227172234","category":"95","category_name":"日本料理","address":"上海市静安区江宁路77号三楼"},{"poiid":"B2094753D065A0F8449B","title":"平成屋日式料理店(西康路店)","lon":"121.45201","lat":"31.22773","category":"95","category_name":"日本料理","address":"静安区西康路101号(近南京西路)"},{"poiid":"B2094757D064A1FC419A","title":"南阳路粢饭团","lon":"121.45226","lat":"31.22807","category":"68","category_name":"快餐厅","address":"静安区南阳路100号(西康路口)"},{"poiid":"B2094655D26EA4FD4798","title":"卡地亚(恒隆店)","lon":"121.45439","lat":"31.22758","category":"248","category_name":"生活娱乐","address":"静安区南京西路1266号恒隆广场1楼(近陕西北路)查看地图"},{"poiid":"B2094757D46FA0F4439C","title":"鹤舞 恒隆广场店","lon":"121.454537","lat":"31.227248","category":"95","category_name":"日本料理","address":"静安区南京西路1266号上海恒隆广场5楼(近陕西北路)"},{"poiid":"B2094757D06FA0F9479C","title":"McDonald Citic","lon":"121.45477327","lat":"31.227719613","category":"68","category_name":"快餐厅","address":"上海中信泰富1635"},{"poiid":"B2094655D26DAAFD459D","title":"彩蝶轩","lon":"121.45441","lat":"31.22758","category":"257","category_name":"中餐厅","address":"静安区南京西路1266号恒隆广场5楼(近陕西北路)"},{"poiid":"B2094757DB68A1FA469F","title":"梅陇镇酒家","lon":"121.452277492211","lat":"31.22734107127845","category":"247","category_name":"餐饮美食","address":"南京西路1038号梅龙镇广场10楼(近江宁路)"},{"poiid":"B2094757D06AA0FF4392","title":"Bros Wasabi 日本料理和佐美","lon":"121.45182","lat":"31.22815","category":"95","category_name":"日本料理","address":"上海市静安区西康路101号(近南阳路)"},{"poiid":"B2094654DA6CA7FC479F","title":"阿波罗大厦","lon":"121.454","lat":"31.2279","category":"46","category_name":"楼宇","address":"静安延安中路1440号,华山路"},{"poiid":"B2094655D26CABFE4198","title":"恒隆广场1号楼","lon":"121.45421","lat":"31.22814","category":"46","category_name":"楼宇","address":""},{"poiid":"B2094757D069A6FB409E","title":"毕马威华振会计师事务所上海分所","lon":"121.453734398","lat":"31.227435606","category":"46","category_name":"楼宇","address":"上海市南京西路1266号恒隆广场一期50楼"},{"poiid":"B2094757DB64A3FD449E","title":"瑞尔齿科（恒隆广场店）","lon":"121.454","lat":"31.2274","category":"162","category_name":"医院","address":"静安区南京西路1266号恒隆广场512室"},{"poiid":"B2094757D068A3FC419E","title":"PRADA(南京西路店)","lon":"121.454247321","lat":"31.2274819474","category":"141","category_name":"服装鞋帽皮具店","address":"静安区南京西路1266号恒隆广场1-2楼(近陕西北路)"},{"poiid":"B2094751DA6CABFB4793","title":"帅锅Handsome Hotpot","lon":"121.453646","lat":"31.2279","category":"247","category_name":"餐饮美食","address":"静安区威海路720号(近陕西北路)"},{"poiid":"B2094757D06BA5FF4292","title":"镜子西餐","lon":"121.45317988","lat":"31.227598019","category":"247","category_name":"餐饮美食","address":"上海南京西路1266号地下2层"},{"poiid":"B2094750D665A4FD459B","title":"汉宫精菜坊","lon":"121.455","lat":"31.2277","category":"76","category_name":"上海菜","address":"静安区南京西路1168号中信泰富广场商场5楼"},{"poiid":"B2094654DA6CA0FC4598","title":"上海展览中心(9号门)","lon":"121.4533","lat":"31.22675","category":"183","category_name":"展览馆","address":""},{"poiid":"B2094757D464A7FC4792","title":"alfie's by KEE","lon":"121.453506054","lat":"31.227113793","category":"247","category_name":"餐饮美食","address":"南京西路1266号恒隆广场111A室近陕西北路"},{"poiid":"B2094655D36CA2FB4899","title":"陕西北路","lon":"121.45385","lat":"31.22708","category":"38","category_name":"公交车站","address":""},{"poiid":"B2094751D56BA3F8429C","title":"5戈比diy烘焙乐园","lon":"121.452616","lat":"31.228782","category":"247","category_name":"餐饮美食","address":"静安区南京西路1129弄75号"},{"poiid":"B2094757D16DA2F8439E","title":"瑞尔齿科恒隆店","lon":"121.45317758","lat":"31.227369375","category":"500","category_name":"未知分类","address":"上海市静安区南京西路1266号恒隆广场5楼"},{"poiid":"B2094757DA69A2F8469C","title":"上海金鹰国际购物广场","lon":"121.45463","lat":"31.22855","category":"119","category_name":"商场","address":"上海市陕西北路278号"}]