[{"poiid":"B2094757D06FA3FC4093","title":"上海苏州河畔国际青年旅舍","lon":"121.4650892","lat":"31.2407474","category":"216","category_name":"经济型连锁酒店","address":"黄浦区南苏州路1307号(近地铁1号线新闸路地铁站)"},{"poiid":"B2094654DA6CA4F44992","title":"上海人才大厦","lon":"121.46037","lat":"31.24199","category":"68","category_name":"快餐厅","address":"盛和大厦位于崂山商务一区,即海尔路西侧。青医附院崂山分院南侧"},{"poiid":"B2094655D36DA0FE409D","title":"新闸路地铁站","lon":"121.46668","lat":"31.23916","category":"36","category_name":"地铁站","address":""},{"poiid":"B2094753D76FAAFA449C","title":"上海滩国泰旗舰店","lon":"121.466011","lat":"31.216125","category":"249","category_name":"购物服务","address":"淮海中路868号"},{"poiid":"B209475CD564A7F84292","title":"上海滩新天地店","lon":"121.47463","lat":"31.22164","category":"119","category_name":"商场","address":"\"太仓路181弄新天地北里15号\r\n\""},{"poiid":"B209475CD564A7F8439E","title":"上海滩中信泰富店","lon":"121.45602","lat":"31.22851","category":"119","category_name":"商场","address":"\"南京西路1168号中信泰富广场，店铺号221.\r\n\""},{"poiid":"B2094654DA6CA5F4489D","title":"凯迪克大厦","lon":"121.461","lat":"31.2377","category":"46","category_name":"楼宇","address":"上海市静安区江宁路212号"},{"poiid":"B2094757D069A5FD439F","title":"新闸路成都北路","lon":"121.464829","lat":"31.237632","category":"500","category_name":"未知分类","address":"上海新闸路成都北路"},{"poiid":"B2094757D06FA5FD499F","title":"富春小笼(新闸路店)","lon":"121.463359","lat":"31.237918","category":"68","category_name":"快餐厅","address":"静安区新闸路557号(近成都北路)"},{"poiid":"B2094757D06FA6F84592","title":"黄浦区地方税务局","lon":"121.46609","lat":"31.240098","category":"252","category_name":"楼宇机构","address":"上海黄浦区新桥路68号"},{"poiid":"B2094654DA6CA4FD4199","title":"和一大厦","lon":"121.459923","lat":"31.241142","category":"46","category_name":"楼宇","address":"和一大厦位于静安江宁路420号"},{"poiid":"B2094757D069A2FD489B","title":"北京西路 成都北路 路口","lon":"121.46540683","lat":"31.236365878","category":"500","category_name":"未知分类","address":"上海北京西路 成都北路 路口"},{"poiid":"B2094654DA68A3F9499C","title":"新桥大厦","lon":"121.46598","lat":"31.2402","category":"46","category_name":"楼宇","address":"新桥路68"},{"poiid":"B2094757D069A7F5499F","title":"梅园路77号","lon":"121.46178859","lat":"31.242760466","category":"500","category_name":"未知分类","address":"上海人才大厦"},{"poiid":"B2094757D068A1FB479D","title":"静安紫苑","lon":"121.46","lat":"31.2397","category":"252","category_name":"楼宇机构","address":"静安区江宁路356弄5号(近新闸路)"},{"poiid":"B2094757D068A2F8429D","title":"新城大厦","lon":"121.461","lat":"31.2369","category":"46","category_name":"楼宇","address":"上海市普陀区中山北路1777号"},{"poiid":"B2094757D064A2FD419D","title":"Rita Drinks","lon":"121.464425","lat":"31.24035","category":"65","category_name":"咖啡厅","address":"静安区新闸路916号(近泰兴路)"},{"poiid":"B2094757D068A4FE469A","title":"九子公园","lon":"121.46420335","lat":"31.2404103746","category":"196","category_name":"公园","address":"黄浦区成都北路高架东侧(南苏州路)"},{"poiid":"B2094757D06FA3FA439C","title":"新福康里","lon":"121.464","lat":"31.2411","category":"47","category_name":"住宅区","address":"上海市浦东新区永泰路环林西路口"},{"poiid":"B2094655D26CABFB4099","title":"莫泰168连锁旅店(成都北路店)","lon":"121.46127","lat":"31.2401","category":"216","category_name":"经济型连锁酒店","address":"静安区南苏州路1455号(大田路口东侧)"},{"poiid":"B2094654DA6CA4FC429A","title":"申银发展大厦","lon":"121.46071507561","lat":"31.240772209177","category":"46","category_name":"楼宇","address":"申银发展大厦位于静安武定路333号"},{"poiid":"B2094654DA6CA4FB479A","title":"上海市静安区第三中心小学","lon":"121.46327","lat":"31.2397","category":"56","category_name":"小学","address":"静安区成都北路997号(成都北路新闸路)"},{"poiid":"B2094757D068ABF9459A","title":"外国人就业中心","lon":"121.460510254","lat":"31.2419662476","category":"500","category_name":"未知分类","address":"上海梅园路77号"},{"poiid":"B2094752D06AA4FF4798","title":"杨浦公园","lon":"121.463638","lat":"31.239757","category":"250","category_name":"公园户外","address":null},{"poiid":"B2094757DA65A2F5419A","title":"南北高架","lon":"121.46053","lat":"31.238095","category":"627","category_name":"一般地点标志","address":"南北高架"},{"poiid":"B2094654DA6CA4FB479B","title":"光明小区(成都北路)","lon":"121.4627","lat":"31.23971","category":"47","category_name":"住宅区","address":"成都北路1037弄3-23号"},{"poiid":"B2094757D064A7FE429F","title":"新闸路大田路","lon":"121.46358073","lat":"31.239127489","category":"500","category_name":"未知分类","address":"上海市静安区新闸路"},{"poiid":"B2094654DA6CA5F54299","title":"恒发公寓","lon":"121.462","lat":"31.2392","category":"46","category_name":"楼宇","address":"恒发公寓位于静安新闸路1095弄"},{"poiid":"B2094654DB64A6FB439E","title":"瑞亚·臻品酒店(上海闸北店)","lon":"121.46047","lat":"31.24154","category":"250","category_name":"公园户外","address":"闸北区梅园路37号(近一号线汉中路2号口)"},{"poiid":"B2094757D069A0FD4193","title":"丽都新贵","lon":"121.466","lat":"31.2407","category":"500","category_name":"未知分类","address":"北一环与亳州路交叉口(庐阳区政府对面)"},{"poiid":"B2094654DA6CA5F5449F","title":"亚成公寓","lon":"121.4634932592","lat":"31.239421728369","category":"47","category_name":"住宅区","address":"新闸路1001号"},{"poiid":"B2094757D06AA0FC4793","title":"银发大厦","lon":"121.461","lat":"31.2364","category":"46","category_name":"楼宇","address":"铁西卫工南街8―5号"},{"poiid":"B2094752D76CA6F44199","title":"杨浦区中心医院","lon":"121.463443","lat":"31.241908","category":"162","category_name":"医院","address":null},{"poiid":"B2094757D16AA1F5409D","title":"良友饭店","lon":"121.461870738","lat":"31.2398025041","category":"247","category_name":"餐饮美食","address":"上海南苏州路1455"},{"poiid":"B2094752D669A5F9469E","title":"上海理工大学","lon":"121.462265","lat":"31.236358","category":"500","category_name":"未知分类","address":"军工路580号"},{"poiid":"B2094654DB6BA5FD459F","title":"光明小区(东门)","lon":"121.46313","lat":"31.23999","category":"47","category_name":"住宅区","address":"成都北路1037弄3-23号"},{"poiid":"B2094757D064A6FB4099","title":"静安公安分局交警支队","lon":"121.463436","lat":"31.240887","category":"500","category_name":"未知分类","address":"上海成都北路1067"},{"poiid":"B2094654DA6CA4FB4693","title":"上视小荧星文化艺术培训学校","lon":"121.46327","lat":"31.2397","category":"190","category_name":"培训机构","address":"成都北路997"},{"poiid":"B2094655D265A5F5439D","title":"津赫餐厅","lon":"121.46342","lat":"31.23823","category":"257","category_name":"中餐厅","address":"新闸路558号"},{"poiid":"B2094757D16BA7F4449B","title":"SaSa(南京东路店)","lon":"121.463219738","lat":"31.2381364686","category":"122","category_name":"个人用品/化妆品店","address":"黄浦区南京东路300号恒基名人商务大厦B201-B204铺(河南中路口)"},{"poiid":"B2094751D56DA5FC4992","title":"大悦城","lon":"121.466088","lat":"31.239219","category":"500","category_name":"未知分类","address":null},{"poiid":"B2094655D26DA0FB4998","title":"良友高层","lon":"121.46226","lat":"31.24077","category":"47","category_name":"住宅区","address":"南苏州路1393弄1号"},{"poiid":"B2094655D36CA5FF4193","title":"成都北路新闸路","lon":"121.46451","lat":"31.23745","category":"38","category_name":"公交车站","address":""},{"poiid":"B2094752D069A7F5439E","title":"南京东路地铁站","lon":"121.462425","lat":"31.240537","category":"36","category_name":"地铁站","address":null},{"poiid":"B2094757D469A0FC409A","title":"阿牛嫂桂林米粉 新闸路店","lon":"121.4662106","lat":"31.2390461","category":"68","category_name":"快餐厅","address":"黄浦区新闸路392号(近新昌路)"},{"poiid":"B2094654DA6CA5F44292","title":"康乐大楼","lon":"121.464","lat":"31.2378","category":"47","category_name":"住宅区","address":"北京西路940号"},{"poiid":"B2094757D769A4F54993","title":"云曦小吃","lon":"121.463874054","lat":"31.236463793","category":"68","category_name":"快餐厅","address":"静安区山海关路296号(近成都北路)"},{"poiid":"B2094654DA6CA1FF409D","title":"泰兴大楼","lon":"121.4651741425","lat":"31.236332098585","category":"46","category_name":"楼宇","address":"南京西路934号"},{"poiid":"B2094655D265AAF44098","title":"良友超市","lon":"121.46126","lat":"31.2399","category":"117","category_name":"便民商店/便利店","address":""},{"poiid":"B2094654DB6BA5FD459C","title":"良友高层(北门)","lon":"121.46244","lat":"31.24083","category":"47","category_name":"住宅区","address":"南苏州路1393弄1"},{"poiid":"B2094757D06FA3FC4093","title":"上海苏州河畔国际青年旅舍","lon":"121.4650892","lat":"31.2407474","category":"216","category_name":"经济型连锁酒店","address":"黄浦区南苏州路1307号(近地铁1号线新闸路地铁站)"},{"poiid":"B2094654DA6CA4F44992","title":"上海人才大厦","lon":"121.46037","lat":"31.24199","category":"68","category_name":"快餐厅","address":"盛和大厦位于崂山商务一区,即海尔路西侧。青医附院崂山分院南侧"},{"poiid":"B2094655D36DA0FE409D","title":"新闸路地铁站","lon":"121.46668","lat":"31.23916","category":"36","category_name":"地铁站","address":""},{"poiid":"B2094753D76FAAFA449C","title":"上海滩国泰旗舰店","lon":"121.466011","lat":"31.216125","category":"249","category_name":"购物服务","address":"淮海中路868号"},{"poiid":"B209475CD564A7F84292","title":"上海滩新天地店","lon":"121.47463","lat":"31.22164","category":"119","category_name":"商场","address":"\"太仓路181弄新天地北里15号\r\n\""},{"poiid":"B209475CD564A7F8439E","title":"上海滩中信泰富店","lon":"121.45602","lat":"31.22851","category":"119","category_name":"商场","address":"\"南京西路1168号中信泰富广场，店铺号221.\r\n\""},{"poiid":"B2094654DA6CA5F4489D","title":"凯迪克大厦","lon":"121.461","lat":"31.2377","category":"46","category_name":"楼宇","address":"上海市静安区江宁路212号"},{"poiid":"B2094757D069A5FD439F","title":"新闸路成都北路","lon":"121.464829","lat":"31.237632","category":"500","category_name":"未知分类","address":"上海新闸路成都北路"},{"poiid":"B2094757D06FA5FD499F","title":"富春小笼(新闸路店)","lon":"121.463359","lat":"31.237918","category":"68","category_name":"快餐厅","address":"静安区新闸路557号(近成都北路)"},{"poiid":"B2094757D06FA6F84592","title":"黄浦区地方税务局","lon":"121.46609","lat":"31.240098","category":"252","category_name":"楼宇机构","address":"上海黄浦区新桥路68号"},{"poiid":"B2094654DA6CA4FD4199","title":"和一大厦","lon":"121.459923","lat":"31.241142","category":"46","category_name":"楼宇","address":"和一大厦位于静安江宁路420号"},{"poiid":"B2094757D069A2FD489B","title":"北京西路 成都北路 路口","lon":"121.46540683","lat":"31.236365878","category":"500","category_name":"未知分类","address":"上海北京西路 成都北路 路口"},{"poiid":"B2094654DA68A3F9499C","title":"新桥大厦","lon":"121.46598","lat":"31.2402","category":"46","category_name":"楼宇","address":"新桥路68"},{"poiid":"B2094757D069A7F5499F","title":"梅园路77号","lon":"121.46178859","lat":"31.242760466","category":"500","category_name":"未知分类","address":"上海人才大厦"},{"poiid":"B2094757D068A1FB479D","title":"静安紫苑","lon":"121.46","lat":"31.2397","category":"252","category_name":"楼宇机构","address":"静安区江宁路356弄5号(近新闸路)"},{"poiid":"B2094757D068A2F8429D","title":"新城大厦","lon":"121.461","lat":"31.2369","category":"46","category_name":"楼宇","address":"上海市普陀区中山北路1777号"},{"poiid":"B2094757D064A2FD419D","title":"Rita Drinks","lon":"121.464425","lat":"31.24035","category":"65","category_name":"咖啡厅","address":"静安区新闸路916号(近泰兴路)"},{"poiid":"B2094757D068A4FE469A","title":"九子公园","lon":"121.46420335","lat":"31.2404103746","category":"196","category_name":"公园","address":"黄浦区成都北路高架东侧(南苏州路)"},{"poiid":"B2094757D06FA3FA439C","title":"新福康里","lon":"121.464","lat":"31.2411","category":"47","category_name":"住宅区","address":"上海市浦东新区永泰路环林西路口"},{"poiid":"B2094655D26CABFB4099","title":"莫泰168连锁旅店(成都北路店)","lon":"121.46127","lat":"31.2401","category":"216","category_name":"经济型连锁酒店","address":"静安区南苏州路1455号(大田路口东侧)"},{"poiid":"B2094654DA6CA4FC429A","title":"申银发展大厦","lon":"121.46071507561","lat":"31.240772209177","category":"46","category_name":"楼宇","address":"申银发展大厦位于静安武定路333号"},{"poiid":"B2094654DA6CA4FB479A","title":"上海市静安区第三中心小学","lon":"121.46327","lat":"31.2397","category":"56","category_name":"小学","address":"静安区成都北路997号(成都北路新闸路)"},{"poiid":"B2094757D068ABF9459A","title":"外国人就业中心","lon":"121.460510254","lat":"31.2419662476","category":"500","category_name":"未知分类","address":"上海梅园路77号"},{"poiid":"B2094752D06AA4FF4798","title":"杨浦公园","lon":"121.463638","lat":"31.239757","category":"250","category_name":"公园户外","address":null},{"poiid":"B2094757DA65A2F5419A","title":"南北高架","lon":"121.46053","lat":"31.238095","category":"627","category_name":"一般地点标志","address":"南北高架"},{"poiid":"B2094654DA6CA4FB479B","title":"光明小区(成都北路)","lon":"121.4627","lat":"31.23971","category":"47","category_name":"住宅区","address":"成都北路1037弄3-23号"},{"poiid":"B2094757D064A7FE429F","title":"新闸路大田路","lon":"121.46358073","lat":"31.239127489","category":"500","category_name":"未知分类","address":"上海市静安区新闸路"},{"poiid":"B2094654DA6CA5F54299","title":"恒发公寓","lon":"121.462","lat":"31.2392","category":"46","category_name":"楼宇","address":"恒发公寓位于静安新闸路1095弄"},{"poiid":"B2094654DB64A6FB439E","title":"瑞亚·臻品酒店(上海闸北店)","lon":"121.46047","lat":"31.24154","category":"250","category_name":"公园户外","address":"闸北区梅园路37号(近一号线汉中路2号口)"},{"poiid":"B2094757D069A0FD4193","title":"丽都新贵","lon":"121.466","lat":"31.2407","category":"500","category_name":"未知分类","address":"北一环与亳州路交叉口(庐阳区政府对面)"},{"poiid":"B2094654DA6CA5F5449F","title":"亚成公寓","lon":"121.4634932592","lat":"31.239421728369","category":"47","category_name":"住宅区","address":"新闸路1001号"},{"poiid":"B2094757D06AA0FC4793","title":"银发大厦","lon":"121.461","lat":"31.2364","category":"46","category_name":"楼宇","address":"铁西卫工南街8―5号"},{"poiid":"B2094752D76CA6F44199","title":"杨浦区中心医院","lon":"121.463443","lat":"31.241908","category":"162","category_name":"医院","address":null},{"poiid":"B2094757D16AA1F5409D","title":"良友饭店","lon":"121.461870738","lat":"31.2398025041","category":"247","category_name":"餐饮美食","address":"上海南苏州路1455"},{"poiid":"B2094752D669A5F9469E","title":"上海理工大学","lon":"121.462265","lat":"31.236358","category":"500","category_name":"未知分类","address":"军工路580号"},{"poiid":"B2094654DB6BA5FD459F","title":"光明小区(东门)","lon":"121.46313","lat":"31.23999","category":"47","category_name":"住宅区","address":"成都北路1037弄3-23号"},{"poiid":"B2094757D064A6FB4099","title":"静安公安分局交警支队","lon":"121.463436","lat":"31.240887","category":"500","category_name":"未知分类","address":"上海成都北路1067"},{"poiid":"B2094654DA6CA4FB4693","title":"上视小荧星文化艺术培训学校","lon":"121.46327","lat":"31.2397","category":"190","category_name":"培训机构","address":"成都北路997"},{"poiid":"B2094655D265A5F5439D","title":"津赫餐厅","lon":"121.46342","lat":"31.23823","category":"257","category_name":"中餐厅","address":"新闸路558号"},{"poiid":"B2094757D16BA7F4449B","title":"SaSa(南京东路店)","lon":"121.463219738","lat":"31.2381364686","category":"122","category_name":"个人用品/化妆品店","address":"黄浦区南京东路300号恒基名人商务大厦B201-B204铺(河南中路口)"},{"poiid":"B2094751D56DA5FC4992","title":"大悦城","lon":"121.466088","lat":"31.239219","category":"500","category_name":"未知分类","address":null},{"poiid":"B2094655D26DA0FB4998","title":"良友高层","lon":"121.46226","lat":"31.24077","category":"47","category_name":"住宅区","address":"南苏州路1393弄1号"},{"poiid":"B2094655D36CA5FF4193","title":"成都北路新闸路","lon":"121.46451","lat":"31.23745","category":"38","category_name":"公交车站","address":""},{"poiid":"B2094752D069A7F5439E","title":"南京东路地铁站","lon":"121.462425","lat":"31.240537","category":"36","category_name":"地铁站","address":null},{"poiid":"B2094757D469A0FC409A","title":"阿牛嫂桂林米粉 新闸路店","lon":"121.4662106","lat":"31.2390461","category":"68","category_name":"快餐厅","address":"黄浦区新闸路392号(近新昌路)"},{"poiid":"B2094654DA6CA5F44292","title":"康乐大楼","lon":"121.464","lat":"31.2378","category":"47","category_name":"住宅区","address":"北京西路940号"},{"poiid":"B2094757D769A4F54993","title":"云曦小吃","lon":"121.463874054","lat":"31.236463793","category":"68","category_name":"快餐厅","address":"静安区山海关路296号(近成都北路)"},{"poiid":"B2094654DA6CA1FF409D","title":"泰兴大楼","lon":"121.4651741425","lat":"31.236332098585","category":"46","category_name":"楼宇","address":"南京西路934号"},{"poiid":"B2094655D265AAF44098","title":"良友超市","lon":"121.46126","lat":"31.2399","category":"117","category_name":"便民商店/便利店","address":""},{"poiid":"B2094654DB6BA5FD459C","title":"良友高层(北门)","lon":"121.46244","lat":"31.24083","category":"47","category_name":"住宅区","address":"南苏州路1393弄1"},{"poiid":"B2094757D06FA3FC4093","title":"上海苏州河畔国际青年旅舍","lon":"121.4650892","lat":"31.2407474","category":"216","category_name":"经济型连锁酒店","address":"黄浦区南苏州路1307号(近地铁1号线新闸路地铁站)"},{"poiid":"B2094654DA6CA4F44992","title":"上海人才大厦","lon":"121.46037","lat":"31.24199","category":"68","category_name":"快餐厅","address":"盛和大厦位于崂山商务一区,即海尔路西侧。青医附院崂山分院南侧"},{"poiid":"B2094655D36DA0FE409D","title":"新闸路地铁站","lon":"121.46668","lat":"31.23916","category":"36","category_name":"地铁站","address":""},{"poiid":"B2094753D76FAAFA449C","title":"上海滩国泰旗舰店","lon":"121.466011","lat":"31.216125","category":"249","category_name":"购物服务","address":"淮海中路868号"},{"poiid":"B209475CD564A7F84292","title":"上海滩新天地店","lon":"121.47463","lat":"31.22164","category":"119","category_name":"商场","address":"\"太仓路181弄新天地北里15号\r\n\""},{"poiid":"B209475CD564A7F8439E","title":"上海滩中信泰富店","lon":"121.45602","lat":"31.22851","category":"119","category_name":"商场","address":"\"南京西路1168号中信泰富广场，店铺号221.\r\n\""},{"poiid":"B2094654DA6CA5F4489D","title":"凯迪克大厦","lon":"121.461","lat":"31.2377","category":"46","category_name":"楼宇","address":"上海市静安区江宁路212号"},{"poiid":"B2094757D069A5FD439F","title":"新闸路成都北路","lon":"121.464829","lat":"31.237632","category":"500","category_name":"未知分类","address":"上海新闸路成都北路"},{"poiid":"B2094757D06FA5FD499F","title":"富春小笼(新闸路店)","lon":"121.463359","lat":"31.237918","category":"68","category_name":"快餐厅","address":"静安区新闸路557号(近成都北路)"},{"poiid":"B2094757D06FA6F84592","title":"黄浦区地方税务局","lon":"121.46609","lat":"31.240098","category":"252","category_name":"楼宇机构","address":"上海黄浦区新桥路68号"},{"poiid":"B2094654DA6CA4FD4199","title":"和一大厦","lon":"121.459923","lat":"31.241142","category":"46","category_name":"楼宇","address":"和一大厦位于静安江宁路420号"},{"poiid":"B2094757D069A2FD489B","title":"北京西路 成都北路 路口","lon":"121.46540683","lat":"31.236365878","category":"500","category_name":"未知分类","address":"上海北京西路 成都北路 路口"},{"poiid":"B2094654DA68A3F9499C","title":"新桥大厦","lon":"121.46598","lat":"31.2402","category":"46","category_name":"楼宇","address":"新桥路68"},{"poiid":"B2094757D069A7F5499F","title":"梅园路77号","lon":"121.46178859","lat":"31.242760466","category":"500","category_name":"未知分类","address":"上海人才大厦"},{"poiid":"B2094757D068A1FB479D","title":"静安紫苑","lon":"121.46","lat":"31.2397","category":"252","category_name":"楼宇机构","address":"静安区江宁路356弄5号(近新闸路)"},{"poiid":"B2094757D068A2F8429D","title":"新城大厦","lon":"121.461","lat":"31.2369","category":"46","category_name":"楼宇","address":"上海市普陀区中山北路1777号"},{"poiid":"B2094757D064A2FD419D","title":"Rita Drinks","lon":"121.464425","lat":"31.24035","category":"65","category_name":"咖啡厅","address":"静安区新闸路916号(近泰兴路)"},{"poiid":"B2094757D068A4FE469A","title":"九子公园","lon":"121.46420335","lat":"31.2404103746","category":"196","category_name":"公园","address":"黄浦区成都北路高架东侧(南苏州路)"},{"poiid":"B2094757D06FA3FA439C","title":"新福康里","lon":"121.464","lat":"31.2411","category":"47","category_name":"住宅区","address":"上海市浦东新区永泰路环林西路口"},{"poiid":"B2094655D26CABFB4099","title":"莫泰168连锁旅店(成都北路店)","lon":"121.46127","lat":"31.2401","category":"216","category_name":"经济型连锁酒店","address":"静安区南苏州路1455号(大田路口东侧)"},{"poiid":"B2094654DA6CA4FC429A","title":"申银发展大厦","lon":"121.46071507561","lat":"31.240772209177","category":"46","category_name":"楼宇","address":"申银发展大厦位于静安武定路333号"},{"poiid":"B2094654DA6CA4FB479A","title":"上海市静安区第三中心小学","lon":"121.46327","lat":"31.2397","category":"56","category_name":"小学","address":"静安区成都北路997号(成都北路新闸路)"},{"poiid":"B2094757D068ABF9459A","title":"外国人就业中心","lon":"121.460510254","lat":"31.2419662476","category":"500","category_name":"未知分类","address":"上海梅园路77号"},{"poiid":"B2094752D06AA4FF4798","title":"杨浦公园","lon":"121.463638","lat":"31.239757","category":"250","category_name":"公园户外","address":null},{"poiid":"B2094757DA65A2F5419A","title":"南北高架","lon":"121.46053","lat":"31.238095","category":"627","category_name":"一般地点标志","address":"南北高架"},{"poiid":"B2094654DA6CA4FB479B","title":"光明小区(成都北路)","lon":"121.4627","lat":"31.23971","category":"47","category_name":"住宅区","address":"成都北路1037弄3-23号"},{"poiid":"B2094757D064A7FE429F","title":"新闸路大田路","lon":"121.46358073","lat":"31.239127489","category":"500","category_name":"未知分类","address":"上海市静安区新闸路"},{"poiid":"B2094654DA6CA5F54299","title":"恒发公寓","lon":"121.462","lat":"31.2392","category":"46","category_name":"楼宇","address":"恒发公寓位于静安新闸路1095弄"},{"poiid":"B2094654DB64A6FB439E","title":"瑞亚·臻品酒店(上海闸北店)","lon":"121.46047","lat":"31.24154","category":"250","category_name":"公园户外","address":"闸北区梅园路37号(近一号线汉中路2号口)"},{"poiid":"B2094757D069A0FD4193","title":"丽都新贵","lon":"121.466","lat":"31.2407","category":"500","category_name":"未知分类","address":"北一环与亳州路交叉口(庐阳区政府对面)"},{"poiid":"B2094654DA6CA5F5449F","title":"亚成公寓","lon":"121.4634932592","lat":"31.239421728369","category":"47","category_name":"住宅区","address":"新闸路1001号"},{"poiid":"B2094757D06AA0FC4793","title":"银发大厦","lon":"121.461","lat":"31.2364","category":"46","category_name":"楼宇","address":"铁西卫工南街8―5号"},{"poiid":"B2094752D76CA6F44199","title":"杨浦区中心医院","lon":"121.463443","lat":"31.241908","category":"162","category_name":"医院","address":null},{"poiid":"B2094757D16AA1F5409D","title":"良友饭店","lon":"121.461870738","lat":"31.2398025041","category":"247","category_name":"餐饮美食","address":"上海南苏州路1455"},{"poiid":"B2094752D669A5F9469E","title":"上海理工大学","lon":"121.462265","lat":"31.236358","category":"500","category_name":"未知分类","address":"军工路580号"},{"poiid":"B2094654DB6BA5FD459F","title":"光明小区(东门)","lon":"121.46313","lat":"31.23999","category":"47","category_name":"住宅区","address":"成都北路1037弄3-23号"},{"poiid":"B2094757D064A6FB4099","title":"静安公安分局交警支队","lon":"121.463436","lat":"31.240887","category":"500","category_name":"未知分类","address":"上海成都北路1067"},{"poiid":"B2094654DA6CA4FB4693","title":"上视小荧星文化艺术培训学校","lon":"121.46327","lat":"31.2397","category":"190","category_name":"培训机构","address":"成都北路997"},{"poiid":"B2094655D265A5F5439D","title":"津赫餐厅","lon":"121.46342","lat":"31.23823","category":"257","category_name":"中餐厅","address":"新闸路558号"},{"poiid":"B2094757D16BA7F4449B","title":"SaSa(南京东路店)","lon":"121.463219738","lat":"31.2381364686","category":"122","category_name":"个人用品/化妆品店","address":"黄浦区南京东路300号恒基名人商务大厦B201-B204铺(河南中路口)"},{"poiid":"B2094751D56DA5FC4992","title":"大悦城","lon":"121.466088","lat":"31.239219","category":"500","category_name":"未知分类","address":null},{"poiid":"B2094655D26DA0FB4998","title":"良友高层","lon":"121.46226","lat":"31.24077","category":"47","category_name":"住宅区","address":"南苏州路1393弄1号"},{"poiid":"B2094655D36CA5FF4193","title":"成都北路新闸路","lon":"121.46451","lat":"31.23745","category":"38","category_name":"公交车站","address":""},{"poiid":"B2094752D069A7F5439E","title":"南京东路地铁站","lon":"121.462425","lat":"31.240537","category":"36","category_name":"地铁站","address":null},{"poiid":"B2094757D469A0FC409A","title":"阿牛嫂桂林米粉 新闸路店","lon":"121.4662106","lat":"31.2390461","category":"68","category_name":"快餐厅","address":"黄浦区新闸路392号(近新昌路)"},{"poiid":"B2094654DA6CA5F44292","title":"康乐大楼","lon":"121.464","lat":"31.2378","category":"47","category_name":"住宅区","address":"北京西路940号"},{"poiid":"B2094757D769A4F54993","title":"云曦小吃","lon":"121.463874054","lat":"31.236463793","category":"68","category_name":"快餐厅","address":"静安区山海关路296号(近成都北路)"},{"poiid":"B2094654DA6CA1FF409D","title":"泰兴大楼","lon":"121.4651741425","lat":"31.236332098585","category":"46","category_name":"楼宇","address":"南京西路934号"},{"poiid":"B2094655D265AAF44098","title":"良友超市","lon":"121.46126","lat":"31.2399","category":"117","category_name":"便民商店/便利店","address":""},{"poiid":"B2094654DB6BA5FD459C","title":"良友高层(北门)","lon":"121.46244","lat":"31.24083","category":"47","category_name":"住宅区","address":"南苏州路1393弄1"},{"poiid":"B2094757D06FA3FC4093","title":"上海苏州河畔国际青年旅舍","lon":"121.4650892","lat":"31.2407474","category":"216","category_name":"经济型连锁酒店","address":"黄浦区南苏州路1307号(近地铁1号线新闸路地铁站)"},{"poiid":"B2094654DA6CA4F44992","title":"上海人才大厦","lon":"121.46037","lat":"31.24199","category":"68","category_name":"快餐厅","address":"盛和大厦位于崂山商务一区,即海尔路西侧。青医附院崂山分院南侧"},{"poiid":"B2094655D36DA0FE409D","title":"新闸路地铁站","lon":"121.46668","lat":"31.23916","category":"36","category_name":"地铁站","address":""},{"poiid":"B2094753D76FAAFA449C","title":"上海滩国泰旗舰店","lon":"121.466011","lat":"31.216125","category":"249","category_name":"购物服务","address":"淮海中路868号"},{"poiid":"B209475CD564A7F84292","title":"上海滩新天地店","lon":"121.47463","lat":"31.22164","category":"119","category_name":"商场","address":"\"太仓路181弄新天地北里15号\r\n\""},{"poiid":"B209475CD564A7F8439E","title":"上海滩中信泰富店","lon":"121.45602","lat":"31.22851","category":"119","category_name":"商场","address":"\"南京西路1168号中信泰富广场，店铺号221.\r\n\""},{"poiid":"B2094654DA6CA5F4489D","title":"凯迪克大厦","lon":"121.461","lat":"31.2377","category":"46","category_name":"楼宇","address":"上海市静安区江宁路212号"},{"poiid":"B2094757D069A5FD439F","title":"新闸路成都北路","lon":"121.464829","lat":"31.237632","category":"500","category_name":"未知分类","address":"上海新闸路成都北路"},{"poiid":"B2094757D06FA5FD499F","title":"富春小笼(新闸路店)","lon":"121.463359","lat":"31.237918","category":"68","category_name":"快餐厅","address":"静安区新闸路557号(近成都北路)"},{"poiid":"B2094757D06FA6F84592","title":"黄浦区地方税务局","lon":"121.46609","lat":"31.240098","category":"252","category_name":"楼宇机构","address":"上海黄浦区新桥路68号"},{"poiid":"B2094654DA6CA4FD4199","title":"和一大厦","lon":"121.459923","lat":"31.241142","category":"46","category_name":"楼宇","address":"和一大厦位于静安江宁路420号"},{"poiid":"B2094757D069A2FD489B","title":"北京西路 成都北路 路口","lon":"121.46540683","lat":"31.236365878","category":"500","category_name":"未知分类","address":"上海北京西路 成都北路 路口"},{"poiid":"B2094654DA68A3F9499C","title":"新桥大厦","lon":"121.46598","lat":"31.2402","category":"46","category_name":"楼宇","address":"新桥路68"},{"poiid":"B2094757D069A7F5499F","title":"梅园路77号","lon":"121.46178859","lat":"31.242760466","category":"500","category_name":"未知分类","address":"上海人才大厦"},{"poiid":"B2094757D068A1FB479D","title":"静安紫苑","lon":"121.46","lat":"31.2397","category":"252","category_name":"楼宇机构","address":"静安区江宁路356弄5号(近新闸路)"},{"poiid":"B2094757D068A2F8429D","title":"新城大厦","lon":"121.461","lat":"31.2369","category":"46","category_name":"楼宇","address":"上海市普陀区中山北路1777号"},{"poiid":"B2094757D064A2FD419D","title":"Rita Drinks","lon":"121.464425","lat":"31.24035","category":"65","category_name":"咖啡厅","address":"静安区新闸路916号(近泰兴路)"},{"poiid":"B2094757D068A4FE469A","title":"九子公园","lon":"121.46420335","lat":"31.2404103746","category":"196","category_name":"公园","address":"黄浦区成都北路高架东侧(南苏州路)"},{"poiid":"B2094757D06FA3FA439C","title":"新福康里","lon":"121.464","lat":"31.2411","category":"47","category_name":"住宅区","address":"上海市浦东新区永泰路环林西路口"},{"poiid":"B2094655D26CABFB4099","title":"莫泰168连锁旅店(成都北路店)","lon":"121.46127","lat":"31.2401","category":"216","category_name":"经济型连锁酒店","address":"静安区南苏州路1455号(大田路口东侧)"},{"poiid":"B2094654DA6CA4FC429A","title":"申银发展大厦","lon":"121.46071507561","lat":"31.240772209177","category":"46","category_name":"楼宇","address":"申银发展大厦位于静安武定路333号"},{"poiid":"B2094654DA6CA4FB479A","title":"上海市静安区第三中心小学","lon":"121.46327","lat":"31.2397","category":"56","category_name":"小学","address":"静安区成都北路997号(成都北路新闸路)"},{"poiid":"B2094757D068ABF9459A","title":"外国人就业中心","lon":"121.460510254","lat":"31.2419662476","category":"500","category_name":"未知分类","address":"上海梅园路77号"},{"poiid":"B2094752D06AA4FF4798","title":"杨浦公园","lon":"121.463638","lat":"31.239757","category":"250","category_name":"公园户外","address":null},{"poiid":"B2094757DA65A2F5419A","title":"南北高架","lon":"121.46053","lat":"31.238095","category":"627","category_name":"一般地点标志","address":"南北高架"},{"poiid":"B2094654DA6CA4FB479B","title":"光明小区(成都北路)","lon":"121.4627","lat":"31.23971","category":"47","category_name":"住宅区","address":"成都北路1037弄3-23号"},{"poiid":"B2094757D064A7FE429F","title":"新闸路大田路","lon":"121.46358073","lat":"31.239127489","category":"500","category_name":"未知分类","address":"上海市静安区新闸路"},{"poiid":"B2094654DA6CA5F54299","title":"恒发公寓","lon":"121.462","lat":"31.2392","category":"46","category_name":"楼宇","address":"恒发公寓位于静安新闸路1095弄"},{"poiid":"B2094654DB64A6FB439E","title":"瑞亚·臻品酒店(上海闸北店)","lon":"121.46047","lat":"31.24154","category":"250","category_name":"公园户外","address":"闸北区梅园路37号(近一号线汉中路2号口)"},{"poiid":"B2094757D069A0FD4193","title":"丽都新贵","lon":"121.466","lat":"31.2407","category":"500","category_name":"未知分类","address":"北一环与亳州路交叉口(庐阳区政府对面)"},{"poiid":"B2094654DA6CA5F5449F","title":"亚成公寓","lon":"121.4634932592","lat":"31.239421728369","category":"47","category_name":"住宅区","address":"新闸路1001号"},{"poiid":"B2094757D06AA0FC4793","title":"银发大厦","lon":"121.461","lat":"31.2364","category":"46","category_name":"楼宇","address":"铁西卫工南街8―5号"},{"poiid":"B2094752D76CA6F44199","title":"杨浦区中心医院","lon":"121.463443","lat":"31.241908","category":"162","category_name":"医院","address":null},{"poiid":"B2094757D16AA1F5409D","title":"良友饭店","lon":"121.461870738","lat":"31.2398025041","category":"247","category_name":"餐饮美食","address":"上海南苏州路1455"},{"poiid":"B2094752D669A5F9469E","title":"上海理工大学","lon":"121.462265","lat":"31.236358","category":"500","category_name":"未知分类","address":"军工路580号"},{"poiid":"B2094654DB6BA5FD459F","title":"光明小区(东门)","lon":"121.46313","lat":"31.23999","category":"47","category_name":"住宅区","address":"成都北路1037弄3-23号"},{"poiid":"B2094757D064A6FB4099","title":"静安公安分局交警支队","lon":"121.463436","lat":"31.240887","category":"500","category_name":"未知分类","address":"上海成都北路1067"},{"poiid":"B2094654DA6CA4FB4693","title":"上视小荧星文化艺术培训学校","lon":"121.46327","lat":"31.2397","category":"190","category_name":"培训机构","address":"成都北路997"},{"poiid":"B2094655D265A5F5439D","title":"津赫餐厅","lon":"121.46342","lat":"31.23823","category":"257","category_name":"中餐厅","address":"新闸路558号"},{"poiid":"B2094757D16BA7F4449B","title":"SaSa(南京东路店)","lon":"121.463219738","lat":"31.2381364686","category":"122","category_name":"个人用品/化妆品店","address":"黄浦区南京东路300号恒基名人商务大厦B201-B204铺(河南中路口)"},{"poiid":"B2094751D56DA5FC4992","title":"大悦城","lon":"121.466088","lat":"31.239219","category":"500","category_name":"未知分类","address":null},{"poiid":"B2094655D26DA0FB4998","title":"良友高层","lon":"121.46226","lat":"31.24077","category":"47","category_name":"住宅区","address":"南苏州路1393弄1号"},{"poiid":"B2094655D36CA5FF4193","title":"成都北路新闸路","lon":"121.46451","lat":"31.23745","category":"38","category_name":"公交车站","address":""},{"poiid":"B2094752D069A7F5439E","title":"南京东路地铁站","lon":"121.462425","lat":"31.240537","category":"36","category_name":"地铁站","address":null},{"poiid":"B2094757D469A0FC409A","title":"阿牛嫂桂林米粉 新闸路店","lon":"121.4662106","lat":"31.2390461","category":"68","category_name":"快餐厅","address":"黄浦区新闸路392号(近新昌路)"},{"poiid":"B2094654DA6CA5F44292","title":"康乐大楼","lon":"121.464","lat":"31.2378","category":"47","category_name":"住宅区","address":"北京西路940号"},{"poiid":"B2094757D769A4F54993","title":"云曦小吃","lon":"121.463874054","lat":"31.236463793","category":"68","category_name":"快餐厅","address":"静安区山海关路296号(近成都北路)"},{"poiid":"B2094654DA6CA1FF409D","title":"泰兴大楼","lon":"121.4651741425","lat":"31.236332098585","category":"46","category_name":"楼宇","address":"南京西路934号"},{"poiid":"B2094655D265AAF44098","title":"良友超市","lon":"121.46126","lat":"31.2399","category":"117","category_name":"便民商店/便利店","address":""},{"poiid":"B2094654DB6BA5FD459C","title":"良友高层(北门)","lon":"121.46244","lat":"31.24083","category":"47","category_name":"住宅区","address":"南苏州路1393弄1"}]