[{"poiid":"B2094757DA6EABFB469A","title":"尚嘉中心","lon":"121.413","lat":"31.2115","category":"249","category_name":"购物服务","address":"上海市长宁区仙霞路99号"},{"poiid":"B2094750D668A7FB439D","title":"纽斯桑拿会所","lon":"121.414176","lat":"31.209903","category":"248","category_name":"生活娱乐","address":"长宁区天山路1900号(近延安西路)"},{"poiid":"B2094757D06EAAFF4793","title":"上海国际体操中心","lon":"121.41346669","lat":"31.213709584","category":"220","category_name":"运动场所","address":"长宁区武夷路777号国际体操中心游泳馆内(近中山西路)"},{"poiid":"B2094757D06FA3F94892","title":"上海市职业培训指导中心","lon":"121.41142","lat":"31.21003","category":"253","category_name":"校园生活","address":"长宁区天山路1800号(近中山西路)"},{"poiid":"B2094750DB6CA0FE449A","title":"纽斯韩式汗蒸会所","lon":"121.411201","lat":"31.20803","category":"148","category_name":"美容美发店","address":null},{"poiid":"B2094655D36DA7F8489E","title":"中山西路天山路","lon":"121.41274","lat":"31.21002","category":"38","category_name":"公交车站","address":""},{"poiid":"B2094757DB6FAAFA4092","title":"Petit George Cafe","lon":"121.4110325","lat":"31.2095602","category":"500","category_name":"未知分类","address":"延安西路1794号(近天山路)"},{"poiid":"B2094757D06FA7F4409C","title":"上海国际体操中心羽毛球馆","lon":"121.41341304","lat":"31.213108572","category":"220","category_name":"运动场所","address":"上海长宁区武夷路777号(近中山西路)"},{"poiid":"B2094752D76EA4F44698","title":"本家韩国料理","lon":"121.413605","lat":"31.209045","category":"247","category_name":"餐饮美食","address":"天山路1900号(近延安西路)"},{"poiid":"B2094750D565A6FA459A","title":"New star","lon":"121.414184","lat":"31.209081","category":"248","category_name":"生活娱乐","address":"天山路延安西路"},{"poiid":"B2094757D068A4FA469E","title":"绿洲大厦","lon":"121.412556","lat":"31.213812","category":"46","category_name":"楼宇","address":"石景山区阜石路与杨庄东街交叉口西北角"},{"poiid":"B2094757D06FA5FD429A","title":"长宁区国家税务局","lon":"121.41092798","lat":"31.209929853","category":"500","category_name":"未知分类","address":"上海天山路1827号"},{"poiid":"B2094757D068A6F44999","title":"佳佳母婴天地中山西路分部","lon":"121.41130058","lat":"31.208866013","category":"128","category_name":"儿童用品店","address":"上海市长宁区中山西路753号"},{"poiid":"B2094757D06FA7FB489B","title":"天山茶城","lon":"121.41228","lat":"31.2127","category":"136","category_name":"烟酒专卖店","address":"长宁区中山西路518号(玉屏南路口)"},{"poiid":"B2094757D06FA7FD4193","title":"盛高国际大厦","lon":"121.41","lat":"31.2119","category":"46","category_name":"楼宇","address":"上海市长宁区仙霞路137号"},{"poiid":"B2094654D565A5F9439B","title":"乐购(长宁店)","lon":"121.41323","lat":"31.21296","category":"118","category_name":"超级市场","address":"长宁区武夷路777号国际体操中心游泳馆1楼(近中山西路)"},{"poiid":"B2094757D068AAFA4492","title":"上海市人力资源和社会保障局","lon":"121.411439373","lat":"31.2106589438","category":"46","category_name":"楼宇","address":"上海天山路1800号"},{"poiid":"B2094757D06FAAF9439E","title":"一茶一座(中山公园店)","lon":"121.411003113","lat":"31.2094993591","category":"47","category_name":"住宅区","address":"上海长宁区中山公园龙之梦b2"},{"poiid":"B2094655D26AAAF44692","title":"爆香串云南烧 天山店","lon":"121.411529","lat":"31.209659","category":"68","category_name":"快餐厅","address":"长宁区中山西路642号(近天山路)"},{"poiid":"B2094757D06AA2F54198","title":"君荟轩","lon":"121.40845","lat":"31.21167","category":"72","category_name":"广东菜","address":"长宁区遵义路448号上海君丽大酒店2楼(近天山路)"},{"poiid":"B2094752D16CA2F44393","title":"上海虹桥机场T2航站楼","lon":"121.409324","lat":"31.20917","category":"251","category_name":"出行住宿","address":null},{"poiid":"B2094750D565A6FB499D","title":"纽斯汗蒸","lon":"121.414192","lat":"31.209089","category":"249","category_name":"购物服务","address":"天山路77号"},{"poiid":"B2094654D56BA5F8409B","title":"东方国际大厦","lon":"121.409","lat":"31.2111","category":"46","category_name":"楼宇","address":"上海市浦东新区张杨路500号"},{"poiid":"B2094654D56BA5FA439F","title":"协泰中心","lon":"121.413","lat":"31.2105","category":"46","category_name":"楼宇","address":"上海市奉贤区环城东路455,465弄"},{"poiid":"B2094654D56BA5F8449C","title":"太阳广场","lon":"121.40990558974","lat":"31.211613527137","category":"46","category_name":"楼宇","address":"丰台学城海鹰路1号,3号"},{"poiid":"B2094654D56BA0F5459E","title":"安泰大楼","lon":"121.413","lat":"31.2129","category":"46","category_name":"楼宇","address":"上海市长宁区遵义路107号"},{"poiid":"B2094757DA69A1F94499","title":"虹桥上海城","lon":"121.414","lat":"31.2127","category":"119","category_name":"商场","address":"上海市长宁区遵义路100号"},{"poiid":"B2094752D264A3FD4093","title":"虹桥机场","lon":"121.410378","lat":"31.211271","category":"251","category_name":"出行住宿","address":null},{"poiid":"B2094757D568A7FB4198","title":"市职培中心","lon":"121.4113754","lat":"31.21071401","category":"190","category_name":"培训机构","address":"天山路1800号"},{"poiid":"B2094757D16DAAF84393","title":"云南烧烤","lon":"121.41192458","lat":"31.210292041","category":"247","category_name":"餐饮美食","address":"上海市长宁区遵义路"},{"poiid":"B2094750DA69A3F44099","title":"纽斯spa会所","lon":"121.414466","lat":"31.209598","category":"148","category_name":"美容美发店","address":null},{"poiid":"B2094751D56CAAF5409E","title":"其鲜生煎(玉屏南路店)","lon":"121.41221","lat":"31.20983","category":"68","category_name":"快餐厅","address":"长宁区玉屏南路(近武夷路)"},{"poiid":"B2094757D568ABF8479A","title":"Lucky Star","lon":"121.41300266","lat":"31.2102946","category":"65","category_name":"咖啡厅","address":"长宁区中山西路743号永田大厦(天山路中山西路)"},{"poiid":"B2094655D26BA2FC419A","title":"武夷路中山西路","lon":"121.41431","lat":"31.21268","category":"38","category_name":"公交车站","address":""},{"poiid":"B2094757D06FA5F9429E","title":"中山西路立交","lon":"121.41245269","lat":"31.208242416","category":"500","category_name":"未知分类","address":"上海立交桥"},{"poiid":"B2094757D569A2FB419A","title":"佳恒十三香龙虾(玉屏南路店)","lon":"121.4114244","lat":"31.21239889","category":"68","category_name":"快餐厅","address":"长宁区玉屏南路17号(近中山西路)"},{"poiid":"B2094757D469A5F9489B","title":"赞歧田野 武夷路店","lon":"121.412915","lat":"31.2129","category":"95","category_name":"日本料理","address":"长宁区武夷路789号美仑大酒店1楼(近国际体操中心)"},{"poiid":"B2094757D068A0FE479C","title":"星之健身(长宁店)","lon":"121.4137","lat":"31.21239","category":"221","category_name":"健身中心","address":"长宁区武夷路777号国际体操中心游泳馆3楼(近中山西路)"},{"poiid":"B2094654D56BA0F84792","title":"川汇万家 玉屏南路店","lon":"121.40896846309","lat":"31.212753255329","category":"71","category_name":"四川菜","address":"长宁区玉屏南路150号(近遵义路)"},{"poiid":"B2094654D56BA0FE4198","title":"中国(上海)高技能人才公共实训中心","lon":"121.41137","lat":"31.21071","category":"190","category_name":"培训机构","address":"天山路1800"},{"poiid":"B2094753D569A1FC459E","title":"英伦美宴","lon":"121.410599","lat":"31.210452","category":"247","category_name":"餐饮美食","address":"上海长宁区天山路1900号（环东华时尚休闲中心）"},{"poiid":"B2094654D56BA5FA4498","title":"天虹大楼","lon":"121.413","lat":"31.2109","category":"46","category_name":"楼宇","address":"仙霞路80号"},{"poiid":"B2094757D465A3FC4192","title":"苏州羊肉面馆 天山店","lon":"121.411701054","lat":"31.209451793","category":"247","category_name":"餐饮美食","address":"长宁区天山路1821号(近中山西路)"},{"poiid":"B2094654DB6BA7FC439B","title":"快客(内环高架路出口)","lon":"121.4124","lat":"31.21047","category":"117","category_name":"便民商店/便利店","address":""},{"poiid":"B2094757D06AA7FE479C","title":"国家电网沪西基地","lon":"121.40975958","lat":"31.210561046","category":"500","category_name":"未知分类","address":"上海市长宁区天山路1756号"},{"poiid":"B2094654DB6AA3FF4093","title":"上海市地方税务局长宁分局第6税务所","lon":"121.41109","lat":"31.20941","category":"250","category_name":"公园户外","address":"天山路1827号"},{"poiid":"B2094757D068ABFA4798","title":"吉祥馄饨(武夷路店)","lon":"121.414","lat":"31.21214","category":"68","category_name":"快餐厅","address":"长宁区武夷路782号(近中山西路)"},{"poiid":"B2094757D165ABFB4192","title":"季风美容美发","lon":"121.411688486","lat":"31.2120500755","category":"148","category_name":"美容美发店","address":"上海市长宁区天山路789号百盛商城b楼2层38号"},{"poiid":"B2094757D16EA0FE4392","title":"友谊小区","lon":"121.41073158","lat":"31.212208078","category":"47","category_name":"住宅区","address":"天山路1726弄7号503室"},{"poiid":"B2094655D26DA7FE4993","title":"皇家商务楼","lon":"121.41057","lat":"31.2095","category":"46","category_name":"楼宇","address":"天山路1825"},{"poiid":"B2094757DA6EABFB469A","title":"尚嘉中心","lon":"121.413","lat":"31.2115","category":"249","category_name":"购物服务","address":"上海市长宁区仙霞路99号"},{"poiid":"B2094750D668A7FB439D","title":"纽斯桑拿会所","lon":"121.414176","lat":"31.209903","category":"248","category_name":"生活娱乐","address":"长宁区天山路1900号(近延安西路)"},{"poiid":"B2094757D06EAAFF4793","title":"上海国际体操中心","lon":"121.41346669","lat":"31.213709584","category":"220","category_name":"运动场所","address":"长宁区武夷路777号国际体操中心游泳馆内(近中山西路)"},{"poiid":"B2094757D06FA3F94892","title":"上海市职业培训指导中心","lon":"121.41142","lat":"31.21003","category":"253","category_name":"校园生活","address":"长宁区天山路1800号(近中山西路)"},{"poiid":"B2094750DB6CA0FE449A","title":"纽斯韩式汗蒸会所","lon":"121.411201","lat":"31.20803","category":"148","category_name":"美容美发店","address":null},{"poiid":"B2094655D36DA7F8489E","title":"中山西路天山路","lon":"121.41274","lat":"31.21002","category":"38","category_name":"公交车站","address":""},{"poiid":"B2094757DB6FAAFA4092","title":"Petit George Cafe","lon":"121.4110325","lat":"31.2095602","category":"500","category_name":"未知分类","address":"延安西路1794号(近天山路)"},{"poiid":"B2094757D06FA7F4409C","title":"上海国际体操中心羽毛球馆","lon":"121.41341304","lat":"31.213108572","category":"220","category_name":"运动场所","address":"上海长宁区武夷路777号(近中山西路)"},{"poiid":"B2094752D76EA4F44698","title":"本家韩国料理","lon":"121.413605","lat":"31.209045","category":"247","category_name":"餐饮美食","address":"天山路1900号(近延安西路)"},{"poiid":"B2094750D565A6FA459A","title":"New star","lon":"121.414184","lat":"31.209081","category":"248","category_name":"生活娱乐","address":"天山路延安西路"},{"poiid":"B2094757D068A4FA469E","title":"绿洲大厦","lon":"121.412556","lat":"31.213812","category":"46","category_name":"楼宇","address":"石景山区阜石路与杨庄东街交叉口西北角"},{"poiid":"B2094757D06FA5FD429A","title":"长宁区国家税务局","lon":"121.41092798","lat":"31.209929853","category":"500","category_name":"未知分类","address":"上海天山路1827号"},{"poiid":"B2094757D068A6F44999","title":"佳佳母婴天地中山西路分部","lon":"121.41130058","lat":"31.208866013","category":"128","category_name":"儿童用品店","address":"上海市长宁区中山西路753号"},{"poiid":"B2094757D06FA7FB489B","title":"天山茶城","lon":"121.41228","lat":"31.2127","category":"136","category_name":"烟酒专卖店","address":"长宁区中山西路518号(玉屏南路口)"},{"poiid":"B2094757D06FA7FD4193","title":"盛高国际大厦","lon":"121.41","lat":"31.2119","category":"46","category_name":"楼宇","address":"上海市长宁区仙霞路137号"},{"poiid":"B2094654D565A5F9439B","title":"乐购(长宁店)","lon":"121.41323","lat":"31.21296","category":"118","category_name":"超级市场","address":"长宁区武夷路777号国际体操中心游泳馆1楼(近中山西路)"},{"poiid":"B2094757D068AAFA4492","title":"上海市人力资源和社会保障局","lon":"121.411439373","lat":"31.2106589438","category":"46","category_name":"楼宇","address":"上海天山路1800号"},{"poiid":"B2094757D06FAAF9439E","title":"一茶一座(中山公园店)","lon":"121.411003113","lat":"31.2094993591","category":"47","category_name":"住宅区","address":"上海长宁区中山公园龙之梦b2"},{"poiid":"B2094655D26AAAF44692","title":"爆香串云南烧 天山店","lon":"121.411529","lat":"31.209659","category":"68","category_name":"快餐厅","address":"长宁区中山西路642号(近天山路)"},{"poiid":"B2094757D06AA2F54198","title":"君荟轩","lon":"121.40845","lat":"31.21167","category":"72","category_name":"广东菜","address":"长宁区遵义路448号上海君丽大酒店2楼(近天山路)"},{"poiid":"B2094752D16CA2F44393","title":"上海虹桥机场T2航站楼","lon":"121.409324","lat":"31.20917","category":"251","category_name":"出行住宿","address":null},{"poiid":"B2094750D565A6FB499D","title":"纽斯汗蒸","lon":"121.414192","lat":"31.209089","category":"249","category_name":"购物服务","address":"天山路77号"},{"poiid":"B2094654D56BA5F8409B","title":"东方国际大厦","lon":"121.409","lat":"31.2111","category":"46","category_name":"楼宇","address":"上海市浦东新区张杨路500号"},{"poiid":"B2094654D56BA5FA439F","title":"协泰中心","lon":"121.413","lat":"31.2105","category":"46","category_name":"楼宇","address":"上海市奉贤区环城东路455,465弄"},{"poiid":"B2094654D56BA5F8449C","title":"太阳广场","lon":"121.40990558974","lat":"31.211613527137","category":"46","category_name":"楼宇","address":"丰台学城海鹰路1号,3号"},{"poiid":"B2094654D56BA0F5459E","title":"安泰大楼","lon":"121.413","lat":"31.2129","category":"46","category_name":"楼宇","address":"上海市长宁区遵义路107号"},{"poiid":"B2094757DA69A1F94499","title":"虹桥上海城","lon":"121.414","lat":"31.2127","category":"119","category_name":"商场","address":"上海市长宁区遵义路100号"},{"poiid":"B2094752D264A3FD4093","title":"虹桥机场","lon":"121.410378","lat":"31.211271","category":"251","category_name":"出行住宿","address":null},{"poiid":"B2094757D568A7FB4198","title":"市职培中心","lon":"121.4113754","lat":"31.21071401","category":"190","category_name":"培训机构","address":"天山路1800号"},{"poiid":"B2094757D16DAAF84393","title":"云南烧烤","lon":"121.41192458","lat":"31.210292041","category":"247","category_name":"餐饮美食","address":"上海市长宁区遵义路"},{"poiid":"B2094750DA69A3F44099","title":"纽斯spa会所","lon":"121.414466","lat":"31.209598","category":"148","category_name":"美容美发店","address":null},{"poiid":"B2094751D56CAAF5409E","title":"其鲜生煎(玉屏南路店)","lon":"121.41221","lat":"31.20983","category":"68","category_name":"快餐厅","address":"长宁区玉屏南路(近武夷路)"},{"poiid":"B2094757D568ABF8479A","title":"Lucky Star","lon":"121.41300266","lat":"31.2102946","category":"65","category_name":"咖啡厅","address":"长宁区中山西路743号永田大厦(天山路中山西路)"},{"poiid":"B2094655D26BA2FC419A","title":"武夷路中山西路","lon":"121.41431","lat":"31.21268","category":"38","category_name":"公交车站","address":""},{"poiid":"B2094757D06FA5F9429E","title":"中山西路立交","lon":"121.41245269","lat":"31.208242416","category":"500","category_name":"未知分类","address":"上海立交桥"},{"poiid":"B2094757D569A2FB419A","title":"佳恒十三香龙虾(玉屏南路店)","lon":"121.4114244","lat":"31.21239889","category":"68","category_name":"快餐厅","address":"长宁区玉屏南路17号(近中山西路)"},{"poiid":"B2094757D469A5F9489B","title":"赞歧田野 武夷路店","lon":"121.412915","lat":"31.2129","category":"95","category_name":"日本料理","address":"长宁区武夷路789号美仑大酒店1楼(近国际体操中心)"},{"poiid":"B2094757D068A0FE479C","title":"星之健身(长宁店)","lon":"121.4137","lat":"31.21239","category":"221","category_name":"健身中心","address":"长宁区武夷路777号国际体操中心游泳馆3楼(近中山西路)"},{"poiid":"B2094654D56BA0F84792","title":"川汇万家 玉屏南路店","lon":"121.40896846309","lat":"31.212753255329","category":"71","category_name":"四川菜","address":"长宁区玉屏南路150号(近遵义路)"},{"poiid":"B2094654D56BA0FE4198","title":"中国(上海)高技能人才公共实训中心","lon":"121.41137","lat":"31.21071","category":"190","category_name":"培训机构","address":"天山路1800"},{"poiid":"B2094753D569A1FC459E","title":"英伦美宴","lon":"121.410599","lat":"31.210452","category":"247","category_name":"餐饮美食","address":"上海长宁区天山路1900号（环东华时尚休闲中心）"},{"poiid":"B2094654D56BA5FA4498","title":"天虹大楼","lon":"121.413","lat":"31.2109","category":"46","category_name":"楼宇","address":"仙霞路80号"},{"poiid":"B2094757D465A3FC4192","title":"苏州羊肉面馆 天山店","lon":"121.411701054","lat":"31.209451793","category":"247","category_name":"餐饮美食","address":"长宁区天山路1821号(近中山西路)"},{"poiid":"B2094654DB6BA7FC439B","title":"快客(内环高架路出口)","lon":"121.4124","lat":"31.21047","category":"117","category_name":"便民商店/便利店","address":""},{"poiid":"B2094757D06AA7FE479C","title":"国家电网沪西基地","lon":"121.40975958","lat":"31.210561046","category":"500","category_name":"未知分类","address":"上海市长宁区天山路1756号"},{"poiid":"B2094654DB6AA3FF4093","title":"上海市地方税务局长宁分局第6税务所","lon":"121.41109","lat":"31.20941","category":"250","category_name":"公园户外","address":"天山路1827号"},{"poiid":"B2094757D068ABFA4798","title":"吉祥馄饨(武夷路店)","lon":"121.414","lat":"31.21214","category":"68","category_name":"快餐厅","address":"长宁区武夷路782号(近中山西路)"},{"poiid":"B2094757D165ABFB4192","title":"季风美容美发","lon":"121.411688486","lat":"31.2120500755","category":"148","category_name":"美容美发店","address":"上海市长宁区天山路789号百盛商城b楼2层38号"},{"poiid":"B2094757D16EA0FE4392","title":"友谊小区","lon":"121.41073158","lat":"31.212208078","category":"47","category_name":"住宅区","address":"天山路1726弄7号503室"},{"poiid":"B2094655D26DA7FE4993","title":"皇家商务楼","lon":"121.41057","lat":"31.2095","category":"46","category_name":"楼宇","address":"天山路1825"},{"poiid":"B2094757DA6EABFB469A","title":"尚嘉中心","lon":"121.413","lat":"31.2115","category":"249","category_name":"购物服务","address":"上海市长宁区仙霞路99号"},{"poiid":"B2094750D668A7FB439D","title":"纽斯桑拿会所","lon":"121.414176","lat":"31.209903","category":"248","category_name":"生活娱乐","address":"长宁区天山路1900号(近延安西路)"},{"poiid":"B2094757D06EAAFF4793","title":"上海国际体操中心","lon":"121.41346669","lat":"31.213709584","category":"220","category_name":"运动场所","address":"长宁区武夷路777号国际体操中心游泳馆内(近中山西路)"},{"poiid":"B2094757D06FA3F94892","title":"上海市职业培训指导中心","lon":"121.41142","lat":"31.21003","category":"253","category_name":"校园生活","address":"长宁区天山路1800号(近中山西路)"},{"poiid":"B2094750DB6CA0FE449A","title":"纽斯韩式汗蒸会所","lon":"121.411201","lat":"31.20803","category":"148","category_name":"美容美发店","address":null},{"poiid":"B2094655D36DA7F8489E","title":"中山西路天山路","lon":"121.41274","lat":"31.21002","category":"38","category_name":"公交车站","address":""},{"poiid":"B2094757DB6FAAFA4092","title":"Petit George Cafe","lon":"121.4110325","lat":"31.2095602","category":"500","category_name":"未知分类","address":"延安西路1794号(近天山路)"},{"poiid":"B2094757D06FA7F4409C","title":"上海国际体操中心羽毛球馆","lon":"121.41341304","lat":"31.213108572","category":"220","category_name":"运动场所","address":"上海长宁区武夷路777号(近中山西路)"},{"poiid":"B2094752D76EA4F44698","title":"本家韩国料理","lon":"121.413605","lat":"31.209045","category":"247","category_name":"餐饮美食","address":"天山路1900号(近延安西路)"},{"poiid":"B2094750D565A6FA459A","title":"New star","lon":"121.414184","lat":"31.209081","category":"248","category_name":"生活娱乐","address":"天山路延安西路"},{"poiid":"B2094757D068A4FA469E","title":"绿洲大厦","lon":"121.412556","lat":"31.213812","category":"46","category_name":"楼宇","address":"石景山区阜石路与杨庄东街交叉口西北角"},{"poiid":"B2094757D06FA5FD429A","title":"长宁区国家税务局","lon":"121.41092798","lat":"31.209929853","category":"500","category_name":"未知分类","address":"上海天山路1827号"},{"poiid":"B2094757D068A6F44999","title":"佳佳母婴天地中山西路分部","lon":"121.41130058","lat":"31.208866013","category":"128","category_name":"儿童用品店","address":"上海市长宁区中山西路753号"},{"poiid":"B2094757D06FA7FB489B","title":"天山茶城","lon":"121.41228","lat":"31.2127","category":"136","category_name":"烟酒专卖店","address":"长宁区中山西路518号(玉屏南路口)"},{"poiid":"B2094757D06FA7FD4193","title":"盛高国际大厦","lon":"121.41","lat":"31.2119","category":"46","category_name":"楼宇","address":"上海市长宁区仙霞路137号"},{"poiid":"B2094654D565A5F9439B","title":"乐购(长宁店)","lon":"121.41323","lat":"31.21296","category":"118","category_name":"超级市场","address":"长宁区武夷路777号国际体操中心游泳馆1楼(近中山西路)"},{"poiid":"B2094757D068AAFA4492","title":"上海市人力资源和社会保障局","lon":"121.411439373","lat":"31.2106589438","category":"46","category_name":"楼宇","address":"上海天山路1800号"},{"poiid":"B2094757D06FAAF9439E","title":"一茶一座(中山公园店)","lon":"121.411003113","lat":"31.2094993591","category":"47","category_name":"住宅区","address":"上海长宁区中山公园龙之梦b2"},{"poiid":"B2094655D26AAAF44692","title":"爆香串云南烧 天山店","lon":"121.411529","lat":"31.209659","category":"68","category_name":"快餐厅","address":"长宁区中山西路642号(近天山路)"},{"poiid":"B2094757D06AA2F54198","title":"君荟轩","lon":"121.40845","lat":"31.21167","category":"72","category_name":"广东菜","address":"长宁区遵义路448号上海君丽大酒店2楼(近天山路)"},{"poiid":"B2094752D16CA2F44393","title":"上海虹桥机场T2航站楼","lon":"121.409324","lat":"31.20917","category":"251","category_name":"出行住宿","address":null},{"poiid":"B2094750D565A6FB499D","title":"纽斯汗蒸","lon":"121.414192","lat":"31.209089","category":"249","category_name":"购物服务","address":"天山路77号"},{"poiid":"B2094654D56BA5F8409B","title":"东方国际大厦","lon":"121.409","lat":"31.2111","category":"46","category_name":"楼宇","address":"上海市浦东新区张杨路500号"},{"poiid":"B2094654D56BA5FA439F","title":"协泰中心","lon":"121.413","lat":"31.2105","category":"46","category_name":"楼宇","address":"上海市奉贤区环城东路455,465弄"},{"poiid":"B2094654D56BA5F8449C","title":"太阳广场","lon":"121.40990558974","lat":"31.211613527137","category":"46","category_name":"楼宇","address":"丰台学城海鹰路1号,3号"},{"poiid":"B2094654D56BA0F5459E","title":"安泰大楼","lon":"121.413","lat":"31.2129","category":"46","category_name":"楼宇","address":"上海市长宁区遵义路107号"},{"poiid":"B2094757DA69A1F94499","title":"虹桥上海城","lon":"121.414","lat":"31.2127","category":"119","category_name":"商场","address":"上海市长宁区遵义路100号"},{"poiid":"B2094752D264A3FD4093","title":"虹桥机场","lon":"121.410378","lat":"31.211271","category":"251","category_name":"出行住宿","address":null},{"poiid":"B2094757D568A7FB4198","title":"市职培中心","lon":"121.4113754","lat":"31.21071401","category":"190","category_name":"培训机构","address":"天山路1800号"},{"poiid":"B2094757D16DAAF84393","title":"云南烧烤","lon":"121.41192458","lat":"31.210292041","category":"247","category_name":"餐饮美食","address":"上海市长宁区遵义路"},{"poiid":"B2094750DA69A3F44099","title":"纽斯spa会所","lon":"121.414466","lat":"31.209598","category":"148","category_name":"美容美发店","address":null},{"poiid":"B2094751D56CAAF5409E","title":"其鲜生煎(玉屏南路店)","lon":"121.41221","lat":"31.20983","category":"68","category_name":"快餐厅","address":"长宁区玉屏南路(近武夷路)"},{"poiid":"B2094757D568ABF8479A","title":"Lucky Star","lon":"121.41300266","lat":"31.2102946","category":"65","category_name":"咖啡厅","address":"长宁区中山西路743号永田大厦(天山路中山西路)"},{"poiid":"B2094655D26BA2FC419A","title":"武夷路中山西路","lon":"121.41431","lat":"31.21268","category":"38","category_name":"公交车站","address":""},{"poiid":"B2094757D06FA5F9429E","title":"中山西路立交","lon":"121.41245269","lat":"31.208242416","category":"500","category_name":"未知分类","address":"上海立交桥"},{"poiid":"B2094757D569A2FB419A","title":"佳恒十三香龙虾(玉屏南路店)","lon":"121.4114244","lat":"31.21239889","category":"68","category_name":"快餐厅","address":"长宁区玉屏南路17号(近中山西路)"},{"poiid":"B2094757D469A5F9489B","title":"赞歧田野 武夷路店","lon":"121.412915","lat":"31.2129","category":"95","category_name":"日本料理","address":"长宁区武夷路789号美仑大酒店1楼(近国际体操中心)"},{"poiid":"B2094757D068A0FE479C","title":"星之健身(长宁店)","lon":"121.4137","lat":"31.21239","category":"221","category_name":"健身中心","address":"长宁区武夷路777号国际体操中心游泳馆3楼(近中山西路)"},{"poiid":"B2094654D56BA0F84792","title":"川汇万家 玉屏南路店","lon":"121.40896846309","lat":"31.212753255329","category":"71","category_name":"四川菜","address":"长宁区玉屏南路150号(近遵义路)"},{"poiid":"B2094654D56BA0FE4198","title":"中国(上海)高技能人才公共实训中心","lon":"121.41137","lat":"31.21071","category":"190","category_name":"培训机构","address":"天山路1800"},{"poiid":"B2094753D569A1FC459E","title":"英伦美宴","lon":"121.410599","lat":"31.210452","category":"247","category_name":"餐饮美食","address":"上海长宁区天山路1900号（环东华时尚休闲中心）"},{"poiid":"B2094654D56BA5FA4498","title":"天虹大楼","lon":"121.413","lat":"31.2109","category":"46","category_name":"楼宇","address":"仙霞路80号"},{"poiid":"B2094757D465A3FC4192","title":"苏州羊肉面馆 天山店","lon":"121.411701054","lat":"31.209451793","category":"247","category_name":"餐饮美食","address":"长宁区天山路1821号(近中山西路)"},{"poiid":"B2094654DB6BA7FC439B","title":"快客(内环高架路出口)","lon":"121.4124","lat":"31.21047","category":"117","category_name":"便民商店/便利店","address":""},{"poiid":"B2094757D06AA7FE479C","title":"国家电网沪西基地","lon":"121.40975958","lat":"31.210561046","category":"500","category_name":"未知分类","address":"上海市长宁区天山路1756号"},{"poiid":"B2094654DB6AA3FF4093","title":"上海市地方税务局长宁分局第6税务所","lon":"121.41109","lat":"31.20941","category":"250","category_name":"公园户外","address":"天山路1827号"},{"poiid":"B2094757D068ABFA4798","title":"吉祥馄饨(武夷路店)","lon":"121.414","lat":"31.21214","category":"68","category_name":"快餐厅","address":"长宁区武夷路782号(近中山西路)"},{"poiid":"B2094757D165ABFB4192","title":"季风美容美发","lon":"121.411688486","lat":"31.2120500755","category":"148","category_name":"美容美发店","address":"上海市长宁区天山路789号百盛商城b楼2层38号"},{"poiid":"B2094757D16EA0FE4392","title":"友谊小区","lon":"121.41073158","lat":"31.212208078","category":"47","category_name":"住宅区","address":"天山路1726弄7号503室"},{"poiid":"B2094655D26DA7FE4993","title":"皇家商务楼","lon":"121.41057","lat":"31.2095","category":"46","category_name":"楼宇","address":"天山路1825"},{"poiid":"B2094757DA6EABFB469A","title":"尚嘉中心","lon":"121.413","lat":"31.2115","category":"249","category_name":"购物服务","address":"上海市长宁区仙霞路99号"},{"poiid":"B2094750D668A7FB439D","title":"纽斯桑拿会所","lon":"121.414176","lat":"31.209903","category":"248","category_name":"生活娱乐","address":"长宁区天山路1900号(近延安西路)"},{"poiid":"B2094757D06EAAFF4793","title":"上海国际体操中心","lon":"121.41346669","lat":"31.213709584","category":"220","category_name":"运动场所","address":"长宁区武夷路777号国际体操中心游泳馆内(近中山西路)"},{"poiid":"B2094757D06FA3F94892","title":"上海市职业培训指导中心","lon":"121.41142","lat":"31.21003","category":"253","category_name":"校园生活","address":"长宁区天山路1800号(近中山西路)"},{"poiid":"B2094750DB6CA0FE449A","title":"纽斯韩式汗蒸会所","lon":"121.411201","lat":"31.20803","category":"148","category_name":"美容美发店","address":null},{"poiid":"B2094655D36DA7F8489E","title":"中山西路天山路","lon":"121.41274","lat":"31.21002","category":"38","category_name":"公交车站","address":""},{"poiid":"B2094757DB6FAAFA4092","title":"Petit George Cafe","lon":"121.4110325","lat":"31.2095602","category":"500","category_name":"未知分类","address":"延安西路1794号(近天山路)"},{"poiid":"B2094757D06FA7F4409C","title":"上海国际体操中心羽毛球馆","lon":"121.41341304","lat":"31.213108572","category":"220","category_name":"运动场所","address":"上海长宁区武夷路777号(近中山西路)"},{"poiid":"B2094752D76EA4F44698","title":"本家韩国料理","lon":"121.413605","lat":"31.209045","category":"247","category_name":"餐饮美食","address":"天山路1900号(近延安西路)"},{"poiid":"B2094750D565A6FA459A","title":"New star","lon":"121.414184","lat":"31.209081","category":"248","category_name":"生活娱乐","address":"天山路延安西路"},{"poiid":"B2094757D068A4FA469E","title":"绿洲大厦","lon":"121.412556","lat":"31.213812","category":"46","category_name":"楼宇","address":"石景山区阜石路与杨庄东街交叉口西北角"},{"poiid":"B2094757D06FA5FD429A","title":"长宁区国家税务局","lon":"121.41092798","lat":"31.209929853","category":"500","category_name":"未知分类","address":"上海天山路1827号"},{"poiid":"B2094757D068A6F44999","title":"佳佳母婴天地中山西路分部","lon":"121.41130058","lat":"31.208866013","category":"128","category_name":"儿童用品店","address":"上海市长宁区中山西路753号"},{"poiid":"B2094757D06FA7FB489B","title":"天山茶城","lon":"121.41228","lat":"31.2127","category":"136","category_name":"烟酒专卖店","address":"长宁区中山西路518号(玉屏南路口)"},{"poiid":"B2094757D06FA7FD4193","title":"盛高国际大厦","lon":"121.41","lat":"31.2119","category":"46","category_name":"楼宇","address":"上海市长宁区仙霞路137号"},{"poiid":"B2094654D565A5F9439B","title":"乐购(长宁店)","lon":"121.41323","lat":"31.21296","category":"118","category_name":"超级市场","address":"长宁区武夷路777号国际体操中心游泳馆1楼(近中山西路)"},{"poiid":"B2094757D068AAFA4492","title":"上海市人力资源和社会保障局","lon":"121.411439373","lat":"31.2106589438","category":"46","category_name":"楼宇","address":"上海天山路1800号"},{"poiid":"B2094757D06FAAF9439E","title":"一茶一座(中山公园店)","lon":"121.411003113","lat":"31.2094993591","category":"47","category_name":"住宅区","address":"上海长宁区中山公园龙之梦b2"},{"poiid":"B2094655D26AAAF44692","title":"爆香串云南烧 天山店","lon":"121.411529","lat":"31.209659","category":"68","category_name":"快餐厅","address":"长宁区中山西路642号(近天山路)"},{"poiid":"B2094757D06AA2F54198","title":"君荟轩","lon":"121.40845","lat":"31.21167","category":"72","category_name":"广东菜","address":"长宁区遵义路448号上海君丽大酒店2楼(近天山路)"},{"poiid":"B2094752D16CA2F44393","title":"上海虹桥机场T2航站楼","lon":"121.409324","lat":"31.20917","category":"251","category_name":"出行住宿","address":null},{"poiid":"B2094750D565A6FB499D","title":"纽斯汗蒸","lon":"121.414192","lat":"31.209089","category":"249","category_name":"购物服务","address":"天山路77号"},{"poiid":"B2094654D56BA5F8409B","title":"东方国际大厦","lon":"121.409","lat":"31.2111","category":"46","category_name":"楼宇","address":"上海市浦东新区张杨路500号"},{"poiid":"B2094654D56BA5FA439F","title":"协泰中心","lon":"121.413","lat":"31.2105","category":"46","category_name":"楼宇","address":"上海市奉贤区环城东路455,465弄"},{"poiid":"B2094654D56BA5F8449C","title":"太阳广场","lon":"121.40990558974","lat":"31.211613527137","category":"46","category_name":"楼宇","address":"丰台学城海鹰路1号,3号"},{"poiid":"B2094654D56BA0F5459E","title":"安泰大楼","lon":"121.413","lat":"31.2129","category":"46","category_name":"楼宇","address":"上海市长宁区遵义路107号"},{"poiid":"B2094757DA69A1F94499","title":"虹桥上海城","lon":"121.414","lat":"31.2127","category":"119","category_name":"商场","address":"上海市长宁区遵义路100号"},{"poiid":"B2094752D264A3FD4093","title":"虹桥机场","lon":"121.410378","lat":"31.211271","category":"251","category_name":"出行住宿","address":null},{"poiid":"B2094757D568A7FB4198","title":"市职培中心","lon":"121.4113754","lat":"31.21071401","category":"190","category_name":"培训机构","address":"天山路1800号"},{"poiid":"B2094757D16DAAF84393","title":"云南烧烤","lon":"121.41192458","lat":"31.210292041","category":"247","category_name":"餐饮美食","address":"上海市长宁区遵义路"},{"poiid":"B2094750DA69A3F44099","title":"纽斯spa会所","lon":"121.414466","lat":"31.209598","category":"148","category_name":"美容美发店","address":null},{"poiid":"B2094751D56CAAF5409E","title":"其鲜生煎(玉屏南路店)","lon":"121.41221","lat":"31.20983","category":"68","category_name":"快餐厅","address":"长宁区玉屏南路(近武夷路)"},{"poiid":"B2094757D568ABF8479A","title":"Lucky Star","lon":"121.41300266","lat":"31.2102946","category":"65","category_name":"咖啡厅","address":"长宁区中山西路743号永田大厦(天山路中山西路)"},{"poiid":"B2094655D26BA2FC419A","title":"武夷路中山西路","lon":"121.41431","lat":"31.21268","category":"38","category_name":"公交车站","address":""},{"poiid":"B2094757D06FA5F9429E","title":"中山西路立交","lon":"121.41245269","lat":"31.208242416","category":"500","category_name":"未知分类","address":"上海立交桥"},{"poiid":"B2094757D569A2FB419A","title":"佳恒十三香龙虾(玉屏南路店)","lon":"121.4114244","lat":"31.21239889","category":"68","category_name":"快餐厅","address":"长宁区玉屏南路17号(近中山西路)"},{"poiid":"B2094757D469A5F9489B","title":"赞歧田野 武夷路店","lon":"121.412915","lat":"31.2129","category":"95","category_name":"日本料理","address":"长宁区武夷路789号美仑大酒店1楼(近国际体操中心)"},{"poiid":"B2094757D068A0FE479C","title":"星之健身(长宁店)","lon":"121.4137","lat":"31.21239","category":"221","category_name":"健身中心","address":"长宁区武夷路777号国际体操中心游泳馆3楼(近中山西路)"},{"poiid":"B2094654D56BA0F84792","title":"川汇万家 玉屏南路店","lon":"121.40896846309","lat":"31.212753255329","category":"71","category_name":"四川菜","address":"长宁区玉屏南路150号(近遵义路)"},{"poiid":"B2094654D56BA0FE4198","title":"中国(上海)高技能人才公共实训中心","lon":"121.41137","lat":"31.21071","category":"190","category_name":"培训机构","address":"天山路1800"},{"poiid":"B2094753D569A1FC459E","title":"英伦美宴","lon":"121.410599","lat":"31.210452","category":"247","category_name":"餐饮美食","address":"上海长宁区天山路1900号（环东华时尚休闲中心）"},{"poiid":"B2094654D56BA5FA4498","title":"天虹大楼","lon":"121.413","lat":"31.2109","category":"46","category_name":"楼宇","address":"仙霞路80号"},{"poiid":"B2094757D465A3FC4192","title":"苏州羊肉面馆 天山店","lon":"121.411701054","lat":"31.209451793","category":"247","category_name":"餐饮美食","address":"长宁区天山路1821号(近中山西路)"},{"poiid":"B2094654DB6BA7FC439B","title":"快客(内环高架路出口)","lon":"121.4124","lat":"31.21047","category":"117","category_name":"便民商店/便利店","address":""},{"poiid":"B2094757D06AA7FE479C","title":"国家电网沪西基地","lon":"121.40975958","lat":"31.210561046","category":"500","category_name":"未知分类","address":"上海市长宁区天山路1756号"},{"poiid":"B2094654DB6AA3FF4093","title":"上海市地方税务局长宁分局第6税务所","lon":"121.41109","lat":"31.20941","category":"250","category_name":"公园户外","address":"天山路1827号"},{"poiid":"B2094757D068ABFA4798","title":"吉祥馄饨(武夷路店)","lon":"121.414","lat":"31.21214","category":"68","category_name":"快餐厅","address":"长宁区武夷路782号(近中山西路)"},{"poiid":"B2094757D165ABFB4192","title":"季风美容美发","lon":"121.411688486","lat":"31.2120500755","category":"148","category_name":"美容美发店","address":"上海市长宁区天山路789号百盛商城b楼2层38号"},{"poiid":"B2094757D16EA0FE4392","title":"友谊小区","lon":"121.41073158","lat":"31.212208078","category":"47","category_name":"住宅区","address":"天山路1726弄7号503室"},{"poiid":"B2094655D26DA7FE4993","title":"皇家商务楼","lon":"121.41057","lat":"31.2095","category":"46","category_name":"楼宇","address":"天山路1825"}]