[{"poiid":"B2094655D26CAAF94198","title":"SOHO东海广场","lon":"121.455285","lat":"31.23305","category":"46","category_name":"楼宇","address":"上海市浦东新区金桥路983号"},{"poiid":"B2094757DA69A2F9489F","title":"CLUB-IBIZA","lon":"121.45313","lat":"31.23536","category":"111","category_name":"休闲餐饮场所","address":"静安区江宁路428号(近武定路)"},{"poiid":"B2094757D068A3F8439A","title":"BELLO'CO 倍乐","lon":"121.45942745","lat":"31.236405856","category":"500","category_name":"未知分类","address":"上海新闸路848号"},{"poiid":"B2094753D76FAAFA449C","title":"上海滩国泰旗舰店","lon":"121.466011","lat":"31.216125","category":"249","category_name":"购物服务","address":"淮海中路868号"},{"poiid":"B209475CD564A7F84292","title":"上海滩新天地店","lon":"121.47463","lat":"31.22164","category":"119","category_name":"商场","address":"\"太仓路181弄新天地北里15号\r\n\""},{"poiid":"B209475CD564A7F8439E","title":"上海滩中信泰富店","lon":"121.45602","lat":"31.22851","category":"119","category_name":"商场","address":"\"南京西路1168号中信泰富广场，店铺号221.\r\n\""},{"poiid":"B2094757D06FA3FE4799","title":"星巴克(远中风华店)","lon":"121.455101","lat":"31.234818","category":"65","category_name":"咖啡厅","address":"静安区昌化路68号(近武定路)"},{"poiid":"B2094757D56EA3F4499D","title":"La Pasta 义面屋","lon":"121.457576","lat":"31.233518","category":"247","category_name":"餐饮美食","address":"静安区南京西路819号中创大厦5楼"},{"poiid":"B2094757D06FA3FF499D","title":"静安体育中心游泳馆","lon":"121.4535","lat":"31.23532","category":"220","category_name":"运动场所","address":"静安区康定路151号静安体育中心内(昌化路口)"},{"poiid":"B2094750D365A0FA4698","title":"倍乐创意韩国料理","lon":"121.457778","lat":"31.234186","category":"96","category_name":"韩国料理","address":"静安区新闸路848-850号(近石门二路)"},{"poiid":"B2094757D16CA0FE469D","title":"海底捞","lon":"121.456670738","lat":"31.2332153637","category":"500","category_name":"未知分类","address":"上海市静安区江宁路"},{"poiid":"B2094757D068A3FB419E","title":"静安体育中心","lon":"121.453154634","lat":"31.2354116335","category":"220","category_name":"运动场所","address":"静安区康定路151号静安体育中心内(武定路口)"},{"poiid":"B2094654DA6CA0FA4893","title":"国立大厦","lon":"121.454","lat":"31.2337","category":"46","category_name":"楼宇","address":"北京西路1465号"},{"poiid":"B2094757D06FA6F4439A","title":"国旅大厦","lon":"121.45750893637","lat":"31.235029833226","category":"46","category_name":"楼宇","address":"上海市四川北路1851号"},{"poiid":"B2094654DA6CA5FA479B","title":"MOB(新闸路店)","lon":"121.45814","lat":"31.23372","category":"221","category_name":"健身中心","address":"静安区新闸路945号国际丽都城群楼3楼(近泰兴路)"},{"poiid":"B2094757D06FA4F9469F","title":"信达大厦","lon":"121.455","lat":"31.2339","category":"46","category_name":"楼宇","address":"上海北京西路1399号"},{"poiid":"B2094654DA6CA5F4409E","title":"帆顺海味馆","lon":"121.45532719303","lat":"31.237192665273","category":"76","category_name":"上海菜","address":"静安区康定路18号(泰兴路口)"},{"poiid":"B2094757D16FA0F84599","title":"多福苑","lon":"121.45427","lat":"31.23595","category":"96","category_name":"韩国料理","address":"静安区石门二路221号(近新闸路)"},{"poiid":"B2094655D26BA2FA449E","title":"泰兴路","lon":"121.45517","lat":"31.23698","category":"38","category_name":"公交车站","address":""},{"poiid":"B2094757D069A0FA469D","title":"静安体育中心羽毛球馆","lon":"121.45434","lat":"31.23444","category":"220","category_name":"运动场所","address":"静安区昌化路165号(近武定路)"},{"poiid":"B2094757D06AA2FA479B","title":"翁龄旺山珍","lon":"121.45724","lat":"31.2354","category":"76","category_name":"上海菜","address":"静安区泰兴路528号(近武定路)"},{"poiid":"B2094757D66CA3F54693","title":"凯撒国际会所","lon":"121.456417738","lat":"31.2346433941","category":"500","category_name":"未知分类","address":"上海市静安区新闸路石门二路"},{"poiid":"B2094654DA6CA4FF4798","title":"振安广场恒安大厦","lon":"121.45935","lat":"31.23598","category":"46","category_name":"楼宇","address":"石门二路333弄3-9号"},{"poiid":"B2094751D56CA2F84899","title":"和家庭日本料理(康定东路店)","lon":"121.4581","lat":"31.23644","category":"95","category_name":"日本料理","address":"静安区康定东路13弄10号(近泰兴路)"},{"poiid":"B209475CD76FA6F94292","title":"寒烟姐姐的咖啡屋","lon":"121.455947","lat":"31.235366","category":"65","category_name":"咖啡厅","address":"上海市 武定路"},{"poiid":"B2094753DB64A3FC479D","title":"寒烟姐姐的咖啡馆","lon":"121.455642","lat":"31.23455","category":"65","category_name":"咖啡厅","address":"上海市 武定路226号"},{"poiid":"B2094654DA6CA5FB4992","title":"万皇酒家","lon":"121.45945","lat":"31.23696","category":"76","category_name":"上海菜","address":"静安区泰兴路630号(近康定路)"},{"poiid":"B2094654DA6CA5FB4399","title":"翁龄旺上海小馆","lon":"121.45708","lat":"31.23564","category":"257","category_name":"中餐厅","address":"泰兴路528号近武定路"},{"poiid":"B2094753DB6CABFF4393","title":"酒鬼食堂Drunk Uncle","lon":"121.454711","lat":"31.234748","category":"247","category_name":"餐饮美食","address":"上海市 昌化路46号，靠近武定路"},{"poiid":"B2094655D26DA3FB439B","title":"静安国际广场","lon":"121.455","lat":"31.2371","category":"46","category_name":"楼宇","address":"上海市静安区新闸路1518号"},{"poiid":"B2094752DB6BABFB429A","title":"辣府","lon":"121.457446","lat":"31.235396","category":"247","category_name":"餐饮美食","address":"上海市 云南南路180号(近淮海东路)"},{"poiid":"B209475CD468A6FF409A","title":"寒烟姐姐的咖啡屋","lon":"121.455871","lat":"31.23534","category":"65","category_name":"咖啡厅","address":"上海市 武定路"},{"poiid":"B2094655D26CABF8429F","title":"蝴蝶湾花园","lon":"121.45606","lat":"31.23754","category":"47","category_name":"住宅区","address":""},{"poiid":"B209475CD068A0FA469F","title":"阿娘家","lon":"121.457064","lat":"31.235371","category":"76","category_name":"上海菜","address":"泰兴路528号近武定路"},{"poiid":"B2094654DA6CA5FB469F","title":"太和坊","lon":"121.45779","lat":"31.236706","category":"47","category_name":"住宅区","address":"武定路78-1"},{"poiid":"B2094757D064A6F5469A","title":"远中风华","lon":"121.456046738","lat":"31.2348953995","category":"47","category_name":"住宅区","address":"上海市静安区新闸路1068弄"},{"poiid":"B2094655D26DA3FF469A","title":"太府·名邸(东门)","lon":"121.456","lat":"31.23653","category":"47","category_name":"住宅区","address":"泰兴路625弄1-14"},{"poiid":"B2094757D064A3FE4192","title":"九安广场","lon":"121.457","lat":"31.2328","category":"500","category_name":"未知分类","address":"上海市平凉路1398号"},{"poiid":"B209475DD56AAAF9409D","title":"CAGES Indoor Athletic Club","lon":"121.456146","lat":"31.235635","category":"248","category_name":"生活娱乐","address":"上海市静安区昌化路325号二楼"},{"poiid":"B2094757D065AAF9459C","title":"武泰公寓","lon":"121.45557","lat":"31.236061","category":"252","category_name":"楼宇机构","address":"武泰公寓位于静安泰兴路567号"},{"poiid":"B2094753D76AA1F9499E","title":"CORNER,WINE&COFFEE","lon":"121.45756","lat":"31.23405","category":"247","category_name":"餐饮美食","address":"上海市静安区泰兴路428号(近新闸路)"},{"poiid":"B2094654DA6CA5FB499F","title":"泰武保健","lon":"121.45612","lat":"31.23679","category":"162","category_name":"医院","address":"泰兴路626号"},{"poiid":"B2094750D268A2FD4092","title":"古丽仙西域餐厅","lon":"121.458595","lat":"31.234464","category":"247","category_name":"餐饮美食","address":"南京西路818广场"},{"poiid":"B2094654DA6CA5FB439F","title":"中泰大厦","lon":"121.45715","lat":"31.235605","category":"47","category_name":"住宅区","address":"武定路141号"},{"poiid":"B2094757D16BA4FF4492","title":"潮汕沙锅粥馆","lon":"121.458894","lat":"31.2346","category":"247","category_name":"餐饮美食","address":"上海新闸路868号"},{"poiid":"B2094655D26DA7FC449C","title":"中泰大厦(南门)","lon":"121.45713","lat":"31.23538","category":"47","category_name":"住宅区","address":"泰兴路528"},{"poiid":"B2094757D66EA5F4409A","title":"上海石二健身俱乐部","lon":"121.456790738","lat":"31.235576414","category":"500","category_name":"未知分类","address":"上海泰兴路"},{"poiid":"B2094654DA6CA5FA4699","title":"康骏会馆(泰兴路)","lon":"121.45717","lat":"31.23326","category":"149","category_name":"洗浴推拿场所","address":"静安区泰兴路407号1楼(近新闸路)"},{"poiid":"B2094654DB69ABFA499A","title":"沈坚强游泳俱乐部(静安体育中心游泳馆店)","lon":"121.45335","lat":"31.23559","category":"231","category_name":"游泳馆","address":"静安区康定路151号405室(近江宁路)"},{"poiid":"B2094454D269A4FF4398","title":"素宿pure","lon":"121.456054","lat":"31.234111","category":"247","category_name":"餐饮美食","address":"上海市 南京西路1376号104室"},{"poiid":"B2094655D26CAAF94198","title":"SOHO东海广场","lon":"121.455285","lat":"31.23305","category":"46","category_name":"楼宇","address":"上海市浦东新区金桥路983号"},{"poiid":"B2094757DA69A2F9489F","title":"CLUB-IBIZA","lon":"121.45313","lat":"31.23536","category":"111","category_name":"休闲餐饮场所","address":"静安区江宁路428号(近武定路)"},{"poiid":"B2094757D068A3F8439A","title":"BELLO'CO 倍乐","lon":"121.45942745","lat":"31.236405856","category":"500","category_name":"未知分类","address":"上海新闸路848号"},{"poiid":"B2094753D76FAAFA449C","title":"上海滩国泰旗舰店","lon":"121.466011","lat":"31.216125","category":"249","category_name":"购物服务","address":"淮海中路868号"},{"poiid":"B209475CD564A7F84292","title":"上海滩新天地店","lon":"121.47463","lat":"31.22164","category":"119","category_name":"商场","address":"\"太仓路181弄新天地北里15号\r\n\""},{"poiid":"B209475CD564A7F8439E","title":"上海滩中信泰富店","lon":"121.45602","lat":"31.22851","category":"119","category_name":"商场","address":"\"南京西路1168号中信泰富广场，店铺号221.\r\n\""},{"poiid":"B2094757D06FA3FE4799","title":"星巴克(远中风华店)","lon":"121.455101","lat":"31.234818","category":"65","category_name":"咖啡厅","address":"静安区昌化路68号(近武定路)"},{"poiid":"B2094757D56EA3F4499D","title":"La Pasta 义面屋","lon":"121.457576","lat":"31.233518","category":"247","category_name":"餐饮美食","address":"静安区南京西路819号中创大厦5楼"},{"poiid":"B2094757D06FA3FF499D","title":"静安体育中心游泳馆","lon":"121.4535","lat":"31.23532","category":"220","category_name":"运动场所","address":"静安区康定路151号静安体育中心内(昌化路口)"},{"poiid":"B2094750D365A0FA4698","title":"倍乐创意韩国料理","lon":"121.457778","lat":"31.234186","category":"96","category_name":"韩国料理","address":"静安区新闸路848-850号(近石门二路)"},{"poiid":"B2094757D16CA0FE469D","title":"海底捞","lon":"121.456670738","lat":"31.2332153637","category":"500","category_name":"未知分类","address":"上海市静安区江宁路"},{"poiid":"B2094757D068A3FB419E","title":"静安体育中心","lon":"121.453154634","lat":"31.2354116335","category":"220","category_name":"运动场所","address":"静安区康定路151号静安体育中心内(武定路口)"},{"poiid":"B2094654DA6CA0FA4893","title":"国立大厦","lon":"121.454","lat":"31.2337","category":"46","category_name":"楼宇","address":"北京西路1465号"},{"poiid":"B2094757D06FA6F4439A","title":"国旅大厦","lon":"121.45750893637","lat":"31.235029833226","category":"46","category_name":"楼宇","address":"上海市四川北路1851号"},{"poiid":"B2094654DA6CA5FA479B","title":"MOB(新闸路店)","lon":"121.45814","lat":"31.23372","category":"221","category_name":"健身中心","address":"静安区新闸路945号国际丽都城群楼3楼(近泰兴路)"},{"poiid":"B2094757D06FA4F9469F","title":"信达大厦","lon":"121.455","lat":"31.2339","category":"46","category_name":"楼宇","address":"上海北京西路1399号"},{"poiid":"B2094654DA6CA5F4409E","title":"帆顺海味馆","lon":"121.45532719303","lat":"31.237192665273","category":"76","category_name":"上海菜","address":"静安区康定路18号(泰兴路口)"},{"poiid":"B2094757D16FA0F84599","title":"多福苑","lon":"121.45427","lat":"31.23595","category":"96","category_name":"韩国料理","address":"静安区石门二路221号(近新闸路)"},{"poiid":"B2094655D26BA2FA449E","title":"泰兴路","lon":"121.45517","lat":"31.23698","category":"38","category_name":"公交车站","address":""},{"poiid":"B2094757D069A0FA469D","title":"静安体育中心羽毛球馆","lon":"121.45434","lat":"31.23444","category":"220","category_name":"运动场所","address":"静安区昌化路165号(近武定路)"},{"poiid":"B2094757D06AA2FA479B","title":"翁龄旺山珍","lon":"121.45724","lat":"31.2354","category":"76","category_name":"上海菜","address":"静安区泰兴路528号(近武定路)"},{"poiid":"B2094757D66CA3F54693","title":"凯撒国际会所","lon":"121.456417738","lat":"31.2346433941","category":"500","category_name":"未知分类","address":"上海市静安区新闸路石门二路"},{"poiid":"B2094654DA6CA4FF4798","title":"振安广场恒安大厦","lon":"121.45935","lat":"31.23598","category":"46","category_name":"楼宇","address":"石门二路333弄3-9号"},{"poiid":"B2094751D56CA2F84899","title":"和家庭日本料理(康定东路店)","lon":"121.4581","lat":"31.23644","category":"95","category_name":"日本料理","address":"静安区康定东路13弄10号(近泰兴路)"},{"poiid":"B209475CD76FA6F94292","title":"寒烟姐姐的咖啡屋","lon":"121.455947","lat":"31.235366","category":"65","category_name":"咖啡厅","address":"上海市 武定路"},{"poiid":"B2094753DB64A3FC479D","title":"寒烟姐姐的咖啡馆","lon":"121.455642","lat":"31.23455","category":"65","category_name":"咖啡厅","address":"上海市 武定路226号"},{"poiid":"B2094654DA6CA5FB4992","title":"万皇酒家","lon":"121.45945","lat":"31.23696","category":"76","category_name":"上海菜","address":"静安区泰兴路630号(近康定路)"},{"poiid":"B2094654DA6CA5FB4399","title":"翁龄旺上海小馆","lon":"121.45708","lat":"31.23564","category":"257","category_name":"中餐厅","address":"泰兴路528号近武定路"},{"poiid":"B2094753DB6CABFF4393","title":"酒鬼食堂Drunk Uncle","lon":"121.454711","lat":"31.234748","category":"247","category_name":"餐饮美食","address":"上海市 昌化路46号，靠近武定路"},{"poiid":"B2094655D26DA3FB439B","title":"静安国际广场","lon":"121.455","lat":"31.2371","category":"46","category_name":"楼宇","address":"上海市静安区新闸路1518号"},{"poiid":"B2094752DB6BABFB429A","title":"辣府","lon":"121.457446","lat":"31.235396","category":"247","category_name":"餐饮美食","address":"上海市 云南南路180号(近淮海东路)"},{"poiid":"B209475CD468A6FF409A","title":"寒烟姐姐的咖啡屋","lon":"121.455871","lat":"31.23534","category":"65","category_name":"咖啡厅","address":"上海市 武定路"},{"poiid":"B2094655D26CABF8429F","title":"蝴蝶湾花园","lon":"121.45606","lat":"31.23754","category":"47","category_name":"住宅区","address":""},{"poiid":"B209475CD068A0FA469F","title":"阿娘家","lon":"121.457064","lat":"31.235371","category":"76","category_name":"上海菜","address":"泰兴路528号近武定路"},{"poiid":"B2094654DA6CA5FB469F","title":"太和坊","lon":"121.45779","lat":"31.236706","category":"47","category_name":"住宅区","address":"武定路78-1"},{"poiid":"B2094757D064A6F5469A","title":"远中风华","lon":"121.456046738","lat":"31.2348953995","category":"47","category_name":"住宅区","address":"上海市静安区新闸路1068弄"},{"poiid":"B2094655D26DA3FF469A","title":"太府·名邸(东门)","lon":"121.456","lat":"31.23653","category":"47","category_name":"住宅区","address":"泰兴路625弄1-14"},{"poiid":"B2094757D064A3FE4192","title":"九安广场","lon":"121.457","lat":"31.2328","category":"500","category_name":"未知分类","address":"上海市平凉路1398号"},{"poiid":"B209475DD56AAAF9409D","title":"CAGES Indoor Athletic Club","lon":"121.456146","lat":"31.235635","category":"248","category_name":"生活娱乐","address":"上海市静安区昌化路325号二楼"},{"poiid":"B2094757D065AAF9459C","title":"武泰公寓","lon":"121.45557","lat":"31.236061","category":"252","category_name":"楼宇机构","address":"武泰公寓位于静安泰兴路567号"},{"poiid":"B2094753D76AA1F9499E","title":"CORNER,WINE&COFFEE","lon":"121.45756","lat":"31.23405","category":"247","category_name":"餐饮美食","address":"上海市静安区泰兴路428号(近新闸路)"},{"poiid":"B2094654DA6CA5FB499F","title":"泰武保健","lon":"121.45612","lat":"31.23679","category":"162","category_name":"医院","address":"泰兴路626号"},{"poiid":"B2094750D268A2FD4092","title":"古丽仙西域餐厅","lon":"121.458595","lat":"31.234464","category":"247","category_name":"餐饮美食","address":"南京西路818广场"},{"poiid":"B2094654DA6CA5FB439F","title":"中泰大厦","lon":"121.45715","lat":"31.235605","category":"47","category_name":"住宅区","address":"武定路141号"},{"poiid":"B2094757D16BA4FF4492","title":"潮汕沙锅粥馆","lon":"121.458894","lat":"31.2346","category":"247","category_name":"餐饮美食","address":"上海新闸路868号"},{"poiid":"B2094655D26DA7FC449C","title":"中泰大厦(南门)","lon":"121.45713","lat":"31.23538","category":"47","category_name":"住宅区","address":"泰兴路528"},{"poiid":"B2094757D66EA5F4409A","title":"上海石二健身俱乐部","lon":"121.456790738","lat":"31.235576414","category":"500","category_name":"未知分类","address":"上海泰兴路"},{"poiid":"B2094654DA6CA5FA4699","title":"康骏会馆(泰兴路)","lon":"121.45717","lat":"31.23326","category":"149","category_name":"洗浴推拿场所","address":"静安区泰兴路407号1楼(近新闸路)"},{"poiid":"B2094654DB69ABFA499A","title":"沈坚强游泳俱乐部(静安体育中心游泳馆店)","lon":"121.45335","lat":"31.23559","category":"231","category_name":"游泳馆","address":"静安区康定路151号405室(近江宁路)"},{"poiid":"B2094454D269A4FF4398","title":"素宿pure","lon":"121.456054","lat":"31.234111","category":"247","category_name":"餐饮美食","address":"上海市 南京西路1376号104室"},{"poiid":"B2094655D26CAAF94198","title":"SOHO东海广场","lon":"121.455285","lat":"31.23305","category":"46","category_name":"楼宇","address":"上海市浦东新区金桥路983号"},{"poiid":"B2094757DA69A2F9489F","title":"CLUB-IBIZA","lon":"121.45313","lat":"31.23536","category":"111","category_name":"休闲餐饮场所","address":"静安区江宁路428号(近武定路)"},{"poiid":"B2094757D068A3F8439A","title":"BELLO'CO 倍乐","lon":"121.45942745","lat":"31.236405856","category":"500","category_name":"未知分类","address":"上海新闸路848号"},{"poiid":"B2094753D76FAAFA449C","title":"上海滩国泰旗舰店","lon":"121.466011","lat":"31.216125","category":"249","category_name":"购物服务","address":"淮海中路868号"},{"poiid":"B209475CD564A7F84292","title":"上海滩新天地店","lon":"121.47463","lat":"31.22164","category":"119","category_name":"商场","address":"\"太仓路181弄新天地北里15号\r\n\""},{"poiid":"B209475CD564A7F8439E","title":"上海滩中信泰富店","lon":"121.45602","lat":"31.22851","category":"119","category_name":"商场","address":"\"南京西路1168号中信泰富广场，店铺号221.\r\n\""},{"poiid":"B2094757D06FA3FE4799","title":"星巴克(远中风华店)","lon":"121.455101","lat":"31.234818","category":"65","category_name":"咖啡厅","address":"静安区昌化路68号(近武定路)"},{"poiid":"B2094757D56EA3F4499D","title":"La Pasta 义面屋","lon":"121.457576","lat":"31.233518","category":"247","category_name":"餐饮美食","address":"静安区南京西路819号中创大厦5楼"},{"poiid":"B2094757D06FA3FF499D","title":"静安体育中心游泳馆","lon":"121.4535","lat":"31.23532","category":"220","category_name":"运动场所","address":"静安区康定路151号静安体育中心内(昌化路口)"},{"poiid":"B2094750D365A0FA4698","title":"倍乐创意韩国料理","lon":"121.457778","lat":"31.234186","category":"96","category_name":"韩国料理","address":"静安区新闸路848-850号(近石门二路)"},{"poiid":"B2094757D16CA0FE469D","title":"海底捞","lon":"121.456670738","lat":"31.2332153637","category":"500","category_name":"未知分类","address":"上海市静安区江宁路"},{"poiid":"B2094757D068A3FB419E","title":"静安体育中心","lon":"121.453154634","lat":"31.2354116335","category":"220","category_name":"运动场所","address":"静安区康定路151号静安体育中心内(武定路口)"},{"poiid":"B2094654DA6CA0FA4893","title":"国立大厦","lon":"121.454","lat":"31.2337","category":"46","category_name":"楼宇","address":"北京西路1465号"},{"poiid":"B2094757D06FA6F4439A","title":"国旅大厦","lon":"121.45750893637","lat":"31.235029833226","category":"46","category_name":"楼宇","address":"上海市四川北路1851号"},{"poiid":"B2094654DA6CA5FA479B","title":"MOB(新闸路店)","lon":"121.45814","lat":"31.23372","category":"221","category_name":"健身中心","address":"静安区新闸路945号国际丽都城群楼3楼(近泰兴路)"},{"poiid":"B2094757D06FA4F9469F","title":"信达大厦","lon":"121.455","lat":"31.2339","category":"46","category_name":"楼宇","address":"上海北京西路1399号"},{"poiid":"B2094654DA6CA5F4409E","title":"帆顺海味馆","lon":"121.45532719303","lat":"31.237192665273","category":"76","category_name":"上海菜","address":"静安区康定路18号(泰兴路口)"},{"poiid":"B2094757D16FA0F84599","title":"多福苑","lon":"121.45427","lat":"31.23595","category":"96","category_name":"韩国料理","address":"静安区石门二路221号(近新闸路)"},{"poiid":"B2094655D26BA2FA449E","title":"泰兴路","lon":"121.45517","lat":"31.23698","category":"38","category_name":"公交车站","address":""},{"poiid":"B2094757D069A0FA469D","title":"静安体育中心羽毛球馆","lon":"121.45434","lat":"31.23444","category":"220","category_name":"运动场所","address":"静安区昌化路165号(近武定路)"},{"poiid":"B2094757D06AA2FA479B","title":"翁龄旺山珍","lon":"121.45724","lat":"31.2354","category":"76","category_name":"上海菜","address":"静安区泰兴路528号(近武定路)"},{"poiid":"B2094757D66CA3F54693","title":"凯撒国际会所","lon":"121.456417738","lat":"31.2346433941","category":"500","category_name":"未知分类","address":"上海市静安区新闸路石门二路"},{"poiid":"B2094654DA6CA4FF4798","title":"振安广场恒安大厦","lon":"121.45935","lat":"31.23598","category":"46","category_name":"楼宇","address":"石门二路333弄3-9号"},{"poiid":"B2094751D56CA2F84899","title":"和家庭日本料理(康定东路店)","lon":"121.4581","lat":"31.23644","category":"95","category_name":"日本料理","address":"静安区康定东路13弄10号(近泰兴路)"},{"poiid":"B209475CD76FA6F94292","title":"寒烟姐姐的咖啡屋","lon":"121.455947","lat":"31.235366","category":"65","category_name":"咖啡厅","address":"上海市 武定路"},{"poiid":"B2094753DB64A3FC479D","title":"寒烟姐姐的咖啡馆","lon":"121.455642","lat":"31.23455","category":"65","category_name":"咖啡厅","address":"上海市 武定路226号"},{"poiid":"B2094654DA6CA5FB4992","title":"万皇酒家","lon":"121.45945","lat":"31.23696","category":"76","category_name":"上海菜","address":"静安区泰兴路630号(近康定路)"},{"poiid":"B2094654DA6CA5FB4399","title":"翁龄旺上海小馆","lon":"121.45708","lat":"31.23564","category":"257","category_name":"中餐厅","address":"泰兴路528号近武定路"},{"poiid":"B2094753DB6CABFF4393","title":"酒鬼食堂Drunk Uncle","lon":"121.454711","lat":"31.234748","category":"247","category_name":"餐饮美食","address":"上海市 昌化路46号，靠近武定路"},{"poiid":"B2094655D26DA3FB439B","title":"静安国际广场","lon":"121.455","lat":"31.2371","category":"46","category_name":"楼宇","address":"上海市静安区新闸路1518号"},{"poiid":"B2094752DB6BABFB429A","title":"辣府","lon":"121.457446","lat":"31.235396","category":"247","category_name":"餐饮美食","address":"上海市 云南南路180号(近淮海东路)"},{"poiid":"B209475CD468A6FF409A","title":"寒烟姐姐的咖啡屋","lon":"121.455871","lat":"31.23534","category":"65","category_name":"咖啡厅","address":"上海市 武定路"},{"poiid":"B2094655D26CABF8429F","title":"蝴蝶湾花园","lon":"121.45606","lat":"31.23754","category":"47","category_name":"住宅区","address":""},{"poiid":"B209475CD068A0FA469F","title":"阿娘家","lon":"121.457064","lat":"31.235371","category":"76","category_name":"上海菜","address":"泰兴路528号近武定路"},{"poiid":"B2094654DA6CA5FB469F","title":"太和坊","lon":"121.45779","lat":"31.236706","category":"47","category_name":"住宅区","address":"武定路78-1"},{"poiid":"B2094757D064A6F5469A","title":"远中风华","lon":"121.456046738","lat":"31.2348953995","category":"47","category_name":"住宅区","address":"上海市静安区新闸路1068弄"},{"poiid":"B2094655D26DA3FF469A","title":"太府·名邸(东门)","lon":"121.456","lat":"31.23653","category":"47","category_name":"住宅区","address":"泰兴路625弄1-14"},{"poiid":"B2094757D064A3FE4192","title":"九安广场","lon":"121.457","lat":"31.2328","category":"500","category_name":"未知分类","address":"上海市平凉路1398号"},{"poiid":"B209475DD56AAAF9409D","title":"CAGES Indoor Athletic Club","lon":"121.456146","lat":"31.235635","category":"248","category_name":"生活娱乐","address":"上海市静安区昌化路325号二楼"},{"poiid":"B2094757D065AAF9459C","title":"武泰公寓","lon":"121.45557","lat":"31.236061","category":"252","category_name":"楼宇机构","address":"武泰公寓位于静安泰兴路567号"},{"poiid":"B2094753D76AA1F9499E","title":"CORNER,WINE&COFFEE","lon":"121.45756","lat":"31.23405","category":"247","category_name":"餐饮美食","address":"上海市静安区泰兴路428号(近新闸路)"},{"poiid":"B2094654DA6CA5FB499F","title":"泰武保健","lon":"121.45612","lat":"31.23679","category":"162","category_name":"医院","address":"泰兴路626号"},{"poiid":"B2094750D268A2FD4092","title":"古丽仙西域餐厅","lon":"121.458595","lat":"31.234464","category":"247","category_name":"餐饮美食","address":"南京西路818广场"},{"poiid":"B2094654DA6CA5FB439F","title":"中泰大厦","lon":"121.45715","lat":"31.235605","category":"47","category_name":"住宅区","address":"武定路141号"},{"poiid":"B2094757D16BA4FF4492","title":"潮汕沙锅粥馆","lon":"121.458894","lat":"31.2346","category":"247","category_name":"餐饮美食","address":"上海新闸路868号"},{"poiid":"B2094655D26DA7FC449C","title":"中泰大厦(南门)","lon":"121.45713","lat":"31.23538","category":"47","category_name":"住宅区","address":"泰兴路528"},{"poiid":"B2094757D66EA5F4409A","title":"上海石二健身俱乐部","lon":"121.456790738","lat":"31.235576414","category":"500","category_name":"未知分类","address":"上海泰兴路"},{"poiid":"B2094654DA6CA5FA4699","title":"康骏会馆(泰兴路)","lon":"121.45717","lat":"31.23326","category":"149","category_name":"洗浴推拿场所","address":"静安区泰兴路407号1楼(近新闸路)"},{"poiid":"B2094654DB69ABFA499A","title":"沈坚强游泳俱乐部(静安体育中心游泳馆店)","lon":"121.45335","lat":"31.23559","category":"231","category_name":"游泳馆","address":"静安区康定路151号405室(近江宁路)"},{"poiid":"B2094454D269A4FF4398","title":"素宿pure","lon":"121.456054","lat":"31.234111","category":"247","category_name":"餐饮美食","address":"上海市 南京西路1376号104室"},{"poiid":"B2094655D26CAAF94198","title":"SOHO东海广场","lon":"121.455285","lat":"31.23305","category":"46","category_name":"楼宇","address":"上海市浦东新区金桥路983号"},{"poiid":"B2094757DA69A2F9489F","title":"CLUB-IBIZA","lon":"121.45313","lat":"31.23536","category":"111","category_name":"休闲餐饮场所","address":"静安区江宁路428号(近武定路)"},{"poiid":"B2094757D068A3F8439A","title":"BELLO'CO 倍乐","lon":"121.45942745","lat":"31.236405856","category":"500","category_name":"未知分类","address":"上海新闸路848号"},{"poiid":"B2094753D76FAAFA449C","title":"上海滩国泰旗舰店","lon":"121.466011","lat":"31.216125","category":"249","category_name":"购物服务","address":"淮海中路868号"},{"poiid":"B209475CD564A7F84292","title":"上海滩新天地店","lon":"121.47463","lat":"31.22164","category":"119","category_name":"商场","address":"\"太仓路181弄新天地北里15号\r\n\""},{"poiid":"B209475CD564A7F8439E","title":"上海滩中信泰富店","lon":"121.45602","lat":"31.22851","category":"119","category_name":"商场","address":"\"南京西路1168号中信泰富广场，店铺号221.\r\n\""},{"poiid":"B2094757D06FA3FE4799","title":"星巴克(远中风华店)","lon":"121.455101","lat":"31.234818","category":"65","category_name":"咖啡厅","address":"静安区昌化路68号(近武定路)"},{"poiid":"B2094757D56EA3F4499D","title":"La Pasta 义面屋","lon":"121.457576","lat":"31.233518","category":"247","category_name":"餐饮美食","address":"静安区南京西路819号中创大厦5楼"},{"poiid":"B2094757D06FA3FF499D","title":"静安体育中心游泳馆","lon":"121.4535","lat":"31.23532","category":"220","category_name":"运动场所","address":"静安区康定路151号静安体育中心内(昌化路口)"},{"poiid":"B2094750D365A0FA4698","title":"倍乐创意韩国料理","lon":"121.457778","lat":"31.234186","category":"96","category_name":"韩国料理","address":"静安区新闸路848-850号(近石门二路)"},{"poiid":"B2094757D16CA0FE469D","title":"海底捞","lon":"121.456670738","lat":"31.2332153637","category":"500","category_name":"未知分类","address":"上海市静安区江宁路"},{"poiid":"B2094757D068A3FB419E","title":"静安体育中心","lon":"121.453154634","lat":"31.2354116335","category":"220","category_name":"运动场所","address":"静安区康定路151号静安体育中心内(武定路口)"},{"poiid":"B2094654DA6CA0FA4893","title":"国立大厦","lon":"121.454","lat":"31.2337","category":"46","category_name":"楼宇","address":"北京西路1465号"},{"poiid":"B2094757D06FA6F4439A","title":"国旅大厦","lon":"121.45750893637","lat":"31.235029833226","category":"46","category_name":"楼宇","address":"上海市四川北路1851号"},{"poiid":"B2094654DA6CA5FA479B","title":"MOB(新闸路店)","lon":"121.45814","lat":"31.23372","category":"221","category_name":"健身中心","address":"静安区新闸路945号国际丽都城群楼3楼(近泰兴路)"},{"poiid":"B2094757D06FA4F9469F","title":"信达大厦","lon":"121.455","lat":"31.2339","category":"46","category_name":"楼宇","address":"上海北京西路1399号"},{"poiid":"B2094654DA6CA5F4409E","title":"帆顺海味馆","lon":"121.45532719303","lat":"31.237192665273","category":"76","category_name":"上海菜","address":"静安区康定路18号(泰兴路口)"},{"poiid":"B2094757D16FA0F84599","title":"多福苑","lon":"121.45427","lat":"31.23595","category":"96","category_name":"韩国料理","address":"静安区石门二路221号(近新闸路)"},{"poiid":"B2094655D26BA2FA449E","title":"泰兴路","lon":"121.45517","lat":"31.23698","category":"38","category_name":"公交车站","address":""},{"poiid":"B2094757D069A0FA469D","title":"静安体育中心羽毛球馆","lon":"121.45434","lat":"31.23444","category":"220","category_name":"运动场所","address":"静安区昌化路165号(近武定路)"},{"poiid":"B2094757D06AA2FA479B","title":"翁龄旺山珍","lon":"121.45724","lat":"31.2354","category":"76","category_name":"上海菜","address":"静安区泰兴路528号(近武定路)"},{"poiid":"B2094757D66CA3F54693","title":"凯撒国际会所","lon":"121.456417738","lat":"31.2346433941","category":"500","category_name":"未知分类","address":"上海市静安区新闸路石门二路"},{"poiid":"B2094654DA6CA4FF4798","title":"振安广场恒安大厦","lon":"121.45935","lat":"31.23598","category":"46","category_name":"楼宇","address":"石门二路333弄3-9号"},{"poiid":"B2094751D56CA2F84899","title":"和家庭日本料理(康定东路店)","lon":"121.4581","lat":"31.23644","category":"95","category_name":"日本料理","address":"静安区康定东路13弄10号(近泰兴路)"},{"poiid":"B209475CD76FA6F94292","title":"寒烟姐姐的咖啡屋","lon":"121.455947","lat":"31.235366","category":"65","category_name":"咖啡厅","address":"上海市 武定路"},{"poiid":"B2094753DB64A3FC479D","title":"寒烟姐姐的咖啡馆","lon":"121.455642","lat":"31.23455","category":"65","category_name":"咖啡厅","address":"上海市 武定路226号"},{"poiid":"B2094654DA6CA5FB4992","title":"万皇酒家","lon":"121.45945","lat":"31.23696","category":"76","category_name":"上海菜","address":"静安区泰兴路630号(近康定路)"},{"poiid":"B2094654DA6CA5FB4399","title":"翁龄旺上海小馆","lon":"121.45708","lat":"31.23564","category":"257","category_name":"中餐厅","address":"泰兴路528号近武定路"},{"poiid":"B2094753DB6CABFF4393","title":"酒鬼食堂Drunk Uncle","lon":"121.454711","lat":"31.234748","category":"247","category_name":"餐饮美食","address":"上海市 昌化路46号，靠近武定路"},{"poiid":"B2094655D26DA3FB439B","title":"静安国际广场","lon":"121.455","lat":"31.2371","category":"46","category_name":"楼宇","address":"上海市静安区新闸路1518号"},{"poiid":"B2094752DB6BABFB429A","title":"辣府","lon":"121.457446","lat":"31.235396","category":"247","category_name":"餐饮美食","address":"上海市 云南南路180号(近淮海东路)"},{"poiid":"B209475CD468A6FF409A","title":"寒烟姐姐的咖啡屋","lon":"121.455871","lat":"31.23534","category":"65","category_name":"咖啡厅","address":"上海市 武定路"},{"poiid":"B2094655D26CABF8429F","title":"蝴蝶湾花园","lon":"121.45606","lat":"31.23754","category":"47","category_name":"住宅区","address":""},{"poiid":"B209475CD068A0FA469F","title":"阿娘家","lon":"121.457064","lat":"31.235371","category":"76","category_name":"上海菜","address":"泰兴路528号近武定路"},{"poiid":"B2094654DA6CA5FB469F","title":"太和坊","lon":"121.45779","lat":"31.236706","category":"47","category_name":"住宅区","address":"武定路78-1"},{"poiid":"B2094757D064A6F5469A","title":"远中风华","lon":"121.456046738","lat":"31.2348953995","category":"47","category_name":"住宅区","address":"上海市静安区新闸路1068弄"},{"poiid":"B2094655D26DA3FF469A","title":"太府·名邸(东门)","lon":"121.456","lat":"31.23653","category":"47","category_name":"住宅区","address":"泰兴路625弄1-14"},{"poiid":"B2094757D064A3FE4192","title":"九安广场","lon":"121.457","lat":"31.2328","category":"500","category_name":"未知分类","address":"上海市平凉路1398号"},{"poiid":"B209475DD56AAAF9409D","title":"CAGES Indoor Athletic Club","lon":"121.456146","lat":"31.235635","category":"248","category_name":"生活娱乐","address":"上海市静安区昌化路325号二楼"},{"poiid":"B2094757D065AAF9459C","title":"武泰公寓","lon":"121.45557","lat":"31.236061","category":"252","category_name":"楼宇机构","address":"武泰公寓位于静安泰兴路567号"},{"poiid":"B2094753D76AA1F9499E","title":"CORNER,WINE&COFFEE","lon":"121.45756","lat":"31.23405","category":"247","category_name":"餐饮美食","address":"上海市静安区泰兴路428号(近新闸路)"},{"poiid":"B2094654DA6CA5FB499F","title":"泰武保健","lon":"121.45612","lat":"31.23679","category":"162","category_name":"医院","address":"泰兴路626号"},{"poiid":"B2094750D268A2FD4092","title":"古丽仙西域餐厅","lon":"121.458595","lat":"31.234464","category":"247","category_name":"餐饮美食","address":"南京西路818广场"},{"poiid":"B2094654DA6CA5FB439F","title":"中泰大厦","lon":"121.45715","lat":"31.235605","category":"47","category_name":"住宅区","address":"武定路141号"},{"poiid":"B2094757D16BA4FF4492","title":"潮汕沙锅粥馆","lon":"121.458894","lat":"31.2346","category":"247","category_name":"餐饮美食","address":"上海新闸路868号"},{"poiid":"B2094655D26DA7FC449C","title":"中泰大厦(南门)","lon":"121.45713","lat":"31.23538","category":"47","category_name":"住宅区","address":"泰兴路528"},{"poiid":"B2094757D66EA5F4409A","title":"上海石二健身俱乐部","lon":"121.456790738","lat":"31.235576414","category":"500","category_name":"未知分类","address":"上海泰兴路"},{"poiid":"B2094654DA6CA5FA4699","title":"康骏会馆(泰兴路)","lon":"121.45717","lat":"31.23326","category":"149","category_name":"洗浴推拿场所","address":"静安区泰兴路407号1楼(近新闸路)"},{"poiid":"B2094654DB69ABFA499A","title":"沈坚强游泳俱乐部(静安体育中心游泳馆店)","lon":"121.45335","lat":"31.23559","category":"231","category_name":"游泳馆","address":"静安区康定路151号405室(近江宁路)"},{"poiid":"B2094454D269A4FF4398","title":"素宿pure","lon":"121.456054","lat":"31.234111","category":"247","category_name":"餐饮美食","address":"上海市 南京西路1376号104室"}]