[{"poiid":"B2094655D36CA2F44592","title":"上海火车站北广场","lon":"121.45576","lat":"31.25164","category":"38","category_name":"公交车站","address":"上海市闸北区大统路"},{"poiid":"B2094757D06EAAFB499C","title":"上海火车站地铁站","lon":"121.45871681","lat":"31.249312371","category":"36","category_name":"地铁站","address":"上海轨道交通 一号线 三号线 四号线 轨交上海火车站站 轻轨 1 3 4"},{"poiid":"B2094757D06EAAFC489B","title":"嘉里不夜城","lon":"121.463","lat":"31.2514","category":"500","category_name":"未知分类","address":"上海市松江区涞坊路599弄"},{"poiid":"B209475CD564A7F8439E","title":"上海滩中信泰富店","lon":"121.45602","lat":"31.22851","category":"119","category_name":"商场","address":"\"南京西路1168号中信泰富广场，店铺号221.\r\n\""},{"poiid":"B2094757D068A2FD4098","title":"长安大厦","lon":"121.458","lat":"31.2508","category":"46","category_name":"楼宇","address":"闸北区长安路1001号"},{"poiid":"B2094757D06AA0FC4499","title":"南北高架","lon":"121.46357196","lat":"31.250989706","category":"500","category_name":"未知分类","address":"上海天目西路至中环"},{"poiid":"B2094757D068A2F54292","title":"上海火车站普通候车室","lon":"121.4571","lat":"31.2505","category":"260","category_name":"其他","address":"闸北区上海火车站  "},{"poiid":"B2094757D068A2FD469B","title":"共和新路中兴路","lon":"121.463348","lat":"31.251093","category":"500","category_name":"未知分类","address":"上海共和新路中兴路"},{"poiid":"B2094654D464A3F54693","title":"上海站北广场","lon":"121.45623","lat":"31.25081","category":"22","category_name":"火车站","address":"闸北区天目西路"},{"poiid":"B2094757DA6AA5F8419A","title":"上海歌城","lon":"121.4590229668046","lat":"31.25530215022658","category":"170","category_name":"KTV","address":"闸北区中兴路"},{"poiid":"B2094757D06FA5FD4098","title":"锦程大厦","lon":"121.458","lat":"31.2526","category":"46","category_name":"楼宇","address":"上海天目西路511号"},{"poiid":"B2094757D06FA6FF499D","title":"呷哺呷哺(中华新路店)","lon":"121.4625924","lat":"31.2535794","category":"86","category_name":"火锅店","address":"闸北区中华新路567号王子百货3楼301-1号(近共和新路)"},{"poiid":"B2094654D464A2FF429E","title":"上海长征医院闸北分院","lon":"121.46159","lat":"31.25429","category":"162","category_name":"医院","address":"中华新路619号"},{"poiid":"B2094757D06AA1F4479D","title":"机电大厦","lon":"121.45911553","lat":"31.253063178475","category":"46","category_name":"楼宇","address":"上海普陀区宁夏路251号"},{"poiid":"B2094757D065AAF5469D","title":"三号线宝山路站","lon":"121.458655103","lat":"31.2522050416","category":"500","category_name":"未知分类","address":"上海宝山路"},{"poiid":"B2094654D464A3F5469E","title":"中祥戴斯大酒店","lon":"121.45731","lat":"31.2522","category":"214","category_name":"四星级宾馆","address":"上海市闸北区中兴路1558号(上海火车站地区,近大统路)"},{"poiid":"B2094654DB65A0FB449B","title":"城隍庙小吃世界 大统路店","lon":"121.459541054","lat":"31.253871793","category":"68","category_name":"快餐厅","address":"闸北区中华新路723号(近大统路)"},{"poiid":"B2094757D168A5FB439F","title":"上海火车站6号候车室","lon":"121.463178","lat":"31.251041","category":"22","category_name":"火车站","address":"闸北区上海火车站"},{"poiid":"B2094757D16FABFB449E","title":"麦当劳中海万锦城","lon":"121.458612103","lat":"31.2515120272","category":"68","category_name":"快餐厅","address":"闸北区大统路679-695号(近中海万锦城)"},{"poiid":"B2094757D06FAAFE4298","title":"越秀苑","lon":"121.4585","lat":"31.254604","category":"500","category_name":"未知分类","address":"上海市闸北区大统路938弄"},{"poiid":"B209475CDA6CA3FE449A","title":"人民广场","lon":"121.458274","lat":"31.252695","category":"500","category_name":"未知分类","address":"上海市 人民大道"},{"poiid":"B2094655D26AA0F9409C","title":"地铁上海火车站站","lon":"121.45874","lat":"31.24933","category":"36","category_name":"地铁站","address":""},{"poiid":"B2094654DA6CABFE4493","title":"康吉大厦","lon":"121.462","lat":"31.2518","category":"46","category_name":"楼宇","address":"天目西路290号"},{"poiid":"B2094655D268ABFD499B","title":"三兴大楼","lon":"121.46071","lat":"31.25216","category":"46","category_name":"楼宇","address":"上海市闸北区中兴路1340弄"},{"poiid":"B2094654D464A2FC479B","title":"克莉丝汀饼屋No.136(中兴路)","lon":"121.46032","lat":"31.25205","category":"112","category_name":"糕饼店","address":"中兴路1380"},{"poiid":"B2094750D769A3FF429C","title":"鲜汤骨头砂锅","lon":"121.459","lat":"31.2548","category":"86","category_name":"火锅店","address":"闸北区大统路956号(近大统路地道)"},{"poiid":"B2094654D464A2FC469D","title":"快客(三兴小区西北)","lon":"121.45978","lat":"31.25207","category":"117","category_name":"便民商店/便利店","address":"中兴路1410"},{"poiid":"B2094753D66EA2F54598","title":"闸北区中心医院","lon":"121.460011","lat":"31.254576","category":"162","category_name":"医院","address":"上海市 中华新路共和新路"},{"poiid":"B2094654DB6AA4FA4698","title":"良友(永兴路)","lon":"121.45998","lat":"31.25209","category":"117","category_name":"便民商店/便利店","address":"中兴路1400"},{"poiid":"B2094757D068A5FB4799","title":"中兴财富国际公寓","lon":"121.46307","lat":"31.253281","category":"47","category_name":"住宅区","address":"上海市闸北区中华新路588弄"},{"poiid":"B2094654D464A2FC469B","title":"万民百货商场","lon":"121.45932","lat":"31.25213","category":"119","category_name":"商场","address":""},{"poiid":"B2094757D069A6FF4093","title":"贵州苗家酸汤鱼馆 中兴路店","lon":"121.463040054","lat":"31.252511793","category":"83","category_name":"云贵菜","address":"闸北区中兴路1233号中兴财富广场内(近共和新路)"},{"poiid":"B2094655D36CA5FC409A","title":"大统路","lon":"121.45792","lat":"31.25336","category":"38","category_name":"公交车站","address":""},{"poiid":"B2094654D464A2FE4992","title":"海林湘菜馆","lon":"121.45938","lat":"31.25293","category":"77","category_name":"湖南菜","address":"闸北区大统路851号(近中兴路)"},{"poiid":"B2094655D26AA0FB419C","title":"中祥戴斯大酒店中餐厅","lon":"121.45742","lat":"31.25232","category":"76","category_name":"上海菜","address":"闸北区中兴路1558号中祥戴斯大酒店2楼(近大统路)"},{"poiid":"B2094750DB6DA0FE4999","title":"闸北中心医院","lon":"121.4592506866157","lat":"31.25478931129848","category":"162","category_name":"医院","address":"中华新路619号"},{"poiid":"B2094750D46BA0FC499F","title":"江桥万达","lon":"121.45816","lat":"31.249639","category":"500","category_name":"未知分类","address":null},{"poiid":"B2094757D16FA6FF419A","title":"老娘舅（上海长途汽车总站店)","lon":"121.4566547","lat":"31.252325944","category":"68","category_name":"快餐厅","address":"闸北区中兴路1642号(近汽车总站出口处)"},{"poiid":"B2094654D464A2FC489A","title":"三兴小区","lon":"121.46065","lat":"31.251787","category":"47","category_name":"住宅区","address":"中兴路1340弄"},{"poiid":"B2094757D66BA4FC409C","title":"大家乐港式茶餐厅","lon":"121.463040054","lat":"31.252511793","category":"257","category_name":"中餐厅","address":"共和新路570号中兴财富休闲广场内近中兴路"},{"poiid":"B2094757D065ABF54492","title":"欢乐谷 飞旋陀螺","lon":"121.45922893","lat":"31.249961495","category":"195","category_name":"游乐场","address":"松江区佘山镇林湖路888号上海欢乐谷内"},{"poiid":"B2094655D26CAAFD409B","title":"卓悦居","lon":"121.463","lat":"31.2516","category":"47","category_name":"住宅区","address":"民立路289弄"},{"poiid":"B2094757D16DABFC449C","title":"上海市公安局交警总队","lon":"121.459811453","lat":"31.2502752013","category":"500","category_name":"未知分类","address":"上海太阳山路38号"},{"poiid":"B2094654DB6AA4FA4699","title":"三兴小区(北门)","lon":"121.46085","lat":"31.25207","category":"47","category_name":"住宅区","address":"中兴路1340"},{"poiid":"B2094654DB6AA4FB4799","title":"重庆鸡公煲","lon":"121.45936","lat":"31.25457","category":"71","category_name":"四川菜","address":"闸北区大统路1012号(近芷江西路)"},{"poiid":"B2094757D064A6FA4992","title":"芷江西路派出所","lon":"121.45857915","lat":"31.253229938","category":"609","category_name":"警察局","address":"上海芷江西路派出所"},{"poiid":"B2094750D76CA4F8459F","title":"东方既白(火车站北广场店)","lon":"121.456","lat":"31.2524","category":"68","category_name":"快餐厅","address":"闸北区中兴路1600号火车站北广场入口西侧"},{"poiid":"B2094654D564AAF4409A","title":"名品商厦","lon":"121.461","lat":"31.2533","category":"119","category_name":"商场","address":"火车站南广场对面"},{"poiid":"B2094654DA6CA7FF4698","title":"华森钻石商务广场","lon":"121.45863053857","lat":"31.253766619716","category":"46","category_name":"楼宇","address":"恒丰路630号"},{"poiid":"B2094752D46AA2FE499A","title":"国旅集团上海有限公司","lon":"121.458079","lat":"31.250827","category":"263","category_name":"公司","address":"上海市闸北区长安路1001号1号楼24层台湾部"},{"poiid":"B2094654DB65A0F44099","title":"快客No.1160","lon":"121.45941","lat":"31.2531","category":"117","category_name":"便民商店/便利店","address":"大统路859号"},{"poiid":"B2094654D464A2FE4793","title":"型美刺青","lon":"121.46038","lat":"31.25244","category":"148","category_name":"美容美发店","address":"中兴路1365号"},{"poiid":"B2094654DB6AA4FB4999","title":"美兴大酒店(大统路店)","lon":"121.45986","lat":"31.25448","category":"250","category_name":"公园户外","address":"闸北区大统路933号(近中华新路)"},{"poiid":"B2094757D164A1FB4198","title":"集乡客鸭脖子(三门乐购店)","lon":"121.461004303","lat":"31.2519071354","category":"247","category_name":"餐饮美食","address":"上海杨浦区三门路501号(三门乐购1楼)  "},{"poiid":"B2094757D168A6F84899","title":"厦门沃头蚝干粥","lon":"121.459037103","lat":"31.2536290714","category":"247","category_name":"餐饮美食","address":"上海中华新路737号"},{"poiid":"B2094655D36DA7FF489C","title":"中华新路大统路","lon":"121.46053","lat":"31.25362","category":"38","category_name":"公交车站","address":""},{"poiid":"B2094654D464A2FC4792","title":"上海道路交通事故物损评估中心闸北站(中兴路)","lon":"121.46076","lat":"31.25207","category":"250","category_name":"公园户外","address":"中兴路1350"},{"poiid":"B2094654D464A2FD419C","title":"北方佳苑商办楼","lon":"121.46203","lat":"31.25199","category":"46","category_name":"楼宇","address":"中兴路1286"},{"poiid":"B2094750DA6DA3FF469B","title":"肯德基芷江西路店","lon":"121.456878","lat":"31.252511","category":"247","category_name":"餐饮美食","address":"闸北区芷江西路488号五月花生活广场1楼(近大统路10月开张)"},{"poiid":"B2094757D164A7FB4399","title":"中海万景城","lon":"121.461317103","lat":"31.2517550322","category":"47","category_name":"住宅区","address":"上海市闸北区永兴路888号"},{"poiid":"B2094654DB64A7F44898","title":"闸北邮政储蓄所","lon":"121.45986","lat":"31.25245","category":"150","category_name":"银行","address":"中兴路1397号"},{"poiid":"B2094757D169A4F84899","title":"IC运动馆","lon":"121.4604211","lat":"31.25452909","category":"500","category_name":"未知分类","address":"上海市闸北区共和新路"},{"poiid":"B2094751DA68A2FF419E","title":"环球金融中心上海柏悦酒店87楼大堂茶阁内","lon":"121.458454","lat":"31.252626","category":"500","category_name":"未知分类","address":"世纪大道100号"},{"poiid":"B2094655D26EA5FC4492","title":"胖子羊肉馆","lon":"121.45914","lat":"31.25324","category":"257","category_name":"中餐厅","address":"沪太路5号近大统路"},{"poiid":"B209475CD668A2F5479A","title":"上海站","lon":"121.45713","lat":"31.252267","category":"500","category_name":"未知分类","address":"上海市 上海站"},{"poiid":"B2094757D16BA6FA469E","title":"工商银行中兴支行","lon":"121.4608181","lat":"31.252415046","category":"150","category_name":"银行","address":"上海中兴路1390号"},{"poiid":"B2094757D06AA3F9469E","title":"永和大王 中华新路店","lon":"121.462621054","lat":"31.253334793","category":"68","category_name":"快餐厅","address":"闸北区中华新路619号(近共和新路)"},{"poiid":"B2094757D469A7FC4592","title":"波力牧场 大柏树店 PO-LI DAIRY FARM","lon":"121.45711","lat":"31.25029","category":"112","category_name":"糕饼店","address":"虹口区地铁三号线大柏树站内(交通路沈家宅路)"},{"poiid":"B2094757D06FABFF4998","title":"大宁绿地","lon":"121.46159362","lat":"31.254293441","category":"500","category_name":"未知分类","address":"上海闸北区"},{"poiid":"B2094757D66BA0F8469A","title":"毛毛家常菜","lon":"121.45818665441","lat":"31.2541007703","category":"76","category_name":"上海菜","address":"闸北区中华新路759号(近大统路)"},{"poiid":"B2094757D16CABFE469A","title":"小祥Home","lon":"121.460485736","lat":"31.2525007812","category":"500","category_name":"未知分类","address":null},{"poiid":"B2094757D16CA7F9449D","title":"轨交4号线 宝山路","lon":"121.461099103","lat":"31.2486559675","category":"500","category_name":"未知分类","address":"上海市闸北区沈家宅路"},{"poiid":"B2094655D264A4F54899","title":"恒基不夜城","lon":"121.457","lat":"31.2521","category":"252","category_name":"楼宇机构","address":"丰台学城海鹰路1号,3号"},{"poiid":"B2094654DB65A7FF4399","title":"全家便利店(宝山店)","lon":"121.45847","lat":"31.24984","category":"117","category_name":"便民商店/便利店","address":"闸北区交通路65号"},{"poiid":"B209475DD569A0FF479E","title":"上海市南京路步行街","lon":"121.456871","lat":"31.252502","category":"627","category_name":"一般地点标志","address":"上海市 上海"},{"poiid":"B2094757D16EA6FC4299","title":"中华新路893弄","lon":"121.45762807","lat":"31.253287764","category":"500","category_name":"未知分类","address":"上海中华新路893弄"},{"poiid":"B2094750D76CA0F44299","title":"慕寿司(中兴路店)","lon":"121.463","lat":"31.2525","category":"95","category_name":"日本料理","address":"闸北区共和新路570号(近中兴路)"},{"poiid":"B2094757D065A6F84393","title":"泰和路同济路口","lon":"121.45842416","lat":"31.253723173","category":"38","category_name":"公交车站","address":"上海泰和路同济路口"},{"poiid":"B2094757D66FA1F4419B","title":"新力维生活馆","lon":"121.46191","lat":"31.25216","category":"148","category_name":"美容美发店","address":"静安区长寿路999弄达安花园66号(近余姚路)"},{"poiid":"B2094655D26FA2FD409E","title":"如家酒店(火车站二店)","lon":"121.46318","lat":"31.25103","category":"216","category_name":"经济型连锁酒店","address":"闸北区共和新路452号"},{"poiid":"B2094757D068A6FA4293","title":"麦当劳(民立店)","lon":"121.462236","lat":"31.253005","category":"68","category_name":"快餐厅","address":"闸北区民立路63号(近秣陵路)"},{"poiid":"B2094757D66CA3FF429E","title":"KFC 火车站北广场店","lon":"121.4632851","lat":"31.250672009","category":"68","category_name":"快餐厅","address":"上海市闸北区大统路"},{"poiid":"B209475CD768A2FE449A","title":"上海火车站","lon":"121.461402","lat":"31.250802","category":"500","category_name":"未知分类","address":"上海市 上海火车站"},{"poiid":"B2094654DB6AA4FA489E","title":"芷江西路街道1233弄","lon":"121.46195","lat":"31.25282","category":"47","category_name":"住宅区","address":"上海芷江西路街道1233弄"},{"poiid":"B2094655D26EA5F94692","title":"上海洛伊仕茶室","lon":"121.45896","lat":"31.25398","category":"66","category_name":"茶艺馆","address":"闸北区芷江西路街道中华新路745号"},{"poiid":"B2094757D06AABF4469B","title":"雅业美容美发SPA生活馆","lon":"121.46200103","lat":"31.253004986","category":"148","category_name":"美容美发店","address":"闸北区共和新路645号"},{"poiid":"B2094654D464A1FC419A","title":"洛奇美容美发厅分部","lon":"121.45918","lat":"31.254","category":"148","category_name":"美容美发店","address":"闸北区中华新路735号(近大统路)"},{"poiid":"B209475CDA68A2F84299","title":"上海","lon":"121.460098","lat":"31.253625","category":"500","category_name":"未知分类","address":"上海市中华新路"},{"poiid":"B2094654DB6AA4FA499A","title":"喜士多便利连锁","lon":"121.46177","lat":"31.25347","category":"117","category_name":"便民商店/便利店","address":"中华新路630"},{"poiid":"B2094752D168A0F9449E","title":"上海外滩","lon":"121.456439","lat":"31.252229","category":"247","category_name":"餐饮美食","address":null},{"poiid":"B2094655D26AA4F94793","title":"富华眼镜行","lon":"121.45776","lat":"31.25021","category":"247","category_name":"餐饮美食","address":"闸北区沈家宅路55号三叶眼镜批发市场705号"},{"poiid":"B2094654D464A2FF489D","title":"香港名流","lon":"121.46124","lat":"31.25346","category":"148","category_name":"美容美发店","address":""},{"poiid":"B209475CD76EA2FB4698","title":"小杨生煎","lon":"121.456199","lat":"31.251346","category":"247","category_name":"餐饮美食","address":"上海市 上海火车站"},{"poiid":"B2094655D26AA0F94192","title":"地铁上海站站","lon":"121.45874","lat":"31.24933","category":"36","category_name":"地铁站","address":""},{"poiid":"B2094654D464A1FC429A","title":"鲜好又多水果专卖店","lon":"121.45844","lat":"31.25418","category":"117","category_name":"便民商店/便利店","address":"中华新路765号"},{"poiid":"B2094753D26EA5F84399","title":"东方体育中心","lon":"121.462171","lat":"31.252491","category":"500","category_name":"未知分类","address":"上海市 东方体育中心"},{"poiid":"B2094654D464A2FD419F","title":"上海农村商业银行闸北支行","lon":"121.46186","lat":"31.25197","category":"150","category_name":"银行","address":"中兴路1288"},{"poiid":"B2094757D164A7F4489D","title":"味香聚","lon":"121.45738","lat":"31.25002","category":"247","category_name":"餐饮美食","address":"上海徐汇区地铁三号线漕溪路站  "},{"poiid":"B2094654DB65A0F4429F","title":"好德便利No.513","lon":"121.45951","lat":"31.25469","category":"117","category_name":"便民商店/便利店","address":"闸北区大统路935号(大统路中华新路)"},{"poiid":"B2094752D668A7FF469A","title":"上海国金中心","lon":"121.459474","lat":"31.25434","category":"500","category_name":"未知分类","address":null},{"poiid":"B2094757D16DABFA4592","title":"港汇房地产租赁处","lon":"121.4577031","lat":"31.250592008","category":"500","category_name":"未知分类","address":"上海虹桥路1号港汇恒隆广场"},{"poiid":"B2094757D065A0F8499C","title":"公交928路终点站","lon":"121.4579403","lat":"31.250676009","category":"500","category_name":"未知分类","address":"上海火车站北广场公交枢纽"},{"poiid":"B2094753DA6AA5F5409F","title":"黄浦区","lon":"121.456848","lat":"31.252264","category":"500","category_name":"未知分类","address":"上海市 打浦桥田子坊"},{"poiid":"B2094654DB6AA2F44092","title":"上海城桥经济开发区","lon":"121.45916","lat":"31.2546","category":"45","category_name":"产业园区","address":"大统路938弄7号2104室"},{"poiid":"B2094654D464A2FF4299","title":"上海长征医院骨科医院分部","lon":"121.46158","lat":"31.25429","category":"162","category_name":"医院","address":"中华新路619"},{"poiid":"B2094752D76FA4FA459D","title":"上海火车站","lon":"121.456883","lat":"31.252512","category":"500","category_name":"未知分类","address":null},{"poiid":"B2094654DB65A7FD469E","title":"快客No.5060","lon":"121.46316","lat":"31.25193","category":"117","category_name":"便民商店/便利店","address":"中兴路1226"},{"poiid":"B209475DDA6CAAFA4298","title":"中海万锦城","lon":"121.460571","lat":"31.250101","category":"627","category_name":"一般地点标志","address":"上海市 上海市闸北区永兴路888弄"},{"poiid":"B2094655D26DA4FB439B","title":"思香林酒家共新店","lon":"121.46324","lat":"31.25152","category":"257","category_name":"中餐厅","address":"共和新路480号"},{"poiid":"B2094654D464A2F54993","title":"快客No.832","lon":"121.45951","lat":"31.25493","category":"117","category_name":"便民商店/便利店","address":"大统路941"},{"poiid":"B2094757D064A6FE4593","title":"216终点站","lon":"121.461626","lat":"31.253613","category":"500","category_name":"未知分类","address":"上海中华新路共和新路站"},{"poiid":"B2094654D464A2FC4499","title":"上海卡曼罗","lon":"121.45777","lat":"31.2502","category":"132","category_name":"眼镜店","address":"沈家宅路55号上海三叶眼镜批发市场703、805号"},{"poiid":"B2094654D564AAFB439C","title":"上海铁路庐峰饭店","lon":"121.45945","lat":"31.24789","category":"250","category_name":"公园户外","address":"闸北区秣陵路39号（近火车站东南出口）"},{"poiid":"B2094654D464A2F54598","title":"北区商务大厦","lon":"121.45902","lat":"31.25548","category":"46","category_name":"楼宇","address":"上海大统路988号A座"},{"poiid":"B2094655D26FA1F8479E","title":"北区商务大厦A座","lon":"121.4589","lat":"31.25534","category":"46","category_name":"楼宇","address":"大统路988号"},{"poiid":"B2094757D069ABF9439A","title":"上行线(火车站店)","lon":"121.45876946","lat":"31.249253094","category":"125","category_name":"书店","address":"闸北区地铁三号线上海火车站站内"},{"poiid":"B2094654D464A1FC4099","title":"小香港发型设计","lon":"121.45951","lat":"31.25473","category":"148","category_name":"美容美发店","address":""},{"poiid":"B2094654DB6AA4FA4792","title":"上岛咖啡中兴店","lon":"121.46317","lat":"31.25251","category":"260","category_name":"其他","address":"闸北区中兴路1233号中兴财富广场2幢(近共和新路)"},{"poiid":"B2094757D065A6FA409E","title":"永兴小马路","lon":"121.4628067","lat":"31.25251007","category":"500","category_name":"未知分类","address":"上海永兴小马路"},{"poiid":"B209475DD26CA0FE439D","title":"星巴克（五月花店）","lon":"121.461326","lat":"31.254734","category":"500","category_name":"未知分类","address":"上海市 闸北区普善路"},{"poiid":"B2094757D165A4F94792","title":"大统路地摊","lon":"121.459533691","lat":"31.2551555634","category":"247","category_name":"餐饮美食","address":"上海大统路芷江西路"},{"poiid":"B2094757D06AA3F54793","title":"KFC(王子店)","lon":"121.4631181","lat":"31.253838075","category":"500","category_name":"未知分类","address":"上海市闸北区共和新路中华新路"},{"poiid":"B2094757D06AA0FC449B","title":"小葡萄◇摇篮","lon":"121.457166403","lat":"31.253273164","category":"500","category_name":"未知分类","address":"上海中华新路"},{"poiid":"B2094752D064A1F8449A","title":"上海长途汽车客运总站","lon":"121.458572","lat":"31.253601","category":"500","category_name":"未知分类","address":null},{"poiid":"B2094757D064A3FB4392","title":"买卖提红玫瑰烤刷馆","lon":"121.4634661","lat":"31.252265042","category":"500","category_name":"未知分类","address":"上海市闸北区中华新路588号"},{"poiid":"B2094757D469A0FA489F","title":"厦门沃头蚝干粥店 中华新路店","lon":"121.4578797","lat":"31.2540387","category":"260","category_name":"其他","address":"闸北区中华新路737号(近大统路)"},{"poiid":"B2094654D464A2FA429E","title":"大胡子拉面馆","lon":"121.45658","lat":"31.25423","category":"68","category_name":"快餐厅","address":"闸北区中华新路883-2号(近大统路)"},{"poiid":"B209475DD66EABFC419D","title":"喵呜喵屋","lon":"121.461059","lat":"31.249357","category":"248","category_name":"生活娱乐","address":"上海市 上海市闸北区太阳山路"},{"poiid":"B2094757D16DA7FB499F","title":"吃夜宵","lon":"121.463675969","lat":"31.2520563719","category":"247","category_name":"餐饮美食","address":"上海任何有東東吃的地方"},{"poiid":"B2094654D464A2FB4793","title":"广兴公寓","lon":"121.46272","lat":"31.25433","category":"47","category_name":"住宅区","address":"共和新路656弄"},{"poiid":"B2094757D16FA6FC409E","title":"沪太路129號","lon":"121.4573407","lat":"31.253855076","category":"500","category_name":"未知分类","address":"上海閘北郵政支局"},{"poiid":"B2094750D365A7FD499C","title":"中祥大酒店","lon":"121.457313","lat":"31.251642","category":"251","category_name":"出行住宿","address":null},{"poiid":"B2094751D469A1FC4193","title":"融合马来西亚餐厅","lon":"121.4584993","lat":"31.2547125","category":"500","category_name":"未知分类","address":"恒基名人购物中心4楼"},{"poiid":"B2094655D26EABF5429A","title":"景亭私房菜","lon":"121.46354368307","lat":"31.253886293067","category":"257","category_name":"中餐厅","address":"共和新路688弄1号广兴大厦1楼近中华新路"},{"poiid":"B2094757D065A6F8459C","title":"足研功坊专业养生理疗馆","lon":"121.4630081","lat":"31.252576049","category":"500","category_name":"未知分类","address":"上海市闸北区中华兴路572号"},{"poiid":"B2094655D26CA0F9409E","title":"上铁行车公寓","lon":"121.45579","lat":"31.25233","category":"47","category_name":"住宅区","address":"中兴路1618"},{"poiid":"B2094654D564AAFB439D","title":"可的(秣陵路)","lon":"121.45932","lat":"31.24786","category":"117","category_name":"便民商店/便利店","address":"闸北区秣陵路41号(大统路秣陵路)"},{"poiid":"B2094654D564AAFB449F","title":"快客(秣陵路)","lon":"121.45899","lat":"31.24787","category":"117","category_name":"便民商店/便利店","address":"秣陵路55号"},{"poiid":"B2094655D26EA2FB4498","title":"北方佳苑(北门)","lon":"121.46253","lat":"31.25192","category":"656","category_name":"大门","address":"中兴路1258弄"},{"poiid":"B2094654D464A2FB4799","title":"中华人民共和国上海市闸北区公证处","lon":"121.46271","lat":"31.25432","category":"250","category_name":"公园户外","address":"共和新路688弄1号401-404室"},{"poiid":"B2094751D46CAAF84399","title":"赤坂亭（南京东路店）","lon":"121.4584993","lat":"31.2547125","category":"500","category_name":"未知分类","address":"南京东路300号"},{"poiid":"B2094757D16AA2FB459B","title":"富泉公寓","lon":"121.46204","lat":"31.249096","category":"252","category_name":"楼宇机构","address":"上海太阳山路78弄1号"},{"poiid":"B2094757D16EA4FD469A","title":"爱心献血点(上海火车站东南口)","lon":"121.458814","lat":"31.248346","category":"162","category_name":"医院","address":"上海火车站东南口"},{"poiid":"B2094655D264A0F8419D","title":"天纬博世会务展览","lon":"121.45902","lat":"31.25549","category":"185","category_name":"会展中心","address":"大统路988号北区商务大厦1117"},{"poiid":"B2094757D16AA2FE489C","title":"PwC training center","lon":"121.46304321","lat":"31.251844406","category":"500","category_name":"未知分类","address":"上海星展銀行大廈六樓"},{"poiid":"B2094757D66FA3F4469B","title":"瘦西湖","lon":"121.457413","lat":"31.249049675","category":"500","category_name":"未知分类","address":"扬州瘦西湖风景区"},{"poiid":"B2094654DB6AA4FA4993","title":"柔婷美容会所","lon":"121.46336","lat":"31.25318","category":"148","category_name":"美容美发店","address":"共和新路588"},{"poiid":"B2094654D464A2F5499F","title":"华联超市大统店","lon":"121.45912","lat":"31.25544","category":"118","category_name":"超级市场","address":"闸北区大统路986号"},{"poiid":"B2094654DB6AA4FB499E","title":"闸房房产二分公司","lon":"121.45924","lat":"31.25443","category":"248","category_name":"生活娱乐","address":"大统路920号"},{"poiid":"B2094757D66FA7FD4592","title":"太阳山路","lon":"121.461264","lat":"31.248989","category":"500","category_name":"未知分类","address":"上海太阳山路京江路"},{"poiid":"B2094655D26FA7FD4492","title":"芷江西路街道1233弄(南门)","lon":"121.4618","lat":"31.25249","category":"656","category_name":"大门","address":""},{"poiid":"B2094752D36FA4F5489B","title":"粹寿司","lon":"121.45922","lat":"31.255133","category":"247","category_name":"餐饮美食","address":"共和新路1233号"},{"poiid":"B2094655D26FA5F4419D","title":"越秀苑(东门)","lon":"121.45916","lat":"31.2546","category":"48","category_name":"楼宇大门","address":"大统路938弄"},{"poiid":"B2094757D16DABFE439D","title":"嘉定马陆","lon":"121.463241003","lat":"31.2534875684","category":"500","category_name":"未知分类","address":"上海嘉定马陆"},{"poiid":"B2094757D16BA5FD499D","title":"足研功房","lon":"121.4630591","lat":"31.253538069","category":"500","category_name":"未知分类","address":"上海闸北区中华新路572号"},{"poiid":"B2094655D26FA0F8489B","title":"北方佳苑(南门)","lon":"121.46245","lat":"31.2513","category":"656","category_name":"大门","address":"永兴路799"},{"poiid":"B2094757D569A1FC4398","title":"铁路公寓招待所","lon":"121.455802","lat":"31.252338","category":"217","category_name":"旅馆招待所","address":"普陀区交通路905号"},{"poiid":"B2094654DB6AA4FB409E","title":"中兴财富国际公寓(西门)","lon":"121.46294","lat":"31.2532","category":"48","category_name":"楼宇大门","address":"中华新路588弄"},{"poiid":"B2094757D66CA0FE419E","title":"公交817终点站","lon":"121.4582281","lat":"31.248252959","category":"500","category_name":"未知分类","address":"上海市闸北区大统路"},{"poiid":"B2094655D26FABFB439E","title":"芷江西路街道1233弄(北门)","lon":"121.46187","lat":"31.25346","category":"656","category_name":"大门","address":""},{"poiid":"B2094654DB6AA4FA4693","title":"富泉公寓(北门)","lon":"121.46212","lat":"31.24941","category":"48","category_name":"楼宇大门","address":"太阳山路78弄"},{"poiid":"B2094654D464A2FB479A","title":"上海楚香楼娱乐有限公司","lon":"121.46301","lat":"31.25397","category":"248","category_name":"生活娱乐","address":"共和新路638号博隆商务楼6层"},{"poiid":"B2094654D564AAF9499C","title":"上海天目投资经营公司","lon":"121.46016","lat":"31.24797","category":"263","category_name":"公司","address":"大统路553号"},{"poiid":"B2094757D569A3FE429B","title":"上海三盛宾馆","lon":"121.4562981","lat":"31.25331611","category":"251","category_name":"出行住宿","address":"普陀区沪太路150号(孔家木桥路太阳山路)"}]