[{"poiid":"B2094655D36CA1FF4498","title":"芦潮港","lon":"121.85081","lat":"30.85845","category":"38","category_name":"公交车站","address":""},{"poiid":"B2094655D36CA1FF449F","title":"芦潮港码头","lon":"121.84664","lat":"30.85277","category":"38","category_name":"公交车站","address":""},{"poiid":"B2094757D568A0F4459F","title":"临港海滨国际花园","lon":"121.85754","lat":"30.866346","category":"47","category_name":"住宅区","address":"浦东新区芦潮港镇港辉路308弄(近芦硕路)"},{"poiid":"B2094655D36CA1FF4499","title":"芦潮港(渔港路)","lon":"121.85059","lat":"30.86042","category":"38","category_name":"公交车站","address":""},{"poiid":"B2094655D26EA3FE499B","title":"新芦苑","lon":"121.85282","lat":"30.8748","category":"47","category_name":"住宅区","address":"潮乐路18弄"},{"poiid":"B2094655D26DA5FC4892","title":"海尚明徕苑","lon":"121.85861","lat":"30.872465","category":"47","category_name":"住宅区","address":"芦云路200弄"},{"poiid":"B2094757D169ABFA459A","title":"芦潮港火车站","lon":"121.864791298","lat":"30.8732604453","category":"22","category_name":"火车站","address":"浦东新区老芦公路(近两港大道)"},{"poiid":"B2094655D26DA5FE419F","title":"海尚明月苑(芦云路)","lon":"121.85911","lat":"30.87471","category":"47","category_name":"住宅区","address":"芦云路201弄"},{"poiid":"B2094654DB64A5F84693","title":"桃源公寓二村","lon":"121.85331","lat":"30.86734","category":"47","category_name":"住宅区","address":"桃梨路199"},{"poiid":"B2094655D26DA0F5439D","title":"龙吟小区","lon":"121.8514","lat":"30.862743","category":"47","category_name":"住宅区","address":"龙吟路69号"},{"poiid":"B2094655D26DA0F4489A","title":"新芦苑C区(潮乐路)","lon":"121.85207","lat":"30.87154","category":"47","category_name":"住宅区","address":""},{"poiid":"B2094654DB64ABF4409E","title":"新芦苑B区","lon":"121.85482","lat":"30.87474","category":"47","category_name":"住宅区","address":""},{"poiid":"B2094654DB68ABFA489B","title":"芦潮港站进口","lon":"121.86778","lat":"30.87506","category":"34","category_name":"港口码头","address":""},{"poiid":"B2094655D26DA4F54198","title":"新芦苑D区(潮乐路)","lon":"121.85173","lat":"30.87182","category":"47","category_name":"住宅区","address":""},{"poiid":"B2094654DB64ABF4479B","title":"新芦苑A区","lon":"121.85421","lat":"30.87738","category":"47","category_name":"住宅区","address":""},{"poiid":"B2094655D26BA1F4459A","title":"芦云路潮乐路","lon":"121.85222","lat":"30.87592","category":"38","category_name":"公交车站","address":""},{"poiid":"B2094757D06AA6FF4099","title":"洋山深水港","lon":"121.848285","lat":"30.88067","category":"500","category_name":"未知分类","address":"上海小洋山"},{"poiid":"B2094654DB68ABFB4893","title":"上海莲都百货商场","lon":"121.8503","lat":"30.86101","category":"119","category_name":"商场","address":""},{"poiid":"B2094655D36DA3F94192","title":"芦潮港桥","lon":"121.84912","lat":"30.8699","category":"250","category_name":"公园户外","address":""},{"poiid":"B2094654DB64A4FC459B","title":"南汇芦潮港秋萍学校","lon":"121.85127","lat":"30.87746","category":"55","category_name":"中学","address":"芦云路5"},{"poiid":"B2094757D168A3FE4893","title":"上海临港试验风场","lon":"121.8501275","lat":"30.8687449","category":"263","category_name":"公司","address":"上海芦潮港渔港路海堤边"},{"poiid":"B2094654DB68ABFA499A","title":"南汇区芦潮港印刷包装制品厂","lon":"121.85036","lat":"30.86702","category":"263","category_name":"公司","address":""},{"poiid":"B2094654DB68ABFB499C","title":"上海志明海鲜酒楼","lon":"121.84951","lat":"30.85588","category":"88","category_name":"海鲜酒楼","address":"浦东新区临港大道芦潮港杭湾路152-156号(近207省道)"},{"poiid":"B2094757D16AAAFC4198","title":"中国联通行业应用实验基地","lon":"121.85012817","lat":"30.876053003","category":"500","category_name":"未知分类","address":"上海市浦东新区兴隆港路"},{"poiid":"B2094757D16EABFF409E","title":"小鸭小炒","lon":"121.84443087","lat":"30.8577859781","category":"88","category_name":"海鲜酒楼","address":"上海近郊南汇区海鲜一条街  "},{"poiid":"B2094655D26EA7FA499B","title":"添雅海角KTV","lon":"121.84584","lat":"30.86363","category":"170","category_name":"KTV","address":""},{"poiid":"B2094655D26DA5FC499C","title":"桃源公寓一邨","lon":"121.84828","lat":"30.87472","category":"47","category_name":"住宅区","address":""},{"poiid":"B2094654DB64A6FF459D","title":"中国移动芦潮港营业厅","lon":"121.84885","lat":"30.87682","category":"151","category_name":"电讯营业厅","address":"南汇区渔港路69号"},{"poiid":"B2094654DB64ABFD409D","title":"洋山保税港区3/4库","lon":"121.87522","lat":"30.86871","category":"263","category_name":"公司","address":""},{"poiid":"B2094654DB68ABFB4993","title":"龙湖商务","lon":"121.84861","lat":"30.85447","category":"46","category_name":"楼宇","address":""},{"poiid":"B2094654DB68ABF44099","title":"佳美百货商场","lon":"121.84817","lat":"30.87844","category":"119","category_name":"商场","address":"老芦公路"},{"poiid":"B2094654DB68ABFA4693","title":"上海市地方税务局南汇区分局第十一税务所","lon":"121.84645","lat":"30.85684","category":"250","category_name":"公园户外","address":"芦潮港路"},{"poiid":"B2094757D06BA7F4419B","title":"Panalpina﹣EDC","lon":"121.87856195","lat":"30.868712095","category":"500","category_name":"未知分类","address":"上海市浦东新区同顺大道333号洋山保税区"},{"poiid":"B2094654DB68ABF4409E","title":"上海芦潮港集贸市场","lon":"121.84835","lat":"30.87728","category":"123","category_name":"家具建材市场","address":""},{"poiid":"B2094654DB68ABFA4998","title":"上海农村商业银行芦潮港支行","lon":"121.84883","lat":"30.87689","category":"150","category_name":"银行","address":"芦潮港镇"},{"poiid":"B2094654DB68ABFA4593","title":"上海市芦潮港客运站","lon":"121.84638","lat":"30.85287","category":"35","category_name":"长途汽车站","address":"浦东新区芦潮港路"},{"poiid":"B2094655D265A6F44998","title":"书院1号公寓","lon":"121.878","lat":"30.875","category":"47","category_name":"住宅区","address":"浦东新区老芦公路855号"},{"poiid":"B2094654DB68ABFA499F","title":"临港普洛斯国际物流园区","lon":"121.87456","lat":"30.87625","category":"248","category_name":"生活娱乐","address":"同顺大道555号"},{"poiid":"B2094757D168A6FE429C","title":"迪门酒店","lon":"121.85130517","lat":"30.8499183948","category":"76","category_name":"上海菜","address":"浦东新区芦潮港镇渔港路649弄1号"},{"poiid":"B2094654DB68ABFB479E","title":"果园邮政局","lon":"121.85001","lat":"30.87889","category":"248","category_name":"生活娱乐","address":"果园镇"},{"poiid":"B2094757D165A7FA499A","title":"上海电机学院(临港校区)16宿","lon":"121.87156825","lat":"30.883208955","category":"500","category_name":"未知分类","address":"上海春早路"},{"poiid":"B2094654DB64A4FE469D","title":"洋山保税港区1/2库","lon":"121.87987","lat":"30.86905","category":"263","category_name":"公司","address":"同顺大道333号"},{"poiid":"B2094654DB69AAF5419A","title":"芦潮港派出所","lon":"121.84822","lat":"30.88042","category":"609","category_name":"警察局","address":"南汇区老芦公路2000号"},{"poiid":"B2094654DB68ABFA4999","title":"卡特彼勒物流","lon":"121.87802","lat":"30.87511","category":"248","category_name":"生活娱乐","address":""},{"poiid":"B2094654DB65AAF5449F","title":"南汇区人民法院芦潮港法庭","lon":"121.84837","lat":"30.88076","category":"252","category_name":"楼宇机构","address":"南汇区芦潮港镇果园桥车站东首"}]