[{"poiid":"B2094654DA6FAAF5479E","title":"上海长征医院","lon":"121.46721","lat":"31.23279","category":"162","category_name":"医院","address":"黄浦区凤阳路415号(近成都北路)"},{"poiid":"B2094757D06FA2F54492","title":"沪上一家辣肉面馆(成都北路店)","lon":"121.46618","lat":"31.23239","category":"68","category_name":"快餐厅","address":"黄浦区凤阳路535号(近成都北路)"},{"poiid":"B2094751DA69A6FB499A","title":"王品  仙乐斯广场","lon":"121.465452","lat":"31.233329","category":"247","category_name":"餐饮美食","address":"南京西路338号"},{"poiid":"B2094753D76FAAFA449C","title":"上海滩国泰旗舰店","lon":"121.466011","lat":"31.216125","category":"249","category_name":"购物服务","address":"淮海中路868号"},{"poiid":"B209475CD564A7F84292","title":"上海滩新天地店","lon":"121.47463","lat":"31.22164","category":"119","category_name":"商场","address":"\"太仓路181弄新天地北里15号\r\n\""},{"poiid":"B209475CD564A7F8439E","title":"上海滩中信泰富店","lon":"121.45602","lat":"31.22851","category":"119","category_name":"商场","address":"\"南京西路1168号中信泰富广场，店铺号221.\r\n\""},{"poiid":"B2094750DB6CA1F8439B","title":"人民公园","lon":"121.466559","lat":"31.233402","category":"196","category_name":"公园","address":"黄浦区南京西路75号人民公园内(近黄陂北路)"},{"poiid":"B2094757D16EA2FB419D","title":"长征医院门诊部","lon":"121.466702738","lat":"31.2317713329","category":"162","category_name":"医院","address":"上海成都北路480号"},{"poiid":"B2094655D26BA1FF479B","title":"南京西路成都北路","lon":"121.46601","lat":"31.23086","category":"38","category_name":"公交车站","address":""},{"poiid":"B2094757D06FA6FF4598","title":"晶采世纪大厦","lon":"121.468","lat":"31.2329","category":"46","category_name":"楼宇","address":"珠江新城华穗路与华利路交汇处"},{"poiid":"B2094757DB68A5FF449C","title":"上海 来福士","lon":"121.4678278181757","lat":"31.23394058782101","category":"247","category_name":"餐饮美食","address":"人民广场"},{"poiid":"B2094757DA6EAAFD429A","title":"御景轩凯宾斯基酒店","lon":"121.465211999998","lat":"31.2323450000001","category":"251","category_name":"出行住宿","address":"静安区凤阳路601号"},{"poiid":"B2094654DA6CA1FD409A","title":"555商厦","lon":"121.46653","lat":"31.23057","category":"119","category_name":"商场","address":"静安区南京西路555号三五大厦内(近成都北路)"},{"poiid":"B2094751D56FA4F4419B","title":"木有鸭梨餐吧","lon":"121.4664323","lat":"31.2333259","category":"247","category_name":"餐饮美食","address":"南京西路456号4楼"},{"poiid":"B2094757D16FAAFA429B","title":"长征医院住院部","lon":"121.466941738","lat":"31.2327763544","category":"162","category_name":"医院","address":"上海凤阳路415号"},{"poiid":"B2094757D06FA0FA4992","title":"上海壹街区","lon":"121.465136","lat":"31.232562","category":"47","category_name":"住宅区","address":"静安区凤阳路588弄"},{"poiid":"B2094757D065A7F44593","title":"日月光中心 OLIVE DES OLIVE","lon":"121.46757623","lat":"31.232956358","category":"500","category_name":"未知分类","address":"上海打浦桥"},{"poiid":"B2094752D069A5FA4393","title":"上海国际时尚中心","lon":"121.465475","lat":"31.233833","category":"249","category_name":"购物服务","address":"上海市杨树浦路2866号"},{"poiid":"B2094752DA65A2FD439E","title":"上海明天广场JW万豪酒店","lon":"121.46729","lat":"31.233113","category":"500","category_name":"未知分类","address":"上海市 南京西路399号"},{"poiid":"B2094654DA6FAAF5489C","title":"中华保险华盛大厦","lon":"121.46685","lat":"31.23415","category":"46","category_name":"楼宇","address":"成都北路600"},{"poiid":"B2094752D06FA4FA499D","title":"MOCA ON THE PARK","lon":"121.465445","lat":"31.233023","category":"247","category_name":"餐饮美食","address":"南京西路231号人民公园内上海当代艺术馆3楼"},{"poiid":"B2094757D06AA7F8439F","title":"上海科勒设计中心","lon":"121.46708813","lat":"31.231715631","category":"260","category_name":"其他","address":"静安区南京西路456号(近仙乐斯广场)"},{"poiid":"B2094757DA68A1F84099","title":"Starbucks","lon":"121.4661986","lat":"31.2337571","category":"247","category_name":"餐饮美食","address":"People square"},{"poiid":"B2094757D068A0F4469E","title":"韩膳宫","lon":"121.4661986","lat":"31.2337571","category":"46","category_name":"楼宇","address":"上海静安区成都北路333号"},{"poiid":"B2094757D66DA7F9469E","title":"先乐施广场","lon":"121.46722173","lat":"31.232177341","category":"500","category_name":"未知分类","address":"上海南京西路388号"},{"poiid":"B2094757D068A6FD469D","title":"盛贺美 三五广场店","lon":"121.465672054","lat":"31.230538793","category":"95","category_name":"日本料理","address":"静安区南京西路555号三五大厦B1楼(近成都北路)"},{"poiid":"B2094757D06FABFF439E","title":"宜芝多(南京西路二店)","lon":"121.46665","lat":"31.23076","category":"112","category_name":"糕饼店","address":"静安区南京西路596号(近成都北路)"},{"poiid":"B2094757D064A3F9429E","title":"缤纷年代娱乐会所","lon":"121.46641","lat":"31.23063","category":"170","category_name":"KTV","address":"静安区南京西路580号(近成都北路)"},{"poiid":"B2094750D164ABFC419E","title":"凯宾斯基御锦轩(The One Shanghai)","lon":"121.46516923247","lat":"31.232415869772","category":"215","category_name":"三星级宾馆","address":"上海市静安区凤阳路601号"},{"poiid":"B2094757D064A7FA499D","title":"上海电视台17楼东方卫视","lon":"121.46445823","lat":"31.232827705","category":"500","category_name":"未知分类","address":"上海威海路298号"},{"poiid":"B2094752D36DA6F5489E","title":"老丰阁品珍轩酒店","lon":"121.466232","lat":"31.232044","category":"247","category_name":"餐饮美食","address":"黄浦区南京西路388号仙乐斯广场"},{"poiid":"B2094757D06FA4FC4298","title":"华盛大公馆","lon":"121.46709","lat":"31.234617","category":"47","category_name":"住宅区","address":"上海黄浦区北京西路355弄1-2号"},{"poiid":"B2094757D164A7F94899","title":"上海理工大学停尸房","lon":"121.46705813","lat":"31.231867635","category":"500","category_name":"未知分类","address":"上海杨浦区军工路516号，毛像北"},{"poiid":"B2094757D069A0F8499D","title":"味之都 南京路旗舰店 Wish Doing","lon":"121.466702229","lat":"31.231038929722","category":"68","category_name":"快餐厅","address":"静安区南京西路580号南证大厦1楼(近成都北路)"},{"poiid":"B2094654DA6FAAF5479A","title":"峻岭广场一期","lon":"121.46722","lat":"31.23218","category":"46","category_name":"楼宇","address":"成都北路500"},{"poiid":"B2094655D269ABFF469A","title":"鼎中鼎澳门豆捞 南京西路店","lon":"121.466702229","lat":"31.231038929722","category":"247","category_name":"餐饮美食","address":"南京西路580号南证大厦淘宝城2楼近成都北路"},{"poiid":"B2094757D068A3F5439A","title":"中国建设银行(南京西路支行)","lon":"121.46604156","lat":"31.230787277","category":"150","category_name":"银行","address":"静安区南京西路577-587号(近上海电视台)"},{"poiid":"B2094757D06AA0F44793","title":"庄氏隆兴小龙虾面馆(凤阳路店)","lon":"121.46873","lat":"31.23286","category":"68","category_name":"快餐厅","address":"黄浦区凤阳路409号(近成都北路)"},{"poiid":"B2094757D66DA5FB429B","title":"八七七双皮汤包","lon":"121.467168","lat":"31.233185","category":"68","category_name":"快餐厅","address":"黄浦区凤阳路470号(近成都北路)"},{"poiid":"B2094757D068AAF4429D","title":"峻岭大厦","lon":"121.467391968","lat":"31.232170105","category":"46","category_name":"楼宇","address":"上海成都北路500号"},{"poiid":"B2094757D06FA6F5489F","title":"雅力留学专家","lon":"121.46727123","lat":"31.232208642","category":"46","category_name":"楼宇","address":"上海市虹口区西江湾路388号虹口龙之梦广场A座20层"},{"poiid":"B2094752D76FAAFE4192","title":"Lingo餐厅","lon":"121.466171","lat":"31.234406","category":"247","category_name":"餐饮美食","address":"南京西路仙乐斯"},{"poiid":"B2094757D469A0FB449C","title":"京城日本烧烤","lon":"121.4661399","lat":"31.2307753","category":"95","category_name":"日本料理","address":"静安区南京西路555号三五商厦B1楼(近成都北路)"},{"poiid":"B2094757D56CA1FB4593","title":"汉堡王 吴江路店 Burger King","lon":"121.46583","lat":"31.23111","category":"68","category_name":"快餐厅","address":"静安区南京西路580号南证大厦1楼(近成都北路)"},{"poiid":"B2094753D068A4FE459E","title":"第二军医大学附属长征医院(凤阳路院)","lon":"121.46721","lat":"31.23279","category":"162","category_name":"医院","address":"黄浦区凤阳路415号(近成都北路)"},{"poiid":"B2094750D46BABF54492","title":"徳大西餐社","lon":"121.466133","lat":"31.233747","category":"247","category_name":"餐饮美食","address":"南京西路473号"},{"poiid":"B2094655D269A4FA4393","title":"淘宝城","lon":"121.46615","lat":"31.23114","category":"247","category_name":"餐饮美食","address":"静安区南京西路580号南证大厦1-3楼(近成都北路)"},{"poiid":"B2094751D565A7F4479A","title":"佳家湯包","lon":"121.466453","lat":"31.234724","category":"247","category_name":"餐饮美食","address":"黄河路店"},{"poiid":"B2094654DA6CA1FE4499","title":"淘宝城凤翔服饰礼品广场","lon":"121.46557","lat":"31.23241","category":"120","category_name":"小商品市场","address":"南京西路580"},{"poiid":"B2094753D26EA3FE499A","title":"The Cookery酷瑞西餐馆","lon":"121.464401","lat":"31.233083","category":"247","category_name":"餐饮美食","address":"上海市 南京西路388号仙乐斯广场108单元(近黄陂北路)"},{"poiid":"B2094654DA6FAAF5479E","title":"上海长征医院","lon":"121.46721","lat":"31.23279","category":"162","category_name":"医院","address":"黄浦区凤阳路415号(近成都北路)"},{"poiid":"B2094757D06FA2F54492","title":"沪上一家辣肉面馆(成都北路店)","lon":"121.46618","lat":"31.23239","category":"68","category_name":"快餐厅","address":"黄浦区凤阳路535号(近成都北路)"},{"poiid":"B2094751DA69A6FB499A","title":"王品  仙乐斯广场","lon":"121.465452","lat":"31.233329","category":"247","category_name":"餐饮美食","address":"南京西路338号"},{"poiid":"B2094753D76FAAFA449C","title":"上海滩国泰旗舰店","lon":"121.466011","lat":"31.216125","category":"249","category_name":"购物服务","address":"淮海中路868号"},{"poiid":"B209475CD564A7F84292","title":"上海滩新天地店","lon":"121.47463","lat":"31.22164","category":"119","category_name":"商场","address":"\"太仓路181弄新天地北里15号\r\n\""},{"poiid":"B209475CD564A7F8439E","title":"上海滩中信泰富店","lon":"121.45602","lat":"31.22851","category":"119","category_name":"商场","address":"\"南京西路1168号中信泰富广场，店铺号221.\r\n\""},{"poiid":"B2094750DB6CA1F8439B","title":"人民公园","lon":"121.466559","lat":"31.233402","category":"196","category_name":"公园","address":"黄浦区南京西路75号人民公园内(近黄陂北路)"},{"poiid":"B2094757D16EA2FB419D","title":"长征医院门诊部","lon":"121.466702738","lat":"31.2317713329","category":"162","category_name":"医院","address":"上海成都北路480号"},{"poiid":"B2094655D26BA1FF479B","title":"南京西路成都北路","lon":"121.46601","lat":"31.23086","category":"38","category_name":"公交车站","address":""},{"poiid":"B2094757D06FA6FF4598","title":"晶采世纪大厦","lon":"121.468","lat":"31.2329","category":"46","category_name":"楼宇","address":"珠江新城华穗路与华利路交汇处"},{"poiid":"B2094757DB68A5FF449C","title":"上海 来福士","lon":"121.4678278181757","lat":"31.23394058782101","category":"247","category_name":"餐饮美食","address":"人民广场"},{"poiid":"B2094757DA6EAAFD429A","title":"御景轩凯宾斯基酒店","lon":"121.465211999998","lat":"31.2323450000001","category":"251","category_name":"出行住宿","address":"静安区凤阳路601号"},{"poiid":"B2094654DA6CA1FD409A","title":"555商厦","lon":"121.46653","lat":"31.23057","category":"119","category_name":"商场","address":"静安区南京西路555号三五大厦内(近成都北路)"},{"poiid":"B2094751D56FA4F4419B","title":"木有鸭梨餐吧","lon":"121.4664323","lat":"31.2333259","category":"247","category_name":"餐饮美食","address":"南京西路456号4楼"},{"poiid":"B2094757D16FAAFA429B","title":"长征医院住院部","lon":"121.466941738","lat":"31.2327763544","category":"162","category_name":"医院","address":"上海凤阳路415号"},{"poiid":"B2094757D06FA0FA4992","title":"上海壹街区","lon":"121.465136","lat":"31.232562","category":"47","category_name":"住宅区","address":"静安区凤阳路588弄"},{"poiid":"B2094757D065A7F44593","title":"日月光中心 OLIVE DES OLIVE","lon":"121.46757623","lat":"31.232956358","category":"500","category_name":"未知分类","address":"上海打浦桥"},{"poiid":"B2094752D069A5FA4393","title":"上海国际时尚中心","lon":"121.465475","lat":"31.233833","category":"249","category_name":"购物服务","address":"上海市杨树浦路2866号"},{"poiid":"B2094752DA65A2FD439E","title":"上海明天广场JW万豪酒店","lon":"121.46729","lat":"31.233113","category":"500","category_name":"未知分类","address":"上海市 南京西路399号"},{"poiid":"B2094654DA6FAAF5489C","title":"中华保险华盛大厦","lon":"121.46685","lat":"31.23415","category":"46","category_name":"楼宇","address":"成都北路600"},{"poiid":"B2094752D06FA4FA499D","title":"MOCA ON THE PARK","lon":"121.465445","lat":"31.233023","category":"247","category_name":"餐饮美食","address":"南京西路231号人民公园内上海当代艺术馆3楼"},{"poiid":"B2094757D06AA7F8439F","title":"上海科勒设计中心","lon":"121.46708813","lat":"31.231715631","category":"260","category_name":"其他","address":"静安区南京西路456号(近仙乐斯广场)"},{"poiid":"B2094757DA68A1F84099","title":"Starbucks","lon":"121.4661986","lat":"31.2337571","category":"247","category_name":"餐饮美食","address":"People square"},{"poiid":"B2094757D068A0F4469E","title":"韩膳宫","lon":"121.4661986","lat":"31.2337571","category":"46","category_name":"楼宇","address":"上海静安区成都北路333号"},{"poiid":"B2094757D66DA7F9469E","title":"先乐施广场","lon":"121.46722173","lat":"31.232177341","category":"500","category_name":"未知分类","address":"上海南京西路388号"},{"poiid":"B2094757D068A6FD469D","title":"盛贺美 三五广场店","lon":"121.465672054","lat":"31.230538793","category":"95","category_name":"日本料理","address":"静安区南京西路555号三五大厦B1楼(近成都北路)"},{"poiid":"B2094757D06FABFF439E","title":"宜芝多(南京西路二店)","lon":"121.46665","lat":"31.23076","category":"112","category_name":"糕饼店","address":"静安区南京西路596号(近成都北路)"},{"poiid":"B2094757D064A3F9429E","title":"缤纷年代娱乐会所","lon":"121.46641","lat":"31.23063","category":"170","category_name":"KTV","address":"静安区南京西路580号(近成都北路)"},{"poiid":"B2094750D164ABFC419E","title":"凯宾斯基御锦轩(The One Shanghai)","lon":"121.46516923247","lat":"31.232415869772","category":"215","category_name":"三星级宾馆","address":"上海市静安区凤阳路601号"},{"poiid":"B2094757D064A7FA499D","title":"上海电视台17楼东方卫视","lon":"121.46445823","lat":"31.232827705","category":"500","category_name":"未知分类","address":"上海威海路298号"},{"poiid":"B2094752D36DA6F5489E","title":"老丰阁品珍轩酒店","lon":"121.466232","lat":"31.232044","category":"247","category_name":"餐饮美食","address":"黄浦区南京西路388号仙乐斯广场"},{"poiid":"B2094757D06FA4FC4298","title":"华盛大公馆","lon":"121.46709","lat":"31.234617","category":"47","category_name":"住宅区","address":"上海黄浦区北京西路355弄1-2号"},{"poiid":"B2094757D164A7F94899","title":"上海理工大学停尸房","lon":"121.46705813","lat":"31.231867635","category":"500","category_name":"未知分类","address":"上海杨浦区军工路516号，毛像北"},{"poiid":"B2094757D069A0F8499D","title":"味之都 南京路旗舰店 Wish Doing","lon":"121.466702229","lat":"31.231038929722","category":"68","category_name":"快餐厅","address":"静安区南京西路580号南证大厦1楼(近成都北路)"},{"poiid":"B2094654DA6FAAF5479A","title":"峻岭广场一期","lon":"121.46722","lat":"31.23218","category":"46","category_name":"楼宇","address":"成都北路500"},{"poiid":"B2094655D269ABFF469A","title":"鼎中鼎澳门豆捞 南京西路店","lon":"121.466702229","lat":"31.231038929722","category":"247","category_name":"餐饮美食","address":"南京西路580号南证大厦淘宝城2楼近成都北路"},{"poiid":"B2094757D068A3F5439A","title":"中国建设银行(南京西路支行)","lon":"121.46604156","lat":"31.230787277","category":"150","category_name":"银行","address":"静安区南京西路577-587号(近上海电视台)"},{"poiid":"B2094757D06AA0F44793","title":"庄氏隆兴小龙虾面馆(凤阳路店)","lon":"121.46873","lat":"31.23286","category":"68","category_name":"快餐厅","address":"黄浦区凤阳路409号(近成都北路)"},{"poiid":"B2094757D66DA5FB429B","title":"八七七双皮汤包","lon":"121.467168","lat":"31.233185","category":"68","category_name":"快餐厅","address":"黄浦区凤阳路470号(近成都北路)"},{"poiid":"B2094757D068AAF4429D","title":"峻岭大厦","lon":"121.467391968","lat":"31.232170105","category":"46","category_name":"楼宇","address":"上海成都北路500号"},{"poiid":"B2094757D06FA6F5489F","title":"雅力留学专家","lon":"121.46727123","lat":"31.232208642","category":"46","category_name":"楼宇","address":"上海市虹口区西江湾路388号虹口龙之梦广场A座20层"},{"poiid":"B2094752D76FAAFE4192","title":"Lingo餐厅","lon":"121.466171","lat":"31.234406","category":"247","category_name":"餐饮美食","address":"南京西路仙乐斯"},{"poiid":"B2094757D469A0FB449C","title":"京城日本烧烤","lon":"121.4661399","lat":"31.2307753","category":"95","category_name":"日本料理","address":"静安区南京西路555号三五商厦B1楼(近成都北路)"},{"poiid":"B2094757D56CA1FB4593","title":"汉堡王 吴江路店 Burger King","lon":"121.46583","lat":"31.23111","category":"68","category_name":"快餐厅","address":"静安区南京西路580号南证大厦1楼(近成都北路)"},{"poiid":"B2094753D068A4FE459E","title":"第二军医大学附属长征医院(凤阳路院)","lon":"121.46721","lat":"31.23279","category":"162","category_name":"医院","address":"黄浦区凤阳路415号(近成都北路)"},{"poiid":"B2094750D46BABF54492","title":"徳大西餐社","lon":"121.466133","lat":"31.233747","category":"247","category_name":"餐饮美食","address":"南京西路473号"},{"poiid":"B2094655D269A4FA4393","title":"淘宝城","lon":"121.46615","lat":"31.23114","category":"247","category_name":"餐饮美食","address":"静安区南京西路580号南证大厦1-3楼(近成都北路)"},{"poiid":"B2094751D565A7F4479A","title":"佳家湯包","lon":"121.466453","lat":"31.234724","category":"247","category_name":"餐饮美食","address":"黄河路店"},{"poiid":"B2094654DA6CA1FE4499","title":"淘宝城凤翔服饰礼品广场","lon":"121.46557","lat":"31.23241","category":"120","category_name":"小商品市场","address":"南京西路580"},{"poiid":"B2094753D26EA3FE499A","title":"The Cookery酷瑞西餐馆","lon":"121.464401","lat":"31.233083","category":"247","category_name":"餐饮美食","address":"上海市 南京西路388号仙乐斯广场108单元(近黄陂北路)"},{"poiid":"B2094654DA6FAAF5479E","title":"上海长征医院","lon":"121.46721","lat":"31.23279","category":"162","category_name":"医院","address":"黄浦区凤阳路415号(近成都北路)"},{"poiid":"B2094757D06FA2F54492","title":"沪上一家辣肉面馆(成都北路店)","lon":"121.46618","lat":"31.23239","category":"68","category_name":"快餐厅","address":"黄浦区凤阳路535号(近成都北路)"},{"poiid":"B2094751DA69A6FB499A","title":"王品  仙乐斯广场","lon":"121.465452","lat":"31.233329","category":"247","category_name":"餐饮美食","address":"南京西路338号"},{"poiid":"B2094753D76FAAFA449C","title":"上海滩国泰旗舰店","lon":"121.466011","lat":"31.216125","category":"249","category_name":"购物服务","address":"淮海中路868号"},{"poiid":"B209475CD564A7F84292","title":"上海滩新天地店","lon":"121.47463","lat":"31.22164","category":"119","category_name":"商场","address":"\"太仓路181弄新天地北里15号\r\n\""},{"poiid":"B209475CD564A7F8439E","title":"上海滩中信泰富店","lon":"121.45602","lat":"31.22851","category":"119","category_name":"商场","address":"\"南京西路1168号中信泰富广场，店铺号221.\r\n\""},{"poiid":"B2094750DB6CA1F8439B","title":"人民公园","lon":"121.466559","lat":"31.233402","category":"196","category_name":"公园","address":"黄浦区南京西路75号人民公园内(近黄陂北路)"},{"poiid":"B2094757D16EA2FB419D","title":"长征医院门诊部","lon":"121.466702738","lat":"31.2317713329","category":"162","category_name":"医院","address":"上海成都北路480号"},{"poiid":"B2094655D26BA1FF479B","title":"南京西路成都北路","lon":"121.46601","lat":"31.23086","category":"38","category_name":"公交车站","address":""},{"poiid":"B2094757D06FA6FF4598","title":"晶采世纪大厦","lon":"121.468","lat":"31.2329","category":"46","category_name":"楼宇","address":"珠江新城华穗路与华利路交汇处"},{"poiid":"B2094757DB68A5FF449C","title":"上海 来福士","lon":"121.4678278181757","lat":"31.23394058782101","category":"247","category_name":"餐饮美食","address":"人民广场"},{"poiid":"B2094757DA6EAAFD429A","title":"御景轩凯宾斯基酒店","lon":"121.465211999998","lat":"31.2323450000001","category":"251","category_name":"出行住宿","address":"静安区凤阳路601号"},{"poiid":"B2094654DA6CA1FD409A","title":"555商厦","lon":"121.46653","lat":"31.23057","category":"119","category_name":"商场","address":"静安区南京西路555号三五大厦内(近成都北路)"},{"poiid":"B2094751D56FA4F4419B","title":"木有鸭梨餐吧","lon":"121.4664323","lat":"31.2333259","category":"247","category_name":"餐饮美食","address":"南京西路456号4楼"},{"poiid":"B2094757D16FAAFA429B","title":"长征医院住院部","lon":"121.466941738","lat":"31.2327763544","category":"162","category_name":"医院","address":"上海凤阳路415号"},{"poiid":"B2094757D06FA0FA4992","title":"上海壹街区","lon":"121.465136","lat":"31.232562","category":"47","category_name":"住宅区","address":"静安区凤阳路588弄"},{"poiid":"B2094757D065A7F44593","title":"日月光中心 OLIVE DES OLIVE","lon":"121.46757623","lat":"31.232956358","category":"500","category_name":"未知分类","address":"上海打浦桥"},{"poiid":"B2094752D069A5FA4393","title":"上海国际时尚中心","lon":"121.465475","lat":"31.233833","category":"249","category_name":"购物服务","address":"上海市杨树浦路2866号"},{"poiid":"B2094752DA65A2FD439E","title":"上海明天广场JW万豪酒店","lon":"121.46729","lat":"31.233113","category":"500","category_name":"未知分类","address":"上海市 南京西路399号"},{"poiid":"B2094654DA6FAAF5489C","title":"中华保险华盛大厦","lon":"121.46685","lat":"31.23415","category":"46","category_name":"楼宇","address":"成都北路600"},{"poiid":"B2094752D06FA4FA499D","title":"MOCA ON THE PARK","lon":"121.465445","lat":"31.233023","category":"247","category_name":"餐饮美食","address":"南京西路231号人民公园内上海当代艺术馆3楼"},{"poiid":"B2094757D06AA7F8439F","title":"上海科勒设计中心","lon":"121.46708813","lat":"31.231715631","category":"260","category_name":"其他","address":"静安区南京西路456号(近仙乐斯广场)"},{"poiid":"B2094757DA68A1F84099","title":"Starbucks","lon":"121.4661986","lat":"31.2337571","category":"247","category_name":"餐饮美食","address":"People square"},{"poiid":"B2094757D068A0F4469E","title":"韩膳宫","lon":"121.4661986","lat":"31.2337571","category":"46","category_name":"楼宇","address":"上海静安区成都北路333号"},{"poiid":"B2094757D66DA7F9469E","title":"先乐施广场","lon":"121.46722173","lat":"31.232177341","category":"500","category_name":"未知分类","address":"上海南京西路388号"},{"poiid":"B2094757D068A6FD469D","title":"盛贺美 三五广场店","lon":"121.465672054","lat":"31.230538793","category":"95","category_name":"日本料理","address":"静安区南京西路555号三五大厦B1楼(近成都北路)"},{"poiid":"B2094757D06FABFF439E","title":"宜芝多(南京西路二店)","lon":"121.46665","lat":"31.23076","category":"112","category_name":"糕饼店","address":"静安区南京西路596号(近成都北路)"},{"poiid":"B2094757D064A3F9429E","title":"缤纷年代娱乐会所","lon":"121.46641","lat":"31.23063","category":"170","category_name":"KTV","address":"静安区南京西路580号(近成都北路)"},{"poiid":"B2094750D164ABFC419E","title":"凯宾斯基御锦轩(The One Shanghai)","lon":"121.46516923247","lat":"31.232415869772","category":"215","category_name":"三星级宾馆","address":"上海市静安区凤阳路601号"},{"poiid":"B2094757D064A7FA499D","title":"上海电视台17楼东方卫视","lon":"121.46445823","lat":"31.232827705","category":"500","category_name":"未知分类","address":"上海威海路298号"},{"poiid":"B2094752D36DA6F5489E","title":"老丰阁品珍轩酒店","lon":"121.466232","lat":"31.232044","category":"247","category_name":"餐饮美食","address":"黄浦区南京西路388号仙乐斯广场"},{"poiid":"B2094757D06FA4FC4298","title":"华盛大公馆","lon":"121.46709","lat":"31.234617","category":"47","category_name":"住宅区","address":"上海黄浦区北京西路355弄1-2号"},{"poiid":"B2094757D164A7F94899","title":"上海理工大学停尸房","lon":"121.46705813","lat":"31.231867635","category":"500","category_name":"未知分类","address":"上海杨浦区军工路516号，毛像北"},{"poiid":"B2094757D069A0F8499D","title":"味之都 南京路旗舰店 Wish Doing","lon":"121.466702229","lat":"31.231038929722","category":"68","category_name":"快餐厅","address":"静安区南京西路580号南证大厦1楼(近成都北路)"},{"poiid":"B2094654DA6FAAF5479A","title":"峻岭广场一期","lon":"121.46722","lat":"31.23218","category":"46","category_name":"楼宇","address":"成都北路500"},{"poiid":"B2094655D269ABFF469A","title":"鼎中鼎澳门豆捞 南京西路店","lon":"121.466702229","lat":"31.231038929722","category":"247","category_name":"餐饮美食","address":"南京西路580号南证大厦淘宝城2楼近成都北路"},{"poiid":"B2094757D068A3F5439A","title":"中国建设银行(南京西路支行)","lon":"121.46604156","lat":"31.230787277","category":"150","category_name":"银行","address":"静安区南京西路577-587号(近上海电视台)"},{"poiid":"B2094757D06AA0F44793","title":"庄氏隆兴小龙虾面馆(凤阳路店)","lon":"121.46873","lat":"31.23286","category":"68","category_name":"快餐厅","address":"黄浦区凤阳路409号(近成都北路)"},{"poiid":"B2094757D66DA5FB429B","title":"八七七双皮汤包","lon":"121.467168","lat":"31.233185","category":"68","category_name":"快餐厅","address":"黄浦区凤阳路470号(近成都北路)"},{"poiid":"B2094757D068AAF4429D","title":"峻岭大厦","lon":"121.467391968","lat":"31.232170105","category":"46","category_name":"楼宇","address":"上海成都北路500号"},{"poiid":"B2094757D06FA6F5489F","title":"雅力留学专家","lon":"121.46727123","lat":"31.232208642","category":"46","category_name":"楼宇","address":"上海市虹口区西江湾路388号虹口龙之梦广场A座20层"},{"poiid":"B2094752D76FAAFE4192","title":"Lingo餐厅","lon":"121.466171","lat":"31.234406","category":"247","category_name":"餐饮美食","address":"南京西路仙乐斯"},{"poiid":"B2094757D469A0FB449C","title":"京城日本烧烤","lon":"121.4661399","lat":"31.2307753","category":"95","category_name":"日本料理","address":"静安区南京西路555号三五商厦B1楼(近成都北路)"},{"poiid":"B2094757D56CA1FB4593","title":"汉堡王 吴江路店 Burger King","lon":"121.46583","lat":"31.23111","category":"68","category_name":"快餐厅","address":"静安区南京西路580号南证大厦1楼(近成都北路)"},{"poiid":"B2094753D068A4FE459E","title":"第二军医大学附属长征医院(凤阳路院)","lon":"121.46721","lat":"31.23279","category":"162","category_name":"医院","address":"黄浦区凤阳路415号(近成都北路)"},{"poiid":"B2094750D46BABF54492","title":"徳大西餐社","lon":"121.466133","lat":"31.233747","category":"247","category_name":"餐饮美食","address":"南京西路473号"},{"poiid":"B2094655D269A4FA4393","title":"淘宝城","lon":"121.46615","lat":"31.23114","category":"247","category_name":"餐饮美食","address":"静安区南京西路580号南证大厦1-3楼(近成都北路)"},{"poiid":"B2094751D565A7F4479A","title":"佳家湯包","lon":"121.466453","lat":"31.234724","category":"247","category_name":"餐饮美食","address":"黄河路店"},{"poiid":"B2094654DA6CA1FE4499","title":"淘宝城凤翔服饰礼品广场","lon":"121.46557","lat":"31.23241","category":"120","category_name":"小商品市场","address":"南京西路580"},{"poiid":"B2094753D26EA3FE499A","title":"The Cookery酷瑞西餐馆","lon":"121.464401","lat":"31.233083","category":"247","category_name":"餐饮美食","address":"上海市 南京西路388号仙乐斯广场108单元(近黄陂北路)"},{"poiid":"B2094654DA6FAAF5479E","title":"上海长征医院","lon":"121.46721","lat":"31.23279","category":"162","category_name":"医院","address":"黄浦区凤阳路415号(近成都北路)"},{"poiid":"B2094757D06FA2F54492","title":"沪上一家辣肉面馆(成都北路店)","lon":"121.46618","lat":"31.23239","category":"68","category_name":"快餐厅","address":"黄浦区凤阳路535号(近成都北路)"},{"poiid":"B2094751DA69A6FB499A","title":"王品  仙乐斯广场","lon":"121.465452","lat":"31.233329","category":"247","category_name":"餐饮美食","address":"南京西路338号"},{"poiid":"B2094753D76FAAFA449C","title":"上海滩国泰旗舰店","lon":"121.466011","lat":"31.216125","category":"249","category_name":"购物服务","address":"淮海中路868号"},{"poiid":"B209475CD564A7F84292","title":"上海滩新天地店","lon":"121.47463","lat":"31.22164","category":"119","category_name":"商场","address":"\"太仓路181弄新天地北里15号\r\n\""},{"poiid":"B209475CD564A7F8439E","title":"上海滩中信泰富店","lon":"121.45602","lat":"31.22851","category":"119","category_name":"商场","address":"\"南京西路1168号中信泰富广场，店铺号221.\r\n\""},{"poiid":"B2094750DB6CA1F8439B","title":"人民公园","lon":"121.466559","lat":"31.233402","category":"196","category_name":"公园","address":"黄浦区南京西路75号人民公园内(近黄陂北路)"},{"poiid":"B2094757D16EA2FB419D","title":"长征医院门诊部","lon":"121.466702738","lat":"31.2317713329","category":"162","category_name":"医院","address":"上海成都北路480号"},{"poiid":"B2094655D26BA1FF479B","title":"南京西路成都北路","lon":"121.46601","lat":"31.23086","category":"38","category_name":"公交车站","address":""},{"poiid":"B2094757D06FA6FF4598","title":"晶采世纪大厦","lon":"121.468","lat":"31.2329","category":"46","category_name":"楼宇","address":"珠江新城华穗路与华利路交汇处"},{"poiid":"B2094757DB68A5FF449C","title":"上海 来福士","lon":"121.4678278181757","lat":"31.23394058782101","category":"247","category_name":"餐饮美食","address":"人民广场"},{"poiid":"B2094757DA6EAAFD429A","title":"御景轩凯宾斯基酒店","lon":"121.465211999998","lat":"31.2323450000001","category":"251","category_name":"出行住宿","address":"静安区凤阳路601号"},{"poiid":"B2094654DA6CA1FD409A","title":"555商厦","lon":"121.46653","lat":"31.23057","category":"119","category_name":"商场","address":"静安区南京西路555号三五大厦内(近成都北路)"},{"poiid":"B2094751D56FA4F4419B","title":"木有鸭梨餐吧","lon":"121.4664323","lat":"31.2333259","category":"247","category_name":"餐饮美食","address":"南京西路456号4楼"},{"poiid":"B2094757D16FAAFA429B","title":"长征医院住院部","lon":"121.466941738","lat":"31.2327763544","category":"162","category_name":"医院","address":"上海凤阳路415号"},{"poiid":"B2094757D06FA0FA4992","title":"上海壹街区","lon":"121.465136","lat":"31.232562","category":"47","category_name":"住宅区","address":"静安区凤阳路588弄"},{"poiid":"B2094757D065A7F44593","title":"日月光中心 OLIVE DES OLIVE","lon":"121.46757623","lat":"31.232956358","category":"500","category_name":"未知分类","address":"上海打浦桥"},{"poiid":"B2094752D069A5FA4393","title":"上海国际时尚中心","lon":"121.465475","lat":"31.233833","category":"249","category_name":"购物服务","address":"上海市杨树浦路2866号"},{"poiid":"B2094752DA65A2FD439E","title":"上海明天广场JW万豪酒店","lon":"121.46729","lat":"31.233113","category":"500","category_name":"未知分类","address":"上海市 南京西路399号"},{"poiid":"B2094654DA6FAAF5489C","title":"中华保险华盛大厦","lon":"121.46685","lat":"31.23415","category":"46","category_name":"楼宇","address":"成都北路600"},{"poiid":"B2094752D06FA4FA499D","title":"MOCA ON THE PARK","lon":"121.465445","lat":"31.233023","category":"247","category_name":"餐饮美食","address":"南京西路231号人民公园内上海当代艺术馆3楼"},{"poiid":"B2094757D06AA7F8439F","title":"上海科勒设计中心","lon":"121.46708813","lat":"31.231715631","category":"260","category_name":"其他","address":"静安区南京西路456号(近仙乐斯广场)"},{"poiid":"B2094757DA68A1F84099","title":"Starbucks","lon":"121.4661986","lat":"31.2337571","category":"247","category_name":"餐饮美食","address":"People square"},{"poiid":"B2094757D068A0F4469E","title":"韩膳宫","lon":"121.4661986","lat":"31.2337571","category":"46","category_name":"楼宇","address":"上海静安区成都北路333号"},{"poiid":"B2094757D66DA7F9469E","title":"先乐施广场","lon":"121.46722173","lat":"31.232177341","category":"500","category_name":"未知分类","address":"上海南京西路388号"},{"poiid":"B2094757D068A6FD469D","title":"盛贺美 三五广场店","lon":"121.465672054","lat":"31.230538793","category":"95","category_name":"日本料理","address":"静安区南京西路555号三五大厦B1楼(近成都北路)"},{"poiid":"B2094757D06FABFF439E","title":"宜芝多(南京西路二店)","lon":"121.46665","lat":"31.23076","category":"112","category_name":"糕饼店","address":"静安区南京西路596号(近成都北路)"},{"poiid":"B2094757D064A3F9429E","title":"缤纷年代娱乐会所","lon":"121.46641","lat":"31.23063","category":"170","category_name":"KTV","address":"静安区南京西路580号(近成都北路)"},{"poiid":"B2094750D164ABFC419E","title":"凯宾斯基御锦轩(The One Shanghai)","lon":"121.46516923247","lat":"31.232415869772","category":"215","category_name":"三星级宾馆","address":"上海市静安区凤阳路601号"},{"poiid":"B2094757D064A7FA499D","title":"上海电视台17楼东方卫视","lon":"121.46445823","lat":"31.232827705","category":"500","category_name":"未知分类","address":"上海威海路298号"},{"poiid":"B2094752D36DA6F5489E","title":"老丰阁品珍轩酒店","lon":"121.466232","lat":"31.232044","category":"247","category_name":"餐饮美食","address":"黄浦区南京西路388号仙乐斯广场"},{"poiid":"B2094757D06FA4FC4298","title":"华盛大公馆","lon":"121.46709","lat":"31.234617","category":"47","category_name":"住宅区","address":"上海黄浦区北京西路355弄1-2号"},{"poiid":"B2094757D164A7F94899","title":"上海理工大学停尸房","lon":"121.46705813","lat":"31.231867635","category":"500","category_name":"未知分类","address":"上海杨浦区军工路516号，毛像北"},{"poiid":"B2094757D069A0F8499D","title":"味之都 南京路旗舰店 Wish Doing","lon":"121.466702229","lat":"31.231038929722","category":"68","category_name":"快餐厅","address":"静安区南京西路580号南证大厦1楼(近成都北路)"},{"poiid":"B2094654DA6FAAF5479A","title":"峻岭广场一期","lon":"121.46722","lat":"31.23218","category":"46","category_name":"楼宇","address":"成都北路500"},{"poiid":"B2094655D269ABFF469A","title":"鼎中鼎澳门豆捞 南京西路店","lon":"121.466702229","lat":"31.231038929722","category":"247","category_name":"餐饮美食","address":"南京西路580号南证大厦淘宝城2楼近成都北路"},{"poiid":"B2094757D068A3F5439A","title":"中国建设银行(南京西路支行)","lon":"121.46604156","lat":"31.230787277","category":"150","category_name":"银行","address":"静安区南京西路577-587号(近上海电视台)"},{"poiid":"B2094757D06AA0F44793","title":"庄氏隆兴小龙虾面馆(凤阳路店)","lon":"121.46873","lat":"31.23286","category":"68","category_name":"快餐厅","address":"黄浦区凤阳路409号(近成都北路)"},{"poiid":"B2094757D66DA5FB429B","title":"八七七双皮汤包","lon":"121.467168","lat":"31.233185","category":"68","category_name":"快餐厅","address":"黄浦区凤阳路470号(近成都北路)"},{"poiid":"B2094757D068AAF4429D","title":"峻岭大厦","lon":"121.467391968","lat":"31.232170105","category":"46","category_name":"楼宇","address":"上海成都北路500号"},{"poiid":"B2094757D06FA6F5489F","title":"雅力留学专家","lon":"121.46727123","lat":"31.232208642","category":"46","category_name":"楼宇","address":"上海市虹口区西江湾路388号虹口龙之梦广场A座20层"},{"poiid":"B2094752D76FAAFE4192","title":"Lingo餐厅","lon":"121.466171","lat":"31.234406","category":"247","category_name":"餐饮美食","address":"南京西路仙乐斯"},{"poiid":"B2094757D469A0FB449C","title":"京城日本烧烤","lon":"121.4661399","lat":"31.2307753","category":"95","category_name":"日本料理","address":"静安区南京西路555号三五商厦B1楼(近成都北路)"},{"poiid":"B2094757D56CA1FB4593","title":"汉堡王 吴江路店 Burger King","lon":"121.46583","lat":"31.23111","category":"68","category_name":"快餐厅","address":"静安区南京西路580号南证大厦1楼(近成都北路)"},{"poiid":"B2094753D068A4FE459E","title":"第二军医大学附属长征医院(凤阳路院)","lon":"121.46721","lat":"31.23279","category":"162","category_name":"医院","address":"黄浦区凤阳路415号(近成都北路)"},{"poiid":"B2094750D46BABF54492","title":"徳大西餐社","lon":"121.466133","lat":"31.233747","category":"247","category_name":"餐饮美食","address":"南京西路473号"},{"poiid":"B2094655D269A4FA4393","title":"淘宝城","lon":"121.46615","lat":"31.23114","category":"247","category_name":"餐饮美食","address":"静安区南京西路580号南证大厦1-3楼(近成都北路)"},{"poiid":"B2094751D565A7F4479A","title":"佳家湯包","lon":"121.466453","lat":"31.234724","category":"247","category_name":"餐饮美食","address":"黄河路店"},{"poiid":"B2094654DA6CA1FE4499","title":"淘宝城凤翔服饰礼品广场","lon":"121.46557","lat":"31.23241","category":"120","category_name":"小商品市场","address":"南京西路580"},{"poiid":"B2094753D26EA3FE499A","title":"The Cookery酷瑞西餐馆","lon":"121.464401","lat":"31.233083","category":"247","category_name":"餐饮美食","address":"上海市 南京西路388号仙乐斯广场108单元(近黄陂北路)"}]