[{"poiid":"B2094757D068A2FB419F","title":"吉臣酒店","lon":"121.429710815","lat":"31.2278964211","category":"217","category_name":"旅馆招待所","address":"静安区万航渡路818号(近长寿路)"},{"poiid":"B2094654DB65A4F84892","title":"柔日本料理 YAWARA","lon":"121.429154054","lat":"31.228230793","category":"247","category_name":"餐饮美食","address":"静安区万航渡路818号吉臣酒店4楼(近康定路)"},{"poiid":"B2094655D26AABF84698","title":"小鹭鹭酒家武宁南路店","lon":"121.43216","lat":"31.23152","category":"71","category_name":"四川菜","address":"静安区武宁南路383号(近余姚路)"},{"poiid":"B209475CD564A7F8439E","title":"上海滩中信泰富店","lon":"121.45602","lat":"31.22851","category":"119","category_name":"商场","address":"\"南京西路1168号中信泰富广场，店铺号221.\r\n\""},{"poiid":"B2094757D06FA2FE4299","title":"上海市公安局","lon":"121.435191","lat":"31.228343","category":"609","category_name":"警察局","address":"上海武宁南路128号"},{"poiid":"B2094757D06FA4FA479B","title":"绿地商务大厦","lon":"121.43222758119","lat":"31.225661116139","category":"46","category_name":"楼宇","address":"上海市长宁区愚园路1258号"},{"poiid":"B209475CD76DA7F4419F","title":"唐宫海鲜舫","lon":"121.432838","lat":"31.227283","category":"247","category_name":"餐饮美食","address":"上海市 万航渡路889号悦达889广场4楼"},{"poiid":"B2094655D264A4F9499E","title":"港人情味茶餐厅 康定路店","lon":"121.42934694949","lat":"31.228463845861","category":"72","category_name":"广东菜","address":"静安区康定路1596号(近万航渡路)"},{"poiid":"B2094757D068AAFC4799","title":"武宁南路康定路","lon":"121.43359714","lat":"31.2304910374","category":"260","category_name":"其他","address":"上海静安区武宁南路康定路口"},{"poiid":"B2094655D26CAAFC459E","title":"海森国际大厦(康定路)","lon":"121.43","lat":"31.22844","category":"46","category_name":"楼宇","address":"海森国际大厦位于静安康定路1469号(近万航渡路)"},{"poiid":"B2094757D56CA2FF419E","title":"一线烫捞 悦达广场店","lon":"121.4294761","lat":"31.2284633","category":"68","category_name":"快餐厅","address":"静安区万航渡路889号悦达广场B1楼(近长寿路)"},{"poiid":"B2094757D068A4FC449B","title":"瑞士人家","lon":"121.43354559","lat":"31.2285712694","category":"94","category_name":"西餐厅","address":"静安区康定路1582号(近万航渡路)"},{"poiid":"B2094757D06AA2F4489C","title":"婚姻登记处(静安区登记处)","lon":"121.43274416","lat":"31.230187056","category":"46","category_name":"楼宇","address":"静安区康定路405号(近陕西北路)查看地图"},{"poiid":"B2094757D069A1FC4392","title":"忻康里","lon":"121.430892942","lat":"31.2295717874","category":"38","category_name":"公交车站","address":"上海23路终点站"},{"poiid":"B2094654DB6BA6FF4093","title":"金峰世纪大厦(万航渡路)","lon":"121.4307","lat":"31.22793","category":"46","category_name":"楼宇","address":"上海市静安区万航渡路789号"},{"poiid":"B2094750DA6EA3FB4293","title":"889广场","lon":"121.430061","lat":"31.228359","category":"249","category_name":"购物服务","address":"静安区万航渡路"},{"poiid":"B2094757D06FABFB479F","title":"高荣小区","lon":"121.43186669","lat":"31.226825114","category":"47","category_name":"住宅区","address":"万航渡路661弄1-42号"},{"poiid":"B2094757D068A4FA4398","title":"静安区社保中心","lon":"121.434334","lat":"31.228899","category":"500","category_name":"未知分类","address":"上海武宁南路221号"},{"poiid":"B2094757D068A6FF4693","title":"王家沙点心店(万航渡路店)","lon":"121.43307","lat":"31.22653","category":"68","category_name":"快餐厅","address":"静安区万航渡路673号(康定路与武定西路间)"},{"poiid":"B2094757D068A2FC4998","title":"红宝石 万航渡路店 Ruby","lon":"121.433935054","lat":"31.225951793","category":"67","category_name":"甜品店","address":"静安区万航渡路625号(近武定西路)"},{"poiid":"B2094757D069ABF94493","title":"集鲜阁","lon":"121.43094","lat":"31.22766","category":"76","category_name":"上海菜","address":"静安区万航渡路789号3楼(近康定路)"},{"poiid":"B2094757D468AAFB4392","title":"寿司奈良本","lon":"121.43089","lat":"31.229711","category":"95","category_name":"日本料理","address":"静安区余姚路801号"},{"poiid":"B2094655D26AA4FB479E","title":"名流汽车销售公司","lon":"121.43425","lat":"31.23041","category":"247","category_name":"餐饮美食","address":"静安区康定路1171号(近万航渡路)"},{"poiid":"B2094757D068A1FE4292","title":"竹家庄避风塘","lon":"121.43373458","lat":"31.230659439","category":"72","category_name":"广东菜","address":"静安区武宁南路377号(近余姚路)"},{"poiid":"B2094757D064A0FC489F","title":"静安区人力资源和社会保障局","lon":"121.43430671","lat":"31.2289472835","category":"46","category_name":"楼宇","address":"上海静安区武宁南路241号"},{"poiid":"B2094757D069A0F4479A","title":"天乐酒家","lon":"121.43225563741","lat":"31.226646519422","category":"76","category_name":"上海菜","address":"静安区万航渡路628号(近武定西路)"},{"poiid":"B2094757D16EA2FA4099","title":"上海汽车集团财务有限责任公司","lon":"121.43272558","lat":"31.229958425","category":"46","category_name":"楼宇","address":"上海康定路1199号"},{"poiid":"B2094654D565A1FC4893","title":"上海市市西初级中学","lon":"121.43038","lat":"31.23022","category":"55","category_name":"中学","address":"静安区余姚路818号(康定路余姚路)"},{"poiid":"B2094757D069A5F8469A","title":"静安丽舍","lon":"121.43063354","lat":"31.2261734","category":"500","category_name":"未知分类","address":"万航渡路858弄25-27号"},{"poiid":"B2094655D26CAAFC479A","title":"静鼎安邦府邸","lon":"121.43263","lat":"31.230587","category":"47","category_name":"住宅区","address":"康定路1268弄1-29号"},{"poiid":"B2094654D565A1FD409F","title":"凯司令曹家渡店","lon":"121.43192","lat":"31.22949","category":"112","category_name":"糕饼店","address":"静安区康定路1361-1363号(近万航渡路)"},{"poiid":"B2094757D16AA3F84498","title":"静安区妇幼保健所","lon":"121.43324","lat":"31.22984","category":"162","category_name":"医院","address":"静安区康定路1297号(近武宁南路)"},{"poiid":"B2094655D26CABF44193","title":"中行别业商务中心","lon":"121.434","lat":"31.22675","category":"46","category_name":"楼宇","address":"城西路188、200号等"},{"poiid":"B2094757D068A7F8479B","title":"中行小区","lon":"121.43359768","lat":"31.226565699","category":"47","category_name":"住宅区","address":"上海市长宁区淮海西路346弄5号楼"},{"poiid":"B2094654D565A1F84198","title":"上海工艺美术职业学院","lon":"121.43133","lat":"31.22803","category":"671","category_name":"高校中心点","address":"万航渡路767弄20号"},{"poiid":"B2094655D26DABF4469F","title":"康余绿地","lon":"121.43124","lat":"31.22958","category":"202","category_name":"公园广场","address":"静安区曹家渡忻康里(康定路余姚路)"},{"poiid":"B2094757D064A5FC459D","title":"神杆桌球俱乐部(康定路店)","lon":"121.43117","lat":"31.22871","category":"171","category_name":"台球厅","address":"静安区康定路1437号4楼(近余姚路)"},{"poiid":"B2094757D069ABF4499C","title":"泰煌鸡(万航渡路店)","lon":"121.43379844","lat":"31.2269859112","category":"68","category_name":"快餐厅","address":"静安区万航渡路615号(近武定西路)"},{"poiid":"B2094655D36CA3FE4498","title":"裕和堂","lon":"121.43156","lat":"31.23086","category":"149","category_name":"洗浴推拿场所","address":"余姚路790号(近达安花园4号门)"},{"poiid":"B2094757D06BA6F84093","title":"欣宏嘉园","lon":"121.43408","lat":"31.228691","category":"47","category_name":"住宅区","address":"上海市静安区武宁南路195弄"},{"poiid":"B2094757D16FABF94098","title":"老城隍庙特色小吃","lon":"121.431796","lat":"31.227323","category":"257","category_name":"中餐厅","address":"静安区万航渡路725号(近武定西路)"},{"poiid":"B2094654D565A2FF409D","title":"源品私房菜","lon":"121.43502","lat":"31.22809","category":"72","category_name":"广东菜","address":"静安区武宁南路183号(近康定路)"},{"poiid":"B2094655D26CABF4419B","title":"高荣小区(边门)","lon":"121.43225","lat":"31.22732","category":"47","category_name":"住宅区","address":"万航渡路661弄1-68号"},{"poiid":"B2094654D565A1F8419C","title":"静安创业园曹家渡分区","lon":"121.43175","lat":"31.22773","category":"45","category_name":"产业园区","address":"万航渡路767弄43号5号楼3层"},{"poiid":"B2094654D565A1FD4199","title":"志诚里","lon":"121.43266","lat":"31.22965","category":"47","category_name":"住宅区","address":"康定路1335弄1-7号"},{"poiid":"B2094654D565A1FD449A","title":"正龙桂林米粉(万航渡路)","lon":"121.43031","lat":"31.22814","category":"87","category_name":"特色／地方风味餐厅","address":"静安区万航渡路803号(近康定路)"},{"poiid":"B2094757D16EA7F4489D","title":"一品健检","lon":"121.431484586","lat":"31.2308544433","category":"500","category_name":"未知分类","address":"静安区康定路1437号2楼"},{"poiid":"B2094654DB6BA6FE4992","title":"鑫康苑边门(万航渡路)","lon":"121.43047","lat":"31.22798","category":"47","category_name":"住宅区","address":"上海市静安区万航渡路829弄"},{"poiid":"B2094752D36CABFB489E","title":"上海市第九人民医院","lon":"121.431854","lat":"31.229996","category":"162","category_name":"医院","address":null},{"poiid":"B2094655D26BA2FC429C","title":"武宁南路武定西路","lon":"121.43426","lat":"31.22957","category":"38","category_name":"公交车站","address":""},{"poiid":"B2094757D068A2FB419F","title":"吉臣酒店","lon":"121.429710815","lat":"31.2278964211","category":"217","category_name":"旅馆招待所","address":"静安区万航渡路818号(近长寿路)"},{"poiid":"B2094654DB65A4F84892","title":"柔日本料理 YAWARA","lon":"121.429154054","lat":"31.228230793","category":"247","category_name":"餐饮美食","address":"静安区万航渡路818号吉臣酒店4楼(近康定路)"},{"poiid":"B2094655D26AABF84698","title":"小鹭鹭酒家武宁南路店","lon":"121.43216","lat":"31.23152","category":"71","category_name":"四川菜","address":"静安区武宁南路383号(近余姚路)"},{"poiid":"B209475CD564A7F8439E","title":"上海滩中信泰富店","lon":"121.45602","lat":"31.22851","category":"119","category_name":"商场","address":"\"南京西路1168号中信泰富广场，店铺号221.\r\n\""},{"poiid":"B2094757D06FA2FE4299","title":"上海市公安局","lon":"121.435191","lat":"31.228343","category":"609","category_name":"警察局","address":"上海武宁南路128号"},{"poiid":"B2094757D06FA4FA479B","title":"绿地商务大厦","lon":"121.43222758119","lat":"31.225661116139","category":"46","category_name":"楼宇","address":"上海市长宁区愚园路1258号"},{"poiid":"B209475CD76DA7F4419F","title":"唐宫海鲜舫","lon":"121.432838","lat":"31.227283","category":"247","category_name":"餐饮美食","address":"上海市 万航渡路889号悦达889广场4楼"},{"poiid":"B2094655D264A4F9499E","title":"港人情味茶餐厅 康定路店","lon":"121.42934694949","lat":"31.228463845861","category":"72","category_name":"广东菜","address":"静安区康定路1596号(近万航渡路)"},{"poiid":"B2094757D068AAFC4799","title":"武宁南路康定路","lon":"121.43359714","lat":"31.2304910374","category":"260","category_name":"其他","address":"上海静安区武宁南路康定路口"},{"poiid":"B2094655D26CAAFC459E","title":"海森国际大厦(康定路)","lon":"121.43","lat":"31.22844","category":"46","category_name":"楼宇","address":"海森国际大厦位于静安康定路1469号(近万航渡路)"},{"poiid":"B2094757D56CA2FF419E","title":"一线烫捞 悦达广场店","lon":"121.4294761","lat":"31.2284633","category":"68","category_name":"快餐厅","address":"静安区万航渡路889号悦达广场B1楼(近长寿路)"},{"poiid":"B2094757D068A4FC449B","title":"瑞士人家","lon":"121.43354559","lat":"31.2285712694","category":"94","category_name":"西餐厅","address":"静安区康定路1582号(近万航渡路)"},{"poiid":"B2094757D06AA2F4489C","title":"婚姻登记处(静安区登记处)","lon":"121.43274416","lat":"31.230187056","category":"46","category_name":"楼宇","address":"静安区康定路405号(近陕西北路)查看地图"},{"poiid":"B2094757D069A1FC4392","title":"忻康里","lon":"121.430892942","lat":"31.2295717874","category":"38","category_name":"公交车站","address":"上海23路终点站"},{"poiid":"B2094654DB6BA6FF4093","title":"金峰世纪大厦(万航渡路)","lon":"121.4307","lat":"31.22793","category":"46","category_name":"楼宇","address":"上海市静安区万航渡路789号"},{"poiid":"B2094750DA6EA3FB4293","title":"889广场","lon":"121.430061","lat":"31.228359","category":"249","category_name":"购物服务","address":"静安区万航渡路"},{"poiid":"B2094757D06FABFB479F","title":"高荣小区","lon":"121.43186669","lat":"31.226825114","category":"47","category_name":"住宅区","address":"万航渡路661弄1-42号"},{"poiid":"B2094757D068A4FA4398","title":"静安区社保中心","lon":"121.434334","lat":"31.228899","category":"500","category_name":"未知分类","address":"上海武宁南路221号"},{"poiid":"B2094757D068A6FF4693","title":"王家沙点心店(万航渡路店)","lon":"121.43307","lat":"31.22653","category":"68","category_name":"快餐厅","address":"静安区万航渡路673号(康定路与武定西路间)"},{"poiid":"B2094757D068A2FC4998","title":"红宝石 万航渡路店 Ruby","lon":"121.433935054","lat":"31.225951793","category":"67","category_name":"甜品店","address":"静安区万航渡路625号(近武定西路)"},{"poiid":"B2094757D069ABF94493","title":"集鲜阁","lon":"121.43094","lat":"31.22766","category":"76","category_name":"上海菜","address":"静安区万航渡路789号3楼(近康定路)"},{"poiid":"B2094757D468AAFB4392","title":"寿司奈良本","lon":"121.43089","lat":"31.229711","category":"95","category_name":"日本料理","address":"静安区余姚路801号"},{"poiid":"B2094655D26AA4FB479E","title":"名流汽车销售公司","lon":"121.43425","lat":"31.23041","category":"247","category_name":"餐饮美食","address":"静安区康定路1171号(近万航渡路)"},{"poiid":"B2094757D068A1FE4292","title":"竹家庄避风塘","lon":"121.43373458","lat":"31.230659439","category":"72","category_name":"广东菜","address":"静安区武宁南路377号(近余姚路)"},{"poiid":"B2094757D064A0FC489F","title":"静安区人力资源和社会保障局","lon":"121.43430671","lat":"31.2289472835","category":"46","category_name":"楼宇","address":"上海静安区武宁南路241号"},{"poiid":"B2094757D069A0F4479A","title":"天乐酒家","lon":"121.43225563741","lat":"31.226646519422","category":"76","category_name":"上海菜","address":"静安区万航渡路628号(近武定西路)"},{"poiid":"B2094757D16EA2FA4099","title":"上海汽车集团财务有限责任公司","lon":"121.43272558","lat":"31.229958425","category":"46","category_name":"楼宇","address":"上海康定路1199号"},{"poiid":"B2094654D565A1FC4893","title":"上海市市西初级中学","lon":"121.43038","lat":"31.23022","category":"55","category_name":"中学","address":"静安区余姚路818号(康定路余姚路)"},{"poiid":"B2094757D069A5F8469A","title":"静安丽舍","lon":"121.43063354","lat":"31.2261734","category":"500","category_name":"未知分类","address":"万航渡路858弄25-27号"},{"poiid":"B2094655D26CAAFC479A","title":"静鼎安邦府邸","lon":"121.43263","lat":"31.230587","category":"47","category_name":"住宅区","address":"康定路1268弄1-29号"},{"poiid":"B2094654D565A1FD409F","title":"凯司令曹家渡店","lon":"121.43192","lat":"31.22949","category":"112","category_name":"糕饼店","address":"静安区康定路1361-1363号(近万航渡路)"},{"poiid":"B2094757D16AA3F84498","title":"静安区妇幼保健所","lon":"121.43324","lat":"31.22984","category":"162","category_name":"医院","address":"静安区康定路1297号(近武宁南路)"},{"poiid":"B2094655D26CABF44193","title":"中行别业商务中心","lon":"121.434","lat":"31.22675","category":"46","category_name":"楼宇","address":"城西路188、200号等"},{"poiid":"B2094757D068A7F8479B","title":"中行小区","lon":"121.43359768","lat":"31.226565699","category":"47","category_name":"住宅区","address":"上海市长宁区淮海西路346弄5号楼"},{"poiid":"B2094654D565A1F84198","title":"上海工艺美术职业学院","lon":"121.43133","lat":"31.22803","category":"671","category_name":"高校中心点","address":"万航渡路767弄20号"},{"poiid":"B2094655D26DABF4469F","title":"康余绿地","lon":"121.43124","lat":"31.22958","category":"202","category_name":"公园广场","address":"静安区曹家渡忻康里(康定路余姚路)"},{"poiid":"B2094757D064A5FC459D","title":"神杆桌球俱乐部(康定路店)","lon":"121.43117","lat":"31.22871","category":"171","category_name":"台球厅","address":"静安区康定路1437号4楼(近余姚路)"},{"poiid":"B2094757D069ABF4499C","title":"泰煌鸡(万航渡路店)","lon":"121.43379844","lat":"31.2269859112","category":"68","category_name":"快餐厅","address":"静安区万航渡路615号(近武定西路)"},{"poiid":"B2094655D36CA3FE4498","title":"裕和堂","lon":"121.43156","lat":"31.23086","category":"149","category_name":"洗浴推拿场所","address":"余姚路790号(近达安花园4号门)"},{"poiid":"B2094757D06BA6F84093","title":"欣宏嘉园","lon":"121.43408","lat":"31.228691","category":"47","category_name":"住宅区","address":"上海市静安区武宁南路195弄"},{"poiid":"B2094757D16FABF94098","title":"老城隍庙特色小吃","lon":"121.431796","lat":"31.227323","category":"257","category_name":"中餐厅","address":"静安区万航渡路725号(近武定西路)"},{"poiid":"B2094654D565A2FF409D","title":"源品私房菜","lon":"121.43502","lat":"31.22809","category":"72","category_name":"广东菜","address":"静安区武宁南路183号(近康定路)"},{"poiid":"B2094655D26CABF4419B","title":"高荣小区(边门)","lon":"121.43225","lat":"31.22732","category":"47","category_name":"住宅区","address":"万航渡路661弄1-68号"},{"poiid":"B2094654D565A1F8419C","title":"静安创业园曹家渡分区","lon":"121.43175","lat":"31.22773","category":"45","category_name":"产业园区","address":"万航渡路767弄43号5号楼3层"},{"poiid":"B2094654D565A1FD4199","title":"志诚里","lon":"121.43266","lat":"31.22965","category":"47","category_name":"住宅区","address":"康定路1335弄1-7号"},{"poiid":"B2094654D565A1FD449A","title":"正龙桂林米粉(万航渡路)","lon":"121.43031","lat":"31.22814","category":"87","category_name":"特色／地方风味餐厅","address":"静安区万航渡路803号(近康定路)"},{"poiid":"B2094757D16EA7F4489D","title":"一品健检","lon":"121.431484586","lat":"31.2308544433","category":"500","category_name":"未知分类","address":"静安区康定路1437号2楼"},{"poiid":"B2094654DB6BA6FE4992","title":"鑫康苑边门(万航渡路)","lon":"121.43047","lat":"31.22798","category":"47","category_name":"住宅区","address":"上海市静安区万航渡路829弄"},{"poiid":"B2094752D36CABFB489E","title":"上海市第九人民医院","lon":"121.431854","lat":"31.229996","category":"162","category_name":"医院","address":null},{"poiid":"B2094655D26BA2FC429C","title":"武宁南路武定西路","lon":"121.43426","lat":"31.22957","category":"38","category_name":"公交车站","address":""},{"poiid":"B2094757D068A2FB419F","title":"吉臣酒店","lon":"121.429710815","lat":"31.2278964211","category":"217","category_name":"旅馆招待所","address":"静安区万航渡路818号(近长寿路)"},{"poiid":"B2094654DB65A4F84892","title":"柔日本料理 YAWARA","lon":"121.429154054","lat":"31.228230793","category":"247","category_name":"餐饮美食","address":"静安区万航渡路818号吉臣酒店4楼(近康定路)"},{"poiid":"B2094655D26AABF84698","title":"小鹭鹭酒家武宁南路店","lon":"121.43216","lat":"31.23152","category":"71","category_name":"四川菜","address":"静安区武宁南路383号(近余姚路)"},{"poiid":"B209475CD564A7F8439E","title":"上海滩中信泰富店","lon":"121.45602","lat":"31.22851","category":"119","category_name":"商场","address":"\"南京西路1168号中信泰富广场，店铺号221.\r\n\""},{"poiid":"B2094757D06FA2FE4299","title":"上海市公安局","lon":"121.435191","lat":"31.228343","category":"609","category_name":"警察局","address":"上海武宁南路128号"},{"poiid":"B2094757D06FA4FA479B","title":"绿地商务大厦","lon":"121.43222758119","lat":"31.225661116139","category":"46","category_name":"楼宇","address":"上海市长宁区愚园路1258号"},{"poiid":"B209475CD76DA7F4419F","title":"唐宫海鲜舫","lon":"121.432838","lat":"31.227283","category":"247","category_name":"餐饮美食","address":"上海市 万航渡路889号悦达889广场4楼"},{"poiid":"B2094655D264A4F9499E","title":"港人情味茶餐厅 康定路店","lon":"121.42934694949","lat":"31.228463845861","category":"72","category_name":"广东菜","address":"静安区康定路1596号(近万航渡路)"},{"poiid":"B2094757D068AAFC4799","title":"武宁南路康定路","lon":"121.43359714","lat":"31.2304910374","category":"260","category_name":"其他","address":"上海静安区武宁南路康定路口"},{"poiid":"B2094655D26CAAFC459E","title":"海森国际大厦(康定路)","lon":"121.43","lat":"31.22844","category":"46","category_name":"楼宇","address":"海森国际大厦位于静安康定路1469号(近万航渡路)"},{"poiid":"B2094757D56CA2FF419E","title":"一线烫捞 悦达广场店","lon":"121.4294761","lat":"31.2284633","category":"68","category_name":"快餐厅","address":"静安区万航渡路889号悦达广场B1楼(近长寿路)"},{"poiid":"B2094757D068A4FC449B","title":"瑞士人家","lon":"121.43354559","lat":"31.2285712694","category":"94","category_name":"西餐厅","address":"静安区康定路1582号(近万航渡路)"},{"poiid":"B2094757D06AA2F4489C","title":"婚姻登记处(静安区登记处)","lon":"121.43274416","lat":"31.230187056","category":"46","category_name":"楼宇","address":"静安区康定路405号(近陕西北路)查看地图"},{"poiid":"B2094757D069A1FC4392","title":"忻康里","lon":"121.430892942","lat":"31.2295717874","category":"38","category_name":"公交车站","address":"上海23路终点站"},{"poiid":"B2094654DB6BA6FF4093","title":"金峰世纪大厦(万航渡路)","lon":"121.4307","lat":"31.22793","category":"46","category_name":"楼宇","address":"上海市静安区万航渡路789号"},{"poiid":"B2094750DA6EA3FB4293","title":"889广场","lon":"121.430061","lat":"31.228359","category":"249","category_name":"购物服务","address":"静安区万航渡路"},{"poiid":"B2094757D06FABFB479F","title":"高荣小区","lon":"121.43186669","lat":"31.226825114","category":"47","category_name":"住宅区","address":"万航渡路661弄1-42号"},{"poiid":"B2094757D068A4FA4398","title":"静安区社保中心","lon":"121.434334","lat":"31.228899","category":"500","category_name":"未知分类","address":"上海武宁南路221号"},{"poiid":"B2094757D068A6FF4693","title":"王家沙点心店(万航渡路店)","lon":"121.43307","lat":"31.22653","category":"68","category_name":"快餐厅","address":"静安区万航渡路673号(康定路与武定西路间)"},{"poiid":"B2094757D068A2FC4998","title":"红宝石 万航渡路店 Ruby","lon":"121.433935054","lat":"31.225951793","category":"67","category_name":"甜品店","address":"静安区万航渡路625号(近武定西路)"},{"poiid":"B2094757D069ABF94493","title":"集鲜阁","lon":"121.43094","lat":"31.22766","category":"76","category_name":"上海菜","address":"静安区万航渡路789号3楼(近康定路)"},{"poiid":"B2094757D468AAFB4392","title":"寿司奈良本","lon":"121.43089","lat":"31.229711","category":"95","category_name":"日本料理","address":"静安区余姚路801号"},{"poiid":"B2094655D26AA4FB479E","title":"名流汽车销售公司","lon":"121.43425","lat":"31.23041","category":"247","category_name":"餐饮美食","address":"静安区康定路1171号(近万航渡路)"},{"poiid":"B2094757D068A1FE4292","title":"竹家庄避风塘","lon":"121.43373458","lat":"31.230659439","category":"72","category_name":"广东菜","address":"静安区武宁南路377号(近余姚路)"},{"poiid":"B2094757D064A0FC489F","title":"静安区人力资源和社会保障局","lon":"121.43430671","lat":"31.2289472835","category":"46","category_name":"楼宇","address":"上海静安区武宁南路241号"},{"poiid":"B2094757D069A0F4479A","title":"天乐酒家","lon":"121.43225563741","lat":"31.226646519422","category":"76","category_name":"上海菜","address":"静安区万航渡路628号(近武定西路)"},{"poiid":"B2094757D16EA2FA4099","title":"上海汽车集团财务有限责任公司","lon":"121.43272558","lat":"31.229958425","category":"46","category_name":"楼宇","address":"上海康定路1199号"},{"poiid":"B2094654D565A1FC4893","title":"上海市市西初级中学","lon":"121.43038","lat":"31.23022","category":"55","category_name":"中学","address":"静安区余姚路818号(康定路余姚路)"},{"poiid":"B2094757D069A5F8469A","title":"静安丽舍","lon":"121.43063354","lat":"31.2261734","category":"500","category_name":"未知分类","address":"万航渡路858弄25-27号"},{"poiid":"B2094655D26CAAFC479A","title":"静鼎安邦府邸","lon":"121.43263","lat":"31.230587","category":"47","category_name":"住宅区","address":"康定路1268弄1-29号"},{"poiid":"B2094654D565A1FD409F","title":"凯司令曹家渡店","lon":"121.43192","lat":"31.22949","category":"112","category_name":"糕饼店","address":"静安区康定路1361-1363号(近万航渡路)"},{"poiid":"B2094757D16AA3F84498","title":"静安区妇幼保健所","lon":"121.43324","lat":"31.22984","category":"162","category_name":"医院","address":"静安区康定路1297号(近武宁南路)"},{"poiid":"B2094655D26CABF44193","title":"中行别业商务中心","lon":"121.434","lat":"31.22675","category":"46","category_name":"楼宇","address":"城西路188、200号等"},{"poiid":"B2094757D068A7F8479B","title":"中行小区","lon":"121.43359768","lat":"31.226565699","category":"47","category_name":"住宅区","address":"上海市长宁区淮海西路346弄5号楼"},{"poiid":"B2094654D565A1F84198","title":"上海工艺美术职业学院","lon":"121.43133","lat":"31.22803","category":"671","category_name":"高校中心点","address":"万航渡路767弄20号"},{"poiid":"B2094655D26DABF4469F","title":"康余绿地","lon":"121.43124","lat":"31.22958","category":"202","category_name":"公园广场","address":"静安区曹家渡忻康里(康定路余姚路)"},{"poiid":"B2094757D064A5FC459D","title":"神杆桌球俱乐部(康定路店)","lon":"121.43117","lat":"31.22871","category":"171","category_name":"台球厅","address":"静安区康定路1437号4楼(近余姚路)"},{"poiid":"B2094757D069ABF4499C","title":"泰煌鸡(万航渡路店)","lon":"121.43379844","lat":"31.2269859112","category":"68","category_name":"快餐厅","address":"静安区万航渡路615号(近武定西路)"},{"poiid":"B2094655D36CA3FE4498","title":"裕和堂","lon":"121.43156","lat":"31.23086","category":"149","category_name":"洗浴推拿场所","address":"余姚路790号(近达安花园4号门)"},{"poiid":"B2094757D06BA6F84093","title":"欣宏嘉园","lon":"121.43408","lat":"31.228691","category":"47","category_name":"住宅区","address":"上海市静安区武宁南路195弄"},{"poiid":"B2094757D16FABF94098","title":"老城隍庙特色小吃","lon":"121.431796","lat":"31.227323","category":"257","category_name":"中餐厅","address":"静安区万航渡路725号(近武定西路)"},{"poiid":"B2094654D565A2FF409D","title":"源品私房菜","lon":"121.43502","lat":"31.22809","category":"72","category_name":"广东菜","address":"静安区武宁南路183号(近康定路)"},{"poiid":"B2094655D26CABF4419B","title":"高荣小区(边门)","lon":"121.43225","lat":"31.22732","category":"47","category_name":"住宅区","address":"万航渡路661弄1-68号"},{"poiid":"B2094654D565A1F8419C","title":"静安创业园曹家渡分区","lon":"121.43175","lat":"31.22773","category":"45","category_name":"产业园区","address":"万航渡路767弄43号5号楼3层"},{"poiid":"B2094654D565A1FD4199","title":"志诚里","lon":"121.43266","lat":"31.22965","category":"47","category_name":"住宅区","address":"康定路1335弄1-7号"},{"poiid":"B2094654D565A1FD449A","title":"正龙桂林米粉(万航渡路)","lon":"121.43031","lat":"31.22814","category":"87","category_name":"特色／地方风味餐厅","address":"静安区万航渡路803号(近康定路)"},{"poiid":"B2094757D16EA7F4489D","title":"一品健检","lon":"121.431484586","lat":"31.2308544433","category":"500","category_name":"未知分类","address":"静安区康定路1437号2楼"},{"poiid":"B2094654DB6BA6FE4992","title":"鑫康苑边门(万航渡路)","lon":"121.43047","lat":"31.22798","category":"47","category_name":"住宅区","address":"上海市静安区万航渡路829弄"},{"poiid":"B2094752D36CABFB489E","title":"上海市第九人民医院","lon":"121.431854","lat":"31.229996","category":"162","category_name":"医院","address":null},{"poiid":"B2094655D26BA2FC429C","title":"武宁南路武定西路","lon":"121.43426","lat":"31.22957","category":"38","category_name":"公交车站","address":""},{"poiid":"B2094757D068A2FB419F","title":"吉臣酒店","lon":"121.429710815","lat":"31.2278964211","category":"217","category_name":"旅馆招待所","address":"静安区万航渡路818号(近长寿路)"},{"poiid":"B2094654DB65A4F84892","title":"柔日本料理 YAWARA","lon":"121.429154054","lat":"31.228230793","category":"247","category_name":"餐饮美食","address":"静安区万航渡路818号吉臣酒店4楼(近康定路)"},{"poiid":"B2094655D26AABF84698","title":"小鹭鹭酒家武宁南路店","lon":"121.43216","lat":"31.23152","category":"71","category_name":"四川菜","address":"静安区武宁南路383号(近余姚路)"},{"poiid":"B209475CD564A7F8439E","title":"上海滩中信泰富店","lon":"121.45602","lat":"31.22851","category":"119","category_name":"商场","address":"\"南京西路1168号中信泰富广场，店铺号221.\r\n\""},{"poiid":"B2094757D06FA2FE4299","title":"上海市公安局","lon":"121.435191","lat":"31.228343","category":"609","category_name":"警察局","address":"上海武宁南路128号"},{"poiid":"B2094757D06FA4FA479B","title":"绿地商务大厦","lon":"121.43222758119","lat":"31.225661116139","category":"46","category_name":"楼宇","address":"上海市长宁区愚园路1258号"},{"poiid":"B209475CD76DA7F4419F","title":"唐宫海鲜舫","lon":"121.432838","lat":"31.227283","category":"247","category_name":"餐饮美食","address":"上海市 万航渡路889号悦达889广场4楼"},{"poiid":"B2094655D264A4F9499E","title":"港人情味茶餐厅 康定路店","lon":"121.42934694949","lat":"31.228463845861","category":"72","category_name":"广东菜","address":"静安区康定路1596号(近万航渡路)"},{"poiid":"B2094757D068AAFC4799","title":"武宁南路康定路","lon":"121.43359714","lat":"31.2304910374","category":"260","category_name":"其他","address":"上海静安区武宁南路康定路口"},{"poiid":"B2094655D26CAAFC459E","title":"海森国际大厦(康定路)","lon":"121.43","lat":"31.22844","category":"46","category_name":"楼宇","address":"海森国际大厦位于静安康定路1469号(近万航渡路)"},{"poiid":"B2094757D56CA2FF419E","title":"一线烫捞 悦达广场店","lon":"121.4294761","lat":"31.2284633","category":"68","category_name":"快餐厅","address":"静安区万航渡路889号悦达广场B1楼(近长寿路)"},{"poiid":"B2094757D068A4FC449B","title":"瑞士人家","lon":"121.43354559","lat":"31.2285712694","category":"94","category_name":"西餐厅","address":"静安区康定路1582号(近万航渡路)"},{"poiid":"B2094757D06AA2F4489C","title":"婚姻登记处(静安区登记处)","lon":"121.43274416","lat":"31.230187056","category":"46","category_name":"楼宇","address":"静安区康定路405号(近陕西北路)查看地图"},{"poiid":"B2094757D069A1FC4392","title":"忻康里","lon":"121.430892942","lat":"31.2295717874","category":"38","category_name":"公交车站","address":"上海23路终点站"},{"poiid":"B2094654DB6BA6FF4093","title":"金峰世纪大厦(万航渡路)","lon":"121.4307","lat":"31.22793","category":"46","category_name":"楼宇","address":"上海市静安区万航渡路789号"},{"poiid":"B2094750DA6EA3FB4293","title":"889广场","lon":"121.430061","lat":"31.228359","category":"249","category_name":"购物服务","address":"静安区万航渡路"},{"poiid":"B2094757D06FABFB479F","title":"高荣小区","lon":"121.43186669","lat":"31.226825114","category":"47","category_name":"住宅区","address":"万航渡路661弄1-42号"},{"poiid":"B2094757D068A4FA4398","title":"静安区社保中心","lon":"121.434334","lat":"31.228899","category":"500","category_name":"未知分类","address":"上海武宁南路221号"},{"poiid":"B2094757D068A6FF4693","title":"王家沙点心店(万航渡路店)","lon":"121.43307","lat":"31.22653","category":"68","category_name":"快餐厅","address":"静安区万航渡路673号(康定路与武定西路间)"},{"poiid":"B2094757D068A2FC4998","title":"红宝石 万航渡路店 Ruby","lon":"121.433935054","lat":"31.225951793","category":"67","category_name":"甜品店","address":"静安区万航渡路625号(近武定西路)"},{"poiid":"B2094757D069ABF94493","title":"集鲜阁","lon":"121.43094","lat":"31.22766","category":"76","category_name":"上海菜","address":"静安区万航渡路789号3楼(近康定路)"},{"poiid":"B2094757D468AAFB4392","title":"寿司奈良本","lon":"121.43089","lat":"31.229711","category":"95","category_name":"日本料理","address":"静安区余姚路801号"},{"poiid":"B2094655D26AA4FB479E","title":"名流汽车销售公司","lon":"121.43425","lat":"31.23041","category":"247","category_name":"餐饮美食","address":"静安区康定路1171号(近万航渡路)"},{"poiid":"B2094757D068A1FE4292","title":"竹家庄避风塘","lon":"121.43373458","lat":"31.230659439","category":"72","category_name":"广东菜","address":"静安区武宁南路377号(近余姚路)"},{"poiid":"B2094757D064A0FC489F","title":"静安区人力资源和社会保障局","lon":"121.43430671","lat":"31.2289472835","category":"46","category_name":"楼宇","address":"上海静安区武宁南路241号"},{"poiid":"B2094757D069A0F4479A","title":"天乐酒家","lon":"121.43225563741","lat":"31.226646519422","category":"76","category_name":"上海菜","address":"静安区万航渡路628号(近武定西路)"},{"poiid":"B2094757D16EA2FA4099","title":"上海汽车集团财务有限责任公司","lon":"121.43272558","lat":"31.229958425","category":"46","category_name":"楼宇","address":"上海康定路1199号"},{"poiid":"B2094654D565A1FC4893","title":"上海市市西初级中学","lon":"121.43038","lat":"31.23022","category":"55","category_name":"中学","address":"静安区余姚路818号(康定路余姚路)"},{"poiid":"B2094757D069A5F8469A","title":"静安丽舍","lon":"121.43063354","lat":"31.2261734","category":"500","category_name":"未知分类","address":"万航渡路858弄25-27号"},{"poiid":"B2094655D26CAAFC479A","title":"静鼎安邦府邸","lon":"121.43263","lat":"31.230587","category":"47","category_name":"住宅区","address":"康定路1268弄1-29号"},{"poiid":"B2094654D565A1FD409F","title":"凯司令曹家渡店","lon":"121.43192","lat":"31.22949","category":"112","category_name":"糕饼店","address":"静安区康定路1361-1363号(近万航渡路)"},{"poiid":"B2094757D16AA3F84498","title":"静安区妇幼保健所","lon":"121.43324","lat":"31.22984","category":"162","category_name":"医院","address":"静安区康定路1297号(近武宁南路)"},{"poiid":"B2094655D26CABF44193","title":"中行别业商务中心","lon":"121.434","lat":"31.22675","category":"46","category_name":"楼宇","address":"城西路188、200号等"},{"poiid":"B2094757D068A7F8479B","title":"中行小区","lon":"121.43359768","lat":"31.226565699","category":"47","category_name":"住宅区","address":"上海市长宁区淮海西路346弄5号楼"},{"poiid":"B2094654D565A1F84198","title":"上海工艺美术职业学院","lon":"121.43133","lat":"31.22803","category":"671","category_name":"高校中心点","address":"万航渡路767弄20号"},{"poiid":"B2094655D26DABF4469F","title":"康余绿地","lon":"121.43124","lat":"31.22958","category":"202","category_name":"公园广场","address":"静安区曹家渡忻康里(康定路余姚路)"},{"poiid":"B2094757D064A5FC459D","title":"神杆桌球俱乐部(康定路店)","lon":"121.43117","lat":"31.22871","category":"171","category_name":"台球厅","address":"静安区康定路1437号4楼(近余姚路)"},{"poiid":"B2094757D069ABF4499C","title":"泰煌鸡(万航渡路店)","lon":"121.43379844","lat":"31.2269859112","category":"68","category_name":"快餐厅","address":"静安区万航渡路615号(近武定西路)"},{"poiid":"B2094655D36CA3FE4498","title":"裕和堂","lon":"121.43156","lat":"31.23086","category":"149","category_name":"洗浴推拿场所","address":"余姚路790号(近达安花园4号门)"},{"poiid":"B2094757D06BA6F84093","title":"欣宏嘉园","lon":"121.43408","lat":"31.228691","category":"47","category_name":"住宅区","address":"上海市静安区武宁南路195弄"},{"poiid":"B2094757D16FABF94098","title":"老城隍庙特色小吃","lon":"121.431796","lat":"31.227323","category":"257","category_name":"中餐厅","address":"静安区万航渡路725号(近武定西路)"},{"poiid":"B2094654D565A2FF409D","title":"源品私房菜","lon":"121.43502","lat":"31.22809","category":"72","category_name":"广东菜","address":"静安区武宁南路183号(近康定路)"},{"poiid":"B2094655D26CABF4419B","title":"高荣小区(边门)","lon":"121.43225","lat":"31.22732","category":"47","category_name":"住宅区","address":"万航渡路661弄1-68号"},{"poiid":"B2094654D565A1F8419C","title":"静安创业园曹家渡分区","lon":"121.43175","lat":"31.22773","category":"45","category_name":"产业园区","address":"万航渡路767弄43号5号楼3层"},{"poiid":"B2094654D565A1FD4199","title":"志诚里","lon":"121.43266","lat":"31.22965","category":"47","category_name":"住宅区","address":"康定路1335弄1-7号"},{"poiid":"B2094654D565A1FD449A","title":"正龙桂林米粉(万航渡路)","lon":"121.43031","lat":"31.22814","category":"87","category_name":"特色／地方风味餐厅","address":"静安区万航渡路803号(近康定路)"},{"poiid":"B2094757D16EA7F4489D","title":"一品健检","lon":"121.431484586","lat":"31.2308544433","category":"500","category_name":"未知分类","address":"静安区康定路1437号2楼"},{"poiid":"B2094654DB6BA6FE4992","title":"鑫康苑边门(万航渡路)","lon":"121.43047","lat":"31.22798","category":"47","category_name":"住宅区","address":"上海市静安区万航渡路829弄"},{"poiid":"B2094752D36CABFB489E","title":"上海市第九人民医院","lon":"121.431854","lat":"31.229996","category":"162","category_name":"医院","address":null},{"poiid":"B2094655D26BA2FC429C","title":"武宁南路武定西路","lon":"121.43426","lat":"31.22957","category":"38","category_name":"公交车站","address":""}]