[{"poiid":"B2094654D56EA1F8449B","title":"上海市中医医院","lon":"121.47148","lat":"31.25943","category":"162","category_name":"医院","address":"闸北区芷江中路274"},{"poiid":"B2094757D068A1FE4498","title":"尚一汤(虹口龙之梦店)","lon":"121.476666388","lat":"31.263169685","category":"72","category_name":"广东菜","address":"虹口区西江湾路388号虹口凯德龙之梦购物中心620室(近虹口足球场)"},{"poiid":"B2094655D36CA6F44492","title":"东宝兴路中兴路","lon":"121.47758","lat":"31.26081","category":"38","category_name":"公交车站","address":"上海东宝兴路中兴路"},{"poiid":"B2094757D06EAAFA4098","title":"绿洲雅宾利","lon":"121.478","lat":"31.2615","category":"47","category_name":"住宅区","address":"上海中兴路止园路"},{"poiid":"B2094757D068A1F54499","title":"德克士(东宝兴路店)","lon":"121.47531","lat":"31.26272","category":"68","category_name":"快餐厅","address":"闸北区东宝兴路777号世纪联华1楼(近芷江中路)"},{"poiid":"B2094757D068AAFA499E","title":"绿洲雅宾利二期","lon":"121.47327287","lat":"31.259555091","category":"47","category_name":"住宅区","address":"上海市闸北区宝昌路399弄"},{"poiid":"B2094757D06FA7F8439B","title":"世纪联华(东宝店)","lon":"121.47573","lat":"31.26202","category":"118","category_name":"超级市场","address":"上海闸北区东宝兴路777号(近芷江中路)"},{"poiid":"B2094752D665A2F54098","title":"食之秘（嘉杰国际店）","lon":"121.475081","lat":"31.25984","category":"247","category_name":"餐饮美食","address":"嘉杰国际广场"},{"poiid":"B2094750D665A3F9469C","title":"鼎中鼎澳门豆捞(东宝兴路店)","lon":"121.475","lat":"31.263","category":"86","category_name":"火锅店","address":"虹口区东宝兴路777号世纪联华1楼(近芷江中路)"},{"poiid":"B2094757D06FA1FB4799","title":"天通庵路客服中心","lon":"121.475173","lat":"31.260955","category":"253","category_name":"校园生活","address":"上海天通庵路423号"},{"poiid":"B2094757D068A0F94093","title":"市北职业高级中学","lon":"121.47814178","lat":"31.259740829","category":"500","category_name":"未知分类","address":"闸北区宝山路584号(近东宝兴路)"},{"poiid":"B2094655D26FA1FB449A","title":"三宝花苑","lon":"121.47641","lat":"31.257627","category":"47","category_name":"住宅区","address":"上海市闸北区宝山路452号"},{"poiid":"B2094757D068A1FE449C","title":"开泰眼镜批发市场","lon":"121.47137","lat":"31.2622","category":"132","category_name":"眼镜店","address":"闸北区青云路452号(宝昌路口)"},{"poiid":"B2094757D16DA0F9499B","title":"东宝兴路芷江中路","lon":"121.4746851","lat":"31.262402254","category":"500","category_name":"未知分类","address":"上海市闸北区"},{"poiid":"B2094757D068A5F94799","title":"健康煮(虹口凯德龙之梦店)","lon":"121.475750003","lat":"31.2635136779","category":"86","category_name":"火锅店","address":"上海东江湾路444号凯德龙之梦B栋2楼"},{"poiid":"B2094757D064A3FC4199","title":"上海基督教 闸北堂","lon":"121.474071","lat":"31.260398","category":"500","category_name":"未知分类","address":"上海宝通路340号(近中兴路)"},{"poiid":"B2094757D06AA0FD489C","title":"大桶大足浴(中兴店)","lon":"121.47759","lat":"31.25987","category":"149","category_name":"洗浴推拿场所","address":"闸北区中兴路237号(近东宝兴路)"},{"poiid":"B2094655D36CA6F44493","title":"东宝兴路","lon":"121.47783","lat":"31.25832","category":"38","category_name":"公交车站","address":""},{"poiid":"B2094753D469A4FE459A","title":"月星•环球港","lon":"121.478042","lat":"31.259443","category":"500","category_name":"未知分类","address":"上海市 普陀区中山北路3300号"},{"poiid":"B2094654D56CA6F4459A","title":"胖子大排档","lon":"121.47555","lat":"31.2627","category":"68","category_name":"快餐厅","address":"闸北区芷江支路(东宝兴路芷江中路)"},{"poiid":"B2094757D66BA1F8419A","title":"凯司令西点房 芷江店","lon":"121.472313054","lat":"31.260348793","category":"67","category_name":"甜品店","address":"闸北区芷江中路270号(近通阁路)"},{"poiid":"B2094757D069A3FC479E","title":"梦影酒楼","lon":"121.47551","lat":"31.2594","category":"68","category_name":"快餐厅","address":"闸北区宝通路449号(宝通路中华新路)"},{"poiid":"B2094757D568ABFC4792","title":"上海市中医医院住院部","lon":"121.471862","lat":"31.258842","category":"266","category_name":"三甲医院","address":"天通庵路191号"},{"poiid":"B2094757D069A6F54498","title":"小东北烧烤","lon":"121.47581","lat":"31.26189","category":"257","category_name":"中餐厅","address":"闸北区东宝兴路714号(近天通庵路)"},{"poiid":"B2094654D56EA1FA449D","title":"紫光苑","lon":"121.47391","lat":"31.260046","category":"47","category_name":"住宅区","address":"上海市闸北区宝通路486号"},{"poiid":"B2094654D56EA1FF4592","title":"上海市第六十中学","lon":"121.47238","lat":"31.26368","category":"55","category_name":"中学","address":"闸北区青云路323号(宝昌路青云路)"},{"poiid":"B209475CD169A3F9449B","title":"东方明珠","lon":"121.474914","lat":"31.261812","category":"500","category_name":"未知分类","address":"上海市 上海外滩"},{"poiid":"B2094655D36CA5F54899","title":"宝通路","lon":"121.47661","lat":"31.25867","category":"38","category_name":"公交车站","address":"宝通路239弄"},{"poiid":"B2094757D06AA3F8489F","title":"宝山社区文化活动中心","lon":"121.472676","lat":"31.259981","category":"500","category_name":"未知分类","address":"上海宝昌路533号。"},{"poiid":"B2094654D56EA1FA4499","title":"宝通公寓","lon":"121.47615","lat":"31.259264","category":"47","category_name":"住宅区","address":"上海市闸北区宝通路425号"},{"poiid":"B2094655D26CA0FD459B","title":"上海移动通信公司(天通庵路)","lon":"121.47517","lat":"31.26095","category":"263","category_name":"公司","address":"天通庵路423号"},{"poiid":"B2094757D068ABFD429A","title":"再回首烧烤","lon":"121.47187","lat":"31.26296","category":"269","category_name":"烧烤","address":"闸北区青云路381号(近宝昌路)"},{"poiid":"B2094655D36CA3FC429D","title":"朝顺商务园区","lon":"121.47316","lat":"31.2595","category":"46","category_name":"楼宇","address":"天通庵路301号"},{"poiid":"B2094654D56EA1F44299","title":"宝昌都市型工业楼宇","lon":"121.47329","lat":"31.25946","category":"46","category_name":"楼宇","address":"天通庵路301号"},{"poiid":"B2094757D164ABFE439C","title":"达人面馆","lon":"121.476017103","lat":"31.258874181","category":"68","category_name":"快餐厅","address":"闸北区宝通路402号(近中兴路)"},{"poiid":"B2094757D06AA3FF4992","title":"五木亭拉面 虹口足球场店","lon":"121.47333666","lat":"31.260626575","category":"247","category_name":"餐饮美食","address":"上海东江湾路444号5号门106室"},{"poiid":"B2094752D565A1FB4993","title":"虹口足球场","lon":"121.473479","lat":"31.261634","category":"220","category_name":"运动场所","address":null},{"poiid":"B2094654D56EA1F44399","title":"和颐苑","lon":"121.472375","lat":"31.262044","category":"47","category_name":"住宅区","address":"闸北区宝昌路659弄"},{"poiid":"B2094757D16BA6F9459C","title":"半夜","lon":"121.47328186","lat":"31.260614395","category":"247","category_name":"餐饮美食","address":"上海未知"},{"poiid":"B2094654D56EA1F4439A","title":"上海眼镜博物馆","lon":"121.47267","lat":"31.26018","category":"182","category_name":"博物馆","address":"闸北区宝昌路533号(近芷江中路)"},{"poiid":"B2094654D56CA2FC479F","title":"昆泰大厦","lon":"121.472","lat":"31.2587","category":"46","category_name":"楼宇","address":"上海中兴路1101号"},{"poiid":"B2094752D76CA3FB439F","title":"上海动物园","lon":"121.473921","lat":"31.25954","category":"500","category_name":"未知分类","address":null},{"poiid":"B2094757D168A2FD419F","title":"秦记汤包馆","lon":"121.47134","lat":"31.259986","category":"68","category_name":"快餐厅","address":"闸北区芷江中路369号(近宝昌路)"},{"poiid":"B2094757D065A1FC489C","title":"上海電影技術廠","lon":"121.4751948","lat":"31.259848801","category":"500","category_name":"未知分类","address":"上海閘北區寶通路449號"},{"poiid":"B2094753D66CA6F5499D","title":"上海市中医院","lon":"121.474791","lat":"31.261484","category":"162","category_name":"医院","address":"上海市 通阁路芷江中路"},{"poiid":"B2094750D26DA3FD469C","title":"上海田子坊","lon":"121.4721396","lat":"31.2566045","category":"500","category_name":"未知分类","address":null},{"poiid":"B2094752D765A6FC419B","title":"上海缘来很多人咖啡馆","lon":"121.47487","lat":"31.253767","category":"247","category_name":"餐饮美食","address":"闸北区公兴路65号"},{"poiid":"B2094655D26AA3FD449F","title":"大成文化艺术进修学校闸北校区","lon":"121.47266","lat":"31.26018","category":"247","category_name":"餐饮美食","address":"闸北区宝昌路533号5楼(近芷江中路)"},{"poiid":"B2094654D56EA1F8429A","title":"久欣公寓(北门)","lon":"121.47278","lat":"31.26027","category":"47","category_name":"住宅区","address":"芷江中路258弄"},{"poiid":"B2094654D56EA1F4459E","title":"富邑华庭","lon":"121.47217","lat":"31.259846","category":"47","category_name":"住宅区","address":"闸北宝昌路550弄,芷江中路口"},{"poiid":"B2094654D56EA1F8449B","title":"上海市中医医院","lon":"121.47148","lat":"31.25943","category":"162","category_name":"医院","address":"闸北区芷江中路274"},{"poiid":"B2094757D068A1FE4498","title":"尚一汤(虹口龙之梦店)","lon":"121.476666388","lat":"31.263169685","category":"72","category_name":"广东菜","address":"虹口区西江湾路388号虹口凯德龙之梦购物中心620室(近虹口足球场)"},{"poiid":"B2094655D36CA6F44492","title":"东宝兴路中兴路","lon":"121.47758","lat":"31.26081","category":"38","category_name":"公交车站","address":"上海东宝兴路中兴路"},{"poiid":"B2094757D06EAAFA4098","title":"绿洲雅宾利","lon":"121.478","lat":"31.2615","category":"47","category_name":"住宅区","address":"上海中兴路止园路"},{"poiid":"B2094757D068A1F54499","title":"德克士(东宝兴路店)","lon":"121.47531","lat":"31.26272","category":"68","category_name":"快餐厅","address":"闸北区东宝兴路777号世纪联华1楼(近芷江中路)"},{"poiid":"B2094757D068AAFA499E","title":"绿洲雅宾利二期","lon":"121.47327287","lat":"31.259555091","category":"47","category_name":"住宅区","address":"上海市闸北区宝昌路399弄"},{"poiid":"B2094757D06FA7F8439B","title":"世纪联华(东宝店)","lon":"121.47573","lat":"31.26202","category":"118","category_name":"超级市场","address":"上海闸北区东宝兴路777号(近芷江中路)"},{"poiid":"B2094752D665A2F54098","title":"食之秘（嘉杰国际店）","lon":"121.475081","lat":"31.25984","category":"247","category_name":"餐饮美食","address":"嘉杰国际广场"},{"poiid":"B2094750D665A3F9469C","title":"鼎中鼎澳门豆捞(东宝兴路店)","lon":"121.475","lat":"31.263","category":"86","category_name":"火锅店","address":"虹口区东宝兴路777号世纪联华1楼(近芷江中路)"},{"poiid":"B2094757D06FA1FB4799","title":"天通庵路客服中心","lon":"121.475173","lat":"31.260955","category":"253","category_name":"校园生活","address":"上海天通庵路423号"},{"poiid":"B2094757D068A0F94093","title":"市北职业高级中学","lon":"121.47814178","lat":"31.259740829","category":"500","category_name":"未知分类","address":"闸北区宝山路584号(近东宝兴路)"},{"poiid":"B2094655D26FA1FB449A","title":"三宝花苑","lon":"121.47641","lat":"31.257627","category":"47","category_name":"住宅区","address":"上海市闸北区宝山路452号"},{"poiid":"B2094757D068A1FE449C","title":"开泰眼镜批发市场","lon":"121.47137","lat":"31.2622","category":"132","category_name":"眼镜店","address":"闸北区青云路452号(宝昌路口)"},{"poiid":"B2094757D16DA0F9499B","title":"东宝兴路芷江中路","lon":"121.4746851","lat":"31.262402254","category":"500","category_name":"未知分类","address":"上海市闸北区"},{"poiid":"B2094757D068A5F94799","title":"健康煮(虹口凯德龙之梦店)","lon":"121.475750003","lat":"31.2635136779","category":"86","category_name":"火锅店","address":"上海东江湾路444号凯德龙之梦B栋2楼"},{"poiid":"B2094757D064A3FC4199","title":"上海基督教 闸北堂","lon":"121.474071","lat":"31.260398","category":"500","category_name":"未知分类","address":"上海宝通路340号(近中兴路)"},{"poiid":"B2094757D06AA0FD489C","title":"大桶大足浴(中兴店)","lon":"121.47759","lat":"31.25987","category":"149","category_name":"洗浴推拿场所","address":"闸北区中兴路237号(近东宝兴路)"},{"poiid":"B2094655D36CA6F44493","title":"东宝兴路","lon":"121.47783","lat":"31.25832","category":"38","category_name":"公交车站","address":""},{"poiid":"B2094753D469A4FE459A","title":"月星•环球港","lon":"121.478042","lat":"31.259443","category":"500","category_name":"未知分类","address":"上海市 普陀区中山北路3300号"},{"poiid":"B2094654D56CA6F4459A","title":"胖子大排档","lon":"121.47555","lat":"31.2627","category":"68","category_name":"快餐厅","address":"闸北区芷江支路(东宝兴路芷江中路)"},{"poiid":"B2094757D66BA1F8419A","title":"凯司令西点房 芷江店","lon":"121.472313054","lat":"31.260348793","category":"67","category_name":"甜品店","address":"闸北区芷江中路270号(近通阁路)"},{"poiid":"B2094757D069A3FC479E","title":"梦影酒楼","lon":"121.47551","lat":"31.2594","category":"68","category_name":"快餐厅","address":"闸北区宝通路449号(宝通路中华新路)"},{"poiid":"B2094757D568ABFC4792","title":"上海市中医医院住院部","lon":"121.471862","lat":"31.258842","category":"266","category_name":"三甲医院","address":"天通庵路191号"},{"poiid":"B2094757D069A6F54498","title":"小东北烧烤","lon":"121.47581","lat":"31.26189","category":"257","category_name":"中餐厅","address":"闸北区东宝兴路714号(近天通庵路)"},{"poiid":"B2094654D56EA1FA449D","title":"紫光苑","lon":"121.47391","lat":"31.260046","category":"47","category_name":"住宅区","address":"上海市闸北区宝通路486号"},{"poiid":"B2094654D56EA1FF4592","title":"上海市第六十中学","lon":"121.47238","lat":"31.26368","category":"55","category_name":"中学","address":"闸北区青云路323号(宝昌路青云路)"},{"poiid":"B209475CD169A3F9449B","title":"东方明珠","lon":"121.474914","lat":"31.261812","category":"500","category_name":"未知分类","address":"上海市 上海外滩"},{"poiid":"B2094655D36CA5F54899","title":"宝通路","lon":"121.47661","lat":"31.25867","category":"38","category_name":"公交车站","address":"宝通路239弄"},{"poiid":"B2094757D06AA3F8489F","title":"宝山社区文化活动中心","lon":"121.472676","lat":"31.259981","category":"500","category_name":"未知分类","address":"上海宝昌路533号。"},{"poiid":"B2094654D56EA1FA4499","title":"宝通公寓","lon":"121.47615","lat":"31.259264","category":"47","category_name":"住宅区","address":"上海市闸北区宝通路425号"},{"poiid":"B2094655D26CA0FD459B","title":"上海移动通信公司(天通庵路)","lon":"121.47517","lat":"31.26095","category":"263","category_name":"公司","address":"天通庵路423号"},{"poiid":"B2094757D068ABFD429A","title":"再回首烧烤","lon":"121.47187","lat":"31.26296","category":"269","category_name":"烧烤","address":"闸北区青云路381号(近宝昌路)"},{"poiid":"B2094655D36CA3FC429D","title":"朝顺商务园区","lon":"121.47316","lat":"31.2595","category":"46","category_name":"楼宇","address":"天通庵路301号"},{"poiid":"B2094654D56EA1F44299","title":"宝昌都市型工业楼宇","lon":"121.47329","lat":"31.25946","category":"46","category_name":"楼宇","address":"天通庵路301号"},{"poiid":"B2094757D164ABFE439C","title":"达人面馆","lon":"121.476017103","lat":"31.258874181","category":"68","category_name":"快餐厅","address":"闸北区宝通路402号(近中兴路)"},{"poiid":"B2094757D06AA3FF4992","title":"五木亭拉面 虹口足球场店","lon":"121.47333666","lat":"31.260626575","category":"247","category_name":"餐饮美食","address":"上海东江湾路444号5号门106室"},{"poiid":"B2094752D565A1FB4993","title":"虹口足球场","lon":"121.473479","lat":"31.261634","category":"220","category_name":"运动场所","address":null},{"poiid":"B2094654D56EA1F44399","title":"和颐苑","lon":"121.472375","lat":"31.262044","category":"47","category_name":"住宅区","address":"闸北区宝昌路659弄"},{"poiid":"B2094757D16BA6F9459C","title":"半夜","lon":"121.47328186","lat":"31.260614395","category":"247","category_name":"餐饮美食","address":"上海未知"},{"poiid":"B2094654D56EA1F4439A","title":"上海眼镜博物馆","lon":"121.47267","lat":"31.26018","category":"182","category_name":"博物馆","address":"闸北区宝昌路533号(近芷江中路)"},{"poiid":"B2094654D56CA2FC479F","title":"昆泰大厦","lon":"121.472","lat":"31.2587","category":"46","category_name":"楼宇","address":"上海中兴路1101号"},{"poiid":"B2094752D76CA3FB439F","title":"上海动物园","lon":"121.473921","lat":"31.25954","category":"500","category_name":"未知分类","address":null},{"poiid":"B2094757D168A2FD419F","title":"秦记汤包馆","lon":"121.47134","lat":"31.259986","category":"68","category_name":"快餐厅","address":"闸北区芷江中路369号(近宝昌路)"},{"poiid":"B2094757D065A1FC489C","title":"上海電影技術廠","lon":"121.4751948","lat":"31.259848801","category":"500","category_name":"未知分类","address":"上海閘北區寶通路449號"},{"poiid":"B2094753D66CA6F5499D","title":"上海市中医院","lon":"121.474791","lat":"31.261484","category":"162","category_name":"医院","address":"上海市 通阁路芷江中路"},{"poiid":"B2094750D26DA3FD469C","title":"上海田子坊","lon":"121.4721396","lat":"31.2566045","category":"500","category_name":"未知分类","address":null},{"poiid":"B2094752D765A6FC419B","title":"上海缘来很多人咖啡馆","lon":"121.47487","lat":"31.253767","category":"247","category_name":"餐饮美食","address":"闸北区公兴路65号"},{"poiid":"B2094655D26AA3FD449F","title":"大成文化艺术进修学校闸北校区","lon":"121.47266","lat":"31.26018","category":"247","category_name":"餐饮美食","address":"闸北区宝昌路533号5楼(近芷江中路)"},{"poiid":"B2094654D56EA1F8429A","title":"久欣公寓(北门)","lon":"121.47278","lat":"31.26027","category":"47","category_name":"住宅区","address":"芷江中路258弄"},{"poiid":"B2094654D56EA1F4459E","title":"富邑华庭","lon":"121.47217","lat":"31.259846","category":"47","category_name":"住宅区","address":"闸北宝昌路550弄,芷江中路口"},{"poiid":"B2094654D56EA1F8449B","title":"上海市中医医院","lon":"121.47148","lat":"31.25943","category":"162","category_name":"医院","address":"闸北区芷江中路274"},{"poiid":"B2094757D068A1FE4498","title":"尚一汤(虹口龙之梦店)","lon":"121.476666388","lat":"31.263169685","category":"72","category_name":"广东菜","address":"虹口区西江湾路388号虹口凯德龙之梦购物中心620室(近虹口足球场)"},{"poiid":"B2094655D36CA6F44492","title":"东宝兴路中兴路","lon":"121.47758","lat":"31.26081","category":"38","category_name":"公交车站","address":"上海东宝兴路中兴路"},{"poiid":"B2094757D06EAAFA4098","title":"绿洲雅宾利","lon":"121.478","lat":"31.2615","category":"47","category_name":"住宅区","address":"上海中兴路止园路"},{"poiid":"B2094757D068A1F54499","title":"德克士(东宝兴路店)","lon":"121.47531","lat":"31.26272","category":"68","category_name":"快餐厅","address":"闸北区东宝兴路777号世纪联华1楼(近芷江中路)"},{"poiid":"B2094757D068AAFA499E","title":"绿洲雅宾利二期","lon":"121.47327287","lat":"31.259555091","category":"47","category_name":"住宅区","address":"上海市闸北区宝昌路399弄"},{"poiid":"B2094757D06FA7F8439B","title":"世纪联华(东宝店)","lon":"121.47573","lat":"31.26202","category":"118","category_name":"超级市场","address":"上海闸北区东宝兴路777号(近芷江中路)"},{"poiid":"B2094752D665A2F54098","title":"食之秘（嘉杰国际店）","lon":"121.475081","lat":"31.25984","category":"247","category_name":"餐饮美食","address":"嘉杰国际广场"},{"poiid":"B2094750D665A3F9469C","title":"鼎中鼎澳门豆捞(东宝兴路店)","lon":"121.475","lat":"31.263","category":"86","category_name":"火锅店","address":"虹口区东宝兴路777号世纪联华1楼(近芷江中路)"},{"poiid":"B2094757D06FA1FB4799","title":"天通庵路客服中心","lon":"121.475173","lat":"31.260955","category":"253","category_name":"校园生活","address":"上海天通庵路423号"},{"poiid":"B2094757D068A0F94093","title":"市北职业高级中学","lon":"121.47814178","lat":"31.259740829","category":"500","category_name":"未知分类","address":"闸北区宝山路584号(近东宝兴路)"},{"poiid":"B2094655D26FA1FB449A","title":"三宝花苑","lon":"121.47641","lat":"31.257627","category":"47","category_name":"住宅区","address":"上海市闸北区宝山路452号"},{"poiid":"B2094757D068A1FE449C","title":"开泰眼镜批发市场","lon":"121.47137","lat":"31.2622","category":"132","category_name":"眼镜店","address":"闸北区青云路452号(宝昌路口)"},{"poiid":"B2094757D16DA0F9499B","title":"东宝兴路芷江中路","lon":"121.4746851","lat":"31.262402254","category":"500","category_name":"未知分类","address":"上海市闸北区"},{"poiid":"B2094757D068A5F94799","title":"健康煮(虹口凯德龙之梦店)","lon":"121.475750003","lat":"31.2635136779","category":"86","category_name":"火锅店","address":"上海东江湾路444号凯德龙之梦B栋2楼"},{"poiid":"B2094757D064A3FC4199","title":"上海基督教 闸北堂","lon":"121.474071","lat":"31.260398","category":"500","category_name":"未知分类","address":"上海宝通路340号(近中兴路)"},{"poiid":"B2094757D06AA0FD489C","title":"大桶大足浴(中兴店)","lon":"121.47759","lat":"31.25987","category":"149","category_name":"洗浴推拿场所","address":"闸北区中兴路237号(近东宝兴路)"},{"poiid":"B2094655D36CA6F44493","title":"东宝兴路","lon":"121.47783","lat":"31.25832","category":"38","category_name":"公交车站","address":""},{"poiid":"B2094753D469A4FE459A","title":"月星•环球港","lon":"121.478042","lat":"31.259443","category":"500","category_name":"未知分类","address":"上海市 普陀区中山北路3300号"},{"poiid":"B2094654D56CA6F4459A","title":"胖子大排档","lon":"121.47555","lat":"31.2627","category":"68","category_name":"快餐厅","address":"闸北区芷江支路(东宝兴路芷江中路)"},{"poiid":"B2094757D66BA1F8419A","title":"凯司令西点房 芷江店","lon":"121.472313054","lat":"31.260348793","category":"67","category_name":"甜品店","address":"闸北区芷江中路270号(近通阁路)"},{"poiid":"B2094757D069A3FC479E","title":"梦影酒楼","lon":"121.47551","lat":"31.2594","category":"68","category_name":"快餐厅","address":"闸北区宝通路449号(宝通路中华新路)"},{"poiid":"B2094757D568ABFC4792","title":"上海市中医医院住院部","lon":"121.471862","lat":"31.258842","category":"266","category_name":"三甲医院","address":"天通庵路191号"},{"poiid":"B2094757D069A6F54498","title":"小东北烧烤","lon":"121.47581","lat":"31.26189","category":"257","category_name":"中餐厅","address":"闸北区东宝兴路714号(近天通庵路)"},{"poiid":"B2094654D56EA1FA449D","title":"紫光苑","lon":"121.47391","lat":"31.260046","category":"47","category_name":"住宅区","address":"上海市闸北区宝通路486号"},{"poiid":"B2094654D56EA1FF4592","title":"上海市第六十中学","lon":"121.47238","lat":"31.26368","category":"55","category_name":"中学","address":"闸北区青云路323号(宝昌路青云路)"},{"poiid":"B209475CD169A3F9449B","title":"东方明珠","lon":"121.474914","lat":"31.261812","category":"500","category_name":"未知分类","address":"上海市 上海外滩"},{"poiid":"B2094655D36CA5F54899","title":"宝通路","lon":"121.47661","lat":"31.25867","category":"38","category_name":"公交车站","address":"宝通路239弄"},{"poiid":"B2094757D06AA3F8489F","title":"宝山社区文化活动中心","lon":"121.472676","lat":"31.259981","category":"500","category_name":"未知分类","address":"上海宝昌路533号。"},{"poiid":"B2094654D56EA1FA4499","title":"宝通公寓","lon":"121.47615","lat":"31.259264","category":"47","category_name":"住宅区","address":"上海市闸北区宝通路425号"},{"poiid":"B2094655D26CA0FD459B","title":"上海移动通信公司(天通庵路)","lon":"121.47517","lat":"31.26095","category":"263","category_name":"公司","address":"天通庵路423号"},{"poiid":"B2094757D068ABFD429A","title":"再回首烧烤","lon":"121.47187","lat":"31.26296","category":"269","category_name":"烧烤","address":"闸北区青云路381号(近宝昌路)"},{"poiid":"B2094655D36CA3FC429D","title":"朝顺商务园区","lon":"121.47316","lat":"31.2595","category":"46","category_name":"楼宇","address":"天通庵路301号"},{"poiid":"B2094654D56EA1F44299","title":"宝昌都市型工业楼宇","lon":"121.47329","lat":"31.25946","category":"46","category_name":"楼宇","address":"天通庵路301号"},{"poiid":"B2094757D164ABFE439C","title":"达人面馆","lon":"121.476017103","lat":"31.258874181","category":"68","category_name":"快餐厅","address":"闸北区宝通路402号(近中兴路)"},{"poiid":"B2094757D06AA3FF4992","title":"五木亭拉面 虹口足球场店","lon":"121.47333666","lat":"31.260626575","category":"247","category_name":"餐饮美食","address":"上海东江湾路444号5号门106室"},{"poiid":"B2094752D565A1FB4993","title":"虹口足球场","lon":"121.473479","lat":"31.261634","category":"220","category_name":"运动场所","address":null},{"poiid":"B2094654D56EA1F44399","title":"和颐苑","lon":"121.472375","lat":"31.262044","category":"47","category_name":"住宅区","address":"闸北区宝昌路659弄"},{"poiid":"B2094757D16BA6F9459C","title":"半夜","lon":"121.47328186","lat":"31.260614395","category":"247","category_name":"餐饮美食","address":"上海未知"},{"poiid":"B2094654D56EA1F4439A","title":"上海眼镜博物馆","lon":"121.47267","lat":"31.26018","category":"182","category_name":"博物馆","address":"闸北区宝昌路533号(近芷江中路)"},{"poiid":"B2094654D56CA2FC479F","title":"昆泰大厦","lon":"121.472","lat":"31.2587","category":"46","category_name":"楼宇","address":"上海中兴路1101号"},{"poiid":"B2094752D76CA3FB439F","title":"上海动物园","lon":"121.473921","lat":"31.25954","category":"500","category_name":"未知分类","address":null},{"poiid":"B2094757D168A2FD419F","title":"秦记汤包馆","lon":"121.47134","lat":"31.259986","category":"68","category_name":"快餐厅","address":"闸北区芷江中路369号(近宝昌路)"},{"poiid":"B2094757D065A1FC489C","title":"上海電影技術廠","lon":"121.4751948","lat":"31.259848801","category":"500","category_name":"未知分类","address":"上海閘北區寶通路449號"},{"poiid":"B2094753D66CA6F5499D","title":"上海市中医院","lon":"121.474791","lat":"31.261484","category":"162","category_name":"医院","address":"上海市 通阁路芷江中路"},{"poiid":"B2094750D26DA3FD469C","title":"上海田子坊","lon":"121.4721396","lat":"31.2566045","category":"500","category_name":"未知分类","address":null},{"poiid":"B2094752D765A6FC419B","title":"上海缘来很多人咖啡馆","lon":"121.47487","lat":"31.253767","category":"247","category_name":"餐饮美食","address":"闸北区公兴路65号"},{"poiid":"B2094655D26AA3FD449F","title":"大成文化艺术进修学校闸北校区","lon":"121.47266","lat":"31.26018","category":"247","category_name":"餐饮美食","address":"闸北区宝昌路533号5楼(近芷江中路)"},{"poiid":"B2094654D56EA1F8429A","title":"久欣公寓(北门)","lon":"121.47278","lat":"31.26027","category":"47","category_name":"住宅区","address":"芷江中路258弄"},{"poiid":"B2094654D56EA1F4459E","title":"富邑华庭","lon":"121.47217","lat":"31.259846","category":"47","category_name":"住宅区","address":"闸北宝昌路550弄,芷江中路口"},{"poiid":"B2094654D56EA1F8449B","title":"上海市中医医院","lon":"121.47148","lat":"31.25943","category":"162","category_name":"医院","address":"闸北区芷江中路274"},{"poiid":"B2094757D068A1FE4498","title":"尚一汤(虹口龙之梦店)","lon":"121.476666388","lat":"31.263169685","category":"72","category_name":"广东菜","address":"虹口区西江湾路388号虹口凯德龙之梦购物中心620室(近虹口足球场)"},{"poiid":"B2094655D36CA6F44492","title":"东宝兴路中兴路","lon":"121.47758","lat":"31.26081","category":"38","category_name":"公交车站","address":"上海东宝兴路中兴路"},{"poiid":"B2094757D06EAAFA4098","title":"绿洲雅宾利","lon":"121.478","lat":"31.2615","category":"47","category_name":"住宅区","address":"上海中兴路止园路"},{"poiid":"B2094757D068A1F54499","title":"德克士(东宝兴路店)","lon":"121.47531","lat":"31.26272","category":"68","category_name":"快餐厅","address":"闸北区东宝兴路777号世纪联华1楼(近芷江中路)"},{"poiid":"B2094757D068AAFA499E","title":"绿洲雅宾利二期","lon":"121.47327287","lat":"31.259555091","category":"47","category_name":"住宅区","address":"上海市闸北区宝昌路399弄"},{"poiid":"B2094757D06FA7F8439B","title":"世纪联华(东宝店)","lon":"121.47573","lat":"31.26202","category":"118","category_name":"超级市场","address":"上海闸北区东宝兴路777号(近芷江中路)"},{"poiid":"B2094752D665A2F54098","title":"食之秘（嘉杰国际店）","lon":"121.475081","lat":"31.25984","category":"247","category_name":"餐饮美食","address":"嘉杰国际广场"},{"poiid":"B2094750D665A3F9469C","title":"鼎中鼎澳门豆捞(东宝兴路店)","lon":"121.475","lat":"31.263","category":"86","category_name":"火锅店","address":"虹口区东宝兴路777号世纪联华1楼(近芷江中路)"},{"poiid":"B2094757D06FA1FB4799","title":"天通庵路客服中心","lon":"121.475173","lat":"31.260955","category":"253","category_name":"校园生活","address":"上海天通庵路423号"},{"poiid":"B2094757D068A0F94093","title":"市北职业高级中学","lon":"121.47814178","lat":"31.259740829","category":"500","category_name":"未知分类","address":"闸北区宝山路584号(近东宝兴路)"},{"poiid":"B2094655D26FA1FB449A","title":"三宝花苑","lon":"121.47641","lat":"31.257627","category":"47","category_name":"住宅区","address":"上海市闸北区宝山路452号"},{"poiid":"B2094757D068A1FE449C","title":"开泰眼镜批发市场","lon":"121.47137","lat":"31.2622","category":"132","category_name":"眼镜店","address":"闸北区青云路452号(宝昌路口)"},{"poiid":"B2094757D16DA0F9499B","title":"东宝兴路芷江中路","lon":"121.4746851","lat":"31.262402254","category":"500","category_name":"未知分类","address":"上海市闸北区"},{"poiid":"B2094757D068A5F94799","title":"健康煮(虹口凯德龙之梦店)","lon":"121.475750003","lat":"31.2635136779","category":"86","category_name":"火锅店","address":"上海东江湾路444号凯德龙之梦B栋2楼"},{"poiid":"B2094757D064A3FC4199","title":"上海基督教 闸北堂","lon":"121.474071","lat":"31.260398","category":"500","category_name":"未知分类","address":"上海宝通路340号(近中兴路)"},{"poiid":"B2094757D06AA0FD489C","title":"大桶大足浴(中兴店)","lon":"121.47759","lat":"31.25987","category":"149","category_name":"洗浴推拿场所","address":"闸北区中兴路237号(近东宝兴路)"},{"poiid":"B2094655D36CA6F44493","title":"东宝兴路","lon":"121.47783","lat":"31.25832","category":"38","category_name":"公交车站","address":""},{"poiid":"B2094753D469A4FE459A","title":"月星•环球港","lon":"121.478042","lat":"31.259443","category":"500","category_name":"未知分类","address":"上海市 普陀区中山北路3300号"},{"poiid":"B2094654D56CA6F4459A","title":"胖子大排档","lon":"121.47555","lat":"31.2627","category":"68","category_name":"快餐厅","address":"闸北区芷江支路(东宝兴路芷江中路)"},{"poiid":"B2094757D66BA1F8419A","title":"凯司令西点房 芷江店","lon":"121.472313054","lat":"31.260348793","category":"67","category_name":"甜品店","address":"闸北区芷江中路270号(近通阁路)"},{"poiid":"B2094757D069A3FC479E","title":"梦影酒楼","lon":"121.47551","lat":"31.2594","category":"68","category_name":"快餐厅","address":"闸北区宝通路449号(宝通路中华新路)"},{"poiid":"B2094757D568ABFC4792","title":"上海市中医医院住院部","lon":"121.471862","lat":"31.258842","category":"266","category_name":"三甲医院","address":"天通庵路191号"},{"poiid":"B2094757D069A6F54498","title":"小东北烧烤","lon":"121.47581","lat":"31.26189","category":"257","category_name":"中餐厅","address":"闸北区东宝兴路714号(近天通庵路)"},{"poiid":"B2094654D56EA1FA449D","title":"紫光苑","lon":"121.47391","lat":"31.260046","category":"47","category_name":"住宅区","address":"上海市闸北区宝通路486号"},{"poiid":"B2094654D56EA1FF4592","title":"上海市第六十中学","lon":"121.47238","lat":"31.26368","category":"55","category_name":"中学","address":"闸北区青云路323号(宝昌路青云路)"},{"poiid":"B209475CD169A3F9449B","title":"东方明珠","lon":"121.474914","lat":"31.261812","category":"500","category_name":"未知分类","address":"上海市 上海外滩"},{"poiid":"B2094655D36CA5F54899","title":"宝通路","lon":"121.47661","lat":"31.25867","category":"38","category_name":"公交车站","address":"宝通路239弄"},{"poiid":"B2094757D06AA3F8489F","title":"宝山社区文化活动中心","lon":"121.472676","lat":"31.259981","category":"500","category_name":"未知分类","address":"上海宝昌路533号。"},{"poiid":"B2094654D56EA1FA4499","title":"宝通公寓","lon":"121.47615","lat":"31.259264","category":"47","category_name":"住宅区","address":"上海市闸北区宝通路425号"},{"poiid":"B2094655D26CA0FD459B","title":"上海移动通信公司(天通庵路)","lon":"121.47517","lat":"31.26095","category":"263","category_name":"公司","address":"天通庵路423号"},{"poiid":"B2094757D068ABFD429A","title":"再回首烧烤","lon":"121.47187","lat":"31.26296","category":"269","category_name":"烧烤","address":"闸北区青云路381号(近宝昌路)"},{"poiid":"B2094655D36CA3FC429D","title":"朝顺商务园区","lon":"121.47316","lat":"31.2595","category":"46","category_name":"楼宇","address":"天通庵路301号"},{"poiid":"B2094654D56EA1F44299","title":"宝昌都市型工业楼宇","lon":"121.47329","lat":"31.25946","category":"46","category_name":"楼宇","address":"天通庵路301号"},{"poiid":"B2094757D164ABFE439C","title":"达人面馆","lon":"121.476017103","lat":"31.258874181","category":"68","category_name":"快餐厅","address":"闸北区宝通路402号(近中兴路)"},{"poiid":"B2094757D06AA3FF4992","title":"五木亭拉面 虹口足球场店","lon":"121.47333666","lat":"31.260626575","category":"247","category_name":"餐饮美食","address":"上海东江湾路444号5号门106室"},{"poiid":"B2094752D565A1FB4993","title":"虹口足球场","lon":"121.473479","lat":"31.261634","category":"220","category_name":"运动场所","address":null},{"poiid":"B2094654D56EA1F44399","title":"和颐苑","lon":"121.472375","lat":"31.262044","category":"47","category_name":"住宅区","address":"闸北区宝昌路659弄"},{"poiid":"B2094757D16BA6F9459C","title":"半夜","lon":"121.47328186","lat":"31.260614395","category":"247","category_name":"餐饮美食","address":"上海未知"},{"poiid":"B2094654D56EA1F4439A","title":"上海眼镜博物馆","lon":"121.47267","lat":"31.26018","category":"182","category_name":"博物馆","address":"闸北区宝昌路533号(近芷江中路)"},{"poiid":"B2094654D56CA2FC479F","title":"昆泰大厦","lon":"121.472","lat":"31.2587","category":"46","category_name":"楼宇","address":"上海中兴路1101号"},{"poiid":"B2094752D76CA3FB439F","title":"上海动物园","lon":"121.473921","lat":"31.25954","category":"500","category_name":"未知分类","address":null},{"poiid":"B2094757D168A2FD419F","title":"秦记汤包馆","lon":"121.47134","lat":"31.259986","category":"68","category_name":"快餐厅","address":"闸北区芷江中路369号(近宝昌路)"},{"poiid":"B2094757D065A1FC489C","title":"上海電影技術廠","lon":"121.4751948","lat":"31.259848801","category":"500","category_name":"未知分类","address":"上海閘北區寶通路449號"},{"poiid":"B2094753D66CA6F5499D","title":"上海市中医院","lon":"121.474791","lat":"31.261484","category":"162","category_name":"医院","address":"上海市 通阁路芷江中路"},{"poiid":"B2094750D26DA3FD469C","title":"上海田子坊","lon":"121.4721396","lat":"31.2566045","category":"500","category_name":"未知分类","address":null},{"poiid":"B2094752D765A6FC419B","title":"上海缘来很多人咖啡馆","lon":"121.47487","lat":"31.253767","category":"247","category_name":"餐饮美食","address":"闸北区公兴路65号"},{"poiid":"B2094655D26AA3FD449F","title":"大成文化艺术进修学校闸北校区","lon":"121.47266","lat":"31.26018","category":"247","category_name":"餐饮美食","address":"闸北区宝昌路533号5楼(近芷江中路)"},{"poiid":"B2094654D56EA1F8429A","title":"久欣公寓(北门)","lon":"121.47278","lat":"31.26027","category":"47","category_name":"住宅区","address":"芷江中路258弄"},{"poiid":"B2094654D56EA1F4459E","title":"富邑华庭","lon":"121.47217","lat":"31.259846","category":"47","category_name":"住宅区","address":"闸北宝昌路550弄,芷江中路口"}]