[{"poiid":"B2094757D06FA2FC489B","title":"顺风大酒店(闸北店)","lon":"121.45687","lat":"31.24103","category":"75","category_name":"浙江菜","address":"闸北区恒丰路218号(近恒通路)"},{"poiid":"B2094757DB6EABFC439E","title":"上海浦西万怡酒店","lon":"121.4557","lat":"31.242499","category":"214","category_name":"四星级宾馆","address":"上海市闸北区恒丰路338号(近普济路)"},{"poiid":"B2094757D06FAAFB429E","title":"上海市青少年活动中心","lon":"121.457574","lat":"31.24188","category":"68","category_name":"快餐厅","address":"闸北区汉中路188号(近一号线汉中路站)"},{"poiid":"B2094753D76FAAFA449C","title":"上海滩国泰旗舰店","lon":"121.466011","lat":"31.216125","category":"249","category_name":"购物服务","address":"淮海中路868号"},{"poiid":"B209475CD564A7F84292","title":"上海滩新天地店","lon":"121.47463","lat":"31.22164","category":"119","category_name":"商场","address":"\"太仓路181弄新天地北里15号\r\n\""},{"poiid":"B209475CD564A7F8439E","title":"上海滩中信泰富店","lon":"121.45602","lat":"31.22851","category":"119","category_name":"商场","address":"\"南京西路1168号中信泰富广场，店铺号221.\r\n\""},{"poiid":"B2094655D36CA7FA4699","title":"汉中路地铁站","lon":"121.45789","lat":"31.24153","category":"36","category_name":"地铁站","address":""},{"poiid":"B2094757D06FABF94899","title":"宝矿洲际商务中心","lon":"121.453241726","lat":"31.2444672929","category":"46","category_name":"楼宇","address":"上海闸北区裕通路100号(恒丰路500号)"},{"poiid":"B2094654DA6CA5FF4592","title":"金水湾大酒店","lon":"121.45592","lat":"31.24237","category":"250","category_name":"公园户外","address":"上海市闸北区恒丰路308号(近汉中路,恒丰路客运站旁)"},{"poiid":"B2094757D168A4FC4098","title":"粤新餐厅","lon":"121.452995586","lat":"31.2370825651","category":"72","category_name":"广东菜","address":"静安区江宁路428号静安体育中心1楼(近艺海剧院)"},{"poiid":"B2094757D06FA2FE4193","title":"企业广场","lon":"121.45718383","lat":"31.243953704","category":"46","category_name":"楼宇","address":"上海梅园路228号。"},{"poiid":"B2094757D069A5FB489E","title":"小南国(不夜城店)","lon":"121.457904538","lat":"31.2428722696","category":"500","category_name":"未知分类","address":"上海梅园路228号企业广场2楼"},{"poiid":"B2094757D06AA1FF439F","title":"梅园路77号4楼","lon":"121.45539831","lat":"31.243213226","category":"500","category_name":"未知分类","address":"上海市外国人就业中心"},{"poiid":"B2094757D068A3FD449D","title":"上海现代交通商务大厦","lon":"121.45674375","lat":"31.241240145","category":"46","category_name":"楼宇","address":"上海恒丰路218号"},{"poiid":"B2094757D06FA2FA4199","title":"Anken Green's Warehouse Cafe","lon":"121.451865","lat":"31.240447","category":"94","category_name":"西餐厅","address":"上海静安区淮安路668号1楼近西苏州路"},{"poiid":"B2094757D06FA5F5479E","title":"星巴克 STARBUCKS (洲际中心店)","lon":"121.4535958","lat":"31.2438824","category":"260","category_name":"其他","address":"闸北区裕通路100号宝矿洲际商务中心1楼(近火车站)"},{"poiid":"B2094757D56DA6F5479A","title":"环智国际大厦","lon":"121.45422220230103","lat":"31.244507776936864","category":"252","category_name":"楼宇机构","address":"上海,上海市,恒丰路436号"},{"poiid":"B2094750DB69A7FC459C","title":"外企德科法签上海中心","lon":"121.45568","lat":"31.243995","category":"252","category_name":"楼宇机构","address":"闸北区恒丰路299号隆宇国际商务大厦8层"},{"poiid":"B2094655D264A7F5439E","title":"上海市出入境服务中心","lon":"121.45747","lat":"31.24186","category":"248","category_name":"生活娱乐","address":"汉中路188号青少年活动中心2楼"},{"poiid":"B2094654DA6CA5FA409F","title":"静安河滨花园","lon":"121.45119","lat":"31.241392","category":"47","category_name":"住宅区","address":"上海市闸北区汉中路333弄"},{"poiid":"B2094750D56FA5F5439D","title":"Wagas","lon":"121.456146","lat":"31.243162","category":"247","category_name":"餐饮美食","address":"闸北区恒丰路410号环智国际大厦1楼(近天目西路)"},{"poiid":"B2094753D76DA0FE4892","title":"上海市浦西洲际酒店","lon":"121.456863","lat":"31.243484","category":"500","category_name":"未知分类","address":"上海市 上海市闸北区恒丰500号"},{"poiid":"B2094757D16CA1FD4393","title":"星满天羽毛球馆","lon":"121.453606486","lat":"31.2396057145","category":"500","category_name":"未知分类","address":"静安区西苏州河路53号(近昌平路)"},{"poiid":"B2094654DA6CA5F4409E","title":"帆顺海味馆","lon":"121.45532719303","lat":"31.237192665273","category":"76","category_name":"上海菜","address":"静安区康定路18号(泰兴路口)"},{"poiid":"B2094752DB6BABFE499E","title":"奖门人茶餐厅","lon":"121.45454407","lat":"31.24357215","category":"247","category_name":"餐饮美食","address":"恒丰路392号"},{"poiid":"B2094757D569A0F54399","title":"隆宇国际商务广场","lon":"121.4565118","lat":"31.24302816","category":"46","category_name":"楼宇","address":"中国上海市闸北区恒丰路331"},{"poiid":"B2094654DA6CA3F8419C","title":"博鸿大厦","lon":"121.458","lat":"31.2414","category":"46","category_name":"楼宇","address":"铁西兴华南街与十马路交汇处"},{"poiid":"B2094655D26BA2FA449E","title":"泰兴路","lon":"121.45517","lat":"31.23698","category":"38","category_name":"公交车站","address":""},{"poiid":"B2094757D065A4FA439E","title":"创智联合大厦","lon":"121.456367493","lat":"31.2422866821","category":"46","category_name":"楼宇","address":"上海恒丰路1号"},{"poiid":"B2094757D168A6F54593","title":"港匯","lon":"121.457887738","lat":"31.2426775654","category":"500","category_name":"未知分类","address":"上海虹橋路1號"},{"poiid":"B2094750DA6AA0F4479F","title":"人才大廈","lon":"121.456268","lat":"31.243707","category":"252","category_name":"楼宇机构","address":"梅園路77號"},{"poiid":"B2094757D068A6FE499A","title":"上岛咖啡 恒丰路店 UBC Coffee","lon":"121.457548054","lat":"31.241409793","category":"260","category_name":"其他","address":"闸北区恒丰路218号现代交通商务大厦1楼(近恒通路)"},{"poiid":"B2094655D269A4F44092","title":"上海市禁毒科普教育馆","lon":"121.45742","lat":"31.24193","category":"247","category_name":"餐饮美食","address":"闸北区汉中路188号4楼(近一号线汉中路站)"},{"poiid":"B2094757D16CA7FB419A","title":"COCO壱番屋","lon":"121.45769373","lat":"31.242309557","category":"247","category_name":"餐饮美食","address":"上海市闸北区天目西路251號"},{"poiid":"B2094654DA6CA3FF4992","title":"平安大厦","lon":"121.454","lat":"31.2424","category":"46","category_name":"楼宇","address":"朝阳区天辰东路7号"},{"poiid":"B2094757D068ABFC4598","title":"中国银行(闸北支行)","lon":"121.456748427","lat":"31.2413423699","category":"150","category_name":"银行","address":"闸北区恒丰路218号(恒丰路恒通路)"},{"poiid":"B2094654DB69A5F54599","title":"格林豪泰酒店(一天下店)","lon":"121.45737","lat":"31.24061","category":"216","category_name":"经济型连锁酒店","address":"上海市静安区石门二路505号（近新闸路，恒丰路桥西则）"},{"poiid":"B2094655D265A5F8459B","title":"裕年大厦","lon":"121.45523","lat":"31.24293","category":"46","category_name":"楼宇","address":"闸北区恒丰路普济路"},{"poiid":"B2094655D265A2F94498","title":"东方莱茵","lon":"121.45524","lat":"31.24068","category":"47","category_name":"住宅区","address":"东方莱茵位于闸北汉中路333弄"},{"poiid":"B2094750D76DA5FE459C","title":"海陆坊","lon":"121.456","lat":"31.2424","category":"260","category_name":"其他","address":"闸北区恒丰路288号金水湾大酒店2楼(近汉中路)"},{"poiid":"B2094757D068A5FA459C","title":"时美大厦","lon":"121.458","lat":"31.2408","category":"46","category_name":"楼宇","address":"上海江宁路445号"},{"poiid":"B2094752D26DAAFC459F","title":"粤味王","lon":"121.456878","lat":"31.242805","category":"72","category_name":"广东菜","address":"闸北区恒丰路299号(近汉中路地铁站1号口)"},{"poiid":"B2094655D26DA7FC479C","title":"海杰大酒店(汉中路)","lon":"121.45638","lat":"31.24218","category":"77","category_name":"湖南菜","address":"闸北区恒丰路252号(近汉中路)"},{"poiid":"B2094757D16FA6FC4899","title":"天鼎花園","lon":"121.45361637","lat":"31.241504915","category":"47","category_name":"住宅区","address":"西苏州路65弄19号501"},{"poiid":"B2094654DA6CA3F44299","title":"华通大厦","lon":"121.45270194078","lat":"31.241610662152","category":"46","category_name":"楼宇","address":"华通大厦位于静安西康路618号"},{"poiid":"B2094655D265A7FB429C","title":"天鼎大厦","lon":"121.45327","lat":"31.24039","category":"46","category_name":"楼宇","address":"上海市静安区西苏州路65弄"},{"poiid":"B2094752D16EA2F5449F","title":"上海金钱豹大酒店","lon":"121.453438","lat":"31.238001","category":"247","category_name":"餐饮美食","address":"杨树浦路2866号时尚中心2号门10号楼"},{"poiid":"B2094757D66BABFE4799","title":"秀田餐馆","lon":"121.458522","lat":"31.239362","category":"71","category_name":"四川菜","address":"闸北区恒丰路41号(近恒丰路桥)"},{"poiid":"B2094757D068A7FC409A","title":"全家便利(梅园路店)","lon":"121.45745","lat":"31.24368","category":"117","category_name":"便民商店/便利店","address":"上海闸北区梅园路228号103A室(近共和路)"},{"poiid":"B2094655D26BA0FF499B","title":"联谊西康大厦","lon":"121.453","lat":"31.2412","category":"46","category_name":"楼宇","address":"联谊西康大厦位于静安西康路578号"},{"poiid":"B2094757D06FA2FC489B","title":"顺风大酒店(闸北店)","lon":"121.45687","lat":"31.24103","category":"75","category_name":"浙江菜","address":"闸北区恒丰路218号(近恒通路)"},{"poiid":"B2094757DB6EABFC439E","title":"上海浦西万怡酒店","lon":"121.4557","lat":"31.242499","category":"214","category_name":"四星级宾馆","address":"上海市闸北区恒丰路338号(近普济路)"},{"poiid":"B2094757D06FAAFB429E","title":"上海市青少年活动中心","lon":"121.457574","lat":"31.24188","category":"68","category_name":"快餐厅","address":"闸北区汉中路188号(近一号线汉中路站)"},{"poiid":"B2094753D76FAAFA449C","title":"上海滩国泰旗舰店","lon":"121.466011","lat":"31.216125","category":"249","category_name":"购物服务","address":"淮海中路868号"},{"poiid":"B209475CD564A7F84292","title":"上海滩新天地店","lon":"121.47463","lat":"31.22164","category":"119","category_name":"商场","address":"\"太仓路181弄新天地北里15号\r\n\""},{"poiid":"B209475CD564A7F8439E","title":"上海滩中信泰富店","lon":"121.45602","lat":"31.22851","category":"119","category_name":"商场","address":"\"南京西路1168号中信泰富广场，店铺号221.\r\n\""},{"poiid":"B2094655D36CA7FA4699","title":"汉中路地铁站","lon":"121.45789","lat":"31.24153","category":"36","category_name":"地铁站","address":""},{"poiid":"B2094757D06FABF94899","title":"宝矿洲际商务中心","lon":"121.453241726","lat":"31.2444672929","category":"46","category_name":"楼宇","address":"上海闸北区裕通路100号(恒丰路500号)"},{"poiid":"B2094654DA6CA5FF4592","title":"金水湾大酒店","lon":"121.45592","lat":"31.24237","category":"250","category_name":"公园户外","address":"上海市闸北区恒丰路308号(近汉中路,恒丰路客运站旁)"},{"poiid":"B2094757D168A4FC4098","title":"粤新餐厅","lon":"121.452995586","lat":"31.2370825651","category":"72","category_name":"广东菜","address":"静安区江宁路428号静安体育中心1楼(近艺海剧院)"},{"poiid":"B2094757D06FA2FE4193","title":"企业广场","lon":"121.45718383","lat":"31.243953704","category":"46","category_name":"楼宇","address":"上海梅园路228号。"},{"poiid":"B2094757D069A5FB489E","title":"小南国(不夜城店)","lon":"121.457904538","lat":"31.2428722696","category":"500","category_name":"未知分类","address":"上海梅园路228号企业广场2楼"},{"poiid":"B2094757D06AA1FF439F","title":"梅园路77号4楼","lon":"121.45539831","lat":"31.243213226","category":"500","category_name":"未知分类","address":"上海市外国人就业中心"},{"poiid":"B2094757D068A3FD449D","title":"上海现代交通商务大厦","lon":"121.45674375","lat":"31.241240145","category":"46","category_name":"楼宇","address":"上海恒丰路218号"},{"poiid":"B2094757D06FA2FA4199","title":"Anken Green's Warehouse Cafe","lon":"121.451865","lat":"31.240447","category":"94","category_name":"西餐厅","address":"上海静安区淮安路668号1楼近西苏州路"},{"poiid":"B2094757D06FA5F5479E","title":"星巴克 STARBUCKS (洲际中心店)","lon":"121.4535958","lat":"31.2438824","category":"260","category_name":"其他","address":"闸北区裕通路100号宝矿洲际商务中心1楼(近火车站)"},{"poiid":"B2094757D56DA6F5479A","title":"环智国际大厦","lon":"121.45422220230103","lat":"31.244507776936864","category":"252","category_name":"楼宇机构","address":"上海,上海市,恒丰路436号"},{"poiid":"B2094750DB69A7FC459C","title":"外企德科法签上海中心","lon":"121.45568","lat":"31.243995","category":"252","category_name":"楼宇机构","address":"闸北区恒丰路299号隆宇国际商务大厦8层"},{"poiid":"B2094655D264A7F5439E","title":"上海市出入境服务中心","lon":"121.45747","lat":"31.24186","category":"248","category_name":"生活娱乐","address":"汉中路188号青少年活动中心2楼"},{"poiid":"B2094654DA6CA5FA409F","title":"静安河滨花园","lon":"121.45119","lat":"31.241392","category":"47","category_name":"住宅区","address":"上海市闸北区汉中路333弄"},{"poiid":"B2094750D56FA5F5439D","title":"Wagas","lon":"121.456146","lat":"31.243162","category":"247","category_name":"餐饮美食","address":"闸北区恒丰路410号环智国际大厦1楼(近天目西路)"},{"poiid":"B2094753D76DA0FE4892","title":"上海市浦西洲际酒店","lon":"121.456863","lat":"31.243484","category":"500","category_name":"未知分类","address":"上海市 上海市闸北区恒丰500号"},{"poiid":"B2094757D16CA1FD4393","title":"星满天羽毛球馆","lon":"121.453606486","lat":"31.2396057145","category":"500","category_name":"未知分类","address":"静安区西苏州河路53号(近昌平路)"},{"poiid":"B2094654DA6CA5F4409E","title":"帆顺海味馆","lon":"121.45532719303","lat":"31.237192665273","category":"76","category_name":"上海菜","address":"静安区康定路18号(泰兴路口)"},{"poiid":"B2094752DB6BABFE499E","title":"奖门人茶餐厅","lon":"121.45454407","lat":"31.24357215","category":"247","category_name":"餐饮美食","address":"恒丰路392号"},{"poiid":"B2094757D569A0F54399","title":"隆宇国际商务广场","lon":"121.4565118","lat":"31.24302816","category":"46","category_name":"楼宇","address":"中国上海市闸北区恒丰路331"},{"poiid":"B2094654DA6CA3F8419C","title":"博鸿大厦","lon":"121.458","lat":"31.2414","category":"46","category_name":"楼宇","address":"铁西兴华南街与十马路交汇处"},{"poiid":"B2094655D26BA2FA449E","title":"泰兴路","lon":"121.45517","lat":"31.23698","category":"38","category_name":"公交车站","address":""},{"poiid":"B2094757D065A4FA439E","title":"创智联合大厦","lon":"121.456367493","lat":"31.2422866821","category":"46","category_name":"楼宇","address":"上海恒丰路1号"},{"poiid":"B2094757D168A6F54593","title":"港匯","lon":"121.457887738","lat":"31.2426775654","category":"500","category_name":"未知分类","address":"上海虹橋路1號"},{"poiid":"B2094750DA6AA0F4479F","title":"人才大廈","lon":"121.456268","lat":"31.243707","category":"252","category_name":"楼宇机构","address":"梅園路77號"},{"poiid":"B2094757D068A6FE499A","title":"上岛咖啡 恒丰路店 UBC Coffee","lon":"121.457548054","lat":"31.241409793","category":"260","category_name":"其他","address":"闸北区恒丰路218号现代交通商务大厦1楼(近恒通路)"},{"poiid":"B2094655D269A4F44092","title":"上海市禁毒科普教育馆","lon":"121.45742","lat":"31.24193","category":"247","category_name":"餐饮美食","address":"闸北区汉中路188号4楼(近一号线汉中路站)"},{"poiid":"B2094757D16CA7FB419A","title":"COCO壱番屋","lon":"121.45769373","lat":"31.242309557","category":"247","category_name":"餐饮美食","address":"上海市闸北区天目西路251號"},{"poiid":"B2094654DA6CA3FF4992","title":"平安大厦","lon":"121.454","lat":"31.2424","category":"46","category_name":"楼宇","address":"朝阳区天辰东路7号"},{"poiid":"B2094757D068ABFC4598","title":"中国银行(闸北支行)","lon":"121.456748427","lat":"31.2413423699","category":"150","category_name":"银行","address":"闸北区恒丰路218号(恒丰路恒通路)"},{"poiid":"B2094654DB69A5F54599","title":"格林豪泰酒店(一天下店)","lon":"121.45737","lat":"31.24061","category":"216","category_name":"经济型连锁酒店","address":"上海市静安区石门二路505号（近新闸路，恒丰路桥西则）"},{"poiid":"B2094655D265A5F8459B","title":"裕年大厦","lon":"121.45523","lat":"31.24293","category":"46","category_name":"楼宇","address":"闸北区恒丰路普济路"},{"poiid":"B2094655D265A2F94498","title":"东方莱茵","lon":"121.45524","lat":"31.24068","category":"47","category_name":"住宅区","address":"东方莱茵位于闸北汉中路333弄"},{"poiid":"B2094750D76DA5FE459C","title":"海陆坊","lon":"121.456","lat":"31.2424","category":"260","category_name":"其他","address":"闸北区恒丰路288号金水湾大酒店2楼(近汉中路)"},{"poiid":"B2094757D068A5FA459C","title":"时美大厦","lon":"121.458","lat":"31.2408","category":"46","category_name":"楼宇","address":"上海江宁路445号"},{"poiid":"B2094752D26DAAFC459F","title":"粤味王","lon":"121.456878","lat":"31.242805","category":"72","category_name":"广东菜","address":"闸北区恒丰路299号(近汉中路地铁站1号口)"},{"poiid":"B2094655D26DA7FC479C","title":"海杰大酒店(汉中路)","lon":"121.45638","lat":"31.24218","category":"77","category_name":"湖南菜","address":"闸北区恒丰路252号(近汉中路)"},{"poiid":"B2094757D16FA6FC4899","title":"天鼎花園","lon":"121.45361637","lat":"31.241504915","category":"47","category_name":"住宅区","address":"西苏州路65弄19号501"},{"poiid":"B2094654DA6CA3F44299","title":"华通大厦","lon":"121.45270194078","lat":"31.241610662152","category":"46","category_name":"楼宇","address":"华通大厦位于静安西康路618号"},{"poiid":"B2094655D265A7FB429C","title":"天鼎大厦","lon":"121.45327","lat":"31.24039","category":"46","category_name":"楼宇","address":"上海市静安区西苏州路65弄"},{"poiid":"B2094752D16EA2F5449F","title":"上海金钱豹大酒店","lon":"121.453438","lat":"31.238001","category":"247","category_name":"餐饮美食","address":"杨树浦路2866号时尚中心2号门10号楼"},{"poiid":"B2094757D66BABFE4799","title":"秀田餐馆","lon":"121.458522","lat":"31.239362","category":"71","category_name":"四川菜","address":"闸北区恒丰路41号(近恒丰路桥)"},{"poiid":"B2094757D068A7FC409A","title":"全家便利(梅园路店)","lon":"121.45745","lat":"31.24368","category":"117","category_name":"便民商店/便利店","address":"上海闸北区梅园路228号103A室(近共和路)"},{"poiid":"B2094655D26BA0FF499B","title":"联谊西康大厦","lon":"121.453","lat":"31.2412","category":"46","category_name":"楼宇","address":"联谊西康大厦位于静安西康路578号"},{"poiid":"B2094757D06FA2FC489B","title":"顺风大酒店(闸北店)","lon":"121.45687","lat":"31.24103","category":"75","category_name":"浙江菜","address":"闸北区恒丰路218号(近恒通路)"},{"poiid":"B2094757DB6EABFC439E","title":"上海浦西万怡酒店","lon":"121.4557","lat":"31.242499","category":"214","category_name":"四星级宾馆","address":"上海市闸北区恒丰路338号(近普济路)"},{"poiid":"B2094757D06FAAFB429E","title":"上海市青少年活动中心","lon":"121.457574","lat":"31.24188","category":"68","category_name":"快餐厅","address":"闸北区汉中路188号(近一号线汉中路站)"},{"poiid":"B2094753D76FAAFA449C","title":"上海滩国泰旗舰店","lon":"121.466011","lat":"31.216125","category":"249","category_name":"购物服务","address":"淮海中路868号"},{"poiid":"B209475CD564A7F84292","title":"上海滩新天地店","lon":"121.47463","lat":"31.22164","category":"119","category_name":"商场","address":"\"太仓路181弄新天地北里15号\r\n\""},{"poiid":"B209475CD564A7F8439E","title":"上海滩中信泰富店","lon":"121.45602","lat":"31.22851","category":"119","category_name":"商场","address":"\"南京西路1168号中信泰富广场，店铺号221.\r\n\""},{"poiid":"B2094655D36CA7FA4699","title":"汉中路地铁站","lon":"121.45789","lat":"31.24153","category":"36","category_name":"地铁站","address":""},{"poiid":"B2094757D06FABF94899","title":"宝矿洲际商务中心","lon":"121.453241726","lat":"31.2444672929","category":"46","category_name":"楼宇","address":"上海闸北区裕通路100号(恒丰路500号)"},{"poiid":"B2094654DA6CA5FF4592","title":"金水湾大酒店","lon":"121.45592","lat":"31.24237","category":"250","category_name":"公园户外","address":"上海市闸北区恒丰路308号(近汉中路,恒丰路客运站旁)"},{"poiid":"B2094757D168A4FC4098","title":"粤新餐厅","lon":"121.452995586","lat":"31.2370825651","category":"72","category_name":"广东菜","address":"静安区江宁路428号静安体育中心1楼(近艺海剧院)"},{"poiid":"B2094757D06FA2FE4193","title":"企业广场","lon":"121.45718383","lat":"31.243953704","category":"46","category_name":"楼宇","address":"上海梅园路228号。"},{"poiid":"B2094757D069A5FB489E","title":"小南国(不夜城店)","lon":"121.457904538","lat":"31.2428722696","category":"500","category_name":"未知分类","address":"上海梅园路228号企业广场2楼"},{"poiid":"B2094757D06AA1FF439F","title":"梅园路77号4楼","lon":"121.45539831","lat":"31.243213226","category":"500","category_name":"未知分类","address":"上海市外国人就业中心"},{"poiid":"B2094757D068A3FD449D","title":"上海现代交通商务大厦","lon":"121.45674375","lat":"31.241240145","category":"46","category_name":"楼宇","address":"上海恒丰路218号"},{"poiid":"B2094757D06FA2FA4199","title":"Anken Green's Warehouse Cafe","lon":"121.451865","lat":"31.240447","category":"94","category_name":"西餐厅","address":"上海静安区淮安路668号1楼近西苏州路"},{"poiid":"B2094757D06FA5F5479E","title":"星巴克 STARBUCKS (洲际中心店)","lon":"121.4535958","lat":"31.2438824","category":"260","category_name":"其他","address":"闸北区裕通路100号宝矿洲际商务中心1楼(近火车站)"},{"poiid":"B2094757D56DA6F5479A","title":"环智国际大厦","lon":"121.45422220230103","lat":"31.244507776936864","category":"252","category_name":"楼宇机构","address":"上海,上海市,恒丰路436号"},{"poiid":"B2094750DB69A7FC459C","title":"外企德科法签上海中心","lon":"121.45568","lat":"31.243995","category":"252","category_name":"楼宇机构","address":"闸北区恒丰路299号隆宇国际商务大厦8层"},{"poiid":"B2094655D264A7F5439E","title":"上海市出入境服务中心","lon":"121.45747","lat":"31.24186","category":"248","category_name":"生活娱乐","address":"汉中路188号青少年活动中心2楼"},{"poiid":"B2094654DA6CA5FA409F","title":"静安河滨花园","lon":"121.45119","lat":"31.241392","category":"47","category_name":"住宅区","address":"上海市闸北区汉中路333弄"},{"poiid":"B2094750D56FA5F5439D","title":"Wagas","lon":"121.456146","lat":"31.243162","category":"247","category_name":"餐饮美食","address":"闸北区恒丰路410号环智国际大厦1楼(近天目西路)"},{"poiid":"B2094753D76DA0FE4892","title":"上海市浦西洲际酒店","lon":"121.456863","lat":"31.243484","category":"500","category_name":"未知分类","address":"上海市 上海市闸北区恒丰500号"},{"poiid":"B2094757D16CA1FD4393","title":"星满天羽毛球馆","lon":"121.453606486","lat":"31.2396057145","category":"500","category_name":"未知分类","address":"静安区西苏州河路53号(近昌平路)"},{"poiid":"B2094654DA6CA5F4409E","title":"帆顺海味馆","lon":"121.45532719303","lat":"31.237192665273","category":"76","category_name":"上海菜","address":"静安区康定路18号(泰兴路口)"},{"poiid":"B2094752DB6BABFE499E","title":"奖门人茶餐厅","lon":"121.45454407","lat":"31.24357215","category":"247","category_name":"餐饮美食","address":"恒丰路392号"},{"poiid":"B2094757D569A0F54399","title":"隆宇国际商务广场","lon":"121.4565118","lat":"31.24302816","category":"46","category_name":"楼宇","address":"中国上海市闸北区恒丰路331"},{"poiid":"B2094654DA6CA3F8419C","title":"博鸿大厦","lon":"121.458","lat":"31.2414","category":"46","category_name":"楼宇","address":"铁西兴华南街与十马路交汇处"},{"poiid":"B2094655D26BA2FA449E","title":"泰兴路","lon":"121.45517","lat":"31.23698","category":"38","category_name":"公交车站","address":""},{"poiid":"B2094757D065A4FA439E","title":"创智联合大厦","lon":"121.456367493","lat":"31.2422866821","category":"46","category_name":"楼宇","address":"上海恒丰路1号"},{"poiid":"B2094757D168A6F54593","title":"港匯","lon":"121.457887738","lat":"31.2426775654","category":"500","category_name":"未知分类","address":"上海虹橋路1號"},{"poiid":"B2094750DA6AA0F4479F","title":"人才大廈","lon":"121.456268","lat":"31.243707","category":"252","category_name":"楼宇机构","address":"梅園路77號"},{"poiid":"B2094757D068A6FE499A","title":"上岛咖啡 恒丰路店 UBC Coffee","lon":"121.457548054","lat":"31.241409793","category":"260","category_name":"其他","address":"闸北区恒丰路218号现代交通商务大厦1楼(近恒通路)"},{"poiid":"B2094655D269A4F44092","title":"上海市禁毒科普教育馆","lon":"121.45742","lat":"31.24193","category":"247","category_name":"餐饮美食","address":"闸北区汉中路188号4楼(近一号线汉中路站)"},{"poiid":"B2094757D16CA7FB419A","title":"COCO壱番屋","lon":"121.45769373","lat":"31.242309557","category":"247","category_name":"餐饮美食","address":"上海市闸北区天目西路251號"},{"poiid":"B2094654DA6CA3FF4992","title":"平安大厦","lon":"121.454","lat":"31.2424","category":"46","category_name":"楼宇","address":"朝阳区天辰东路7号"},{"poiid":"B2094757D068ABFC4598","title":"中国银行(闸北支行)","lon":"121.456748427","lat":"31.2413423699","category":"150","category_name":"银行","address":"闸北区恒丰路218号(恒丰路恒通路)"},{"poiid":"B2094654DB69A5F54599","title":"格林豪泰酒店(一天下店)","lon":"121.45737","lat":"31.24061","category":"216","category_name":"经济型连锁酒店","address":"上海市静安区石门二路505号（近新闸路，恒丰路桥西则）"},{"poiid":"B2094655D265A5F8459B","title":"裕年大厦","lon":"121.45523","lat":"31.24293","category":"46","category_name":"楼宇","address":"闸北区恒丰路普济路"},{"poiid":"B2094655D265A2F94498","title":"东方莱茵","lon":"121.45524","lat":"31.24068","category":"47","category_name":"住宅区","address":"东方莱茵位于闸北汉中路333弄"},{"poiid":"B2094750D76DA5FE459C","title":"海陆坊","lon":"121.456","lat":"31.2424","category":"260","category_name":"其他","address":"闸北区恒丰路288号金水湾大酒店2楼(近汉中路)"},{"poiid":"B2094757D068A5FA459C","title":"时美大厦","lon":"121.458","lat":"31.2408","category":"46","category_name":"楼宇","address":"上海江宁路445号"},{"poiid":"B2094752D26DAAFC459F","title":"粤味王","lon":"121.456878","lat":"31.242805","category":"72","category_name":"广东菜","address":"闸北区恒丰路299号(近汉中路地铁站1号口)"},{"poiid":"B2094655D26DA7FC479C","title":"海杰大酒店(汉中路)","lon":"121.45638","lat":"31.24218","category":"77","category_name":"湖南菜","address":"闸北区恒丰路252号(近汉中路)"},{"poiid":"B2094757D16FA6FC4899","title":"天鼎花園","lon":"121.45361637","lat":"31.241504915","category":"47","category_name":"住宅区","address":"西苏州路65弄19号501"},{"poiid":"B2094654DA6CA3F44299","title":"华通大厦","lon":"121.45270194078","lat":"31.241610662152","category":"46","category_name":"楼宇","address":"华通大厦位于静安西康路618号"},{"poiid":"B2094655D265A7FB429C","title":"天鼎大厦","lon":"121.45327","lat":"31.24039","category":"46","category_name":"楼宇","address":"上海市静安区西苏州路65弄"},{"poiid":"B2094752D16EA2F5449F","title":"上海金钱豹大酒店","lon":"121.453438","lat":"31.238001","category":"247","category_name":"餐饮美食","address":"杨树浦路2866号时尚中心2号门10号楼"},{"poiid":"B2094757D66BABFE4799","title":"秀田餐馆","lon":"121.458522","lat":"31.239362","category":"71","category_name":"四川菜","address":"闸北区恒丰路41号(近恒丰路桥)"},{"poiid":"B2094757D068A7FC409A","title":"全家便利(梅园路店)","lon":"121.45745","lat":"31.24368","category":"117","category_name":"便民商店/便利店","address":"上海闸北区梅园路228号103A室(近共和路)"},{"poiid":"B2094655D26BA0FF499B","title":"联谊西康大厦","lon":"121.453","lat":"31.2412","category":"46","category_name":"楼宇","address":"联谊西康大厦位于静安西康路578号"},{"poiid":"B2094757D06FA2FC489B","title":"顺风大酒店(闸北店)","lon":"121.45687","lat":"31.24103","category":"75","category_name":"浙江菜","address":"闸北区恒丰路218号(近恒通路)"},{"poiid":"B2094757DB6EABFC439E","title":"上海浦西万怡酒店","lon":"121.4557","lat":"31.242499","category":"214","category_name":"四星级宾馆","address":"上海市闸北区恒丰路338号(近普济路)"},{"poiid":"B2094757D06FAAFB429E","title":"上海市青少年活动中心","lon":"121.457574","lat":"31.24188","category":"68","category_name":"快餐厅","address":"闸北区汉中路188号(近一号线汉中路站)"},{"poiid":"B2094753D76FAAFA449C","title":"上海滩国泰旗舰店","lon":"121.466011","lat":"31.216125","category":"249","category_name":"购物服务","address":"淮海中路868号"},{"poiid":"B209475CD564A7F84292","title":"上海滩新天地店","lon":"121.47463","lat":"31.22164","category":"119","category_name":"商场","address":"\"太仓路181弄新天地北里15号\r\n\""},{"poiid":"B209475CD564A7F8439E","title":"上海滩中信泰富店","lon":"121.45602","lat":"31.22851","category":"119","category_name":"商场","address":"\"南京西路1168号中信泰富广场，店铺号221.\r\n\""},{"poiid":"B2094655D36CA7FA4699","title":"汉中路地铁站","lon":"121.45789","lat":"31.24153","category":"36","category_name":"地铁站","address":""},{"poiid":"B2094757D06FABF94899","title":"宝矿洲际商务中心","lon":"121.453241726","lat":"31.2444672929","category":"46","category_name":"楼宇","address":"上海闸北区裕通路100号(恒丰路500号)"},{"poiid":"B2094654DA6CA5FF4592","title":"金水湾大酒店","lon":"121.45592","lat":"31.24237","category":"250","category_name":"公园户外","address":"上海市闸北区恒丰路308号(近汉中路,恒丰路客运站旁)"},{"poiid":"B2094757D168A4FC4098","title":"粤新餐厅","lon":"121.452995586","lat":"31.2370825651","category":"72","category_name":"广东菜","address":"静安区江宁路428号静安体育中心1楼(近艺海剧院)"},{"poiid":"B2094757D06FA2FE4193","title":"企业广场","lon":"121.45718383","lat":"31.243953704","category":"46","category_name":"楼宇","address":"上海梅园路228号。"},{"poiid":"B2094757D069A5FB489E","title":"小南国(不夜城店)","lon":"121.457904538","lat":"31.2428722696","category":"500","category_name":"未知分类","address":"上海梅园路228号企业广场2楼"},{"poiid":"B2094757D06AA1FF439F","title":"梅园路77号4楼","lon":"121.45539831","lat":"31.243213226","category":"500","category_name":"未知分类","address":"上海市外国人就业中心"},{"poiid":"B2094757D068A3FD449D","title":"上海现代交通商务大厦","lon":"121.45674375","lat":"31.241240145","category":"46","category_name":"楼宇","address":"上海恒丰路218号"},{"poiid":"B2094757D06FA2FA4199","title":"Anken Green's Warehouse Cafe","lon":"121.451865","lat":"31.240447","category":"94","category_name":"西餐厅","address":"上海静安区淮安路668号1楼近西苏州路"},{"poiid":"B2094757D06FA5F5479E","title":"星巴克 STARBUCKS (洲际中心店)","lon":"121.4535958","lat":"31.2438824","category":"260","category_name":"其他","address":"闸北区裕通路100号宝矿洲际商务中心1楼(近火车站)"},{"poiid":"B2094757D56DA6F5479A","title":"环智国际大厦","lon":"121.45422220230103","lat":"31.244507776936864","category":"252","category_name":"楼宇机构","address":"上海,上海市,恒丰路436号"},{"poiid":"B2094750DB69A7FC459C","title":"外企德科法签上海中心","lon":"121.45568","lat":"31.243995","category":"252","category_name":"楼宇机构","address":"闸北区恒丰路299号隆宇国际商务大厦8层"},{"poiid":"B2094655D264A7F5439E","title":"上海市出入境服务中心","lon":"121.45747","lat":"31.24186","category":"248","category_name":"生活娱乐","address":"汉中路188号青少年活动中心2楼"},{"poiid":"B2094654DA6CA5FA409F","title":"静安河滨花园","lon":"121.45119","lat":"31.241392","category":"47","category_name":"住宅区","address":"上海市闸北区汉中路333弄"},{"poiid":"B2094750D56FA5F5439D","title":"Wagas","lon":"121.456146","lat":"31.243162","category":"247","category_name":"餐饮美食","address":"闸北区恒丰路410号环智国际大厦1楼(近天目西路)"},{"poiid":"B2094753D76DA0FE4892","title":"上海市浦西洲际酒店","lon":"121.456863","lat":"31.243484","category":"500","category_name":"未知分类","address":"上海市 上海市闸北区恒丰500号"},{"poiid":"B2094757D16CA1FD4393","title":"星满天羽毛球馆","lon":"121.453606486","lat":"31.2396057145","category":"500","category_name":"未知分类","address":"静安区西苏州河路53号(近昌平路)"},{"poiid":"B2094654DA6CA5F4409E","title":"帆顺海味馆","lon":"121.45532719303","lat":"31.237192665273","category":"76","category_name":"上海菜","address":"静安区康定路18号(泰兴路口)"},{"poiid":"B2094752DB6BABFE499E","title":"奖门人茶餐厅","lon":"121.45454407","lat":"31.24357215","category":"247","category_name":"餐饮美食","address":"恒丰路392号"},{"poiid":"B2094757D569A0F54399","title":"隆宇国际商务广场","lon":"121.4565118","lat":"31.24302816","category":"46","category_name":"楼宇","address":"中国上海市闸北区恒丰路331"},{"poiid":"B2094654DA6CA3F8419C","title":"博鸿大厦","lon":"121.458","lat":"31.2414","category":"46","category_name":"楼宇","address":"铁西兴华南街与十马路交汇处"},{"poiid":"B2094655D26BA2FA449E","title":"泰兴路","lon":"121.45517","lat":"31.23698","category":"38","category_name":"公交车站","address":""},{"poiid":"B2094757D065A4FA439E","title":"创智联合大厦","lon":"121.456367493","lat":"31.2422866821","category":"46","category_name":"楼宇","address":"上海恒丰路1号"},{"poiid":"B2094757D168A6F54593","title":"港匯","lon":"121.457887738","lat":"31.2426775654","category":"500","category_name":"未知分类","address":"上海虹橋路1號"},{"poiid":"B2094750DA6AA0F4479F","title":"人才大廈","lon":"121.456268","lat":"31.243707","category":"252","category_name":"楼宇机构","address":"梅園路77號"},{"poiid":"B2094757D068A6FE499A","title":"上岛咖啡 恒丰路店 UBC Coffee","lon":"121.457548054","lat":"31.241409793","category":"260","category_name":"其他","address":"闸北区恒丰路218号现代交通商务大厦1楼(近恒通路)"},{"poiid":"B2094655D269A4F44092","title":"上海市禁毒科普教育馆","lon":"121.45742","lat":"31.24193","category":"247","category_name":"餐饮美食","address":"闸北区汉中路188号4楼(近一号线汉中路站)"},{"poiid":"B2094757D16CA7FB419A","title":"COCO壱番屋","lon":"121.45769373","lat":"31.242309557","category":"247","category_name":"餐饮美食","address":"上海市闸北区天目西路251號"},{"poiid":"B2094654DA6CA3FF4992","title":"平安大厦","lon":"121.454","lat":"31.2424","category":"46","category_name":"楼宇","address":"朝阳区天辰东路7号"},{"poiid":"B2094757D068ABFC4598","title":"中国银行(闸北支行)","lon":"121.456748427","lat":"31.2413423699","category":"150","category_name":"银行","address":"闸北区恒丰路218号(恒丰路恒通路)"},{"poiid":"B2094654DB69A5F54599","title":"格林豪泰酒店(一天下店)","lon":"121.45737","lat":"31.24061","category":"216","category_name":"经济型连锁酒店","address":"上海市静安区石门二路505号（近新闸路，恒丰路桥西则）"},{"poiid":"B2094655D265A5F8459B","title":"裕年大厦","lon":"121.45523","lat":"31.24293","category":"46","category_name":"楼宇","address":"闸北区恒丰路普济路"},{"poiid":"B2094655D265A2F94498","title":"东方莱茵","lon":"121.45524","lat":"31.24068","category":"47","category_name":"住宅区","address":"东方莱茵位于闸北汉中路333弄"},{"poiid":"B2094750D76DA5FE459C","title":"海陆坊","lon":"121.456","lat":"31.2424","category":"260","category_name":"其他","address":"闸北区恒丰路288号金水湾大酒店2楼(近汉中路)"},{"poiid":"B2094757D068A5FA459C","title":"时美大厦","lon":"121.458","lat":"31.2408","category":"46","category_name":"楼宇","address":"上海江宁路445号"},{"poiid":"B2094752D26DAAFC459F","title":"粤味王","lon":"121.456878","lat":"31.242805","category":"72","category_name":"广东菜","address":"闸北区恒丰路299号(近汉中路地铁站1号口)"},{"poiid":"B2094655D26DA7FC479C","title":"海杰大酒店(汉中路)","lon":"121.45638","lat":"31.24218","category":"77","category_name":"湖南菜","address":"闸北区恒丰路252号(近汉中路)"},{"poiid":"B2094757D16FA6FC4899","title":"天鼎花園","lon":"121.45361637","lat":"31.241504915","category":"47","category_name":"住宅区","address":"西苏州路65弄19号501"},{"poiid":"B2094654DA6CA3F44299","title":"华通大厦","lon":"121.45270194078","lat":"31.241610662152","category":"46","category_name":"楼宇","address":"华通大厦位于静安西康路618号"},{"poiid":"B2094655D265A7FB429C","title":"天鼎大厦","lon":"121.45327","lat":"31.24039","category":"46","category_name":"楼宇","address":"上海市静安区西苏州路65弄"},{"poiid":"B2094752D16EA2F5449F","title":"上海金钱豹大酒店","lon":"121.453438","lat":"31.238001","category":"247","category_name":"餐饮美食","address":"杨树浦路2866号时尚中心2号门10号楼"},{"poiid":"B2094757D66BABFE4799","title":"秀田餐馆","lon":"121.458522","lat":"31.239362","category":"71","category_name":"四川菜","address":"闸北区恒丰路41号(近恒丰路桥)"},{"poiid":"B2094757D068A7FC409A","title":"全家便利(梅园路店)","lon":"121.45745","lat":"31.24368","category":"117","category_name":"便民商店/便利店","address":"上海闸北区梅园路228号103A室(近共和路)"},{"poiid":"B2094655D26BA0FF499B","title":"联谊西康大厦","lon":"121.453","lat":"31.2412","category":"46","category_name":"楼宇","address":"联谊西康大厦位于静安西康路578号"},{"poiid":"B2094757D06FA2FC489B","title":"顺风大酒店(闸北店)","lon":"121.45687","lat":"31.24103","category":"75","category_name":"浙江菜","address":"闸北区恒丰路218号(近恒通路)"},{"poiid":"B2094757DB6EABFC439E","title":"上海浦西万怡酒店","lon":"121.4557","lat":"31.242499","category":"214","category_name":"四星级宾馆","address":"上海市闸北区恒丰路338号(近普济路)"},{"poiid":"B2094757D06FAAFB429E","title":"上海市青少年活动中心","lon":"121.457574","lat":"31.24188","category":"68","category_name":"快餐厅","address":"闸北区汉中路188号(近一号线汉中路站)"},{"poiid":"B2094753D76FAAFA449C","title":"上海滩国泰旗舰店","lon":"121.466011","lat":"31.216125","category":"249","category_name":"购物服务","address":"淮海中路868号"},{"poiid":"B209475CD564A7F84292","title":"上海滩新天地店","lon":"121.47463","lat":"31.22164","category":"119","category_name":"商场","address":"\"太仓路181弄新天地北里15号\r\n\""},{"poiid":"B209475CD564A7F8439E","title":"上海滩中信泰富店","lon":"121.45602","lat":"31.22851","category":"119","category_name":"商场","address":"\"南京西路1168号中信泰富广场，店铺号221.\r\n\""},{"poiid":"B2094655D36CA7FA4699","title":"汉中路地铁站","lon":"121.45789","lat":"31.24153","category":"36","category_name":"地铁站","address":""},{"poiid":"B2094757D06FABF94899","title":"宝矿洲际商务中心","lon":"121.453241726","lat":"31.2444672929","category":"46","category_name":"楼宇","address":"上海闸北区裕通路100号(恒丰路500号)"},{"poiid":"B2094654DA6CA5FF4592","title":"金水湾大酒店","lon":"121.45592","lat":"31.24237","category":"250","category_name":"公园户外","address":"上海市闸北区恒丰路308号(近汉中路,恒丰路客运站旁)"},{"poiid":"B2094757D168A4FC4098","title":"粤新餐厅","lon":"121.452995586","lat":"31.2370825651","category":"72","category_name":"广东菜","address":"静安区江宁路428号静安体育中心1楼(近艺海剧院)"},{"poiid":"B2094757D06FA2FE4193","title":"企业广场","lon":"121.45718383","lat":"31.243953704","category":"46","category_name":"楼宇","address":"上海梅园路228号。"},{"poiid":"B2094757D069A5FB489E","title":"小南国(不夜城店)","lon":"121.457904538","lat":"31.2428722696","category":"500","category_name":"未知分类","address":"上海梅园路228号企业广场2楼"},{"poiid":"B2094757D06AA1FF439F","title":"梅园路77号4楼","lon":"121.45539831","lat":"31.243213226","category":"500","category_name":"未知分类","address":"上海市外国人就业中心"},{"poiid":"B2094757D068A3FD449D","title":"上海现代交通商务大厦","lon":"121.45674375","lat":"31.241240145","category":"46","category_name":"楼宇","address":"上海恒丰路218号"},{"poiid":"B2094757D06FA2FA4199","title":"Anken Green's Warehouse Cafe","lon":"121.451865","lat":"31.240447","category":"94","category_name":"西餐厅","address":"上海静安区淮安路668号1楼近西苏州路"},{"poiid":"B2094757D06FA5F5479E","title":"星巴克 STARBUCKS (洲际中心店)","lon":"121.4535958","lat":"31.2438824","category":"260","category_name":"其他","address":"闸北区裕通路100号宝矿洲际商务中心1楼(近火车站)"},{"poiid":"B2094757D56DA6F5479A","title":"环智国际大厦","lon":"121.45422220230103","lat":"31.244507776936864","category":"252","category_name":"楼宇机构","address":"上海,上海市,恒丰路436号"},{"poiid":"B2094750DB69A7FC459C","title":"外企德科法签上海中心","lon":"121.45568","lat":"31.243995","category":"252","category_name":"楼宇机构","address":"闸北区恒丰路299号隆宇国际商务大厦8层"},{"poiid":"B2094655D264A7F5439E","title":"上海市出入境服务中心","lon":"121.45747","lat":"31.24186","category":"248","category_name":"生活娱乐","address":"汉中路188号青少年活动中心2楼"},{"poiid":"B2094654DA6CA5FA409F","title":"静安河滨花园","lon":"121.45119","lat":"31.241392","category":"47","category_name":"住宅区","address":"上海市闸北区汉中路333弄"},{"poiid":"B2094750D56FA5F5439D","title":"Wagas","lon":"121.456146","lat":"31.243162","category":"247","category_name":"餐饮美食","address":"闸北区恒丰路410号环智国际大厦1楼(近天目西路)"},{"poiid":"B2094753D76DA0FE4892","title":"上海市浦西洲际酒店","lon":"121.456863","lat":"31.243484","category":"500","category_name":"未知分类","address":"上海市 上海市闸北区恒丰500号"},{"poiid":"B2094757D16CA1FD4393","title":"星满天羽毛球馆","lon":"121.453606486","lat":"31.2396057145","category":"500","category_name":"未知分类","address":"静安区西苏州河路53号(近昌平路)"},{"poiid":"B2094654DA6CA5F4409E","title":"帆顺海味馆","lon":"121.45532719303","lat":"31.237192665273","category":"76","category_name":"上海菜","address":"静安区康定路18号(泰兴路口)"},{"poiid":"B2094752DB6BABFE499E","title":"奖门人茶餐厅","lon":"121.45454407","lat":"31.24357215","category":"247","category_name":"餐饮美食","address":"恒丰路392号"},{"poiid":"B2094757D569A0F54399","title":"隆宇国际商务广场","lon":"121.4565118","lat":"31.24302816","category":"46","category_name":"楼宇","address":"中国上海市闸北区恒丰路331"},{"poiid":"B2094654DA6CA3F8419C","title":"博鸿大厦","lon":"121.458","lat":"31.2414","category":"46","category_name":"楼宇","address":"铁西兴华南街与十马路交汇处"},{"poiid":"B2094655D26BA2FA449E","title":"泰兴路","lon":"121.45517","lat":"31.23698","category":"38","category_name":"公交车站","address":""},{"poiid":"B2094757D065A4FA439E","title":"创智联合大厦","lon":"121.456367493","lat":"31.2422866821","category":"46","category_name":"楼宇","address":"上海恒丰路1号"},{"poiid":"B2094757D168A6F54593","title":"港匯","lon":"121.457887738","lat":"31.2426775654","category":"500","category_name":"未知分类","address":"上海虹橋路1號"},{"poiid":"B2094750DA6AA0F4479F","title":"人才大廈","lon":"121.456268","lat":"31.243707","category":"252","category_name":"楼宇机构","address":"梅園路77號"},{"poiid":"B2094757D068A6FE499A","title":"上岛咖啡 恒丰路店 UBC Coffee","lon":"121.457548054","lat":"31.241409793","category":"260","category_name":"其他","address":"闸北区恒丰路218号现代交通商务大厦1楼(近恒通路)"},{"poiid":"B2094655D269A4F44092","title":"上海市禁毒科普教育馆","lon":"121.45742","lat":"31.24193","category":"247","category_name":"餐饮美食","address":"闸北区汉中路188号4楼(近一号线汉中路站)"},{"poiid":"B2094757D16CA7FB419A","title":"COCO壱番屋","lon":"121.45769373","lat":"31.242309557","category":"247","category_name":"餐饮美食","address":"上海市闸北区天目西路251號"},{"poiid":"B2094654DA6CA3FF4992","title":"平安大厦","lon":"121.454","lat":"31.2424","category":"46","category_name":"楼宇","address":"朝阳区天辰东路7号"},{"poiid":"B2094757D068ABFC4598","title":"中国银行(闸北支行)","lon":"121.456748427","lat":"31.2413423699","category":"150","category_name":"银行","address":"闸北区恒丰路218号(恒丰路恒通路)"},{"poiid":"B2094654DB69A5F54599","title":"格林豪泰酒店(一天下店)","lon":"121.45737","lat":"31.24061","category":"216","category_name":"经济型连锁酒店","address":"上海市静安区石门二路505号（近新闸路，恒丰路桥西则）"},{"poiid":"B2094655D265A5F8459B","title":"裕年大厦","lon":"121.45523","lat":"31.24293","category":"46","category_name":"楼宇","address":"闸北区恒丰路普济路"},{"poiid":"B2094655D265A2F94498","title":"东方莱茵","lon":"121.45524","lat":"31.24068","category":"47","category_name":"住宅区","address":"东方莱茵位于闸北汉中路333弄"},{"poiid":"B2094750D76DA5FE459C","title":"海陆坊","lon":"121.456","lat":"31.2424","category":"260","category_name":"其他","address":"闸北区恒丰路288号金水湾大酒店2楼(近汉中路)"},{"poiid":"B2094757D068A5FA459C","title":"时美大厦","lon":"121.458","lat":"31.2408","category":"46","category_name":"楼宇","address":"上海江宁路445号"},{"poiid":"B2094752D26DAAFC459F","title":"粤味王","lon":"121.456878","lat":"31.242805","category":"72","category_name":"广东菜","address":"闸北区恒丰路299号(近汉中路地铁站1号口)"},{"poiid":"B2094655D26DA7FC479C","title":"海杰大酒店(汉中路)","lon":"121.45638","lat":"31.24218","category":"77","category_name":"湖南菜","address":"闸北区恒丰路252号(近汉中路)"},{"poiid":"B2094757D16FA6FC4899","title":"天鼎花園","lon":"121.45361637","lat":"31.241504915","category":"47","category_name":"住宅区","address":"西苏州路65弄19号501"},{"poiid":"B2094654DA6CA3F44299","title":"华通大厦","lon":"121.45270194078","lat":"31.241610662152","category":"46","category_name":"楼宇","address":"华通大厦位于静安西康路618号"},{"poiid":"B2094655D265A7FB429C","title":"天鼎大厦","lon":"121.45327","lat":"31.24039","category":"46","category_name":"楼宇","address":"上海市静安区西苏州路65弄"},{"poiid":"B2094752D16EA2F5449F","title":"上海金钱豹大酒店","lon":"121.453438","lat":"31.238001","category":"247","category_name":"餐饮美食","address":"杨树浦路2866号时尚中心2号门10号楼"},{"poiid":"B2094757D66BABFE4799","title":"秀田餐馆","lon":"121.458522","lat":"31.239362","category":"71","category_name":"四川菜","address":"闸北区恒丰路41号(近恒丰路桥)"},{"poiid":"B2094757D068A7FC409A","title":"全家便利(梅园路店)","lon":"121.45745","lat":"31.24368","category":"117","category_name":"便民商店/便利店","address":"上海闸北区梅园路228号103A室(近共和路)"},{"poiid":"B2094655D26BA0FF499B","title":"联谊西康大厦","lon":"121.453","lat":"31.2412","category":"46","category_name":"楼宇","address":"联谊西康大厦位于静安西康路578号"}]