[{"poiid":"B2094654DB6AA6F8409C","title":"上海外滩茂悦大酒店","lon":"121.49345","lat":"31.24541","category":"268","category_name":"自助","address":"虹口区黄浦路199号上海外滩茂悦大酒店东楼3楼(黄浦路南浔路)"},{"poiid":"B2094655D26CA4FB4499","title":"上海滩国际大厦","lon":"121.499","lat":"31.2502","category":"46","category_name":"楼宇","address":"丰台学城海鹰路1号,3号"},{"poiid":"B2094757D06FA7FE419F","title":"上海国际港务大厦","lon":"121.49573516","lat":"31.246837616","category":"46","category_name":"楼宇","address":"上海东大名路358号"},{"poiid":"B209475CD564A7F84392","title":"上海滩浦东香格里拉店","lon":"121.50058","lat":"31.23634","category":"119","category_name":"商场","address":"浦东富成路33号香格里拉酒店内大堂层"},{"poiid":"B2094654DA6FA7F8429F","title":"远洋海星旋转餐厅","lon":"121.49625","lat":"31.24696","category":"257","category_name":"中餐厅","address":"虹口区东大名路378号远洋大厦28楼(近旅顺路)"},{"poiid":"B2094757D06AA1FC489E","title":"上海港","lon":"121.497051","lat":"31.247305","category":"500","category_name":"未知分类","address":"上海东大名路500号"},{"poiid":"B2094757D06FA4FE4999","title":"海湾大厦","lon":"121.498","lat":"31.2499","category":"46","category_name":"楼宇","address":"虹口区黄浦路53号(近外白渡桥)"},{"poiid":"B2094757D068A3F5469E","title":"海员医院(东长治路分院)","lon":"121.498129972","lat":"31.250511409","category":"162","category_name":"医院","address":"上海虹口区东长治路505号"},{"poiid":"B2094655D26AAAFA4692","title":"非常时髦餐厅 西餐厅 VUE Restaurant","lon":"121.492828054","lat":"31.244858793","category":"94","category_name":"西餐厅","address":"黄浦路199号上海外滩茂悦大酒店西楼30-31楼近武昌路东大名路"},{"poiid":"B2094757D068A1F44792","title":"hyatt on the bund","lon":"121.49350738","lat":"31.245241165","category":"219","category_name":"其他","address":"上海虹口区黄浦路199号"},{"poiid":"B2094750D26AA6FB489F","title":"北外滩滨江绿地","lon":"121.499412","lat":"31.243846","category":"248","category_name":"生活娱乐","address":"东大名路新建路"},{"poiid":"B2094757D06FA6F54893","title":"上海港国际客运中心","lon":"121.50271","lat":"31.24954","category":"35","category_name":"长途汽车站","address":"虹口区东大名路800号(近高阳路)"},{"poiid":"B2094654DA6FA4F94593","title":"新黄浦金融大厦","lon":"121.495","lat":"31.2443","category":"46","category_name":"楼宇","address":"黄浦区南京东路61号"},{"poiid":"B2094757D06FA3F44092","title":"新建路隧道","lon":"121.49868207","lat":"31.25213545","category":"260","category_name":"其他","address":"上海虹口区新建路-浦东新区陆家嘴环路"},{"poiid":"B2094757D068A3F5429C","title":"香荟","lon":"121.49387","lat":"31.24487","category":"268","category_name":"自助","address":"虹口区黄浦路199号上海外滩茂悦大酒店西楼2楼(近武昌路)"},{"poiid":"B2094757D064A3F8429D","title":"上海建工集团总公司","lon":"121.501623103","lat":"31.2491349775","category":"263","category_name":"公司","address":"上海市虹口区东大名路666号"},{"poiid":"B2094654DB6BA3F8449D","title":"定豪沈家门海鲜酒楼","lon":"121.49484","lat":"31.24854","category":"75","category_name":"浙江菜","address":"虹口区东长治路310号(近溧阳路)"},{"poiid":"B2094655D36CA5FC439A","title":"大名路白渡桥","lon":"121.49374","lat":"31.24626","category":"38","category_name":"公交车站","address":""},{"poiid":"B2094757D068A6F4459F","title":"芳庭海鲜酒店","lon":"121.50299835","lat":"31.25","category":"88","category_name":"海鲜酒楼","address":"虹口区东大名路809号(近高阳路)"},{"poiid":"B2094655D26BA3FD4399","title":"新大陆中国厨房 Xindalu-China Kitchen","lon":"121.492828054","lat":"31.244858793","category":"260","category_name":"其他","address":"虹口区黄浦路199号上海外滩茂悦大酒店东楼大堂(近武昌路)"},{"poiid":"B2094655D36CA6FB4992","title":"东大名路旅顺路","lon":"121.49738","lat":"31.24778","category":"38","category_name":"公交车站","address":""},{"poiid":"B2094752D66FAAFA439A","title":"Kathleen Waitan","lon":"121.494514","lat":"31.245559","category":"247","category_name":"餐饮美食","address":"黄浦路200号"},{"poiid":"B2094655D268A7FF449E","title":"上海北外滩白玉兰广场","lon":"121.49682","lat":"31.24851","category":"119","category_name":"商场","address":""},{"poiid":"B2094757D06BA4FC459F","title":"美年体检","lon":"121.49821","lat":"31.250433","category":"162","category_name":"医院","address":"虹口区东长治路505号"},{"poiid":"B2094655D268A7F5489F","title":"汉庭酒店（外滩外白渡桥店）","lon":"121.49462","lat":"31.24575","category":"216","category_name":"经济型连锁酒店","address":"上海虹口区黄浦路200号A(近外白渡桥)  "},{"poiid":"B2094655D26BABFF4098","title":"名江七星城","lon":"121.49435","lat":"31.251509","category":"47","category_name":"住宅区","address":"上海市虹口区东汉阳路309弄"},{"poiid":"B2094757D068A2F84593","title":"白金府邸","lon":"121.49451","lat":"31.250563","category":"252","category_name":"楼宇机构","address":"虹口区旅顺路199弄"},{"poiid":"B2094655D26BA2F9479E","title":"唐山路新建路","lon":"121.49753","lat":"31.25193","category":"38","category_name":"公交车站","address":""},{"poiid":"B2094752D069A2FF419A","title":"新白鹿","lon":"121.4996283","lat":"31.2488492","category":"247","category_name":"餐饮美食","address":"南京东路800号东方商厦9楼"},{"poiid":"B2094750DB6EA6F8429A","title":"上海苏荷国际青年旅舍外滩店","lon":"121.494377","lat":"31.244222","category":"251","category_name":"出行住宿","address":"虹口区大名路239号(近南浔路)"},{"poiid":"B2094752D36BABF8459D","title":"星巴克(国际港务大厦店)","lon":"121.49583","lat":"31.2467","category":"247","category_name":"餐饮美食","address":"虹口区东大名路358号国际港务大厦内(近太平路)"},{"poiid":"B2094757D06AA7FA409D","title":"东长治路","lon":"121.5008371","lat":"31.250816012","category":"500","category_name":"未知分类","address":"上海东长治路"},{"poiid":"B2094757D069A4FB4792","title":"小红楼","lon":"121.49729584","lat":"31.247755583","category":"46","category_name":"楼宇","address":"上海东大名路388号"},{"poiid":"B2094655D26BA1FB479F","title":"旅顺路","lon":"121.49766","lat":"31.24784","category":"38","category_name":"公交车站","address":""},{"poiid":"B2094757D06AA3FF499C","title":"中国海运","lon":"121.50300508","lat":"31.249953241","category":"46","category_name":"楼宇","address":"上海东大名路700号"},{"poiid":"B2094757DA69A1FC4098","title":"皇家加勒比国际游轮","lon":"121.49591","lat":"31.24677","category":"254","category_name":"售票处","address":"东大名路358号国际港务大厦"},{"poiid":"B209475CD36CA3F5439D","title":"远洋海皇","lon":"121.49665","lat":"31.24716","category":"76","category_name":"上海菜","address":"东大名路378号远洋大厦28楼(近旅顺路)"},{"poiid":"B2094757D16AA3F94698","title":"上港花园","lon":"121.49710173","lat":"31.247776974","category":"47","category_name":"住宅区","address":"虹口区东大名路358号"},{"poiid":"B2094655D264A5F94099","title":"中国移动通信国客中心营业厅","lon":"121.4988","lat":"31.24843","category":"151","category_name":"电讯营业厅","address":"东大名路500号B1层28室候船大厅内"},{"poiid":"B2094757D065A5FC459E","title":"外滩隧道长治路出口","lon":"121.493142","lat":"31.247588","category":"500","category_name":"未知分类","address":"上海长治路塘沽路"},{"poiid":"B2094655D36CA6F4439C","title":"东长治路旅顺路","lon":"121.49693","lat":"31.24975","category":"38","category_name":"公交车站","address":""},{"poiid":"B2094654D56DABFD499D","title":"上海海员医院体检中心","lon":"121.49774","lat":"31.25025","category":"162","category_name":"医院","address":"提篮桥"},{"poiid":"B2094757D068A3F5479F","title":"和泰玫瑰园","lon":"121.50043","lat":"31.251926","category":"500","category_name":"未知分类","address":"和泰玫瑰园位于虹口东长治路655号"},{"poiid":"B2094757D66EABF84792","title":"广东煲仔饭","lon":"121.496249738","lat":"31.2477826742","category":"247","category_name":"餐饮美食","address":"上海市虹口区塘沽路153号"},{"poiid":"B2094753D165AAFA489E","title":"黄浦江上","lon":"121.497714","lat":"31.248992","category":"500","category_name":"未知分类","address":"上海市 黄浦江"},{"poiid":"B2094655D26FA1F9499A","title":"会议厅","lon":"121.49597","lat":"31.2473","category":"185","category_name":"会展中心","address":"东大名路359号4层"},{"poiid":"B2094757DA6EABF84393","title":"宝钢资源大厦","lon":"121.499366700002","lat":"31.2487691999997","category":"252","category_name":"楼宇机构","address":"虹口区东大名路568号"},{"poiid":"B2094757D06BA3F44599","title":"英腾国际健身中心","lon":"121.4947","lat":"31.25091","category":"148","category_name":"美容美发店","address":"虹口区东汉阳路309弄17号名江七星城会所(近宇泰公寓)"},{"poiid":"B2094655D26FA4FA4292","title":"上海国际港务大厦(北门)","lon":"121.49592","lat":"31.24692","category":"49","category_name":"无中心点楼宇大门","address":"东大名路358号"},{"poiid":"B2094654D56DA4F5429B","title":"京世造型·美容(东汉阳路)","lon":"121.49536","lat":"31.25139","category":"148","category_name":"美容美发店","address":""},{"poiid":"B2094654DB6AA6F8409C","title":"上海外滩茂悦大酒店","lon":"121.49345","lat":"31.24541","category":"268","category_name":"自助","address":"虹口区黄浦路199号上海外滩茂悦大酒店东楼3楼(黄浦路南浔路)"},{"poiid":"B2094655D26CA4FB4499","title":"上海滩国际大厦","lon":"121.499","lat":"31.2502","category":"46","category_name":"楼宇","address":"丰台学城海鹰路1号,3号"},{"poiid":"B2094757D06FA7FE419F","title":"上海国际港务大厦","lon":"121.49573516","lat":"31.246837616","category":"46","category_name":"楼宇","address":"上海东大名路358号"},{"poiid":"B209475CD564A7F84392","title":"上海滩浦东香格里拉店","lon":"121.50058","lat":"31.23634","category":"119","category_name":"商场","address":"浦东富成路33号香格里拉酒店内大堂层"},{"poiid":"B2094654DA6FA7F8429F","title":"远洋海星旋转餐厅","lon":"121.49625","lat":"31.24696","category":"257","category_name":"中餐厅","address":"虹口区东大名路378号远洋大厦28楼(近旅顺路)"},{"poiid":"B2094757D06AA1FC489E","title":"上海港","lon":"121.497051","lat":"31.247305","category":"500","category_name":"未知分类","address":"上海东大名路500号"},{"poiid":"B2094757D06FA4FE4999","title":"海湾大厦","lon":"121.498","lat":"31.2499","category":"46","category_name":"楼宇","address":"虹口区黄浦路53号(近外白渡桥)"},{"poiid":"B2094757D068A3F5469E","title":"海员医院(东长治路分院)","lon":"121.498129972","lat":"31.250511409","category":"162","category_name":"医院","address":"上海虹口区东长治路505号"},{"poiid":"B2094655D26AAAFA4692","title":"非常时髦餐厅 西餐厅 VUE Restaurant","lon":"121.492828054","lat":"31.244858793","category":"94","category_name":"西餐厅","address":"黄浦路199号上海外滩茂悦大酒店西楼30-31楼近武昌路东大名路"},{"poiid":"B2094757D068A1F44792","title":"hyatt on the bund","lon":"121.49350738","lat":"31.245241165","category":"219","category_name":"其他","address":"上海虹口区黄浦路199号"},{"poiid":"B2094750D26AA6FB489F","title":"北外滩滨江绿地","lon":"121.499412","lat":"31.243846","category":"248","category_name":"生活娱乐","address":"东大名路新建路"},{"poiid":"B2094757D06FA6F54893","title":"上海港国际客运中心","lon":"121.50271","lat":"31.24954","category":"35","category_name":"长途汽车站","address":"虹口区东大名路800号(近高阳路)"},{"poiid":"B2094654DA6FA4F94593","title":"新黄浦金融大厦","lon":"121.495","lat":"31.2443","category":"46","category_name":"楼宇","address":"黄浦区南京东路61号"},{"poiid":"B2094757D06FA3F44092","title":"新建路隧道","lon":"121.49868207","lat":"31.25213545","category":"260","category_name":"其他","address":"上海虹口区新建路-浦东新区陆家嘴环路"},{"poiid":"B2094757D068A3F5429C","title":"香荟","lon":"121.49387","lat":"31.24487","category":"268","category_name":"自助","address":"虹口区黄浦路199号上海外滩茂悦大酒店西楼2楼(近武昌路)"},{"poiid":"B2094757D064A3F8429D","title":"上海建工集团总公司","lon":"121.501623103","lat":"31.2491349775","category":"263","category_name":"公司","address":"上海市虹口区东大名路666号"},{"poiid":"B2094654DB6BA3F8449D","title":"定豪沈家门海鲜酒楼","lon":"121.49484","lat":"31.24854","category":"75","category_name":"浙江菜","address":"虹口区东长治路310号(近溧阳路)"},{"poiid":"B2094655D36CA5FC439A","title":"大名路白渡桥","lon":"121.49374","lat":"31.24626","category":"38","category_name":"公交车站","address":""},{"poiid":"B2094757D068A6F4459F","title":"芳庭海鲜酒店","lon":"121.50299835","lat":"31.25","category":"88","category_name":"海鲜酒楼","address":"虹口区东大名路809号(近高阳路)"},{"poiid":"B2094655D26BA3FD4399","title":"新大陆中国厨房 Xindalu-China Kitchen","lon":"121.492828054","lat":"31.244858793","category":"260","category_name":"其他","address":"虹口区黄浦路199号上海外滩茂悦大酒店东楼大堂(近武昌路)"},{"poiid":"B2094655D36CA6FB4992","title":"东大名路旅顺路","lon":"121.49738","lat":"31.24778","category":"38","category_name":"公交车站","address":""},{"poiid":"B2094752D66FAAFA439A","title":"Kathleen Waitan","lon":"121.494514","lat":"31.245559","category":"247","category_name":"餐饮美食","address":"黄浦路200号"},{"poiid":"B2094655D268A7FF449E","title":"上海北外滩白玉兰广场","lon":"121.49682","lat":"31.24851","category":"119","category_name":"商场","address":""},{"poiid":"B2094757D06BA4FC459F","title":"美年体检","lon":"121.49821","lat":"31.250433","category":"162","category_name":"医院","address":"虹口区东长治路505号"},{"poiid":"B2094655D268A7F5489F","title":"汉庭酒店（外滩外白渡桥店）","lon":"121.49462","lat":"31.24575","category":"216","category_name":"经济型连锁酒店","address":"上海虹口区黄浦路200号A(近外白渡桥)  "},{"poiid":"B2094655D26BABFF4098","title":"名江七星城","lon":"121.49435","lat":"31.251509","category":"47","category_name":"住宅区","address":"上海市虹口区东汉阳路309弄"},{"poiid":"B2094757D068A2F84593","title":"白金府邸","lon":"121.49451","lat":"31.250563","category":"252","category_name":"楼宇机构","address":"虹口区旅顺路199弄"},{"poiid":"B2094655D26BA2F9479E","title":"唐山路新建路","lon":"121.49753","lat":"31.25193","category":"38","category_name":"公交车站","address":""},{"poiid":"B2094752D069A2FF419A","title":"新白鹿","lon":"121.4996283","lat":"31.2488492","category":"247","category_name":"餐饮美食","address":"南京东路800号东方商厦9楼"},{"poiid":"B2094750DB6EA6F8429A","title":"上海苏荷国际青年旅舍外滩店","lon":"121.494377","lat":"31.244222","category":"251","category_name":"出行住宿","address":"虹口区大名路239号(近南浔路)"},{"poiid":"B2094752D36BABF8459D","title":"星巴克(国际港务大厦店)","lon":"121.49583","lat":"31.2467","category":"247","category_name":"餐饮美食","address":"虹口区东大名路358号国际港务大厦内(近太平路)"},{"poiid":"B2094757D06AA7FA409D","title":"东长治路","lon":"121.5008371","lat":"31.250816012","category":"500","category_name":"未知分类","address":"上海东长治路"},{"poiid":"B2094757D069A4FB4792","title":"小红楼","lon":"121.49729584","lat":"31.247755583","category":"46","category_name":"楼宇","address":"上海东大名路388号"},{"poiid":"B2094655D26BA1FB479F","title":"旅顺路","lon":"121.49766","lat":"31.24784","category":"38","category_name":"公交车站","address":""},{"poiid":"B2094757D06AA3FF499C","title":"中国海运","lon":"121.50300508","lat":"31.249953241","category":"46","category_name":"楼宇","address":"上海东大名路700号"},{"poiid":"B2094757DA69A1FC4098","title":"皇家加勒比国际游轮","lon":"121.49591","lat":"31.24677","category":"254","category_name":"售票处","address":"东大名路358号国际港务大厦"},{"poiid":"B209475CD36CA3F5439D","title":"远洋海皇","lon":"121.49665","lat":"31.24716","category":"76","category_name":"上海菜","address":"东大名路378号远洋大厦28楼(近旅顺路)"},{"poiid":"B2094757D16AA3F94698","title":"上港花园","lon":"121.49710173","lat":"31.247776974","category":"47","category_name":"住宅区","address":"虹口区东大名路358号"},{"poiid":"B2094655D264A5F94099","title":"中国移动通信国客中心营业厅","lon":"121.4988","lat":"31.24843","category":"151","category_name":"电讯营业厅","address":"东大名路500号B1层28室候船大厅内"},{"poiid":"B2094757D065A5FC459E","title":"外滩隧道长治路出口","lon":"121.493142","lat":"31.247588","category":"500","category_name":"未知分类","address":"上海长治路塘沽路"},{"poiid":"B2094655D36CA6F4439C","title":"东长治路旅顺路","lon":"121.49693","lat":"31.24975","category":"38","category_name":"公交车站","address":""},{"poiid":"B2094654D56DABFD499D","title":"上海海员医院体检中心","lon":"121.49774","lat":"31.25025","category":"162","category_name":"医院","address":"提篮桥"},{"poiid":"B2094757D068A3F5479F","title":"和泰玫瑰园","lon":"121.50043","lat":"31.251926","category":"500","category_name":"未知分类","address":"和泰玫瑰园位于虹口东长治路655号"},{"poiid":"B2094757D66EABF84792","title":"广东煲仔饭","lon":"121.496249738","lat":"31.2477826742","category":"247","category_name":"餐饮美食","address":"上海市虹口区塘沽路153号"},{"poiid":"B2094753D165AAFA489E","title":"黄浦江上","lon":"121.497714","lat":"31.248992","category":"500","category_name":"未知分类","address":"上海市 黄浦江"},{"poiid":"B2094655D26FA1F9499A","title":"会议厅","lon":"121.49597","lat":"31.2473","category":"185","category_name":"会展中心","address":"东大名路359号4层"},{"poiid":"B2094757DA6EABF84393","title":"宝钢资源大厦","lon":"121.499366700002","lat":"31.2487691999997","category":"252","category_name":"楼宇机构","address":"虹口区东大名路568号"},{"poiid":"B2094757D06BA3F44599","title":"英腾国际健身中心","lon":"121.4947","lat":"31.25091","category":"148","category_name":"美容美发店","address":"虹口区东汉阳路309弄17号名江七星城会所(近宇泰公寓)"},{"poiid":"B2094655D26FA4FA4292","title":"上海国际港务大厦(北门)","lon":"121.49592","lat":"31.24692","category":"49","category_name":"无中心点楼宇大门","address":"东大名路358号"},{"poiid":"B2094654D56DA4F5429B","title":"京世造型·美容(东汉阳路)","lon":"121.49536","lat":"31.25139","category":"148","category_name":"美容美发店","address":""},{"poiid":"B2094654DB6AA6F8409C","title":"上海外滩茂悦大酒店","lon":"121.49345","lat":"31.24541","category":"268","category_name":"自助","address":"虹口区黄浦路199号上海外滩茂悦大酒店东楼3楼(黄浦路南浔路)"},{"poiid":"B2094655D26CA4FB4499","title":"上海滩国际大厦","lon":"121.499","lat":"31.2502","category":"46","category_name":"楼宇","address":"丰台学城海鹰路1号,3号"},{"poiid":"B2094757D06FA7FE419F","title":"上海国际港务大厦","lon":"121.49573516","lat":"31.246837616","category":"46","category_name":"楼宇","address":"上海东大名路358号"},{"poiid":"B209475CD564A7F84392","title":"上海滩浦东香格里拉店","lon":"121.50058","lat":"31.23634","category":"119","category_name":"商场","address":"浦东富成路33号香格里拉酒店内大堂层"},{"poiid":"B2094654DA6FA7F8429F","title":"远洋海星旋转餐厅","lon":"121.49625","lat":"31.24696","category":"257","category_name":"中餐厅","address":"虹口区东大名路378号远洋大厦28楼(近旅顺路)"},{"poiid":"B2094757D06AA1FC489E","title":"上海港","lon":"121.497051","lat":"31.247305","category":"500","category_name":"未知分类","address":"上海东大名路500号"},{"poiid":"B2094757D06FA4FE4999","title":"海湾大厦","lon":"121.498","lat":"31.2499","category":"46","category_name":"楼宇","address":"虹口区黄浦路53号(近外白渡桥)"},{"poiid":"B2094757D068A3F5469E","title":"海员医院(东长治路分院)","lon":"121.498129972","lat":"31.250511409","category":"162","category_name":"医院","address":"上海虹口区东长治路505号"},{"poiid":"B2094655D26AAAFA4692","title":"非常时髦餐厅 西餐厅 VUE Restaurant","lon":"121.492828054","lat":"31.244858793","category":"94","category_name":"西餐厅","address":"黄浦路199号上海外滩茂悦大酒店西楼30-31楼近武昌路东大名路"},{"poiid":"B2094757D068A1F44792","title":"hyatt on the bund","lon":"121.49350738","lat":"31.245241165","category":"219","category_name":"其他","address":"上海虹口区黄浦路199号"},{"poiid":"B2094750D26AA6FB489F","title":"北外滩滨江绿地","lon":"121.499412","lat":"31.243846","category":"248","category_name":"生活娱乐","address":"东大名路新建路"},{"poiid":"B2094757D06FA6F54893","title":"上海港国际客运中心","lon":"121.50271","lat":"31.24954","category":"35","category_name":"长途汽车站","address":"虹口区东大名路800号(近高阳路)"},{"poiid":"B2094654DA6FA4F94593","title":"新黄浦金融大厦","lon":"121.495","lat":"31.2443","category":"46","category_name":"楼宇","address":"黄浦区南京东路61号"},{"poiid":"B2094757D06FA3F44092","title":"新建路隧道","lon":"121.49868207","lat":"31.25213545","category":"260","category_name":"其他","address":"上海虹口区新建路-浦东新区陆家嘴环路"},{"poiid":"B2094757D068A3F5429C","title":"香荟","lon":"121.49387","lat":"31.24487","category":"268","category_name":"自助","address":"虹口区黄浦路199号上海外滩茂悦大酒店西楼2楼(近武昌路)"},{"poiid":"B2094757D064A3F8429D","title":"上海建工集团总公司","lon":"121.501623103","lat":"31.2491349775","category":"263","category_name":"公司","address":"上海市虹口区东大名路666号"},{"poiid":"B2094654DB6BA3F8449D","title":"定豪沈家门海鲜酒楼","lon":"121.49484","lat":"31.24854","category":"75","category_name":"浙江菜","address":"虹口区东长治路310号(近溧阳路)"},{"poiid":"B2094655D36CA5FC439A","title":"大名路白渡桥","lon":"121.49374","lat":"31.24626","category":"38","category_name":"公交车站","address":""},{"poiid":"B2094757D068A6F4459F","title":"芳庭海鲜酒店","lon":"121.50299835","lat":"31.25","category":"88","category_name":"海鲜酒楼","address":"虹口区东大名路809号(近高阳路)"},{"poiid":"B2094655D26BA3FD4399","title":"新大陆中国厨房 Xindalu-China Kitchen","lon":"121.492828054","lat":"31.244858793","category":"260","category_name":"其他","address":"虹口区黄浦路199号上海外滩茂悦大酒店东楼大堂(近武昌路)"},{"poiid":"B2094655D36CA6FB4992","title":"东大名路旅顺路","lon":"121.49738","lat":"31.24778","category":"38","category_name":"公交车站","address":""},{"poiid":"B2094752D66FAAFA439A","title":"Kathleen Waitan","lon":"121.494514","lat":"31.245559","category":"247","category_name":"餐饮美食","address":"黄浦路200号"},{"poiid":"B2094655D268A7FF449E","title":"上海北外滩白玉兰广场","lon":"121.49682","lat":"31.24851","category":"119","category_name":"商场","address":""},{"poiid":"B2094757D06BA4FC459F","title":"美年体检","lon":"121.49821","lat":"31.250433","category":"162","category_name":"医院","address":"虹口区东长治路505号"},{"poiid":"B2094655D268A7F5489F","title":"汉庭酒店（外滩外白渡桥店）","lon":"121.49462","lat":"31.24575","category":"216","category_name":"经济型连锁酒店","address":"上海虹口区黄浦路200号A(近外白渡桥)  "},{"poiid":"B2094655D26BABFF4098","title":"名江七星城","lon":"121.49435","lat":"31.251509","category":"47","category_name":"住宅区","address":"上海市虹口区东汉阳路309弄"},{"poiid":"B2094757D068A2F84593","title":"白金府邸","lon":"121.49451","lat":"31.250563","category":"252","category_name":"楼宇机构","address":"虹口区旅顺路199弄"},{"poiid":"B2094655D26BA2F9479E","title":"唐山路新建路","lon":"121.49753","lat":"31.25193","category":"38","category_name":"公交车站","address":""},{"poiid":"B2094752D069A2FF419A","title":"新白鹿","lon":"121.4996283","lat":"31.2488492","category":"247","category_name":"餐饮美食","address":"南京东路800号东方商厦9楼"},{"poiid":"B2094750DB6EA6F8429A","title":"上海苏荷国际青年旅舍外滩店","lon":"121.494377","lat":"31.244222","category":"251","category_name":"出行住宿","address":"虹口区大名路239号(近南浔路)"},{"poiid":"B2094752D36BABF8459D","title":"星巴克(国际港务大厦店)","lon":"121.49583","lat":"31.2467","category":"247","category_name":"餐饮美食","address":"虹口区东大名路358号国际港务大厦内(近太平路)"},{"poiid":"B2094757D06AA7FA409D","title":"东长治路","lon":"121.5008371","lat":"31.250816012","category":"500","category_name":"未知分类","address":"上海东长治路"},{"poiid":"B2094757D069A4FB4792","title":"小红楼","lon":"121.49729584","lat":"31.247755583","category":"46","category_name":"楼宇","address":"上海东大名路388号"},{"poiid":"B2094655D26BA1FB479F","title":"旅顺路","lon":"121.49766","lat":"31.24784","category":"38","category_name":"公交车站","address":""},{"poiid":"B2094757D06AA3FF499C","title":"中国海运","lon":"121.50300508","lat":"31.249953241","category":"46","category_name":"楼宇","address":"上海东大名路700号"},{"poiid":"B2094757DA69A1FC4098","title":"皇家加勒比国际游轮","lon":"121.49591","lat":"31.24677","category":"254","category_name":"售票处","address":"东大名路358号国际港务大厦"},{"poiid":"B209475CD36CA3F5439D","title":"远洋海皇","lon":"121.49665","lat":"31.24716","category":"76","category_name":"上海菜","address":"东大名路378号远洋大厦28楼(近旅顺路)"},{"poiid":"B2094757D16AA3F94698","title":"上港花园","lon":"121.49710173","lat":"31.247776974","category":"47","category_name":"住宅区","address":"虹口区东大名路358号"},{"poiid":"B2094655D264A5F94099","title":"中国移动通信国客中心营业厅","lon":"121.4988","lat":"31.24843","category":"151","category_name":"电讯营业厅","address":"东大名路500号B1层28室候船大厅内"},{"poiid":"B2094757D065A5FC459E","title":"外滩隧道长治路出口","lon":"121.493142","lat":"31.247588","category":"500","category_name":"未知分类","address":"上海长治路塘沽路"},{"poiid":"B2094655D36CA6F4439C","title":"东长治路旅顺路","lon":"121.49693","lat":"31.24975","category":"38","category_name":"公交车站","address":""},{"poiid":"B2094654D56DABFD499D","title":"上海海员医院体检中心","lon":"121.49774","lat":"31.25025","category":"162","category_name":"医院","address":"提篮桥"},{"poiid":"B2094757D068A3F5479F","title":"和泰玫瑰园","lon":"121.50043","lat":"31.251926","category":"500","category_name":"未知分类","address":"和泰玫瑰园位于虹口东长治路655号"},{"poiid":"B2094757D66EABF84792","title":"广东煲仔饭","lon":"121.496249738","lat":"31.2477826742","category":"247","category_name":"餐饮美食","address":"上海市虹口区塘沽路153号"},{"poiid":"B2094753D165AAFA489E","title":"黄浦江上","lon":"121.497714","lat":"31.248992","category":"500","category_name":"未知分类","address":"上海市 黄浦江"},{"poiid":"B2094655D26FA1F9499A","title":"会议厅","lon":"121.49597","lat":"31.2473","category":"185","category_name":"会展中心","address":"东大名路359号4层"},{"poiid":"B2094757DA6EABF84393","title":"宝钢资源大厦","lon":"121.499366700002","lat":"31.2487691999997","category":"252","category_name":"楼宇机构","address":"虹口区东大名路568号"},{"poiid":"B2094757D06BA3F44599","title":"英腾国际健身中心","lon":"121.4947","lat":"31.25091","category":"148","category_name":"美容美发店","address":"虹口区东汉阳路309弄17号名江七星城会所(近宇泰公寓)"},{"poiid":"B2094655D26FA4FA4292","title":"上海国际港务大厦(北门)","lon":"121.49592","lat":"31.24692","category":"49","category_name":"无中心点楼宇大门","address":"东大名路358号"},{"poiid":"B2094654D56DA4F5429B","title":"京世造型·美容(东汉阳路)","lon":"121.49536","lat":"31.25139","category":"148","category_name":"美容美发店","address":""},{"poiid":"B2094654DB6AA6F8409C","title":"上海外滩茂悦大酒店","lon":"121.49345","lat":"31.24541","category":"268","category_name":"自助","address":"虹口区黄浦路199号上海外滩茂悦大酒店东楼3楼(黄浦路南浔路)"},{"poiid":"B2094655D26CA4FB4499","title":"上海滩国际大厦","lon":"121.499","lat":"31.2502","category":"46","category_name":"楼宇","address":"丰台学城海鹰路1号,3号"},{"poiid":"B2094757D06FA7FE419F","title":"上海国际港务大厦","lon":"121.49573516","lat":"31.246837616","category":"46","category_name":"楼宇","address":"上海东大名路358号"},{"poiid":"B209475CD564A7F84392","title":"上海滩浦东香格里拉店","lon":"121.50058","lat":"31.23634","category":"119","category_name":"商场","address":"浦东富成路33号香格里拉酒店内大堂层"},{"poiid":"B2094654DA6FA7F8429F","title":"远洋海星旋转餐厅","lon":"121.49625","lat":"31.24696","category":"257","category_name":"中餐厅","address":"虹口区东大名路378号远洋大厦28楼(近旅顺路)"},{"poiid":"B2094757D06AA1FC489E","title":"上海港","lon":"121.497051","lat":"31.247305","category":"500","category_name":"未知分类","address":"上海东大名路500号"},{"poiid":"B2094757D06FA4FE4999","title":"海湾大厦","lon":"121.498","lat":"31.2499","category":"46","category_name":"楼宇","address":"虹口区黄浦路53号(近外白渡桥)"},{"poiid":"B2094757D068A3F5469E","title":"海员医院(东长治路分院)","lon":"121.498129972","lat":"31.250511409","category":"162","category_name":"医院","address":"上海虹口区东长治路505号"},{"poiid":"B2094655D26AAAFA4692","title":"非常时髦餐厅 西餐厅 VUE Restaurant","lon":"121.492828054","lat":"31.244858793","category":"94","category_name":"西餐厅","address":"黄浦路199号上海外滩茂悦大酒店西楼30-31楼近武昌路东大名路"},{"poiid":"B2094757D068A1F44792","title":"hyatt on the bund","lon":"121.49350738","lat":"31.245241165","category":"219","category_name":"其他","address":"上海虹口区黄浦路199号"},{"poiid":"B2094750D26AA6FB489F","title":"北外滩滨江绿地","lon":"121.499412","lat":"31.243846","category":"248","category_name":"生活娱乐","address":"东大名路新建路"},{"poiid":"B2094757D06FA6F54893","title":"上海港国际客运中心","lon":"121.50271","lat":"31.24954","category":"35","category_name":"长途汽车站","address":"虹口区东大名路800号(近高阳路)"},{"poiid":"B2094654DA6FA4F94593","title":"新黄浦金融大厦","lon":"121.495","lat":"31.2443","category":"46","category_name":"楼宇","address":"黄浦区南京东路61号"},{"poiid":"B2094757D06FA3F44092","title":"新建路隧道","lon":"121.49868207","lat":"31.25213545","category":"260","category_name":"其他","address":"上海虹口区新建路-浦东新区陆家嘴环路"},{"poiid":"B2094757D068A3F5429C","title":"香荟","lon":"121.49387","lat":"31.24487","category":"268","category_name":"自助","address":"虹口区黄浦路199号上海外滩茂悦大酒店西楼2楼(近武昌路)"},{"poiid":"B2094757D064A3F8429D","title":"上海建工集团总公司","lon":"121.501623103","lat":"31.2491349775","category":"263","category_name":"公司","address":"上海市虹口区东大名路666号"},{"poiid":"B2094654DB6BA3F8449D","title":"定豪沈家门海鲜酒楼","lon":"121.49484","lat":"31.24854","category":"75","category_name":"浙江菜","address":"虹口区东长治路310号(近溧阳路)"},{"poiid":"B2094655D36CA5FC439A","title":"大名路白渡桥","lon":"121.49374","lat":"31.24626","category":"38","category_name":"公交车站","address":""},{"poiid":"B2094757D068A6F4459F","title":"芳庭海鲜酒店","lon":"121.50299835","lat":"31.25","category":"88","category_name":"海鲜酒楼","address":"虹口区东大名路809号(近高阳路)"},{"poiid":"B2094655D26BA3FD4399","title":"新大陆中国厨房 Xindalu-China Kitchen","lon":"121.492828054","lat":"31.244858793","category":"260","category_name":"其他","address":"虹口区黄浦路199号上海外滩茂悦大酒店东楼大堂(近武昌路)"},{"poiid":"B2094655D36CA6FB4992","title":"东大名路旅顺路","lon":"121.49738","lat":"31.24778","category":"38","category_name":"公交车站","address":""},{"poiid":"B2094752D66FAAFA439A","title":"Kathleen Waitan","lon":"121.494514","lat":"31.245559","category":"247","category_name":"餐饮美食","address":"黄浦路200号"},{"poiid":"B2094655D268A7FF449E","title":"上海北外滩白玉兰广场","lon":"121.49682","lat":"31.24851","category":"119","category_name":"商场","address":""},{"poiid":"B2094757D06BA4FC459F","title":"美年体检","lon":"121.49821","lat":"31.250433","category":"162","category_name":"医院","address":"虹口区东长治路505号"},{"poiid":"B2094655D268A7F5489F","title":"汉庭酒店（外滩外白渡桥店）","lon":"121.49462","lat":"31.24575","category":"216","category_name":"经济型连锁酒店","address":"上海虹口区黄浦路200号A(近外白渡桥)  "},{"poiid":"B2094655D26BABFF4098","title":"名江七星城","lon":"121.49435","lat":"31.251509","category":"47","category_name":"住宅区","address":"上海市虹口区东汉阳路309弄"},{"poiid":"B2094757D068A2F84593","title":"白金府邸","lon":"121.49451","lat":"31.250563","category":"252","category_name":"楼宇机构","address":"虹口区旅顺路199弄"},{"poiid":"B2094655D26BA2F9479E","title":"唐山路新建路","lon":"121.49753","lat":"31.25193","category":"38","category_name":"公交车站","address":""},{"poiid":"B2094752D069A2FF419A","title":"新白鹿","lon":"121.4996283","lat":"31.2488492","category":"247","category_name":"餐饮美食","address":"南京东路800号东方商厦9楼"},{"poiid":"B2094750DB6EA6F8429A","title":"上海苏荷国际青年旅舍外滩店","lon":"121.494377","lat":"31.244222","category":"251","category_name":"出行住宿","address":"虹口区大名路239号(近南浔路)"},{"poiid":"B2094752D36BABF8459D","title":"星巴克(国际港务大厦店)","lon":"121.49583","lat":"31.2467","category":"247","category_name":"餐饮美食","address":"虹口区东大名路358号国际港务大厦内(近太平路)"},{"poiid":"B2094757D06AA7FA409D","title":"东长治路","lon":"121.5008371","lat":"31.250816012","category":"500","category_name":"未知分类","address":"上海东长治路"},{"poiid":"B2094757D069A4FB4792","title":"小红楼","lon":"121.49729584","lat":"31.247755583","category":"46","category_name":"楼宇","address":"上海东大名路388号"},{"poiid":"B2094655D26BA1FB479F","title":"旅顺路","lon":"121.49766","lat":"31.24784","category":"38","category_name":"公交车站","address":""},{"poiid":"B2094757D06AA3FF499C","title":"中国海运","lon":"121.50300508","lat":"31.249953241","category":"46","category_name":"楼宇","address":"上海东大名路700号"},{"poiid":"B2094757DA69A1FC4098","title":"皇家加勒比国际游轮","lon":"121.49591","lat":"31.24677","category":"254","category_name":"售票处","address":"东大名路358号国际港务大厦"},{"poiid":"B209475CD36CA3F5439D","title":"远洋海皇","lon":"121.49665","lat":"31.24716","category":"76","category_name":"上海菜","address":"东大名路378号远洋大厦28楼(近旅顺路)"},{"poiid":"B2094757D16AA3F94698","title":"上港花园","lon":"121.49710173","lat":"31.247776974","category":"47","category_name":"住宅区","address":"虹口区东大名路358号"},{"poiid":"B2094655D264A5F94099","title":"中国移动通信国客中心营业厅","lon":"121.4988","lat":"31.24843","category":"151","category_name":"电讯营业厅","address":"东大名路500号B1层28室候船大厅内"},{"poiid":"B2094757D065A5FC459E","title":"外滩隧道长治路出口","lon":"121.493142","lat":"31.247588","category":"500","category_name":"未知分类","address":"上海长治路塘沽路"},{"poiid":"B2094655D36CA6F4439C","title":"东长治路旅顺路","lon":"121.49693","lat":"31.24975","category":"38","category_name":"公交车站","address":""},{"poiid":"B2094654D56DABFD499D","title":"上海海员医院体检中心","lon":"121.49774","lat":"31.25025","category":"162","category_name":"医院","address":"提篮桥"},{"poiid":"B2094757D068A3F5479F","title":"和泰玫瑰园","lon":"121.50043","lat":"31.251926","category":"500","category_name":"未知分类","address":"和泰玫瑰园位于虹口东长治路655号"},{"poiid":"B2094757D66EABF84792","title":"广东煲仔饭","lon":"121.496249738","lat":"31.2477826742","category":"247","category_name":"餐饮美食","address":"上海市虹口区塘沽路153号"},{"poiid":"B2094753D165AAFA489E","title":"黄浦江上","lon":"121.497714","lat":"31.248992","category":"500","category_name":"未知分类","address":"上海市 黄浦江"},{"poiid":"B2094655D26FA1F9499A","title":"会议厅","lon":"121.49597","lat":"31.2473","category":"185","category_name":"会展中心","address":"东大名路359号4层"},{"poiid":"B2094757DA6EABF84393","title":"宝钢资源大厦","lon":"121.499366700002","lat":"31.2487691999997","category":"252","category_name":"楼宇机构","address":"虹口区东大名路568号"},{"poiid":"B2094757D06BA3F44599","title":"英腾国际健身中心","lon":"121.4947","lat":"31.25091","category":"148","category_name":"美容美发店","address":"虹口区东汉阳路309弄17号名江七星城会所(近宇泰公寓)"},{"poiid":"B2094655D26FA4FA4292","title":"上海国际港务大厦(北门)","lon":"121.49592","lat":"31.24692","category":"49","category_name":"无中心点楼宇大门","address":"东大名路358号"},{"poiid":"B2094654D56DA4F5429B","title":"京世造型·美容(东汉阳路)","lon":"121.49536","lat":"31.25139","category":"148","category_name":"美容美发店","address":""}]