[{"poiid":"B2094757D06FA1FE499C","title":"中信五牛城","lon":"121.537103","lat":"31.247762","category":"46","category_name":"楼宇","address":"鲁尔大厦位于铁西兴华南街5号"},{"poiid":"B2094654DA69AAF9479C","title":"上海海事职业技术学院","lon":"121.52937","lat":"31.23919","category":"671","category_name":"高校中心点","address":"浦东新区源深路158号(乳山路源深路)"},{"poiid":"B2094757D06FA1FB4099","title":"国际航运金融大厦","lon":"121.531","lat":"31.246","category":"46","category_name":"楼宇","address":"越秀区广州沿江中路298号"},{"poiid":"B2094757D06AAAFE4598","title":"陸家嘴國金百貨Ifc","lon":"121.53044098","lat":"31.241297536","category":"500","category_name":"未知分类","address":"上海陸家嘴國金百貨Ifc"},{"poiid":"B2094757D068A2FC429B","title":"粤尚名庭","lon":"121.53463","lat":"31.24159","category":"47","category_name":"住宅区","address":"浦东新区浦东大道1179号(桃林路口)"},{"poiid":"B2094757D06FAAFA419F","title":"华辰金融大厦","lon":"121.537","lat":"31.2468","category":"46","category_name":"楼宇","address":"浦东区陆家嘴西路153号"},{"poiid":"B2094757D06FA5FD4493","title":"上海滩花园洋房","lon":"121.54","lat":"31.2457","category":"252","category_name":"楼宇机构","address":"浦东新区乳山路506弄(福山路乳山路)"},{"poiid":"B2094757D06FAAFC4093","title":"张生记(浦东店)","lon":"121.53079","lat":"31.24146","category":"75","category_name":"浙江菜","address":"浦东新区浦东大道1085号中信五牛广场5楼(近源深路)"},{"poiid":"B2094757D16CA7F84899","title":"Ricky's Sports Bar&amp; G","lon":"121.531560718","lat":"31.2411718133","category":"500","category_name":"未知分类","address":"浦东新区浦东大道930-936号(近源深路)"},{"poiid":"B2094654DA68ABFD439B","title":"巨洋大厦","lon":"121.533062","lat":"31.241866","category":"46","category_name":"楼宇","address":"浦东区浦东大道1200号"},{"poiid":"B2094757D06FA7FA4999","title":"航科大厦","lon":"121.52903224","lat":"31.240261721","category":"46","category_name":"楼宇","address":"昌平区回龙观镇国际信息产业基地高新二街"},{"poiid":"B2094757D068ABFA4592","title":"スタミナ苑焼肉(食特美烧肉)","lon":"121.53180673","lat":"31.241224534","category":"95","category_name":"日本料理","address":"浦东新区浦东大道908-912号(桃林路与源深路间)"},{"poiid":"B2094757D164A7F9479C","title":"建工大厦","lon":"121.531714","lat":"31.244747","category":"46","category_name":"楼宇","address":"上海市闵行区莲花南路1500弄"},{"poiid":"B2094655D26BA7FE469D","title":"重庆四季鱼庄","lon":"121.53345","lat":"31.24172","category":"86","category_name":"火锅店","address":"浦东新区浦东大道1108号(近桃林路)"},{"poiid":"B2094757D56DAAF44392","title":"上海隆德丰国际大酒店","lon":"121.53145909309387","lat":"31.241288089337655","category":"251","category_name":"出行住宿","address":"浦东新区浦东大道988号(近源深路)"},{"poiid":"B2094757D16CAAF94398","title":"上海海事大学民生路校区教学楼","lon":"121.533594","lat":"31.244508","category":"253","category_name":"校园生活","address":"上海浦东大道1550 号"},{"poiid":"B2094654DA68ABFC469D","title":"珠江玫瑰花园","lon":"121.53242","lat":"31.242773","category":"47","category_name":"住宅区","address":"上海浦东大道1097弄"},{"poiid":"B2094655D26AABFA479C","title":"上海中信五牛城酒店式公寓","lon":"121.53102","lat":"31.24206","category":"250","category_name":"公园户外","address":"浦东新区浦东大道1089号(浦东大道华开路)"},{"poiid":"B2094655D26BA1F9429B","title":"民生路浦东大道","lon":"121.54077","lat":"31.24432","category":"38","category_name":"公交车站","address":""},{"poiid":"B2094753DA6FA6FC4599","title":"四川香天下火锅","lon":"121.531852","lat":"31.243154","category":"247","category_name":"餐饮美食","address":"上海市 上海市浦东新区浦东大道1108号"},{"poiid":"B2094757D16DA0FB4198","title":"681鲜缘坊(浦东店)","lon":"121.5341","lat":"31.24384","category":"74","category_name":"江苏菜","address":"浦东新区桃林路18号(近昌邑路)"},{"poiid":"B2094757D068A4FB429D","title":"民生路轮渡站","lon":"121.5381217","lat":"31.247109233","category":"35","category_name":"长途汽车站","address":"上海浦东新区民生路1号"},{"poiid":"B2094655D26BA2F54692","title":"浦东大道桃林路","lon":"121.53421","lat":"31.2422","category":"38","category_name":"公交车站","address":""},{"poiid":"B2094757D065ABF84293","title":"海事大学图书馆","lon":"121.5376","lat":"31.243141","category":"181","category_name":"图书馆","address":"浦东新区浦东大道1550号上海海事大学院内(近民生路)"},{"poiid":"B2094757D069A6FA4498","title":"泰和足道(浦东大道店)","lon":"121.53294","lat":"31.24154","category":"149","category_name":"洗浴推拿场所","address":"浦东新区浦东大道1068号(浦东大道华开路)"},{"poiid":"B2094654DA69AAFA419A","title":"申富大厦","lon":"121.536","lat":"31.2437","category":"46","category_name":"楼宇","address":"黄浦区外滩23号,中山东一路,南京东路"},{"poiid":"B2094757D06BABF5409A","title":"彩虹寿司(乳山路店)","lon":"121.53006273","lat":"31.238497476","category":"95","category_name":"日本料理","address":"浦东新区乳山路333号(近源深路)"},{"poiid":"B2094753DA6FA7FD469A","title":"四川香天下火锅（陆家嘴店）","lon":"121.537597","lat":"31.239873","category":"247","category_name":"餐饮美食","address":"上海市 浦东大道1108号"},{"poiid":"B2094655D26DA1FF4692","title":"环球广场A楼","lon":"121.53359","lat":"31.24376","category":"46","category_name":"楼宇","address":"桃林路18"},{"poiid":"B2094750D66DA1F4409E","title":"家东苑","lon":"121.530639","lat":"31.241127","category":"47","category_name":"住宅区","address":"浦东新区浦东大道906号(近源深路)"},{"poiid":"B2094654DA69AAF94498","title":"VIP大厦","lon":"121.532","lat":"31.247","category":"46","category_name":"楼宇","address":"浦东大道727弄1-3号"},{"poiid":"B2094654DB6BABFB4992","title":"环球广场B座","lon":"121.53371","lat":"31.24355","category":"46","category_name":"楼宇","address":"桃林路18"},{"poiid":"B2094750D76EA4FF4693","title":"红宝石(浦东大道店)","lon":"121.539","lat":"31.2434","category":"67","category_name":"甜品店","address":"浦东新区浦东大道1574号(近民生路)"},{"poiid":"B2094654DA68ABFD429E","title":"泰和茶馆","lon":"121.5329","lat":"31.2415","category":"260","category_name":"其他","address":"浦东新区浦东大道1048号(桃林路与源深路之间)"},{"poiid":"B2094757D164A0F5439E","title":"西又东臻品海鲜火锅","lon":"121.53359673","lat":"31.242552562","category":"86","category_name":"火锅店","address":"浦东新区浦东大道1139弄3号(近桃林路)"},{"poiid":"B2094753DA6FABF94398","title":"四川香天下","lon":"121.533355","lat":"31.242153","category":"247","category_name":"餐饮美食","address":"上海市 浦东大道1108号"},{"poiid":"B2094654DA69AAFF439F","title":"星海石油大楼","lon":"121.536","lat":"31.2418","category":"46","category_name":"楼宇","address":"卢湾区局门路427号(邮编:200023)"},{"poiid":"B2094757D468A0FB429E","title":"锦园茶语咖啡","lon":"121.533236054","lat":"31.242219793","category":"65","category_name":"咖啡厅","address":"浦东新区浦东大道1036号(近泰和茶道)"},{"poiid":"B2094757D069A2F84899","title":"小绍兴(民生路店)","lon":"121.54031","lat":"31.24367","category":"68","category_name":"快餐厅","address":"浦东新区浦东大道1588号(近民生路)"},{"poiid":"B2094757D16EA5FA4893","title":"惠扬大厦","lon":"121.53391573","lat":"31.24101853","category":"252","category_name":"楼宇机构","address":"上海市浦东新区浦东大道1139弄"},{"poiid":"B2094655D26DA1FA4193","title":"快客(桃林路)","lon":"121.5337","lat":"31.24355","category":"117","category_name":"便民商店/便利店","address":"桃林路18号环球广场"},{"poiid":"B2094757D569A3FD459E","title":"沙尘暴西域餐厅","lon":"121.53327962","lat":"31.24162164","category":"90","category_name":"清真餐馆","address":"浦东新区浦东大道1096号(近桃林路)"},{"poiid":"B2094757D069A6FA489F","title":"福山小区","lon":"121.532","lat":"31.2439","category":"47","category_name":"住宅区","address":"上海福山路49弄"},{"poiid":"B2094655D26BA2F5469E","title":"浦东大道源深路","lon":"121.52843","lat":"31.24072","category":"38","category_name":"公交车站","address":""},{"poiid":"B2094751D36EA4F5449F","title":"留住阁潮汕砂锅粥馆(浦东大道店)","lon":"121.53312","lat":"31.24169","category":"72","category_name":"广东菜","address":"浦东新区浦东大道1076号(近桃林路)"},{"poiid":"B2094654DA68ABFC479E","title":"天主教上海教区傅家天主堂","lon":"121.53198","lat":"31.24209","category":"245","category_name":"教堂","address":"浦东大道1115"},{"poiid":"B2094654DA68ABFD4293","title":"巨洋豪园","lon":"121.53294","lat":"31.24115","category":"47","category_name":"住宅区","address":"上海市浦东新区浦东大道路1200号"},{"poiid":"B2094757D06AA2F8429B","title":"哈尔滨饺子坊","lon":"121.530711","lat":"31.241021","category":"68","category_name":"快餐厅","address":"浦东新区浦东大道916号(近源深路)"},{"poiid":"B2094654DA68A4F54693","title":"中国石化大厦(西楼)","lon":"121.53803","lat":"31.2438","category":"46","category_name":"楼宇","address":"上海市浦东大道1525号"},{"poiid":"B2094655D26FA1FD4199","title":"珠江花园","lon":"121.53272","lat":"31.24375","category":"47","category_name":"住宅区","address":""},{"poiid":"B2094757D06FA1FE499C","title":"中信五牛城","lon":"121.537103","lat":"31.247762","category":"46","category_name":"楼宇","address":"鲁尔大厦位于铁西兴华南街5号"},{"poiid":"B2094654DA69AAF9479C","title":"上海海事职业技术学院","lon":"121.52937","lat":"31.23919","category":"671","category_name":"高校中心点","address":"浦东新区源深路158号(乳山路源深路)"},{"poiid":"B2094757D06FA1FB4099","title":"国际航运金融大厦","lon":"121.531","lat":"31.246","category":"46","category_name":"楼宇","address":"越秀区广州沿江中路298号"},{"poiid":"B2094757D06AAAFE4598","title":"陸家嘴國金百貨Ifc","lon":"121.53044098","lat":"31.241297536","category":"500","category_name":"未知分类","address":"上海陸家嘴國金百貨Ifc"},{"poiid":"B2094757D068A2FC429B","title":"粤尚名庭","lon":"121.53463","lat":"31.24159","category":"47","category_name":"住宅区","address":"浦东新区浦东大道1179号(桃林路口)"},{"poiid":"B2094757D06FAAFA419F","title":"华辰金融大厦","lon":"121.537","lat":"31.2468","category":"46","category_name":"楼宇","address":"浦东区陆家嘴西路153号"},{"poiid":"B2094757D06FA5FD4493","title":"上海滩花园洋房","lon":"121.54","lat":"31.2457","category":"252","category_name":"楼宇机构","address":"浦东新区乳山路506弄(福山路乳山路)"},{"poiid":"B2094757D06FAAFC4093","title":"张生记(浦东店)","lon":"121.53079","lat":"31.24146","category":"75","category_name":"浙江菜","address":"浦东新区浦东大道1085号中信五牛广场5楼(近源深路)"},{"poiid":"B2094757D16CA7F84899","title":"Ricky's Sports Bar&amp; G","lon":"121.531560718","lat":"31.2411718133","category":"500","category_name":"未知分类","address":"浦东新区浦东大道930-936号(近源深路)"},{"poiid":"B2094654DA68ABFD439B","title":"巨洋大厦","lon":"121.533062","lat":"31.241866","category":"46","category_name":"楼宇","address":"浦东区浦东大道1200号"},{"poiid":"B2094757D06FA7FA4999","title":"航科大厦","lon":"121.52903224","lat":"31.240261721","category":"46","category_name":"楼宇","address":"昌平区回龙观镇国际信息产业基地高新二街"},{"poiid":"B2094757D068ABFA4592","title":"スタミナ苑焼肉(食特美烧肉)","lon":"121.53180673","lat":"31.241224534","category":"95","category_name":"日本料理","address":"浦东新区浦东大道908-912号(桃林路与源深路间)"},{"poiid":"B2094757D164A7F9479C","title":"建工大厦","lon":"121.531714","lat":"31.244747","category":"46","category_name":"楼宇","address":"上海市闵行区莲花南路1500弄"},{"poiid":"B2094655D26BA7FE469D","title":"重庆四季鱼庄","lon":"121.53345","lat":"31.24172","category":"86","category_name":"火锅店","address":"浦东新区浦东大道1108号(近桃林路)"},{"poiid":"B2094757D56DAAF44392","title":"上海隆德丰国际大酒店","lon":"121.53145909309387","lat":"31.241288089337655","category":"251","category_name":"出行住宿","address":"浦东新区浦东大道988号(近源深路)"},{"poiid":"B2094757D16CAAF94398","title":"上海海事大学民生路校区教学楼","lon":"121.533594","lat":"31.244508","category":"253","category_name":"校园生活","address":"上海浦东大道1550 号"},{"poiid":"B2094654DA68ABFC469D","title":"珠江玫瑰花园","lon":"121.53242","lat":"31.242773","category":"47","category_name":"住宅区","address":"上海浦东大道1097弄"},{"poiid":"B2094655D26AABFA479C","title":"上海中信五牛城酒店式公寓","lon":"121.53102","lat":"31.24206","category":"250","category_name":"公园户外","address":"浦东新区浦东大道1089号(浦东大道华开路)"},{"poiid":"B2094655D26BA1F9429B","title":"民生路浦东大道","lon":"121.54077","lat":"31.24432","category":"38","category_name":"公交车站","address":""},{"poiid":"B2094753DA6FA6FC4599","title":"四川香天下火锅","lon":"121.531852","lat":"31.243154","category":"247","category_name":"餐饮美食","address":"上海市 上海市浦东新区浦东大道1108号"},{"poiid":"B2094757D16DA0FB4198","title":"681鲜缘坊(浦东店)","lon":"121.5341","lat":"31.24384","category":"74","category_name":"江苏菜","address":"浦东新区桃林路18号(近昌邑路)"},{"poiid":"B2094757D068A4FB429D","title":"民生路轮渡站","lon":"121.5381217","lat":"31.247109233","category":"35","category_name":"长途汽车站","address":"上海浦东新区民生路1号"},{"poiid":"B2094655D26BA2F54692","title":"浦东大道桃林路","lon":"121.53421","lat":"31.2422","category":"38","category_name":"公交车站","address":""},{"poiid":"B2094757D065ABF84293","title":"海事大学图书馆","lon":"121.5376","lat":"31.243141","category":"181","category_name":"图书馆","address":"浦东新区浦东大道1550号上海海事大学院内(近民生路)"},{"poiid":"B2094757D069A6FA4498","title":"泰和足道(浦东大道店)","lon":"121.53294","lat":"31.24154","category":"149","category_name":"洗浴推拿场所","address":"浦东新区浦东大道1068号(浦东大道华开路)"},{"poiid":"B2094654DA69AAFA419A","title":"申富大厦","lon":"121.536","lat":"31.2437","category":"46","category_name":"楼宇","address":"黄浦区外滩23号,中山东一路,南京东路"},{"poiid":"B2094757D06BABF5409A","title":"彩虹寿司(乳山路店)","lon":"121.53006273","lat":"31.238497476","category":"95","category_name":"日本料理","address":"浦东新区乳山路333号(近源深路)"},{"poiid":"B2094753DA6FA7FD469A","title":"四川香天下火锅（陆家嘴店）","lon":"121.537597","lat":"31.239873","category":"247","category_name":"餐饮美食","address":"上海市 浦东大道1108号"},{"poiid":"B2094655D26DA1FF4692","title":"环球广场A楼","lon":"121.53359","lat":"31.24376","category":"46","category_name":"楼宇","address":"桃林路18"},{"poiid":"B2094750D66DA1F4409E","title":"家东苑","lon":"121.530639","lat":"31.241127","category":"47","category_name":"住宅区","address":"浦东新区浦东大道906号(近源深路)"},{"poiid":"B2094654DA69AAF94498","title":"VIP大厦","lon":"121.532","lat":"31.247","category":"46","category_name":"楼宇","address":"浦东大道727弄1-3号"},{"poiid":"B2094654DB6BABFB4992","title":"环球广场B座","lon":"121.53371","lat":"31.24355","category":"46","category_name":"楼宇","address":"桃林路18"},{"poiid":"B2094750D76EA4FF4693","title":"红宝石(浦东大道店)","lon":"121.539","lat":"31.2434","category":"67","category_name":"甜品店","address":"浦东新区浦东大道1574号(近民生路)"},{"poiid":"B2094654DA68ABFD429E","title":"泰和茶馆","lon":"121.5329","lat":"31.2415","category":"260","category_name":"其他","address":"浦东新区浦东大道1048号(桃林路与源深路之间)"},{"poiid":"B2094757D164A0F5439E","title":"西又东臻品海鲜火锅","lon":"121.53359673","lat":"31.242552562","category":"86","category_name":"火锅店","address":"浦东新区浦东大道1139弄3号(近桃林路)"},{"poiid":"B2094753DA6FABF94398","title":"四川香天下","lon":"121.533355","lat":"31.242153","category":"247","category_name":"餐饮美食","address":"上海市 浦东大道1108号"},{"poiid":"B2094654DA69AAFF439F","title":"星海石油大楼","lon":"121.536","lat":"31.2418","category":"46","category_name":"楼宇","address":"卢湾区局门路427号(邮编:200023)"},{"poiid":"B2094757D468A0FB429E","title":"锦园茶语咖啡","lon":"121.533236054","lat":"31.242219793","category":"65","category_name":"咖啡厅","address":"浦东新区浦东大道1036号(近泰和茶道)"},{"poiid":"B2094757D069A2F84899","title":"小绍兴(民生路店)","lon":"121.54031","lat":"31.24367","category":"68","category_name":"快餐厅","address":"浦东新区浦东大道1588号(近民生路)"},{"poiid":"B2094757D16EA5FA4893","title":"惠扬大厦","lon":"121.53391573","lat":"31.24101853","category":"252","category_name":"楼宇机构","address":"上海市浦东新区浦东大道1139弄"},{"poiid":"B2094655D26DA1FA4193","title":"快客(桃林路)","lon":"121.5337","lat":"31.24355","category":"117","category_name":"便民商店/便利店","address":"桃林路18号环球广场"},{"poiid":"B2094757D569A3FD459E","title":"沙尘暴西域餐厅","lon":"121.53327962","lat":"31.24162164","category":"90","category_name":"清真餐馆","address":"浦东新区浦东大道1096号(近桃林路)"},{"poiid":"B2094757D069A6FA489F","title":"福山小区","lon":"121.532","lat":"31.2439","category":"47","category_name":"住宅区","address":"上海福山路49弄"},{"poiid":"B2094655D26BA2F5469E","title":"浦东大道源深路","lon":"121.52843","lat":"31.24072","category":"38","category_name":"公交车站","address":""},{"poiid":"B2094751D36EA4F5449F","title":"留住阁潮汕砂锅粥馆(浦东大道店)","lon":"121.53312","lat":"31.24169","category":"72","category_name":"广东菜","address":"浦东新区浦东大道1076号(近桃林路)"},{"poiid":"B2094654DA68ABFC479E","title":"天主教上海教区傅家天主堂","lon":"121.53198","lat":"31.24209","category":"245","category_name":"教堂","address":"浦东大道1115"},{"poiid":"B2094654DA68ABFD4293","title":"巨洋豪园","lon":"121.53294","lat":"31.24115","category":"47","category_name":"住宅区","address":"上海市浦东新区浦东大道路1200号"},{"poiid":"B2094757D06AA2F8429B","title":"哈尔滨饺子坊","lon":"121.530711","lat":"31.241021","category":"68","category_name":"快餐厅","address":"浦东新区浦东大道916号(近源深路)"},{"poiid":"B2094654DA68A4F54693","title":"中国石化大厦(西楼)","lon":"121.53803","lat":"31.2438","category":"46","category_name":"楼宇","address":"上海市浦东大道1525号"},{"poiid":"B2094655D26FA1FD4199","title":"珠江花园","lon":"121.53272","lat":"31.24375","category":"47","category_name":"住宅区","address":""},{"poiid":"B2094757D06FA1FE499C","title":"中信五牛城","lon":"121.537103","lat":"31.247762","category":"46","category_name":"楼宇","address":"鲁尔大厦位于铁西兴华南街5号"},{"poiid":"B2094654DA69AAF9479C","title":"上海海事职业技术学院","lon":"121.52937","lat":"31.23919","category":"671","category_name":"高校中心点","address":"浦东新区源深路158号(乳山路源深路)"},{"poiid":"B2094757D06FA1FB4099","title":"国际航运金融大厦","lon":"121.531","lat":"31.246","category":"46","category_name":"楼宇","address":"越秀区广州沿江中路298号"},{"poiid":"B2094757D06AAAFE4598","title":"陸家嘴國金百貨Ifc","lon":"121.53044098","lat":"31.241297536","category":"500","category_name":"未知分类","address":"上海陸家嘴國金百貨Ifc"},{"poiid":"B2094757D068A2FC429B","title":"粤尚名庭","lon":"121.53463","lat":"31.24159","category":"47","category_name":"住宅区","address":"浦东新区浦东大道1179号(桃林路口)"},{"poiid":"B2094757D06FAAFA419F","title":"华辰金融大厦","lon":"121.537","lat":"31.2468","category":"46","category_name":"楼宇","address":"浦东区陆家嘴西路153号"},{"poiid":"B2094757D06FA5FD4493","title":"上海滩花园洋房","lon":"121.54","lat":"31.2457","category":"252","category_name":"楼宇机构","address":"浦东新区乳山路506弄(福山路乳山路)"},{"poiid":"B2094757D06FAAFC4093","title":"张生记(浦东店)","lon":"121.53079","lat":"31.24146","category":"75","category_name":"浙江菜","address":"浦东新区浦东大道1085号中信五牛广场5楼(近源深路)"},{"poiid":"B2094757D16CA7F84899","title":"Ricky's Sports Bar&amp; G","lon":"121.531560718","lat":"31.2411718133","category":"500","category_name":"未知分类","address":"浦东新区浦东大道930-936号(近源深路)"},{"poiid":"B2094654DA68ABFD439B","title":"巨洋大厦","lon":"121.533062","lat":"31.241866","category":"46","category_name":"楼宇","address":"浦东区浦东大道1200号"},{"poiid":"B2094757D06FA7FA4999","title":"航科大厦","lon":"121.52903224","lat":"31.240261721","category":"46","category_name":"楼宇","address":"昌平区回龙观镇国际信息产业基地高新二街"},{"poiid":"B2094757D068ABFA4592","title":"スタミナ苑焼肉(食特美烧肉)","lon":"121.53180673","lat":"31.241224534","category":"95","category_name":"日本料理","address":"浦东新区浦东大道908-912号(桃林路与源深路间)"},{"poiid":"B2094757D164A7F9479C","title":"建工大厦","lon":"121.531714","lat":"31.244747","category":"46","category_name":"楼宇","address":"上海市闵行区莲花南路1500弄"},{"poiid":"B2094655D26BA7FE469D","title":"重庆四季鱼庄","lon":"121.53345","lat":"31.24172","category":"86","category_name":"火锅店","address":"浦东新区浦东大道1108号(近桃林路)"},{"poiid":"B2094757D56DAAF44392","title":"上海隆德丰国际大酒店","lon":"121.53145909309387","lat":"31.241288089337655","category":"251","category_name":"出行住宿","address":"浦东新区浦东大道988号(近源深路)"},{"poiid":"B2094757D16CAAF94398","title":"上海海事大学民生路校区教学楼","lon":"121.533594","lat":"31.244508","category":"253","category_name":"校园生活","address":"上海浦东大道1550 号"},{"poiid":"B2094654DA68ABFC469D","title":"珠江玫瑰花园","lon":"121.53242","lat":"31.242773","category":"47","category_name":"住宅区","address":"上海浦东大道1097弄"},{"poiid":"B2094655D26AABFA479C","title":"上海中信五牛城酒店式公寓","lon":"121.53102","lat":"31.24206","category":"250","category_name":"公园户外","address":"浦东新区浦东大道1089号(浦东大道华开路)"},{"poiid":"B2094655D26BA1F9429B","title":"民生路浦东大道","lon":"121.54077","lat":"31.24432","category":"38","category_name":"公交车站","address":""},{"poiid":"B2094753DA6FA6FC4599","title":"四川香天下火锅","lon":"121.531852","lat":"31.243154","category":"247","category_name":"餐饮美食","address":"上海市 上海市浦东新区浦东大道1108号"},{"poiid":"B2094757D16DA0FB4198","title":"681鲜缘坊(浦东店)","lon":"121.5341","lat":"31.24384","category":"74","category_name":"江苏菜","address":"浦东新区桃林路18号(近昌邑路)"},{"poiid":"B2094757D068A4FB429D","title":"民生路轮渡站","lon":"121.5381217","lat":"31.247109233","category":"35","category_name":"长途汽车站","address":"上海浦东新区民生路1号"},{"poiid":"B2094655D26BA2F54692","title":"浦东大道桃林路","lon":"121.53421","lat":"31.2422","category":"38","category_name":"公交车站","address":""},{"poiid":"B2094757D065ABF84293","title":"海事大学图书馆","lon":"121.5376","lat":"31.243141","category":"181","category_name":"图书馆","address":"浦东新区浦东大道1550号上海海事大学院内(近民生路)"},{"poiid":"B2094757D069A6FA4498","title":"泰和足道(浦东大道店)","lon":"121.53294","lat":"31.24154","category":"149","category_name":"洗浴推拿场所","address":"浦东新区浦东大道1068号(浦东大道华开路)"},{"poiid":"B2094654DA69AAFA419A","title":"申富大厦","lon":"121.536","lat":"31.2437","category":"46","category_name":"楼宇","address":"黄浦区外滩23号,中山东一路,南京东路"},{"poiid":"B2094757D06BABF5409A","title":"彩虹寿司(乳山路店)","lon":"121.53006273","lat":"31.238497476","category":"95","category_name":"日本料理","address":"浦东新区乳山路333号(近源深路)"},{"poiid":"B2094753DA6FA7FD469A","title":"四川香天下火锅（陆家嘴店）","lon":"121.537597","lat":"31.239873","category":"247","category_name":"餐饮美食","address":"上海市 浦东大道1108号"},{"poiid":"B2094655D26DA1FF4692","title":"环球广场A楼","lon":"121.53359","lat":"31.24376","category":"46","category_name":"楼宇","address":"桃林路18"},{"poiid":"B2094750D66DA1F4409E","title":"家东苑","lon":"121.530639","lat":"31.241127","category":"47","category_name":"住宅区","address":"浦东新区浦东大道906号(近源深路)"},{"poiid":"B2094654DA69AAF94498","title":"VIP大厦","lon":"121.532","lat":"31.247","category":"46","category_name":"楼宇","address":"浦东大道727弄1-3号"},{"poiid":"B2094654DB6BABFB4992","title":"环球广场B座","lon":"121.53371","lat":"31.24355","category":"46","category_name":"楼宇","address":"桃林路18"},{"poiid":"B2094750D76EA4FF4693","title":"红宝石(浦东大道店)","lon":"121.539","lat":"31.2434","category":"67","category_name":"甜品店","address":"浦东新区浦东大道1574号(近民生路)"},{"poiid":"B2094654DA68ABFD429E","title":"泰和茶馆","lon":"121.5329","lat":"31.2415","category":"260","category_name":"其他","address":"浦东新区浦东大道1048号(桃林路与源深路之间)"},{"poiid":"B2094757D164A0F5439E","title":"西又东臻品海鲜火锅","lon":"121.53359673","lat":"31.242552562","category":"86","category_name":"火锅店","address":"浦东新区浦东大道1139弄3号(近桃林路)"},{"poiid":"B2094753DA6FABF94398","title":"四川香天下","lon":"121.533355","lat":"31.242153","category":"247","category_name":"餐饮美食","address":"上海市 浦东大道1108号"},{"poiid":"B2094654DA69AAFF439F","title":"星海石油大楼","lon":"121.536","lat":"31.2418","category":"46","category_name":"楼宇","address":"卢湾区局门路427号(邮编:200023)"},{"poiid":"B2094757D468A0FB429E","title":"锦园茶语咖啡","lon":"121.533236054","lat":"31.242219793","category":"65","category_name":"咖啡厅","address":"浦东新区浦东大道1036号(近泰和茶道)"},{"poiid":"B2094757D069A2F84899","title":"小绍兴(民生路店)","lon":"121.54031","lat":"31.24367","category":"68","category_name":"快餐厅","address":"浦东新区浦东大道1588号(近民生路)"},{"poiid":"B2094757D16EA5FA4893","title":"惠扬大厦","lon":"121.53391573","lat":"31.24101853","category":"252","category_name":"楼宇机构","address":"上海市浦东新区浦东大道1139弄"},{"poiid":"B2094655D26DA1FA4193","title":"快客(桃林路)","lon":"121.5337","lat":"31.24355","category":"117","category_name":"便民商店/便利店","address":"桃林路18号环球广场"},{"poiid":"B2094757D569A3FD459E","title":"沙尘暴西域餐厅","lon":"121.53327962","lat":"31.24162164","category":"90","category_name":"清真餐馆","address":"浦东新区浦东大道1096号(近桃林路)"},{"poiid":"B2094757D069A6FA489F","title":"福山小区","lon":"121.532","lat":"31.2439","category":"47","category_name":"住宅区","address":"上海福山路49弄"},{"poiid":"B2094655D26BA2F5469E","title":"浦东大道源深路","lon":"121.52843","lat":"31.24072","category":"38","category_name":"公交车站","address":""},{"poiid":"B2094751D36EA4F5449F","title":"留住阁潮汕砂锅粥馆(浦东大道店)","lon":"121.53312","lat":"31.24169","category":"72","category_name":"广东菜","address":"浦东新区浦东大道1076号(近桃林路)"},{"poiid":"B2094654DA68ABFC479E","title":"天主教上海教区傅家天主堂","lon":"121.53198","lat":"31.24209","category":"245","category_name":"教堂","address":"浦东大道1115"},{"poiid":"B2094654DA68ABFD4293","title":"巨洋豪园","lon":"121.53294","lat":"31.24115","category":"47","category_name":"住宅区","address":"上海市浦东新区浦东大道路1200号"},{"poiid":"B2094757D06AA2F8429B","title":"哈尔滨饺子坊","lon":"121.530711","lat":"31.241021","category":"68","category_name":"快餐厅","address":"浦东新区浦东大道916号(近源深路)"},{"poiid":"B2094654DA68A4F54693","title":"中国石化大厦(西楼)","lon":"121.53803","lat":"31.2438","category":"46","category_name":"楼宇","address":"上海市浦东大道1525号"},{"poiid":"B2094655D26FA1FD4199","title":"珠江花园","lon":"121.53272","lat":"31.24375","category":"47","category_name":"住宅区","address":""},{"poiid":"B2094757D06FA1FE499C","title":"中信五牛城","lon":"121.537103","lat":"31.247762","category":"46","category_name":"楼宇","address":"鲁尔大厦位于铁西兴华南街5号"},{"poiid":"B2094654DA69AAF9479C","title":"上海海事职业技术学院","lon":"121.52937","lat":"31.23919","category":"671","category_name":"高校中心点","address":"浦东新区源深路158号(乳山路源深路)"},{"poiid":"B2094757D06FA1FB4099","title":"国际航运金融大厦","lon":"121.531","lat":"31.246","category":"46","category_name":"楼宇","address":"越秀区广州沿江中路298号"},{"poiid":"B2094757D06AAAFE4598","title":"陸家嘴國金百貨Ifc","lon":"121.53044098","lat":"31.241297536","category":"500","category_name":"未知分类","address":"上海陸家嘴國金百貨Ifc"},{"poiid":"B2094757D068A2FC429B","title":"粤尚名庭","lon":"121.53463","lat":"31.24159","category":"47","category_name":"住宅区","address":"浦东新区浦东大道1179号(桃林路口)"},{"poiid":"B2094757D06FAAFA419F","title":"华辰金融大厦","lon":"121.537","lat":"31.2468","category":"46","category_name":"楼宇","address":"浦东区陆家嘴西路153号"},{"poiid":"B2094757D06FA5FD4493","title":"上海滩花园洋房","lon":"121.54","lat":"31.2457","category":"252","category_name":"楼宇机构","address":"浦东新区乳山路506弄(福山路乳山路)"},{"poiid":"B2094757D06FAAFC4093","title":"张生记(浦东店)","lon":"121.53079","lat":"31.24146","category":"75","category_name":"浙江菜","address":"浦东新区浦东大道1085号中信五牛广场5楼(近源深路)"},{"poiid":"B2094757D16CA7F84899","title":"Ricky's Sports Bar&amp; G","lon":"121.531560718","lat":"31.2411718133","category":"500","category_name":"未知分类","address":"浦东新区浦东大道930-936号(近源深路)"},{"poiid":"B2094654DA68ABFD439B","title":"巨洋大厦","lon":"121.533062","lat":"31.241866","category":"46","category_name":"楼宇","address":"浦东区浦东大道1200号"},{"poiid":"B2094757D06FA7FA4999","title":"航科大厦","lon":"121.52903224","lat":"31.240261721","category":"46","category_name":"楼宇","address":"昌平区回龙观镇国际信息产业基地高新二街"},{"poiid":"B2094757D068ABFA4592","title":"スタミナ苑焼肉(食特美烧肉)","lon":"121.53180673","lat":"31.241224534","category":"95","category_name":"日本料理","address":"浦东新区浦东大道908-912号(桃林路与源深路间)"},{"poiid":"B2094757D164A7F9479C","title":"建工大厦","lon":"121.531714","lat":"31.244747","category":"46","category_name":"楼宇","address":"上海市闵行区莲花南路1500弄"},{"poiid":"B2094655D26BA7FE469D","title":"重庆四季鱼庄","lon":"121.53345","lat":"31.24172","category":"86","category_name":"火锅店","address":"浦东新区浦东大道1108号(近桃林路)"},{"poiid":"B2094757D56DAAF44392","title":"上海隆德丰国际大酒店","lon":"121.53145909309387","lat":"31.241288089337655","category":"251","category_name":"出行住宿","address":"浦东新区浦东大道988号(近源深路)"},{"poiid":"B2094757D16CAAF94398","title":"上海海事大学民生路校区教学楼","lon":"121.533594","lat":"31.244508","category":"253","category_name":"校园生活","address":"上海浦东大道1550 号"},{"poiid":"B2094654DA68ABFC469D","title":"珠江玫瑰花园","lon":"121.53242","lat":"31.242773","category":"47","category_name":"住宅区","address":"上海浦东大道1097弄"},{"poiid":"B2094655D26AABFA479C","title":"上海中信五牛城酒店式公寓","lon":"121.53102","lat":"31.24206","category":"250","category_name":"公园户外","address":"浦东新区浦东大道1089号(浦东大道华开路)"},{"poiid":"B2094655D26BA1F9429B","title":"民生路浦东大道","lon":"121.54077","lat":"31.24432","category":"38","category_name":"公交车站","address":""},{"poiid":"B2094753DA6FA6FC4599","title":"四川香天下火锅","lon":"121.531852","lat":"31.243154","category":"247","category_name":"餐饮美食","address":"上海市 上海市浦东新区浦东大道1108号"},{"poiid":"B2094757D16DA0FB4198","title":"681鲜缘坊(浦东店)","lon":"121.5341","lat":"31.24384","category":"74","category_name":"江苏菜","address":"浦东新区桃林路18号(近昌邑路)"},{"poiid":"B2094757D068A4FB429D","title":"民生路轮渡站","lon":"121.5381217","lat":"31.247109233","category":"35","category_name":"长途汽车站","address":"上海浦东新区民生路1号"},{"poiid":"B2094655D26BA2F54692","title":"浦东大道桃林路","lon":"121.53421","lat":"31.2422","category":"38","category_name":"公交车站","address":""},{"poiid":"B2094757D065ABF84293","title":"海事大学图书馆","lon":"121.5376","lat":"31.243141","category":"181","category_name":"图书馆","address":"浦东新区浦东大道1550号上海海事大学院内(近民生路)"},{"poiid":"B2094757D069A6FA4498","title":"泰和足道(浦东大道店)","lon":"121.53294","lat":"31.24154","category":"149","category_name":"洗浴推拿场所","address":"浦东新区浦东大道1068号(浦东大道华开路)"},{"poiid":"B2094654DA69AAFA419A","title":"申富大厦","lon":"121.536","lat":"31.2437","category":"46","category_name":"楼宇","address":"黄浦区外滩23号,中山东一路,南京东路"},{"poiid":"B2094757D06BABF5409A","title":"彩虹寿司(乳山路店)","lon":"121.53006273","lat":"31.238497476","category":"95","category_name":"日本料理","address":"浦东新区乳山路333号(近源深路)"},{"poiid":"B2094753DA6FA7FD469A","title":"四川香天下火锅（陆家嘴店）","lon":"121.537597","lat":"31.239873","category":"247","category_name":"餐饮美食","address":"上海市 浦东大道1108号"},{"poiid":"B2094655D26DA1FF4692","title":"环球广场A楼","lon":"121.53359","lat":"31.24376","category":"46","category_name":"楼宇","address":"桃林路18"},{"poiid":"B2094750D66DA1F4409E","title":"家东苑","lon":"121.530639","lat":"31.241127","category":"47","category_name":"住宅区","address":"浦东新区浦东大道906号(近源深路)"},{"poiid":"B2094654DA69AAF94498","title":"VIP大厦","lon":"121.532","lat":"31.247","category":"46","category_name":"楼宇","address":"浦东大道727弄1-3号"},{"poiid":"B2094654DB6BABFB4992","title":"环球广场B座","lon":"121.53371","lat":"31.24355","category":"46","category_name":"楼宇","address":"桃林路18"},{"poiid":"B2094750D76EA4FF4693","title":"红宝石(浦东大道店)","lon":"121.539","lat":"31.2434","category":"67","category_name":"甜品店","address":"浦东新区浦东大道1574号(近民生路)"},{"poiid":"B2094654DA68ABFD429E","title":"泰和茶馆","lon":"121.5329","lat":"31.2415","category":"260","category_name":"其他","address":"浦东新区浦东大道1048号(桃林路与源深路之间)"},{"poiid":"B2094757D164A0F5439E","title":"西又东臻品海鲜火锅","lon":"121.53359673","lat":"31.242552562","category":"86","category_name":"火锅店","address":"浦东新区浦东大道1139弄3号(近桃林路)"},{"poiid":"B2094753DA6FABF94398","title":"四川香天下","lon":"121.533355","lat":"31.242153","category":"247","category_name":"餐饮美食","address":"上海市 浦东大道1108号"},{"poiid":"B2094654DA69AAFF439F","title":"星海石油大楼","lon":"121.536","lat":"31.2418","category":"46","category_name":"楼宇","address":"卢湾区局门路427号(邮编:200023)"},{"poiid":"B2094757D468A0FB429E","title":"锦园茶语咖啡","lon":"121.533236054","lat":"31.242219793","category":"65","category_name":"咖啡厅","address":"浦东新区浦东大道1036号(近泰和茶道)"},{"poiid":"B2094757D069A2F84899","title":"小绍兴(民生路店)","lon":"121.54031","lat":"31.24367","category":"68","category_name":"快餐厅","address":"浦东新区浦东大道1588号(近民生路)"},{"poiid":"B2094757D16EA5FA4893","title":"惠扬大厦","lon":"121.53391573","lat":"31.24101853","category":"252","category_name":"楼宇机构","address":"上海市浦东新区浦东大道1139弄"},{"poiid":"B2094655D26DA1FA4193","title":"快客(桃林路)","lon":"121.5337","lat":"31.24355","category":"117","category_name":"便民商店/便利店","address":"桃林路18号环球广场"},{"poiid":"B2094757D569A3FD459E","title":"沙尘暴西域餐厅","lon":"121.53327962","lat":"31.24162164","category":"90","category_name":"清真餐馆","address":"浦东新区浦东大道1096号(近桃林路)"},{"poiid":"B2094757D069A6FA489F","title":"福山小区","lon":"121.532","lat":"31.2439","category":"47","category_name":"住宅区","address":"上海福山路49弄"},{"poiid":"B2094655D26BA2F5469E","title":"浦东大道源深路","lon":"121.52843","lat":"31.24072","category":"38","category_name":"公交车站","address":""},{"poiid":"B2094751D36EA4F5449F","title":"留住阁潮汕砂锅粥馆(浦东大道店)","lon":"121.53312","lat":"31.24169","category":"72","category_name":"广东菜","address":"浦东新区浦东大道1076号(近桃林路)"},{"poiid":"B2094654DA68ABFC479E","title":"天主教上海教区傅家天主堂","lon":"121.53198","lat":"31.24209","category":"245","category_name":"教堂","address":"浦东大道1115"},{"poiid":"B2094654DA68ABFD4293","title":"巨洋豪园","lon":"121.53294","lat":"31.24115","category":"47","category_name":"住宅区","address":"上海市浦东新区浦东大道路1200号"},{"poiid":"B2094757D06AA2F8429B","title":"哈尔滨饺子坊","lon":"121.530711","lat":"31.241021","category":"68","category_name":"快餐厅","address":"浦东新区浦东大道916号(近源深路)"},{"poiid":"B2094654DA68A4F54693","title":"中国石化大厦(西楼)","lon":"121.53803","lat":"31.2438","category":"46","category_name":"楼宇","address":"上海市浦东大道1525号"},{"poiid":"B2094655D26FA1FD4199","title":"珠江花园","lon":"121.53272","lat":"31.24375","category":"47","category_name":"住宅区","address":""}]