[{"poiid":"B2094654DA6FA7FC449A","title":"东方明珠广播电视塔","lon":"121.49967","lat":"31.23988","category":"240","category_name":"国家级景点","address":"浦东浦东新区世纪大道1号"},{"poiid":"B2094654DA6FA7FD459E","title":"上海海洋水族馆","lon":"121.50194","lat":"31.24064","category":"199","category_name":"水族馆","address":"上海市浦东新区陆家嘴环路1388号"},{"poiid":"B2094757D06FA7FE419F","title":"上海国际港务大厦","lon":"121.49573516","lat":"31.246837616","category":"46","category_name":"楼宇","address":"上海东大名路358号"},{"poiid":"B209475CD564A7F84392","title":"上海滩浦东香格里拉店","lon":"121.50058","lat":"31.23634","category":"119","category_name":"商场","address":"浦东富成路33号香格里拉酒店内大堂层"},{"poiid":"B2094655D26DAAF8459A","title":"The Kitchen Salvatore Cuomo","lon":"121.49733","lat":"31.24084","category":"94","category_name":"西餐厅","address":"浦东新区陆家嘴西路2967号D座(近丰和路滨江大道海鸥舫)"},{"poiid":"B2094757D064ABF5479C","title":"Tavola Italian Dining","lon":"121.502135738","lat":"31.2423945594","category":"500","category_name":"未知分类","address":"上海浦东新区滨江大道2500号"},{"poiid":"B2094654DA6FA7F8429F","title":"远洋海星旋转餐厅","lon":"121.49625","lat":"31.24696","category":"257","category_name":"中餐厅","address":"虹口区东大名路378号远洋大厦28楼(近旅顺路)"},{"poiid":"B2094655D26DA3FF489B","title":"外滩12号大楼","lon":"121.497","lat":"31.2418","category":"46","category_name":"楼宇","address":"黄浦区中山东一路12号"},{"poiid":"B2094750D26AA6FB489F","title":"北外滩滨江绿地","lon":"121.499412","lat":"31.243846","category":"248","category_name":"生活娱乐","address":"东大名路新建路"},{"poiid":"B2094757D068AAF9489B","title":"海逸海鲜(滨江大道店)","lon":"121.5021791","lat":"31.242800436","category":"72","category_name":"广东菜","address":"浦东新区滨江大道2450号(近星展银行大厦停车场)"},{"poiid":"B2094750D26FA3FE4698","title":"上海大自然野生昆虫馆","lon":"121.497772","lat":"31.240335","category":"627","category_name":"一般地点标志","address":"上海市浦东新区丰和路1号"},{"poiid":"B2094757D06AA1FC489E","title":"上海港","lon":"121.497051","lat":"31.247305","category":"500","category_name":"未知分类","address":"上海东大名路500号"},{"poiid":"B2094654DA6FA4F94593","title":"新黄浦金融大厦","lon":"121.495","lat":"31.2443","category":"46","category_name":"楼宇","address":"黄浦区南京东路61号"},{"poiid":"B2094750D165A1FA4193","title":"小杨生煎","lon":"121.501","lat":"31.2401","category":"68","category_name":"快餐厅","address":"浦东新区陆家嘴环路1396号陆家嘴景庭1楼(海洋水族馆旁)"},{"poiid":"B2094654DA6FA7FD499F","title":"东方明珠游船码头","lon":"121.49693","lat":"31.24078","category":"34","category_name":"港口码头","address":"滨江大道2852号"},{"poiid":"B2094757D064A3F8429D","title":"上海建工集团总公司","lon":"121.501623103","lat":"31.2491349775","category":"263","category_name":"公司","address":"上海市虹口区东大名路666号"},{"poiid":"B2094757D168AAF44793","title":"Tavola","lon":"121.50140267","lat":"31.242693473","category":"94","category_name":"西餐厅","address":"浦东新区滨江大道2500号(近星展银行)"},{"poiid":"B2094752D66FA2F4479A","title":"蒗葶泰式酒吧餐厅","lon":"121.498146","lat":"31.241444","category":"256","category_name":"外国餐厅","address":"上海市 滨江大道2600号"},{"poiid":"B2094757D069A3F8409A","title":"中央大厦","lon":"121.49451437013","lat":"31.24349460374","category":"46","category_name":"楼宇","address":"上海市四川中路321号"},{"poiid":"B2094752D66FAAFA439A","title":"Kathleen Waitan","lon":"121.494514","lat":"31.245559","category":"247","category_name":"餐饮美食","address":"黄浦路200号"},{"poiid":"B2094655D268A7F5489F","title":"汉庭酒店（外滩外白渡桥店）","lon":"121.49462","lat":"31.24575","category":"216","category_name":"经济型连锁酒店","address":"上海虹口区黄浦路200号A(近外白渡桥)  "},{"poiid":"B2094757D069AAFF4192","title":"COSTA COFFEE (星展店)","lon":"121.50335442","lat":"31.241647043","category":"65","category_name":"咖啡厅","address":"浦东新区陆家嘴环路1318号星展银行大厦B104号商铺(近海洋水族馆)"},{"poiid":"B2094757D16BABFB489A","title":"上海海洋水族馆(极地馆区)","lon":"121.501246","lat":"31.239975","category":"249","category_name":"购物服务","address":"上海市浦东新区陆家嘴环路1388号"},{"poiid":"B2094757D16FA3FE429D","title":"上海现代服务业联合会","lon":"121.49942873","lat":"31.242220555","category":"500","category_name":"未知分类","address":"上海市滨江大道2525弄5号A幢"},{"poiid":"B2094750DB6EA6F8429A","title":"上海苏荷国际青年旅舍外滩店","lon":"121.494377","lat":"31.244222","category":"251","category_name":"出行住宿","address":"虹口区大名路239号(近南浔路)"},{"poiid":"B2094655D36CA6FB4992","title":"东大名路旅顺路","lon":"121.49738","lat":"31.24778","category":"38","category_name":"公交车站","address":""},{"poiid":"B2094757DB69A6F84493","title":"hoF bar&brasserie","lon":"121.497146","lat":"31.241518","category":"247","category_name":"餐饮美食","address":"陆家嘴环路1318号"},{"poiid":"B2094655D268A7FF449E","title":"上海北外滩白玉兰广场","lon":"121.49682","lat":"31.24851","category":"119","category_name":"商场","address":""},{"poiid":"B2094757D068A3FE4998","title":"火车头","lon":"121.50325071","lat":"31.241650306","category":"99","category_name":"泰国／越南菜品餐厅","address":"浦东新区陆家嘴环路1318号星展银行大厦B1楼02号(东园路陆家嘴环路)"},{"poiid":"B2094757D065ABF4499A","title":"东方明珠观光走廊","lon":"121.4993702","lat":"31.239805224","category":"500","category_name":"未知分类","address":"上海陆家嘴"},{"poiid":"B2094752D069A2FF419A","title":"新白鹿","lon":"121.4996283","lat":"31.2488492","category":"247","category_name":"餐饮美食","address":"南京东路800号东方商厦9楼"},{"poiid":"B2094752D36BABF8459D","title":"星巴克(国际港务大厦店)","lon":"121.49583","lat":"31.2467","category":"247","category_name":"餐饮美食","address":"虹口区东大名路358号国际港务大厦内(近太平路)"},{"poiid":"B2094757D16AA7FE459C","title":"宜芝多(静安寺)","lon":"121.498605538","lat":"31.2444066023","category":"500","category_name":"未知分类","address":"上海静安寺"},{"poiid":"B2094753D66AA5F4429C","title":"苏荷国际青年旅社（外滩店）","lon":"121.498199","lat":"31.244382","category":"500","category_name":"未知分类","address":"上海市 上海市虹口区大名路239号"},{"poiid":"B209475CD06BA3F8469E","title":"蒗葶泰式酒吧餐厅 滨江大道店","lon":"121.49945","lat":"31.24193","category":"99","category_name":"泰国／越南菜品餐厅","address":"陆家嘴滨江大道2600号(近东园路)"},{"poiid":"B2094757D16DA5F5469C","title":"DIESEL (国金中心店)","lon":"121.50080905","lat":"31.24400486","category":"500","category_name":"未知分类","address":"浦东新区世纪大道8号国金中心商场B1楼(近东泰路)"},{"poiid":"B2094751DA65A0F8419A","title":"东方明珠塔267m旋转餐厅","lon":"121.500593","lat":"31.241033","category":"247","category_name":"餐饮美食","address":null},{"poiid":"B2094654DB6BA4F54899","title":"东方明珠演艺剧场","lon":"121.49967","lat":"31.23988","category":"180","category_name":"剧场","address":"浦东新区浦东世纪大道1号东方明珠塔8号门(近二号线陆家嘴站)"},{"poiid":"B2094655D26DA5FE4898","title":"滨江大道(三号门)","lon":"121.49707","lat":"31.24047","category":"116","category_name":"特色商业街","address":""},{"poiid":"B2094655D26DA2FE469E","title":"中欧陆家嘴国际金融研究院","lon":"121.50205","lat":"31.24154","category":"191","category_name":"科研机构","address":""},{"poiid":"B2094757DA69A1FC4098","title":"皇家加勒比国际游轮","lon":"121.49591","lat":"31.24677","category":"254","category_name":"售票处","address":"东大名路358号国际港务大厦"},{"poiid":"B2094750D66AA0FB469A","title":"上海昆虫馆","lon":"121.501121","lat":"31.243379","category":"500","category_name":"未知分类","address":"陆家嘴丰和路1号"},{"poiid":"B2094753D36EA2FD4299","title":"滨江3号","lon":"121.500732","lat":"31.24251","category":"47","category_name":"住宅区","address":"滨江大道2550号"},{"poiid":"B2094757D468ABFD4692","title":"壹萃NCE","lon":"121.50335","lat":"31.241352","category":"72","category_name":"广东菜","address":"浦东新区陆家嘴环路1318号星展银行大厦B103-01单元(近正大广场)"},{"poiid":"B2094750DB6CA1FB4199","title":"上海国际客运中心","lon":"121.496757","lat":"31.245241","category":"500","category_name":"未知分类","address":null},{"poiid":"B209475CD169A0FB419C","title":"浦东新区滨江大道","lon":"121.501388","lat":"31.243095","category":"500","category_name":"未知分类","address":"上海市 浦东新区滨江大道"},{"poiid":"B2094655D26FAAF8489D","title":"港务大厦","lon":"121.504","lat":"31.2459","category":"46","category_name":"楼宇","address":"丰和路1号"},{"poiid":"B209475CD76CABFA4499","title":"VUE BAR","lon":"121.49652","lat":"31.242668","category":"500","category_name":"未知分类","address":"上海市 上海外滩茂悦大酒店"},{"poiid":"B2094750DA6EA1FF4793","title":"金茂九重天酒吧","lon":"121.498138","lat":"31.240051","category":"248","category_name":"生活娱乐","address":"浦东新区世纪大道88号"},{"poiid":"B2094655D26BA1F4419A","title":"陆家嘴环路百步街(海洋水族馆)","lon":"121.50191","lat":"31.24017","category":"38","category_name":"公交车站","address":""},{"poiid":"B2094654DA6FA7FC449A","title":"东方明珠广播电视塔","lon":"121.49967","lat":"31.23988","category":"240","category_name":"国家级景点","address":"浦东浦东新区世纪大道1号"},{"poiid":"B2094654DA6FA7FD459E","title":"上海海洋水族馆","lon":"121.50194","lat":"31.24064","category":"199","category_name":"水族馆","address":"上海市浦东新区陆家嘴环路1388号"},{"poiid":"B2094757D06FA7FE419F","title":"上海国际港务大厦","lon":"121.49573516","lat":"31.246837616","category":"46","category_name":"楼宇","address":"上海东大名路358号"},{"poiid":"B209475CD564A7F84392","title":"上海滩浦东香格里拉店","lon":"121.50058","lat":"31.23634","category":"119","category_name":"商场","address":"浦东富成路33号香格里拉酒店内大堂层"},{"poiid":"B2094655D26DAAF8459A","title":"The Kitchen Salvatore Cuomo","lon":"121.49733","lat":"31.24084","category":"94","category_name":"西餐厅","address":"浦东新区陆家嘴西路2967号D座(近丰和路滨江大道海鸥舫)"},{"poiid":"B2094757D064ABF5479C","title":"Tavola Italian Dining","lon":"121.502135738","lat":"31.2423945594","category":"500","category_name":"未知分类","address":"上海浦东新区滨江大道2500号"},{"poiid":"B2094654DA6FA7F8429F","title":"远洋海星旋转餐厅","lon":"121.49625","lat":"31.24696","category":"257","category_name":"中餐厅","address":"虹口区东大名路378号远洋大厦28楼(近旅顺路)"},{"poiid":"B2094655D26DA3FF489B","title":"外滩12号大楼","lon":"121.497","lat":"31.2418","category":"46","category_name":"楼宇","address":"黄浦区中山东一路12号"},{"poiid":"B2094750D26AA6FB489F","title":"北外滩滨江绿地","lon":"121.499412","lat":"31.243846","category":"248","category_name":"生活娱乐","address":"东大名路新建路"},{"poiid":"B2094757D068AAF9489B","title":"海逸海鲜(滨江大道店)","lon":"121.5021791","lat":"31.242800436","category":"72","category_name":"广东菜","address":"浦东新区滨江大道2450号(近星展银行大厦停车场)"},{"poiid":"B2094750D26FA3FE4698","title":"上海大自然野生昆虫馆","lon":"121.497772","lat":"31.240335","category":"627","category_name":"一般地点标志","address":"上海市浦东新区丰和路1号"},{"poiid":"B2094757D06AA1FC489E","title":"上海港","lon":"121.497051","lat":"31.247305","category":"500","category_name":"未知分类","address":"上海东大名路500号"},{"poiid":"B2094654DA6FA4F94593","title":"新黄浦金融大厦","lon":"121.495","lat":"31.2443","category":"46","category_name":"楼宇","address":"黄浦区南京东路61号"},{"poiid":"B2094750D165A1FA4193","title":"小杨生煎","lon":"121.501","lat":"31.2401","category":"68","category_name":"快餐厅","address":"浦东新区陆家嘴环路1396号陆家嘴景庭1楼(海洋水族馆旁)"},{"poiid":"B2094654DA6FA7FD499F","title":"东方明珠游船码头","lon":"121.49693","lat":"31.24078","category":"34","category_name":"港口码头","address":"滨江大道2852号"},{"poiid":"B2094757D064A3F8429D","title":"上海建工集团总公司","lon":"121.501623103","lat":"31.2491349775","category":"263","category_name":"公司","address":"上海市虹口区东大名路666号"},{"poiid":"B2094757D168AAF44793","title":"Tavola","lon":"121.50140267","lat":"31.242693473","category":"94","category_name":"西餐厅","address":"浦东新区滨江大道2500号(近星展银行)"},{"poiid":"B2094752D66FA2F4479A","title":"蒗葶泰式酒吧餐厅","lon":"121.498146","lat":"31.241444","category":"256","category_name":"外国餐厅","address":"上海市 滨江大道2600号"},{"poiid":"B2094757D069A3F8409A","title":"中央大厦","lon":"121.49451437013","lat":"31.24349460374","category":"46","category_name":"楼宇","address":"上海市四川中路321号"},{"poiid":"B2094752D66FAAFA439A","title":"Kathleen Waitan","lon":"121.494514","lat":"31.245559","category":"247","category_name":"餐饮美食","address":"黄浦路200号"},{"poiid":"B2094655D268A7F5489F","title":"汉庭酒店（外滩外白渡桥店）","lon":"121.49462","lat":"31.24575","category":"216","category_name":"经济型连锁酒店","address":"上海虹口区黄浦路200号A(近外白渡桥)  "},{"poiid":"B2094757D069AAFF4192","title":"COSTA COFFEE (星展店)","lon":"121.50335442","lat":"31.241647043","category":"65","category_name":"咖啡厅","address":"浦东新区陆家嘴环路1318号星展银行大厦B104号商铺(近海洋水族馆)"},{"poiid":"B2094757D16BABFB489A","title":"上海海洋水族馆(极地馆区)","lon":"121.501246","lat":"31.239975","category":"249","category_name":"购物服务","address":"上海市浦东新区陆家嘴环路1388号"},{"poiid":"B2094757D16FA3FE429D","title":"上海现代服务业联合会","lon":"121.49942873","lat":"31.242220555","category":"500","category_name":"未知分类","address":"上海市滨江大道2525弄5号A幢"},{"poiid":"B2094750DB6EA6F8429A","title":"上海苏荷国际青年旅舍外滩店","lon":"121.494377","lat":"31.244222","category":"251","category_name":"出行住宿","address":"虹口区大名路239号(近南浔路)"},{"poiid":"B2094655D36CA6FB4992","title":"东大名路旅顺路","lon":"121.49738","lat":"31.24778","category":"38","category_name":"公交车站","address":""},{"poiid":"B2094757DB69A6F84493","title":"hoF bar&brasserie","lon":"121.497146","lat":"31.241518","category":"247","category_name":"餐饮美食","address":"陆家嘴环路1318号"},{"poiid":"B2094655D268A7FF449E","title":"上海北外滩白玉兰广场","lon":"121.49682","lat":"31.24851","category":"119","category_name":"商场","address":""},{"poiid":"B2094757D068A3FE4998","title":"火车头","lon":"121.50325071","lat":"31.241650306","category":"99","category_name":"泰国／越南菜品餐厅","address":"浦东新区陆家嘴环路1318号星展银行大厦B1楼02号(东园路陆家嘴环路)"},{"poiid":"B2094757D065ABF4499A","title":"东方明珠观光走廊","lon":"121.4993702","lat":"31.239805224","category":"500","category_name":"未知分类","address":"上海陆家嘴"},{"poiid":"B2094752D069A2FF419A","title":"新白鹿","lon":"121.4996283","lat":"31.2488492","category":"247","category_name":"餐饮美食","address":"南京东路800号东方商厦9楼"},{"poiid":"B2094752D36BABF8459D","title":"星巴克(国际港务大厦店)","lon":"121.49583","lat":"31.2467","category":"247","category_name":"餐饮美食","address":"虹口区东大名路358号国际港务大厦内(近太平路)"},{"poiid":"B2094757D16AA7FE459C","title":"宜芝多(静安寺)","lon":"121.498605538","lat":"31.2444066023","category":"500","category_name":"未知分类","address":"上海静安寺"},{"poiid":"B2094753D66AA5F4429C","title":"苏荷国际青年旅社（外滩店）","lon":"121.498199","lat":"31.244382","category":"500","category_name":"未知分类","address":"上海市 上海市虹口区大名路239号"},{"poiid":"B209475CD06BA3F8469E","title":"蒗葶泰式酒吧餐厅 滨江大道店","lon":"121.49945","lat":"31.24193","category":"99","category_name":"泰国／越南菜品餐厅","address":"陆家嘴滨江大道2600号(近东园路)"},{"poiid":"B2094757D16DA5F5469C","title":"DIESEL (国金中心店)","lon":"121.50080905","lat":"31.24400486","category":"500","category_name":"未知分类","address":"浦东新区世纪大道8号国金中心商场B1楼(近东泰路)"},{"poiid":"B2094751DA65A0F8419A","title":"东方明珠塔267m旋转餐厅","lon":"121.500593","lat":"31.241033","category":"247","category_name":"餐饮美食","address":null},{"poiid":"B2094654DB6BA4F54899","title":"东方明珠演艺剧场","lon":"121.49967","lat":"31.23988","category":"180","category_name":"剧场","address":"浦东新区浦东世纪大道1号东方明珠塔8号门(近二号线陆家嘴站)"},{"poiid":"B2094655D26DA5FE4898","title":"滨江大道(三号门)","lon":"121.49707","lat":"31.24047","category":"116","category_name":"特色商业街","address":""},{"poiid":"B2094655D26DA2FE469E","title":"中欧陆家嘴国际金融研究院","lon":"121.50205","lat":"31.24154","category":"191","category_name":"科研机构","address":""},{"poiid":"B2094757DA69A1FC4098","title":"皇家加勒比国际游轮","lon":"121.49591","lat":"31.24677","category":"254","category_name":"售票处","address":"东大名路358号国际港务大厦"},{"poiid":"B2094750D66AA0FB469A","title":"上海昆虫馆","lon":"121.501121","lat":"31.243379","category":"500","category_name":"未知分类","address":"陆家嘴丰和路1号"},{"poiid":"B2094753D36EA2FD4299","title":"滨江3号","lon":"121.500732","lat":"31.24251","category":"47","category_name":"住宅区","address":"滨江大道2550号"},{"poiid":"B2094757D468ABFD4692","title":"壹萃NCE","lon":"121.50335","lat":"31.241352","category":"72","category_name":"广东菜","address":"浦东新区陆家嘴环路1318号星展银行大厦B103-01单元(近正大广场)"},{"poiid":"B2094750DB6CA1FB4199","title":"上海国际客运中心","lon":"121.496757","lat":"31.245241","category":"500","category_name":"未知分类","address":null},{"poiid":"B209475CD169A0FB419C","title":"浦东新区滨江大道","lon":"121.501388","lat":"31.243095","category":"500","category_name":"未知分类","address":"上海市 浦东新区滨江大道"},{"poiid":"B2094655D26FAAF8489D","title":"港务大厦","lon":"121.504","lat":"31.2459","category":"46","category_name":"楼宇","address":"丰和路1号"},{"poiid":"B209475CD76CABFA4499","title":"VUE BAR","lon":"121.49652","lat":"31.242668","category":"500","category_name":"未知分类","address":"上海市 上海外滩茂悦大酒店"},{"poiid":"B2094750DA6EA1FF4793","title":"金茂九重天酒吧","lon":"121.498138","lat":"31.240051","category":"248","category_name":"生活娱乐","address":"浦东新区世纪大道88号"},{"poiid":"B2094655D26BA1F4419A","title":"陆家嘴环路百步街(海洋水族馆)","lon":"121.50191","lat":"31.24017","category":"38","category_name":"公交车站","address":""},{"poiid":"B2094654DA6FA7FC449A","title":"东方明珠广播电视塔","lon":"121.49967","lat":"31.23988","category":"240","category_name":"国家级景点","address":"浦东浦东新区世纪大道1号"},{"poiid":"B2094654DA6FA7FD459E","title":"上海海洋水族馆","lon":"121.50194","lat":"31.24064","category":"199","category_name":"水族馆","address":"上海市浦东新区陆家嘴环路1388号"},{"poiid":"B2094757D06FA7FE419F","title":"上海国际港务大厦","lon":"121.49573516","lat":"31.246837616","category":"46","category_name":"楼宇","address":"上海东大名路358号"},{"poiid":"B209475CD564A7F84392","title":"上海滩浦东香格里拉店","lon":"121.50058","lat":"31.23634","category":"119","category_name":"商场","address":"浦东富成路33号香格里拉酒店内大堂层"},{"poiid":"B2094655D26DAAF8459A","title":"The Kitchen Salvatore Cuomo","lon":"121.49733","lat":"31.24084","category":"94","category_name":"西餐厅","address":"浦东新区陆家嘴西路2967号D座(近丰和路滨江大道海鸥舫)"},{"poiid":"B2094757D064ABF5479C","title":"Tavola Italian Dining","lon":"121.502135738","lat":"31.2423945594","category":"500","category_name":"未知分类","address":"上海浦东新区滨江大道2500号"},{"poiid":"B2094654DA6FA7F8429F","title":"远洋海星旋转餐厅","lon":"121.49625","lat":"31.24696","category":"257","category_name":"中餐厅","address":"虹口区东大名路378号远洋大厦28楼(近旅顺路)"},{"poiid":"B2094655D26DA3FF489B","title":"外滩12号大楼","lon":"121.497","lat":"31.2418","category":"46","category_name":"楼宇","address":"黄浦区中山东一路12号"},{"poiid":"B2094750D26AA6FB489F","title":"北外滩滨江绿地","lon":"121.499412","lat":"31.243846","category":"248","category_name":"生活娱乐","address":"东大名路新建路"},{"poiid":"B2094757D068AAF9489B","title":"海逸海鲜(滨江大道店)","lon":"121.5021791","lat":"31.242800436","category":"72","category_name":"广东菜","address":"浦东新区滨江大道2450号(近星展银行大厦停车场)"},{"poiid":"B2094750D26FA3FE4698","title":"上海大自然野生昆虫馆","lon":"121.497772","lat":"31.240335","category":"627","category_name":"一般地点标志","address":"上海市浦东新区丰和路1号"},{"poiid":"B2094757D06AA1FC489E","title":"上海港","lon":"121.497051","lat":"31.247305","category":"500","category_name":"未知分类","address":"上海东大名路500号"},{"poiid":"B2094654DA6FA4F94593","title":"新黄浦金融大厦","lon":"121.495","lat":"31.2443","category":"46","category_name":"楼宇","address":"黄浦区南京东路61号"},{"poiid":"B2094750D165A1FA4193","title":"小杨生煎","lon":"121.501","lat":"31.2401","category":"68","category_name":"快餐厅","address":"浦东新区陆家嘴环路1396号陆家嘴景庭1楼(海洋水族馆旁)"},{"poiid":"B2094654DA6FA7FD499F","title":"东方明珠游船码头","lon":"121.49693","lat":"31.24078","category":"34","category_name":"港口码头","address":"滨江大道2852号"},{"poiid":"B2094757D064A3F8429D","title":"上海建工集团总公司","lon":"121.501623103","lat":"31.2491349775","category":"263","category_name":"公司","address":"上海市虹口区东大名路666号"},{"poiid":"B2094757D168AAF44793","title":"Tavola","lon":"121.50140267","lat":"31.242693473","category":"94","category_name":"西餐厅","address":"浦东新区滨江大道2500号(近星展银行)"},{"poiid":"B2094752D66FA2F4479A","title":"蒗葶泰式酒吧餐厅","lon":"121.498146","lat":"31.241444","category":"256","category_name":"外国餐厅","address":"上海市 滨江大道2600号"},{"poiid":"B2094757D069A3F8409A","title":"中央大厦","lon":"121.49451437013","lat":"31.24349460374","category":"46","category_name":"楼宇","address":"上海市四川中路321号"},{"poiid":"B2094752D66FAAFA439A","title":"Kathleen Waitan","lon":"121.494514","lat":"31.245559","category":"247","category_name":"餐饮美食","address":"黄浦路200号"},{"poiid":"B2094655D268A7F5489F","title":"汉庭酒店（外滩外白渡桥店）","lon":"121.49462","lat":"31.24575","category":"216","category_name":"经济型连锁酒店","address":"上海虹口区黄浦路200号A(近外白渡桥)  "},{"poiid":"B2094757D069AAFF4192","title":"COSTA COFFEE (星展店)","lon":"121.50335442","lat":"31.241647043","category":"65","category_name":"咖啡厅","address":"浦东新区陆家嘴环路1318号星展银行大厦B104号商铺(近海洋水族馆)"},{"poiid":"B2094757D16BABFB489A","title":"上海海洋水族馆(极地馆区)","lon":"121.501246","lat":"31.239975","category":"249","category_name":"购物服务","address":"上海市浦东新区陆家嘴环路1388号"},{"poiid":"B2094757D16FA3FE429D","title":"上海现代服务业联合会","lon":"121.49942873","lat":"31.242220555","category":"500","category_name":"未知分类","address":"上海市滨江大道2525弄5号A幢"},{"poiid":"B2094750DB6EA6F8429A","title":"上海苏荷国际青年旅舍外滩店","lon":"121.494377","lat":"31.244222","category":"251","category_name":"出行住宿","address":"虹口区大名路239号(近南浔路)"},{"poiid":"B2094655D36CA6FB4992","title":"东大名路旅顺路","lon":"121.49738","lat":"31.24778","category":"38","category_name":"公交车站","address":""},{"poiid":"B2094757DB69A6F84493","title":"hoF bar&brasserie","lon":"121.497146","lat":"31.241518","category":"247","category_name":"餐饮美食","address":"陆家嘴环路1318号"},{"poiid":"B2094655D268A7FF449E","title":"上海北外滩白玉兰广场","lon":"121.49682","lat":"31.24851","category":"119","category_name":"商场","address":""},{"poiid":"B2094757D068A3FE4998","title":"火车头","lon":"121.50325071","lat":"31.241650306","category":"99","category_name":"泰国／越南菜品餐厅","address":"浦东新区陆家嘴环路1318号星展银行大厦B1楼02号(东园路陆家嘴环路)"},{"poiid":"B2094757D065ABF4499A","title":"东方明珠观光走廊","lon":"121.4993702","lat":"31.239805224","category":"500","category_name":"未知分类","address":"上海陆家嘴"},{"poiid":"B2094752D069A2FF419A","title":"新白鹿","lon":"121.4996283","lat":"31.2488492","category":"247","category_name":"餐饮美食","address":"南京东路800号东方商厦9楼"},{"poiid":"B2094752D36BABF8459D","title":"星巴克(国际港务大厦店)","lon":"121.49583","lat":"31.2467","category":"247","category_name":"餐饮美食","address":"虹口区东大名路358号国际港务大厦内(近太平路)"},{"poiid":"B2094757D16AA7FE459C","title":"宜芝多(静安寺)","lon":"121.498605538","lat":"31.2444066023","category":"500","category_name":"未知分类","address":"上海静安寺"},{"poiid":"B2094753D66AA5F4429C","title":"苏荷国际青年旅社（外滩店）","lon":"121.498199","lat":"31.244382","category":"500","category_name":"未知分类","address":"上海市 上海市虹口区大名路239号"},{"poiid":"B209475CD06BA3F8469E","title":"蒗葶泰式酒吧餐厅 滨江大道店","lon":"121.49945","lat":"31.24193","category":"99","category_name":"泰国／越南菜品餐厅","address":"陆家嘴滨江大道2600号(近东园路)"},{"poiid":"B2094757D16DA5F5469C","title":"DIESEL (国金中心店)","lon":"121.50080905","lat":"31.24400486","category":"500","category_name":"未知分类","address":"浦东新区世纪大道8号国金中心商场B1楼(近东泰路)"},{"poiid":"B2094751DA65A0F8419A","title":"东方明珠塔267m旋转餐厅","lon":"121.500593","lat":"31.241033","category":"247","category_name":"餐饮美食","address":null},{"poiid":"B2094654DB6BA4F54899","title":"东方明珠演艺剧场","lon":"121.49967","lat":"31.23988","category":"180","category_name":"剧场","address":"浦东新区浦东世纪大道1号东方明珠塔8号门(近二号线陆家嘴站)"},{"poiid":"B2094655D26DA5FE4898","title":"滨江大道(三号门)","lon":"121.49707","lat":"31.24047","category":"116","category_name":"特色商业街","address":""},{"poiid":"B2094655D26DA2FE469E","title":"中欧陆家嘴国际金融研究院","lon":"121.50205","lat":"31.24154","category":"191","category_name":"科研机构","address":""},{"poiid":"B2094757DA69A1FC4098","title":"皇家加勒比国际游轮","lon":"121.49591","lat":"31.24677","category":"254","category_name":"售票处","address":"东大名路358号国际港务大厦"},{"poiid":"B2094750D66AA0FB469A","title":"上海昆虫馆","lon":"121.501121","lat":"31.243379","category":"500","category_name":"未知分类","address":"陆家嘴丰和路1号"},{"poiid":"B2094753D36EA2FD4299","title":"滨江3号","lon":"121.500732","lat":"31.24251","category":"47","category_name":"住宅区","address":"滨江大道2550号"},{"poiid":"B2094757D468ABFD4692","title":"壹萃NCE","lon":"121.50335","lat":"31.241352","category":"72","category_name":"广东菜","address":"浦东新区陆家嘴环路1318号星展银行大厦B103-01单元(近正大广场)"},{"poiid":"B2094750DB6CA1FB4199","title":"上海国际客运中心","lon":"121.496757","lat":"31.245241","category":"500","category_name":"未知分类","address":null},{"poiid":"B209475CD169A0FB419C","title":"浦东新区滨江大道","lon":"121.501388","lat":"31.243095","category":"500","category_name":"未知分类","address":"上海市 浦东新区滨江大道"},{"poiid":"B2094655D26FAAF8489D","title":"港务大厦","lon":"121.504","lat":"31.2459","category":"46","category_name":"楼宇","address":"丰和路1号"},{"poiid":"B209475CD76CABFA4499","title":"VUE BAR","lon":"121.49652","lat":"31.242668","category":"500","category_name":"未知分类","address":"上海市 上海外滩茂悦大酒店"},{"poiid":"B2094750DA6EA1FF4793","title":"金茂九重天酒吧","lon":"121.498138","lat":"31.240051","category":"248","category_name":"生活娱乐","address":"浦东新区世纪大道88号"},{"poiid":"B2094655D26BA1F4419A","title":"陆家嘴环路百步街(海洋水族馆)","lon":"121.50191","lat":"31.24017","category":"38","category_name":"公交车站","address":""}]