[{"poiid":"B2094757D06FA2FE4698","title":"黑方日本料理","lon":"121.46039473","lat":"31.224688182","category":"95","category_name":"日本料理","address":"茂名北路65号2号楼112-113室近威海路"},{"poiid":"B2094757D064A5F94493","title":"岩日本料理","lon":"121.459654038","lat":"31.2223299317","category":"95","category_name":"日本料理","address":"卢湾区巨鹿路294号(近茂名南路)"},{"poiid":"B2094757D16FA7FD459E","title":"小杨生煎","lon":"121.45825073","lat":"31.225055189","category":"247","category_name":"餐饮美食","address":"静安区南京西路"},{"poiid":"B2094753D76FAAFA449C","title":"上海滩国泰旗舰店","lon":"121.466011","lat":"31.216125","category":"249","category_name":"购物服务","address":"淮海中路868号"},{"poiid":"B209475CD564A7F84292","title":"上海滩新天地店","lon":"121.47463","lat":"31.22164","category":"119","category_name":"商场","address":"\"太仓路181弄新天地北里15号\r\n\""},{"poiid":"B209475CD564A7F8439E","title":"上海滩中信泰富店","lon":"121.45602","lat":"31.22851","category":"119","category_name":"商场","address":"\"南京西路1168号中信泰富广场，店铺号221.\r\n\""},{"poiid":"B2094757D064AAFF4898","title":"韩国艺匠婚纱摄影","lon":"121.460858238","lat":"31.2248422003","category":"611","category_name":"照相馆","address":"长宁区江苏路40号（近长宁路）"},{"poiid":"B2094757D068A0F9439B","title":"茂名南路","lon":"121.46024322","lat":"31.22309494","category":"260","category_name":"其他","address":"上海静安区茂名南路"},{"poiid":"B2094757D06EAAF9489F","title":"宗祠 KIN","lon":"121.45915473","lat":"31.225732204","category":"67","category_name":"甜品店","address":"静安区茂名北路65号103(近延安中路)"},{"poiid":"B2094757D66CA0F4489E","title":"静安小亭","lon":"121.45834573","lat":"31.225122191","category":"500","category_name":"未知分类","address":"上海市静安区南京西路"},{"poiid":"B2094757D06FA0F5429B","title":"沈坚强游泳俱乐部(威海路店)","lon":"121.45899","lat":"31.22599","category":"220","category_name":"运动场所","address":"静安区威海路681号(近茂名北路)"},{"poiid":"B2094757D168AAF5499F","title":"伊秀寿司","lon":"121.45819373","lat":"31.224303173","category":"247","category_name":"餐饮美食","address":"上海市静安区南京西路"},{"poiid":"B2094750D26AA6FC429F","title":"恒隆","lon":"121.458969","lat":"31.223642","category":"500","category_name":"未知分类","address":"南京西路"},{"poiid":"B2094757D06EAAF44893","title":"DIY  SWEET","lon":"121.460994","lat":"31.225128","category":"67","category_name":"甜品店","address":"升平街15号近茂名北路"},{"poiid":"B2094757D169A7F8429C","title":"双叶居热气羊肉","lon":"121.46038873","lat":"31.223887164","category":"86","category_name":"火锅店","address":"静安区延安中路724号(近茂名北路)"},{"poiid":"B2094654D564ABF4449C","title":"襄阳大楼","lon":"121.462","lat":"31.2247","category":"46","category_name":"楼宇","address":"昌平区回龙观镇国际信息产业基地高新二街"},{"poiid":"B2094654DA6CA1F9479F","title":"上海市中医医院门诊部","lon":"121.4627","lat":"31.22518","category":"162","category_name":"医院","address":"石门一路67弄1乙"},{"poiid":"B2094654DA6CA1F5419B","title":"香港名城火锅","lon":"121.45931","lat":"31.2243","category":"86","category_name":"火锅店","address":"静安区延安中路802号(近茂名北路)"},{"poiid":"B2094752DA6CA1FE469E","title":"啡你啡思 Faneeface Cafe","lon":"121.460765","lat":"31.227147","category":"247","category_name":"餐饮美食","address":"大沽路"},{"poiid":"B2094757D164A6F4439A","title":"巨鹿路","lon":"121.459033","lat":"31.222743","category":"500","category_name":"未知分类","address":"上海巨鹿路318号"},{"poiid":"B2094757D068A0FB459C","title":"上海国际集团大厦","lon":"121.461769104","lat":"31.2266635895","category":"46","category_name":"楼宇","address":"上海威海路511号"},{"poiid":"B2094757D66FA7FF469A","title":"陕西大厦商务酒店","lon":"121.462763238","lat":"31.2241532706","category":"500","category_name":"未知分类","address":"静安区延安中路658号(近陕西北路)"},{"poiid":"B2094757D16CABFB4599","title":"上汽大厦","lon":"121.462093738","lat":"31.2264542196","category":"46","category_name":"楼宇","address":"上海市静安区威海路489号"},{"poiid":"B2094757DB6CABF5469D","title":"1号线徐家汇站","lon":"121.462175","lat":"31.224322","category":"627","category_name":"一般地点标志","address":"徐家汇"},{"poiid":"B2094654D564ABFE469F","title":"悟锦世纪大楼","lon":"121.459","lat":"31.2237","category":"46","category_name":"楼宇","address":"富民路291号"},{"poiid":"B2094757D06FA5FB4892","title":"Chill Lounge","lon":"121.459104395","lat":"31.2228115434","category":"260","category_name":"其他","address":"卢湾区巨鹿路318-2号(近茂名南路)"},{"poiid":"B209475CD76CA7F4479C","title":"一风堂","lon":"121.462356","lat":"31.225759","category":"500","category_name":"未知分类","address":"上海市 静安区吴江路169号1层142号"},{"poiid":"B2094757D06BABFB4692","title":"延安路高架","lon":"121.45920679","lat":"31.223764255","category":"500","category_name":"未知分类","address":"上海延安路"},{"poiid":"B2094757D06BA5FA409B","title":"恒隆广场停车场","lon":"121.45838165","lat":"31.225849151","category":"260","category_name":"其他","address":"上海静安区南京西路1266号(近陕西北路) "},{"poiid":"B2094757D064ABFF4092","title":"秦粤轩","lon":"121.46102","lat":"31.22384","category":"84","category_name":"西北菜","address":"静安区延安中路658号陕西大厦商务酒店4楼(近茂名北路)"},{"poiid":"B2094654DA6CA1F84598","title":"绅士大厦","lon":"121.46167","lat":"31.22651","category":"46","category_name":"楼宇","address":"静安区上海市威海路511号"},{"poiid":"B2094751D36AA6F54898","title":"The Grumpy Pig","lon":"121.46061","lat":"31.22496","category":"94","category_name":"西餐厅","address":"静安区茂名北路65号(近延安路)"},{"poiid":"B2094654DA6CA1F44692","title":"上海毛泽东旧居","lon":"121.46047","lat":"31.22611","category":"243","category_name":"纪念馆","address":"静安区茂名北路120弄5-9号"},{"poiid":"B209475DD668A5FD499E","title":"名城煲王","lon":"121.459434","lat":"31.224061","category":"247","category_name":"餐饮美食","address":"上海市 上海延安中路802号"},{"poiid":"B2094757D068A4FF479E","title":"埃洛美甲(威海店)","lon":"121.45928","lat":"31.22633","category":"122","category_name":"个人用品/化妆品店","address":"静安区威海路674号(近茂名北路)"},{"poiid":"B2094757D068A7FD409B","title":"六佰碗","lon":"121.4604187","lat":"31.226131439","category":"68","category_name":"快餐厅","address":"静安区茂名北路148号(近威海路)"},{"poiid":"B2094757D06AA3F8499C","title":"梅龙镇8楼美国领馆驻上海办事处","lon":"121.45987473","lat":"31.226206214","category":"500","category_name":"未知分类","address":"上海市静安区陕西北路"},{"poiid":"B2094753D164A7F4409F","title":"阿吾羅日料•铁板烧","lon":"121.460084","lat":"31.223214","category":"247","category_name":"餐饮美食","address":"上海市 淮海中路300号K11艺术购物中心407单元"},{"poiid":"B2094751D26BA4FD4699","title":"蜀公馆","lon":"121.4591684","lat":"31.2252296","category":"247","category_name":"餐饮美食","address":"淮海中路776号"},{"poiid":"B209475CD565A4F54793","title":"HARU KITCHEN","lon":"121.461441","lat":"31.223556","category":"500","category_name":"未知分类","address":"上海市 陝西北路66號"},{"poiid":"B2094757D064AAFD489C","title":"五季坊保健会所","lon":"121.462259","lat":"31.223408","category":"149","category_name":"洗浴推拿场所","address":"徐汇区襄阳北路100号2楼(近淮海中路)"},{"poiid":"B2094655D26DA3FE4698","title":"泰王国驻上海总领事馆(威海路)","lon":"121.46094","lat":"31.22665","category":"252","category_name":"楼宇机构","address":"威海路567-579号晶采世纪大厦15A-C"},{"poiid":"B2094654D564ABFD4192","title":"大班商务中心","lon":"121.461","lat":"31.2224","category":"46","category_name":"楼宇","address":"浦东区崂山东路410号"},{"poiid":"B2094654DA6CA1F94999","title":"上尊国际商务中心","lon":"121.46261","lat":"31.22426","category":"46","category_name":"楼宇","address":"上海市虹口区四川北路1318号"},{"poiid":"B2094654DB69A7FF489A","title":"上海市虹口足球场体育健身活动中心","lon":"121.46127","lat":"31.22672","category":"230","category_name":"足球场","address":"虹口区威海路681号"},{"poiid":"B2094750D76DA2FD4093","title":"台巴子鲁肉饭","lon":"121.459","lat":"31.2264","category":"68","category_name":"快餐厅","address":"静安区威海路665弄14号(近茂名路)"},{"poiid":"B2094655D26AA0F44692","title":"哈达瑜伽会所茂名南路店","lon":"121.46102","lat":"31.22355","category":"247","category_name":"餐饮美食","address":"卢湾区茂名南路1号(近陕西南路)"},{"poiid":"B209475CD265A4F5459D","title":"牛阿哥打边炉 茂名北路店","lon":"121.46052389225","lat":"31.225406737199","category":"86","category_name":"火锅店","address":"茂名北路94号(近威海路)"},{"poiid":"B2094654DB64A6FB479D","title":"汉庭快捷(茂名路店)","lon":"121.46038","lat":"31.22323","category":"216","category_name":"经济型连锁酒店","address":"卢湾区茂名南路8号(近延安中路路口)"},{"poiid":"B2094655D26DA3FC419F","title":"陕西大厦(延安中路)","lon":"121.46134","lat":"31.22422","category":"46","category_name":"楼宇","address":"延安中路658"},{"poiid":"B2094757D06FA2FE4698","title":"黑方日本料理","lon":"121.46039473","lat":"31.224688182","category":"95","category_name":"日本料理","address":"茂名北路65号2号楼112-113室近威海路"},{"poiid":"B2094757D064A5F94493","title":"岩日本料理","lon":"121.459654038","lat":"31.2223299317","category":"95","category_name":"日本料理","address":"卢湾区巨鹿路294号(近茂名南路)"},{"poiid":"B2094757D16FA7FD459E","title":"小杨生煎","lon":"121.45825073","lat":"31.225055189","category":"247","category_name":"餐饮美食","address":"静安区南京西路"},{"poiid":"B2094753D76FAAFA449C","title":"上海滩国泰旗舰店","lon":"121.466011","lat":"31.216125","category":"249","category_name":"购物服务","address":"淮海中路868号"},{"poiid":"B209475CD564A7F84292","title":"上海滩新天地店","lon":"121.47463","lat":"31.22164","category":"119","category_name":"商场","address":"\"太仓路181弄新天地北里15号\r\n\""},{"poiid":"B209475CD564A7F8439E","title":"上海滩中信泰富店","lon":"121.45602","lat":"31.22851","category":"119","category_name":"商场","address":"\"南京西路1168号中信泰富广场，店铺号221.\r\n\""},{"poiid":"B2094757D064AAFF4898","title":"韩国艺匠婚纱摄影","lon":"121.460858238","lat":"31.2248422003","category":"611","category_name":"照相馆","address":"长宁区江苏路40号（近长宁路）"},{"poiid":"B2094757D068A0F9439B","title":"茂名南路","lon":"121.46024322","lat":"31.22309494","category":"260","category_name":"其他","address":"上海静安区茂名南路"},{"poiid":"B2094757D06EAAF9489F","title":"宗祠 KIN","lon":"121.45915473","lat":"31.225732204","category":"67","category_name":"甜品店","address":"静安区茂名北路65号103(近延安中路)"},{"poiid":"B2094757D66CA0F4489E","title":"静安小亭","lon":"121.45834573","lat":"31.225122191","category":"500","category_name":"未知分类","address":"上海市静安区南京西路"},{"poiid":"B2094757D06FA0F5429B","title":"沈坚强游泳俱乐部(威海路店)","lon":"121.45899","lat":"31.22599","category":"220","category_name":"运动场所","address":"静安区威海路681号(近茂名北路)"},{"poiid":"B2094757D168AAF5499F","title":"伊秀寿司","lon":"121.45819373","lat":"31.224303173","category":"247","category_name":"餐饮美食","address":"上海市静安区南京西路"},{"poiid":"B2094750D26AA6FC429F","title":"恒隆","lon":"121.458969","lat":"31.223642","category":"500","category_name":"未知分类","address":"南京西路"},{"poiid":"B2094757D06EAAF44893","title":"DIY  SWEET","lon":"121.460994","lat":"31.225128","category":"67","category_name":"甜品店","address":"升平街15号近茂名北路"},{"poiid":"B2094757D169A7F8429C","title":"双叶居热气羊肉","lon":"121.46038873","lat":"31.223887164","category":"86","category_name":"火锅店","address":"静安区延安中路724号(近茂名北路)"},{"poiid":"B2094654D564ABF4449C","title":"襄阳大楼","lon":"121.462","lat":"31.2247","category":"46","category_name":"楼宇","address":"昌平区回龙观镇国际信息产业基地高新二街"},{"poiid":"B2094654DA6CA1F9479F","title":"上海市中医医院门诊部","lon":"121.4627","lat":"31.22518","category":"162","category_name":"医院","address":"石门一路67弄1乙"},{"poiid":"B2094654DA6CA1F5419B","title":"香港名城火锅","lon":"121.45931","lat":"31.2243","category":"86","category_name":"火锅店","address":"静安区延安中路802号(近茂名北路)"},{"poiid":"B2094752DA6CA1FE469E","title":"啡你啡思 Faneeface Cafe","lon":"121.460765","lat":"31.227147","category":"247","category_name":"餐饮美食","address":"大沽路"},{"poiid":"B2094757D164A6F4439A","title":"巨鹿路","lon":"121.459033","lat":"31.222743","category":"500","category_name":"未知分类","address":"上海巨鹿路318号"},{"poiid":"B2094757D068A0FB459C","title":"上海国际集团大厦","lon":"121.461769104","lat":"31.2266635895","category":"46","category_name":"楼宇","address":"上海威海路511号"},{"poiid":"B2094757D66FA7FF469A","title":"陕西大厦商务酒店","lon":"121.462763238","lat":"31.2241532706","category":"500","category_name":"未知分类","address":"静安区延安中路658号(近陕西北路)"},{"poiid":"B2094757D16CABFB4599","title":"上汽大厦","lon":"121.462093738","lat":"31.2264542196","category":"46","category_name":"楼宇","address":"上海市静安区威海路489号"},{"poiid":"B2094757DB6CABF5469D","title":"1号线徐家汇站","lon":"121.462175","lat":"31.224322","category":"627","category_name":"一般地点标志","address":"徐家汇"},{"poiid":"B2094654D564ABFE469F","title":"悟锦世纪大楼","lon":"121.459","lat":"31.2237","category":"46","category_name":"楼宇","address":"富民路291号"},{"poiid":"B2094757D06FA5FB4892","title":"Chill Lounge","lon":"121.459104395","lat":"31.2228115434","category":"260","category_name":"其他","address":"卢湾区巨鹿路318-2号(近茂名南路)"},{"poiid":"B209475CD76CA7F4479C","title":"一风堂","lon":"121.462356","lat":"31.225759","category":"500","category_name":"未知分类","address":"上海市 静安区吴江路169号1层142号"},{"poiid":"B2094757D06BABFB4692","title":"延安路高架","lon":"121.45920679","lat":"31.223764255","category":"500","category_name":"未知分类","address":"上海延安路"},{"poiid":"B2094757D06BA5FA409B","title":"恒隆广场停车场","lon":"121.45838165","lat":"31.225849151","category":"260","category_name":"其他","address":"上海静安区南京西路1266号(近陕西北路) "},{"poiid":"B2094757D064ABFF4092","title":"秦粤轩","lon":"121.46102","lat":"31.22384","category":"84","category_name":"西北菜","address":"静安区延安中路658号陕西大厦商务酒店4楼(近茂名北路)"},{"poiid":"B2094654DA6CA1F84598","title":"绅士大厦","lon":"121.46167","lat":"31.22651","category":"46","category_name":"楼宇","address":"静安区上海市威海路511号"},{"poiid":"B2094751D36AA6F54898","title":"The Grumpy Pig","lon":"121.46061","lat":"31.22496","category":"94","category_name":"西餐厅","address":"静安区茂名北路65号(近延安路)"},{"poiid":"B2094654DA6CA1F44692","title":"上海毛泽东旧居","lon":"121.46047","lat":"31.22611","category":"243","category_name":"纪念馆","address":"静安区茂名北路120弄5-9号"},{"poiid":"B209475DD668A5FD499E","title":"名城煲王","lon":"121.459434","lat":"31.224061","category":"247","category_name":"餐饮美食","address":"上海市 上海延安中路802号"},{"poiid":"B2094757D068A4FF479E","title":"埃洛美甲(威海店)","lon":"121.45928","lat":"31.22633","category":"122","category_name":"个人用品/化妆品店","address":"静安区威海路674号(近茂名北路)"},{"poiid":"B2094757D068A7FD409B","title":"六佰碗","lon":"121.4604187","lat":"31.226131439","category":"68","category_name":"快餐厅","address":"静安区茂名北路148号(近威海路)"},{"poiid":"B2094757D06AA3F8499C","title":"梅龙镇8楼美国领馆驻上海办事处","lon":"121.45987473","lat":"31.226206214","category":"500","category_name":"未知分类","address":"上海市静安区陕西北路"},{"poiid":"B2094753D164A7F4409F","title":"阿吾羅日料•铁板烧","lon":"121.460084","lat":"31.223214","category":"247","category_name":"餐饮美食","address":"上海市 淮海中路300号K11艺术购物中心407单元"},{"poiid":"B2094751D26BA4FD4699","title":"蜀公馆","lon":"121.4591684","lat":"31.2252296","category":"247","category_name":"餐饮美食","address":"淮海中路776号"},{"poiid":"B209475CD565A4F54793","title":"HARU KITCHEN","lon":"121.461441","lat":"31.223556","category":"500","category_name":"未知分类","address":"上海市 陝西北路66號"},{"poiid":"B2094757D064AAFD489C","title":"五季坊保健会所","lon":"121.462259","lat":"31.223408","category":"149","category_name":"洗浴推拿场所","address":"徐汇区襄阳北路100号2楼(近淮海中路)"},{"poiid":"B2094655D26DA3FE4698","title":"泰王国驻上海总领事馆(威海路)","lon":"121.46094","lat":"31.22665","category":"252","category_name":"楼宇机构","address":"威海路567-579号晶采世纪大厦15A-C"},{"poiid":"B2094654D564ABFD4192","title":"大班商务中心","lon":"121.461","lat":"31.2224","category":"46","category_name":"楼宇","address":"浦东区崂山东路410号"},{"poiid":"B2094654DA6CA1F94999","title":"上尊国际商务中心","lon":"121.46261","lat":"31.22426","category":"46","category_name":"楼宇","address":"上海市虹口区四川北路1318号"},{"poiid":"B2094654DB69A7FF489A","title":"上海市虹口足球场体育健身活动中心","lon":"121.46127","lat":"31.22672","category":"230","category_name":"足球场","address":"虹口区威海路681号"},{"poiid":"B2094750D76DA2FD4093","title":"台巴子鲁肉饭","lon":"121.459","lat":"31.2264","category":"68","category_name":"快餐厅","address":"静安区威海路665弄14号(近茂名路)"},{"poiid":"B2094655D26AA0F44692","title":"哈达瑜伽会所茂名南路店","lon":"121.46102","lat":"31.22355","category":"247","category_name":"餐饮美食","address":"卢湾区茂名南路1号(近陕西南路)"},{"poiid":"B209475CD265A4F5459D","title":"牛阿哥打边炉 茂名北路店","lon":"121.46052389225","lat":"31.225406737199","category":"86","category_name":"火锅店","address":"茂名北路94号(近威海路)"},{"poiid":"B2094654DB64A6FB479D","title":"汉庭快捷(茂名路店)","lon":"121.46038","lat":"31.22323","category":"216","category_name":"经济型连锁酒店","address":"卢湾区茂名南路8号(近延安中路路口)"},{"poiid":"B2094655D26DA3FC419F","title":"陕西大厦(延安中路)","lon":"121.46134","lat":"31.22422","category":"46","category_name":"楼宇","address":"延安中路658"},{"poiid":"B2094757D06FA2FE4698","title":"黑方日本料理","lon":"121.46039473","lat":"31.224688182","category":"95","category_name":"日本料理","address":"茂名北路65号2号楼112-113室近威海路"},{"poiid":"B2094757D064A5F94493","title":"岩日本料理","lon":"121.459654038","lat":"31.2223299317","category":"95","category_name":"日本料理","address":"卢湾区巨鹿路294号(近茂名南路)"},{"poiid":"B2094757D16FA7FD459E","title":"小杨生煎","lon":"121.45825073","lat":"31.225055189","category":"247","category_name":"餐饮美食","address":"静安区南京西路"},{"poiid":"B2094753D76FAAFA449C","title":"上海滩国泰旗舰店","lon":"121.466011","lat":"31.216125","category":"249","category_name":"购物服务","address":"淮海中路868号"},{"poiid":"B209475CD564A7F84292","title":"上海滩新天地店","lon":"121.47463","lat":"31.22164","category":"119","category_name":"商场","address":"\"太仓路181弄新天地北里15号\r\n\""},{"poiid":"B209475CD564A7F8439E","title":"上海滩中信泰富店","lon":"121.45602","lat":"31.22851","category":"119","category_name":"商场","address":"\"南京西路1168号中信泰富广场，店铺号221.\r\n\""},{"poiid":"B2094757D064AAFF4898","title":"韩国艺匠婚纱摄影","lon":"121.460858238","lat":"31.2248422003","category":"611","category_name":"照相馆","address":"长宁区江苏路40号（近长宁路）"},{"poiid":"B2094757D068A0F9439B","title":"茂名南路","lon":"121.46024322","lat":"31.22309494","category":"260","category_name":"其他","address":"上海静安区茂名南路"},{"poiid":"B2094757D06EAAF9489F","title":"宗祠 KIN","lon":"121.45915473","lat":"31.225732204","category":"67","category_name":"甜品店","address":"静安区茂名北路65号103(近延安中路)"},{"poiid":"B2094757D66CA0F4489E","title":"静安小亭","lon":"121.45834573","lat":"31.225122191","category":"500","category_name":"未知分类","address":"上海市静安区南京西路"},{"poiid":"B2094757D06FA0F5429B","title":"沈坚强游泳俱乐部(威海路店)","lon":"121.45899","lat":"31.22599","category":"220","category_name":"运动场所","address":"静安区威海路681号(近茂名北路)"},{"poiid":"B2094757D168AAF5499F","title":"伊秀寿司","lon":"121.45819373","lat":"31.224303173","category":"247","category_name":"餐饮美食","address":"上海市静安区南京西路"},{"poiid":"B2094750D26AA6FC429F","title":"恒隆","lon":"121.458969","lat":"31.223642","category":"500","category_name":"未知分类","address":"南京西路"},{"poiid":"B2094757D06EAAF44893","title":"DIY  SWEET","lon":"121.460994","lat":"31.225128","category":"67","category_name":"甜品店","address":"升平街15号近茂名北路"},{"poiid":"B2094757D169A7F8429C","title":"双叶居热气羊肉","lon":"121.46038873","lat":"31.223887164","category":"86","category_name":"火锅店","address":"静安区延安中路724号(近茂名北路)"},{"poiid":"B2094654D564ABF4449C","title":"襄阳大楼","lon":"121.462","lat":"31.2247","category":"46","category_name":"楼宇","address":"昌平区回龙观镇国际信息产业基地高新二街"},{"poiid":"B2094654DA6CA1F9479F","title":"上海市中医医院门诊部","lon":"121.4627","lat":"31.22518","category":"162","category_name":"医院","address":"石门一路67弄1乙"},{"poiid":"B2094654DA6CA1F5419B","title":"香港名城火锅","lon":"121.45931","lat":"31.2243","category":"86","category_name":"火锅店","address":"静安区延安中路802号(近茂名北路)"},{"poiid":"B2094752DA6CA1FE469E","title":"啡你啡思 Faneeface Cafe","lon":"121.460765","lat":"31.227147","category":"247","category_name":"餐饮美食","address":"大沽路"},{"poiid":"B2094757D164A6F4439A","title":"巨鹿路","lon":"121.459033","lat":"31.222743","category":"500","category_name":"未知分类","address":"上海巨鹿路318号"},{"poiid":"B2094757D068A0FB459C","title":"上海国际集团大厦","lon":"121.461769104","lat":"31.2266635895","category":"46","category_name":"楼宇","address":"上海威海路511号"},{"poiid":"B2094757D66FA7FF469A","title":"陕西大厦商务酒店","lon":"121.462763238","lat":"31.2241532706","category":"500","category_name":"未知分类","address":"静安区延安中路658号(近陕西北路)"},{"poiid":"B2094757D16CABFB4599","title":"上汽大厦","lon":"121.462093738","lat":"31.2264542196","category":"46","category_name":"楼宇","address":"上海市静安区威海路489号"},{"poiid":"B2094757DB6CABF5469D","title":"1号线徐家汇站","lon":"121.462175","lat":"31.224322","category":"627","category_name":"一般地点标志","address":"徐家汇"},{"poiid":"B2094654D564ABFE469F","title":"悟锦世纪大楼","lon":"121.459","lat":"31.2237","category":"46","category_name":"楼宇","address":"富民路291号"},{"poiid":"B2094757D06FA5FB4892","title":"Chill Lounge","lon":"121.459104395","lat":"31.2228115434","category":"260","category_name":"其他","address":"卢湾区巨鹿路318-2号(近茂名南路)"},{"poiid":"B209475CD76CA7F4479C","title":"一风堂","lon":"121.462356","lat":"31.225759","category":"500","category_name":"未知分类","address":"上海市 静安区吴江路169号1层142号"},{"poiid":"B2094757D06BABFB4692","title":"延安路高架","lon":"121.45920679","lat":"31.223764255","category":"500","category_name":"未知分类","address":"上海延安路"},{"poiid":"B2094757D06BA5FA409B","title":"恒隆广场停车场","lon":"121.45838165","lat":"31.225849151","category":"260","category_name":"其他","address":"上海静安区南京西路1266号(近陕西北路) "},{"poiid":"B2094757D064ABFF4092","title":"秦粤轩","lon":"121.46102","lat":"31.22384","category":"84","category_name":"西北菜","address":"静安区延安中路658号陕西大厦商务酒店4楼(近茂名北路)"},{"poiid":"B2094654DA6CA1F84598","title":"绅士大厦","lon":"121.46167","lat":"31.22651","category":"46","category_name":"楼宇","address":"静安区上海市威海路511号"},{"poiid":"B2094751D36AA6F54898","title":"The Grumpy Pig","lon":"121.46061","lat":"31.22496","category":"94","category_name":"西餐厅","address":"静安区茂名北路65号(近延安路)"},{"poiid":"B2094654DA6CA1F44692","title":"上海毛泽东旧居","lon":"121.46047","lat":"31.22611","category":"243","category_name":"纪念馆","address":"静安区茂名北路120弄5-9号"},{"poiid":"B209475DD668A5FD499E","title":"名城煲王","lon":"121.459434","lat":"31.224061","category":"247","category_name":"餐饮美食","address":"上海市 上海延安中路802号"},{"poiid":"B2094757D068A4FF479E","title":"埃洛美甲(威海店)","lon":"121.45928","lat":"31.22633","category":"122","category_name":"个人用品/化妆品店","address":"静安区威海路674号(近茂名北路)"},{"poiid":"B2094757D068A7FD409B","title":"六佰碗","lon":"121.4604187","lat":"31.226131439","category":"68","category_name":"快餐厅","address":"静安区茂名北路148号(近威海路)"},{"poiid":"B2094757D06AA3F8499C","title":"梅龙镇8楼美国领馆驻上海办事处","lon":"121.45987473","lat":"31.226206214","category":"500","category_name":"未知分类","address":"上海市静安区陕西北路"},{"poiid":"B2094753D164A7F4409F","title":"阿吾羅日料•铁板烧","lon":"121.460084","lat":"31.223214","category":"247","category_name":"餐饮美食","address":"上海市 淮海中路300号K11艺术购物中心407单元"},{"poiid":"B2094751D26BA4FD4699","title":"蜀公馆","lon":"121.4591684","lat":"31.2252296","category":"247","category_name":"餐饮美食","address":"淮海中路776号"},{"poiid":"B209475CD565A4F54793","title":"HARU KITCHEN","lon":"121.461441","lat":"31.223556","category":"500","category_name":"未知分类","address":"上海市 陝西北路66號"},{"poiid":"B2094757D064AAFD489C","title":"五季坊保健会所","lon":"121.462259","lat":"31.223408","category":"149","category_name":"洗浴推拿场所","address":"徐汇区襄阳北路100号2楼(近淮海中路)"},{"poiid":"B2094655D26DA3FE4698","title":"泰王国驻上海总领事馆(威海路)","lon":"121.46094","lat":"31.22665","category":"252","category_name":"楼宇机构","address":"威海路567-579号晶采世纪大厦15A-C"},{"poiid":"B2094654D564ABFD4192","title":"大班商务中心","lon":"121.461","lat":"31.2224","category":"46","category_name":"楼宇","address":"浦东区崂山东路410号"},{"poiid":"B2094654DA6CA1F94999","title":"上尊国际商务中心","lon":"121.46261","lat":"31.22426","category":"46","category_name":"楼宇","address":"上海市虹口区四川北路1318号"},{"poiid":"B2094654DB69A7FF489A","title":"上海市虹口足球场体育健身活动中心","lon":"121.46127","lat":"31.22672","category":"230","category_name":"足球场","address":"虹口区威海路681号"},{"poiid":"B2094750D76DA2FD4093","title":"台巴子鲁肉饭","lon":"121.459","lat":"31.2264","category":"68","category_name":"快餐厅","address":"静安区威海路665弄14号(近茂名路)"},{"poiid":"B2094655D26AA0F44692","title":"哈达瑜伽会所茂名南路店","lon":"121.46102","lat":"31.22355","category":"247","category_name":"餐饮美食","address":"卢湾区茂名南路1号(近陕西南路)"},{"poiid":"B209475CD265A4F5459D","title":"牛阿哥打边炉 茂名北路店","lon":"121.46052389225","lat":"31.225406737199","category":"86","category_name":"火锅店","address":"茂名北路94号(近威海路)"},{"poiid":"B2094654DB64A6FB479D","title":"汉庭快捷(茂名路店)","lon":"121.46038","lat":"31.22323","category":"216","category_name":"经济型连锁酒店","address":"卢湾区茂名南路8号(近延安中路路口)"},{"poiid":"B2094655D26DA3FC419F","title":"陕西大厦(延安中路)","lon":"121.46134","lat":"31.22422","category":"46","category_name":"楼宇","address":"延安中路658"},{"poiid":"B2094757D06FA2FE4698","title":"黑方日本料理","lon":"121.46039473","lat":"31.224688182","category":"95","category_name":"日本料理","address":"茂名北路65号2号楼112-113室近威海路"},{"poiid":"B2094757D064A5F94493","title":"岩日本料理","lon":"121.459654038","lat":"31.2223299317","category":"95","category_name":"日本料理","address":"卢湾区巨鹿路294号(近茂名南路)"},{"poiid":"B2094757D16FA7FD459E","title":"小杨生煎","lon":"121.45825073","lat":"31.225055189","category":"247","category_name":"餐饮美食","address":"静安区南京西路"},{"poiid":"B2094753D76FAAFA449C","title":"上海滩国泰旗舰店","lon":"121.466011","lat":"31.216125","category":"249","category_name":"购物服务","address":"淮海中路868号"},{"poiid":"B209475CD564A7F84292","title":"上海滩新天地店","lon":"121.47463","lat":"31.22164","category":"119","category_name":"商场","address":"\"太仓路181弄新天地北里15号\r\n\""},{"poiid":"B209475CD564A7F8439E","title":"上海滩中信泰富店","lon":"121.45602","lat":"31.22851","category":"119","category_name":"商场","address":"\"南京西路1168号中信泰富广场，店铺号221.\r\n\""},{"poiid":"B2094757D064AAFF4898","title":"韩国艺匠婚纱摄影","lon":"121.460858238","lat":"31.2248422003","category":"611","category_name":"照相馆","address":"长宁区江苏路40号（近长宁路）"},{"poiid":"B2094757D068A0F9439B","title":"茂名南路","lon":"121.46024322","lat":"31.22309494","category":"260","category_name":"其他","address":"上海静安区茂名南路"},{"poiid":"B2094757D06EAAF9489F","title":"宗祠 KIN","lon":"121.45915473","lat":"31.225732204","category":"67","category_name":"甜品店","address":"静安区茂名北路65号103(近延安中路)"},{"poiid":"B2094757D66CA0F4489E","title":"静安小亭","lon":"121.45834573","lat":"31.225122191","category":"500","category_name":"未知分类","address":"上海市静安区南京西路"},{"poiid":"B2094757D06FA0F5429B","title":"沈坚强游泳俱乐部(威海路店)","lon":"121.45899","lat":"31.22599","category":"220","category_name":"运动场所","address":"静安区威海路681号(近茂名北路)"},{"poiid":"B2094757D168AAF5499F","title":"伊秀寿司","lon":"121.45819373","lat":"31.224303173","category":"247","category_name":"餐饮美食","address":"上海市静安区南京西路"},{"poiid":"B2094750D26AA6FC429F","title":"恒隆","lon":"121.458969","lat":"31.223642","category":"500","category_name":"未知分类","address":"南京西路"},{"poiid":"B2094757D06EAAF44893","title":"DIY  SWEET","lon":"121.460994","lat":"31.225128","category":"67","category_name":"甜品店","address":"升平街15号近茂名北路"},{"poiid":"B2094757D169A7F8429C","title":"双叶居热气羊肉","lon":"121.46038873","lat":"31.223887164","category":"86","category_name":"火锅店","address":"静安区延安中路724号(近茂名北路)"},{"poiid":"B2094654D564ABF4449C","title":"襄阳大楼","lon":"121.462","lat":"31.2247","category":"46","category_name":"楼宇","address":"昌平区回龙观镇国际信息产业基地高新二街"},{"poiid":"B2094654DA6CA1F9479F","title":"上海市中医医院门诊部","lon":"121.4627","lat":"31.22518","category":"162","category_name":"医院","address":"石门一路67弄1乙"},{"poiid":"B2094654DA6CA1F5419B","title":"香港名城火锅","lon":"121.45931","lat":"31.2243","category":"86","category_name":"火锅店","address":"静安区延安中路802号(近茂名北路)"},{"poiid":"B2094752DA6CA1FE469E","title":"啡你啡思 Faneeface Cafe","lon":"121.460765","lat":"31.227147","category":"247","category_name":"餐饮美食","address":"大沽路"},{"poiid":"B2094757D164A6F4439A","title":"巨鹿路","lon":"121.459033","lat":"31.222743","category":"500","category_name":"未知分类","address":"上海巨鹿路318号"},{"poiid":"B2094757D068A0FB459C","title":"上海国际集团大厦","lon":"121.461769104","lat":"31.2266635895","category":"46","category_name":"楼宇","address":"上海威海路511号"},{"poiid":"B2094757D66FA7FF469A","title":"陕西大厦商务酒店","lon":"121.462763238","lat":"31.2241532706","category":"500","category_name":"未知分类","address":"静安区延安中路658号(近陕西北路)"},{"poiid":"B2094757D16CABFB4599","title":"上汽大厦","lon":"121.462093738","lat":"31.2264542196","category":"46","category_name":"楼宇","address":"上海市静安区威海路489号"},{"poiid":"B2094757DB6CABF5469D","title":"1号线徐家汇站","lon":"121.462175","lat":"31.224322","category":"627","category_name":"一般地点标志","address":"徐家汇"},{"poiid":"B2094654D564ABFE469F","title":"悟锦世纪大楼","lon":"121.459","lat":"31.2237","category":"46","category_name":"楼宇","address":"富民路291号"},{"poiid":"B2094757D06FA5FB4892","title":"Chill Lounge","lon":"121.459104395","lat":"31.2228115434","category":"260","category_name":"其他","address":"卢湾区巨鹿路318-2号(近茂名南路)"},{"poiid":"B209475CD76CA7F4479C","title":"一风堂","lon":"121.462356","lat":"31.225759","category":"500","category_name":"未知分类","address":"上海市 静安区吴江路169号1层142号"},{"poiid":"B2094757D06BABFB4692","title":"延安路高架","lon":"121.45920679","lat":"31.223764255","category":"500","category_name":"未知分类","address":"上海延安路"},{"poiid":"B2094757D06BA5FA409B","title":"恒隆广场停车场","lon":"121.45838165","lat":"31.225849151","category":"260","category_name":"其他","address":"上海静安区南京西路1266号(近陕西北路) "},{"poiid":"B2094757D064ABFF4092","title":"秦粤轩","lon":"121.46102","lat":"31.22384","category":"84","category_name":"西北菜","address":"静安区延安中路658号陕西大厦商务酒店4楼(近茂名北路)"},{"poiid":"B2094654DA6CA1F84598","title":"绅士大厦","lon":"121.46167","lat":"31.22651","category":"46","category_name":"楼宇","address":"静安区上海市威海路511号"},{"poiid":"B2094751D36AA6F54898","title":"The Grumpy Pig","lon":"121.46061","lat":"31.22496","category":"94","category_name":"西餐厅","address":"静安区茂名北路65号(近延安路)"},{"poiid":"B2094654DA6CA1F44692","title":"上海毛泽东旧居","lon":"121.46047","lat":"31.22611","category":"243","category_name":"纪念馆","address":"静安区茂名北路120弄5-9号"},{"poiid":"B209475DD668A5FD499E","title":"名城煲王","lon":"121.459434","lat":"31.224061","category":"247","category_name":"餐饮美食","address":"上海市 上海延安中路802号"},{"poiid":"B2094757D068A4FF479E","title":"埃洛美甲(威海店)","lon":"121.45928","lat":"31.22633","category":"122","category_name":"个人用品/化妆品店","address":"静安区威海路674号(近茂名北路)"},{"poiid":"B2094757D068A7FD409B","title":"六佰碗","lon":"121.4604187","lat":"31.226131439","category":"68","category_name":"快餐厅","address":"静安区茂名北路148号(近威海路)"},{"poiid":"B2094757D06AA3F8499C","title":"梅龙镇8楼美国领馆驻上海办事处","lon":"121.45987473","lat":"31.226206214","category":"500","category_name":"未知分类","address":"上海市静安区陕西北路"},{"poiid":"B2094753D164A7F4409F","title":"阿吾羅日料•铁板烧","lon":"121.460084","lat":"31.223214","category":"247","category_name":"餐饮美食","address":"上海市 淮海中路300号K11艺术购物中心407单元"},{"poiid":"B2094751D26BA4FD4699","title":"蜀公馆","lon":"121.4591684","lat":"31.2252296","category":"247","category_name":"餐饮美食","address":"淮海中路776号"},{"poiid":"B209475CD565A4F54793","title":"HARU KITCHEN","lon":"121.461441","lat":"31.223556","category":"500","category_name":"未知分类","address":"上海市 陝西北路66號"},{"poiid":"B2094757D064AAFD489C","title":"五季坊保健会所","lon":"121.462259","lat":"31.223408","category":"149","category_name":"洗浴推拿场所","address":"徐汇区襄阳北路100号2楼(近淮海中路)"},{"poiid":"B2094655D26DA3FE4698","title":"泰王国驻上海总领事馆(威海路)","lon":"121.46094","lat":"31.22665","category":"252","category_name":"楼宇机构","address":"威海路567-579号晶采世纪大厦15A-C"},{"poiid":"B2094654D564ABFD4192","title":"大班商务中心","lon":"121.461","lat":"31.2224","category":"46","category_name":"楼宇","address":"浦东区崂山东路410号"},{"poiid":"B2094654DA6CA1F94999","title":"上尊国际商务中心","lon":"121.46261","lat":"31.22426","category":"46","category_name":"楼宇","address":"上海市虹口区四川北路1318号"},{"poiid":"B2094654DB69A7FF489A","title":"上海市虹口足球场体育健身活动中心","lon":"121.46127","lat":"31.22672","category":"230","category_name":"足球场","address":"虹口区威海路681号"},{"poiid":"B2094750D76DA2FD4093","title":"台巴子鲁肉饭","lon":"121.459","lat":"31.2264","category":"68","category_name":"快餐厅","address":"静安区威海路665弄14号(近茂名路)"},{"poiid":"B2094655D26AA0F44692","title":"哈达瑜伽会所茂名南路店","lon":"121.46102","lat":"31.22355","category":"247","category_name":"餐饮美食","address":"卢湾区茂名南路1号(近陕西南路)"},{"poiid":"B209475CD265A4F5459D","title":"牛阿哥打边炉 茂名北路店","lon":"121.46052389225","lat":"31.225406737199","category":"86","category_name":"火锅店","address":"茂名北路94号(近威海路)"},{"poiid":"B2094654DB64A6FB479D","title":"汉庭快捷(茂名路店)","lon":"121.46038","lat":"31.22323","category":"216","category_name":"经济型连锁酒店","address":"卢湾区茂名南路8号(近延安中路路口)"},{"poiid":"B2094655D26DA3FC419F","title":"陕西大厦(延安中路)","lon":"121.46134","lat":"31.22422","category":"46","category_name":"楼宇","address":"延安中路658"}]