[{"poiid":"B2094757D06FA1FE449C","title":"外高桥皇冠假日酒店","lon":"121.59126","lat":"31.33923","category":"213","category_name":"五星级宾馆","address":"浦东新区杨高北路1000号(近夏碧路)"},{"poiid":"B2094757D06FA7F4469B","title":"浦东新区外高桥保税区四号门","lon":"121.59340667","lat":"31.337265014","category":"500","category_name":"未知分类","address":"上海浦东新区外高桥保税区四号门"},{"poiid":"B2094757D068A0FD4198","title":"一品全大酒店(外高桥店)","lon":"121.59096","lat":"31.33935","category":"76","category_name":"上海菜","address":"杨高北路960号(夏碧路12号)近春晖路"},{"poiid":"B2094654DB6AA5FB4898","title":"豪享来上海夏碧店","lon":"121.588","lat":"31.341","category":"247","category_name":"餐饮美食","address":"上海市浦东新区夏碧路118号一层"},{"poiid":"B2094654D46AAAFD489B","title":"味千拉面 夏碧路店","lon":"121.587551054","lat":"31.337981793","category":"95","category_name":"日本料理","address":"浦东新区夏碧路261号D-4室"},{"poiid":"B2094655D36CA0FB4393","title":"季景路春晖路","lon":"121.58628","lat":"31.34056","category":"38","category_name":"公交车站","address":""},{"poiid":"B2094757D069A2F44892","title":"茶思饭想港式茶餐厅","lon":"121.59012174","lat":"31.339589207","category":"72","category_name":"广东菜","address":"浦东新区夏碧路42号(近杨高北路)"},{"poiid":"B2094757D068A7F8469C","title":"世纪联华(外高桥店)","lon":"121.58778","lat":"31.33751","category":"118","category_name":"超级市场","address":"浦东新区夏碧路261号(近季景路)"},{"poiid":"B2094750DB6AABFA439C","title":"巴国布衣","lon":"121.591506","lat":"31.338499","category":"71","category_name":"四川菜","address":"浦东新区夏碧路18号(近杨高北路)"},{"poiid":"B2094757D06BA2FB409F","title":"蜀膳传火锅传奇 季景路店","lon":"121.58653","lat":"31.340267","category":"86","category_name":"火锅店","address":"浦东新区季景路22号(近春晖路)"},{"poiid":"B2094757D06AA1FF439E","title":"品尚豆捞(夏碧路店)","lon":"121.59056","lat":"31.33918","category":"86","category_name":"火锅店","address":"浦东新区夏碧路56号(皇冠假日酒店对面)"},{"poiid":"B2094654D46AAAFC4198","title":"春晖苑","lon":"121.58803","lat":"31.343513","category":"47","category_name":"住宅区","address":"春晖路368弄1-59号"},{"poiid":"B2094757D06BA3FF419E","title":"小南国(正地豪生店)","lon":"121.58599","lat":"31.33588","category":"75","category_name":"浙江菜","address":"浦东新区张杨北路5658号正地豪生大酒店3-4楼"},{"poiid":"B2094757D16DA3F8479B","title":"永久城市花园","lon":"121.58984","lat":"31.337259","category":"47","category_name":"住宅区","address":"上海市浦东新区夏碧路108号"},{"poiid":"B2094655D26DA4FD4599","title":"上海海事大学附属职业技术学校","lon":"121.58778","lat":"31.33699","category":"54","category_name":"职业技术学校","address":"浦东新区季景路206号(季景路夏碧路)"},{"poiid":"B2094757D06BA4FE479B","title":"Jepson Bread(季景路店)","lon":"121.58673","lat":"31.34","category":"67","category_name":"甜品店","address":"浦东新区季景路15号(近春晖路)"},{"poiid":"B2094757D464AAF9439F","title":"四海游龙 夏碧路店 OVERSEAS DRAGON","lon":"121.588658054","lat":"31.338423793","category":"68","category_name":"快餐厅","address":"浦东新区夏碧路108号(季景路口)"},{"poiid":"B2094654DB6AA5FB489B","title":"汉庭快捷(外高桥店)","lon":"121.5881","lat":"31.33865","category":"216","category_name":"经济型连锁酒店","address":"浦东新区外高桥保税区夏碧路118号(季景路夏碧路)"},{"poiid":"B2094654D46AAAFC4592","title":"富特四村","lon":"121.58759","lat":"31.339588","category":"47","category_name":"住宅区","address":"季景路19弄3-78号"},{"poiid":"B2094750D76CA2F94393","title":"85度C(季景路店)","lon":"121.587","lat":"31.3397","category":"112","category_name":"糕饼店","address":"浦东新区季景路26-2号(近春晖路)"},{"poiid":"B2094757D06AA7FF4192","title":"多利川菜馆 夏碧路店","lon":"121.591094054","lat":"31.340224793","category":"71","category_name":"四川菜","address":"浦东新区夏碧路22号(近杨高北路)"},{"poiid":"B2094655D268ABFA419C","title":"艺海龙廷","lon":"121.59148401138","lat":"31.340136836684","category":"76","category_name":"上海菜","address":"浦东新区夏碧路8号(夏碧路张杨北路)"},{"poiid":"B2094757D469A4FD4993","title":"泰奇 夏碧路店 touch bread","lon":"121.591166054","lat":"31.339706793","category":"112","category_name":"糕饼店","address":"浦东新区夏碧路83号(皇冠假日酒店)"},{"poiid":"B2094654D46AAAFD499E","title":"瑞禾明苑","lon":"121.5898","lat":"31.33837","category":"47","category_name":"住宅区","address":"浦东华夏三路85弄"},{"poiid":"B2094757D065A6FC469A","title":"一品粥坊","lon":"121.589242339","lat":"31.3388023402","category":"68","category_name":"快餐厅","address":"浦东新区夏碧路82号"},{"poiid":"B2094654D46AAAFB489C","title":"国际商品广场","lon":"121.59171","lat":"31.34084","category":"119","category_name":"商场","address":"上海浦东新区外高桥保税区4号门内(近杨高北路)  "},{"poiid":"B2094757D064A2FE4392","title":"有间饭店","lon":"121.58894","lat":"31.33847","category":"76","category_name":"上海菜","address":"浦东新区夏碧路100号(季景路夏碧路)"},{"poiid":"B2094654DB6AA5F44699","title":"中国石化物资大厦(富特西一路)","lon":"121.59107","lat":"31.34209","category":"46","category_name":"楼宇","address":"富特西一路139"},{"poiid":"B2094757D16BA0FA4798","title":"海上游子老鸭粉丝汤","lon":"121.588837339","lat":"31.3396298593","category":"68","category_name":"快餐厅","address":"浦东新区夏碧路89号"},{"poiid":"B2094655D36DA1F4449E","title":"夏碧路季景路","lon":"121.58805","lat":"31.33851","category":"38","category_name":"公交车站","address":""},{"poiid":"B2094757D465A4FF419B","title":"吉祥馄饨 季景店 Gll Wonton","lon":"121.586510054","lat":"31.340842793","category":"87","category_name":"特色／地方风味餐厅","address":"浦东新区季景路15号(近新侨医院)"},{"poiid":"B2094654D46AABF5439E","title":"金纬苑","lon":"121.58852","lat":"31.342571","category":"47","category_name":"住宅区","address":"春晖路25弄"},{"poiid":"B2094654D46AAAFC4499","title":"云贝奇轩饭店","lon":"121.589","lat":"31.33907","category":"76","category_name":"上海菜","address":"浦东新区夏碧路86号(近杨高北路)"},{"poiid":"B2094757DA65A5FA4998","title":"上海外高桥宜必思酒店","lon":"121.5903336","lat":"31.34012183","category":"215","category_name":"三星级宾馆","address":"浦东新区杨高北路938号(近夏碧路)"},{"poiid":"B2094757D16DA1F4429E","title":"尝尝香约食府","lon":"121.5909","lat":"31.33932","category":"74","category_name":"江苏菜","address":"浦东新区夏碧路18号(近杨高北路)"},{"poiid":"B2094654DB69A4F8449B","title":"星巴克咖啡(外高桥店)","lon":"121.59409","lat":"31.34077","category":"65","category_name":"咖啡厅","address":"浦东新区外高桥保税区加枫路24号"},{"poiid":"B2094654D46AAAFC439A","title":"外高桥美食城","lon":"121.59169618773","lat":"31.339793492319","category":"257","category_name":"中餐厅","address":"杨高北路998号外高桥保税区三号门对面"},{"poiid":"B2094655D26AA6FA4093","title":"绝味鸭脖 季景路店","lon":"121.586437054","lat":"31.340726793","category":"68","category_name":"快餐厅","address":"浦东新区季景路15号(近春晖路)"},{"poiid":"B2094750D76DA3FE479E","title":"泰煌鸡(夏碧路店)","lon":"121.586","lat":"31.3376","category":"68","category_name":"快餐厅","address":"浦东新区夏碧路252号(近张扬北路)"},{"poiid":"B2094757D16FA5F94698","title":"味千拉面(外高桥店)","lon":"121.58939953","lat":"31.344658108","category":"247","category_name":"餐饮美食","address":"上海夏碧路季景路"},{"poiid":"B2094654DB6AA5FB4793","title":"高南新村","lon":"121.58447","lat":"31.33927","category":"47","category_name":"住宅区","address":"季景北路180弄1-21号"},{"poiid":"B2094757D168A3FF4998","title":"上海畅联国际物流有限公司","lon":"121.593800339","lat":"31.341354899","category":"263","category_name":"公司","address":"上海市外高桥保税区日京路68号"},{"poiid":"B2094654D46AABF5439F","title":"金纬苑(北门)","lon":"121.5886","lat":"31.34294","category":"47","category_name":"住宅区","address":"春晖路25弄"},{"poiid":"B2094654D46AABF54399","title":"快客(春晖苑东北)","lon":"121.58846","lat":"31.34319","category":"117","category_name":"便民商店/便利店","address":"春晖路24"},{"poiid":"B2094655D26FA3F8449C","title":"味之都 外高桥店","lon":"121.588010054","lat":"31.338665793","category":"68","category_name":"快餐厅","address":"浦东新区夏碧路118号(季景路口)"},{"poiid":"B2094757D464AAF9459C","title":"重庆鸡公煲 外高桥店","lon":"121.586473054","lat":"31.337406793","category":"71","category_name":"四川菜","address":"浦东新区外高桥夏碧路304号"},{"poiid":"B2094654D46AABF5419C","title":"奥吉大厦","lon":"121.59004","lat":"31.34426","category":"46","category_name":"楼宇","address":"奥纳路18号"},{"poiid":"B2094757D064A5FB439D","title":"景典龙宫沐浴休闲俱乐部","lon":"121.59089","lat":"31.33943","category":"149","category_name":"洗浴推拿场所","address":"浦东新区夏碧路8号(近杨高北路)"},{"poiid":"B2094655D269AAF9499C","title":"金湘阁夏碧店","lon":"121.58542","lat":"31.33647","category":"77","category_name":"湖南菜","address":"浦东新区夏碧路340号(张杨北路口)"},{"poiid":"B2094654DB6AA5F44099","title":"茶风暴 外高桥店 Tea Storm","lon":"121.588140054","lat":"31.338110793","category":"113","category_name":"冷饮店","address":"浦东新区外高桥季景路169号(近夏碧路)"},{"poiid":"B2094757D06FA1FE449C","title":"外高桥皇冠假日酒店","lon":"121.59126","lat":"31.33923","category":"213","category_name":"五星级宾馆","address":"浦东新区杨高北路1000号(近夏碧路)"},{"poiid":"B2094757D06FA7F4469B","title":"浦东新区外高桥保税区四号门","lon":"121.59340667","lat":"31.337265014","category":"500","category_name":"未知分类","address":"上海浦东新区外高桥保税区四号门"},{"poiid":"B2094757D068A0FD4198","title":"一品全大酒店(外高桥店)","lon":"121.59096","lat":"31.33935","category":"76","category_name":"上海菜","address":"杨高北路960号(夏碧路12号)近春晖路"},{"poiid":"B2094654DB6AA5FB4898","title":"豪享来上海夏碧店","lon":"121.588","lat":"31.341","category":"247","category_name":"餐饮美食","address":"上海市浦东新区夏碧路118号一层"},{"poiid":"B2094654D46AAAFD489B","title":"味千拉面 夏碧路店","lon":"121.587551054","lat":"31.337981793","category":"95","category_name":"日本料理","address":"浦东新区夏碧路261号D-4室"},{"poiid":"B2094655D36CA0FB4393","title":"季景路春晖路","lon":"121.58628","lat":"31.34056","category":"38","category_name":"公交车站","address":""},{"poiid":"B2094757D069A2F44892","title":"茶思饭想港式茶餐厅","lon":"121.59012174","lat":"31.339589207","category":"72","category_name":"广东菜","address":"浦东新区夏碧路42号(近杨高北路)"},{"poiid":"B2094757D068A7F8469C","title":"世纪联华(外高桥店)","lon":"121.58778","lat":"31.33751","category":"118","category_name":"超级市场","address":"浦东新区夏碧路261号(近季景路)"},{"poiid":"B2094750DB6AABFA439C","title":"巴国布衣","lon":"121.591506","lat":"31.338499","category":"71","category_name":"四川菜","address":"浦东新区夏碧路18号(近杨高北路)"},{"poiid":"B2094757D06BA2FB409F","title":"蜀膳传火锅传奇 季景路店","lon":"121.58653","lat":"31.340267","category":"86","category_name":"火锅店","address":"浦东新区季景路22号(近春晖路)"},{"poiid":"B2094757D06AA1FF439E","title":"品尚豆捞(夏碧路店)","lon":"121.59056","lat":"31.33918","category":"86","category_name":"火锅店","address":"浦东新区夏碧路56号(皇冠假日酒店对面)"},{"poiid":"B2094654D46AAAFC4198","title":"春晖苑","lon":"121.58803","lat":"31.343513","category":"47","category_name":"住宅区","address":"春晖路368弄1-59号"},{"poiid":"B2094757D06BA3FF419E","title":"小南国(正地豪生店)","lon":"121.58599","lat":"31.33588","category":"75","category_name":"浙江菜","address":"浦东新区张杨北路5658号正地豪生大酒店3-4楼"},{"poiid":"B2094757D16DA3F8479B","title":"永久城市花园","lon":"121.58984","lat":"31.337259","category":"47","category_name":"住宅区","address":"上海市浦东新区夏碧路108号"},{"poiid":"B2094655D26DA4FD4599","title":"上海海事大学附属职业技术学校","lon":"121.58778","lat":"31.33699","category":"54","category_name":"职业技术学校","address":"浦东新区季景路206号(季景路夏碧路)"},{"poiid":"B2094757D06BA4FE479B","title":"Jepson Bread(季景路店)","lon":"121.58673","lat":"31.34","category":"67","category_name":"甜品店","address":"浦东新区季景路15号(近春晖路)"},{"poiid":"B2094757D464AAF9439F","title":"四海游龙 夏碧路店 OVERSEAS DRAGON","lon":"121.588658054","lat":"31.338423793","category":"68","category_name":"快餐厅","address":"浦东新区夏碧路108号(季景路口)"},{"poiid":"B2094654DB6AA5FB489B","title":"汉庭快捷(外高桥店)","lon":"121.5881","lat":"31.33865","category":"216","category_name":"经济型连锁酒店","address":"浦东新区外高桥保税区夏碧路118号(季景路夏碧路)"},{"poiid":"B2094654D46AAAFC4592","title":"富特四村","lon":"121.58759","lat":"31.339588","category":"47","category_name":"住宅区","address":"季景路19弄3-78号"},{"poiid":"B2094750D76CA2F94393","title":"85度C(季景路店)","lon":"121.587","lat":"31.3397","category":"112","category_name":"糕饼店","address":"浦东新区季景路26-2号(近春晖路)"},{"poiid":"B2094757D06AA7FF4192","title":"多利川菜馆 夏碧路店","lon":"121.591094054","lat":"31.340224793","category":"71","category_name":"四川菜","address":"浦东新区夏碧路22号(近杨高北路)"},{"poiid":"B2094655D268ABFA419C","title":"艺海龙廷","lon":"121.59148401138","lat":"31.340136836684","category":"76","category_name":"上海菜","address":"浦东新区夏碧路8号(夏碧路张杨北路)"},{"poiid":"B2094757D469A4FD4993","title":"泰奇 夏碧路店 touch bread","lon":"121.591166054","lat":"31.339706793","category":"112","category_name":"糕饼店","address":"浦东新区夏碧路83号(皇冠假日酒店)"},{"poiid":"B2094654D46AAAFD499E","title":"瑞禾明苑","lon":"121.5898","lat":"31.33837","category":"47","category_name":"住宅区","address":"浦东华夏三路85弄"},{"poiid":"B2094757D065A6FC469A","title":"一品粥坊","lon":"121.589242339","lat":"31.3388023402","category":"68","category_name":"快餐厅","address":"浦东新区夏碧路82号"},{"poiid":"B2094654D46AAAFB489C","title":"国际商品广场","lon":"121.59171","lat":"31.34084","category":"119","category_name":"商场","address":"上海浦东新区外高桥保税区4号门内(近杨高北路)  "},{"poiid":"B2094757D064A2FE4392","title":"有间饭店","lon":"121.58894","lat":"31.33847","category":"76","category_name":"上海菜","address":"浦东新区夏碧路100号(季景路夏碧路)"},{"poiid":"B2094654DB6AA5F44699","title":"中国石化物资大厦(富特西一路)","lon":"121.59107","lat":"31.34209","category":"46","category_name":"楼宇","address":"富特西一路139"},{"poiid":"B2094757D16BA0FA4798","title":"海上游子老鸭粉丝汤","lon":"121.588837339","lat":"31.3396298593","category":"68","category_name":"快餐厅","address":"浦东新区夏碧路89号"},{"poiid":"B2094655D36DA1F4449E","title":"夏碧路季景路","lon":"121.58805","lat":"31.33851","category":"38","category_name":"公交车站","address":""},{"poiid":"B2094757D465A4FF419B","title":"吉祥馄饨 季景店 Gll Wonton","lon":"121.586510054","lat":"31.340842793","category":"87","category_name":"特色／地方风味餐厅","address":"浦东新区季景路15号(近新侨医院)"},{"poiid":"B2094654D46AABF5439E","title":"金纬苑","lon":"121.58852","lat":"31.342571","category":"47","category_name":"住宅区","address":"春晖路25弄"},{"poiid":"B2094654D46AAAFC4499","title":"云贝奇轩饭店","lon":"121.589","lat":"31.33907","category":"76","category_name":"上海菜","address":"浦东新区夏碧路86号(近杨高北路)"},{"poiid":"B2094757DA65A5FA4998","title":"上海外高桥宜必思酒店","lon":"121.5903336","lat":"31.34012183","category":"215","category_name":"三星级宾馆","address":"浦东新区杨高北路938号(近夏碧路)"},{"poiid":"B2094757D16DA1F4429E","title":"尝尝香约食府","lon":"121.5909","lat":"31.33932","category":"74","category_name":"江苏菜","address":"浦东新区夏碧路18号(近杨高北路)"},{"poiid":"B2094654DB69A4F8449B","title":"星巴克咖啡(外高桥店)","lon":"121.59409","lat":"31.34077","category":"65","category_name":"咖啡厅","address":"浦东新区外高桥保税区加枫路24号"},{"poiid":"B2094654D46AAAFC439A","title":"外高桥美食城","lon":"121.59169618773","lat":"31.339793492319","category":"257","category_name":"中餐厅","address":"杨高北路998号外高桥保税区三号门对面"},{"poiid":"B2094655D26AA6FA4093","title":"绝味鸭脖 季景路店","lon":"121.586437054","lat":"31.340726793","category":"68","category_name":"快餐厅","address":"浦东新区季景路15号(近春晖路)"},{"poiid":"B2094750D76DA3FE479E","title":"泰煌鸡(夏碧路店)","lon":"121.586","lat":"31.3376","category":"68","category_name":"快餐厅","address":"浦东新区夏碧路252号(近张扬北路)"},{"poiid":"B2094757D16FA5F94698","title":"味千拉面(外高桥店)","lon":"121.58939953","lat":"31.344658108","category":"247","category_name":"餐饮美食","address":"上海夏碧路季景路"},{"poiid":"B2094654DB6AA5FB4793","title":"高南新村","lon":"121.58447","lat":"31.33927","category":"47","category_name":"住宅区","address":"季景北路180弄1-21号"},{"poiid":"B2094757D168A3FF4998","title":"上海畅联国际物流有限公司","lon":"121.593800339","lat":"31.341354899","category":"263","category_name":"公司","address":"上海市外高桥保税区日京路68号"},{"poiid":"B2094654D46AABF5439F","title":"金纬苑(北门)","lon":"121.5886","lat":"31.34294","category":"47","category_name":"住宅区","address":"春晖路25弄"},{"poiid":"B2094654D46AABF54399","title":"快客(春晖苑东北)","lon":"121.58846","lat":"31.34319","category":"117","category_name":"便民商店/便利店","address":"春晖路24"},{"poiid":"B2094655D26FA3F8449C","title":"味之都 外高桥店","lon":"121.588010054","lat":"31.338665793","category":"68","category_name":"快餐厅","address":"浦东新区夏碧路118号(季景路口)"},{"poiid":"B2094757D464AAF9459C","title":"重庆鸡公煲 外高桥店","lon":"121.586473054","lat":"31.337406793","category":"71","category_name":"四川菜","address":"浦东新区外高桥夏碧路304号"},{"poiid":"B2094654D46AABF5419C","title":"奥吉大厦","lon":"121.59004","lat":"31.34426","category":"46","category_name":"楼宇","address":"奥纳路18号"},{"poiid":"B2094757D064A5FB439D","title":"景典龙宫沐浴休闲俱乐部","lon":"121.59089","lat":"31.33943","category":"149","category_name":"洗浴推拿场所","address":"浦东新区夏碧路8号(近杨高北路)"},{"poiid":"B2094655D269AAF9499C","title":"金湘阁夏碧店","lon":"121.58542","lat":"31.33647","category":"77","category_name":"湖南菜","address":"浦东新区夏碧路340号(张杨北路口)"},{"poiid":"B2094654DB6AA5F44099","title":"茶风暴 外高桥店 Tea Storm","lon":"121.588140054","lat":"31.338110793","category":"113","category_name":"冷饮店","address":"浦东新区外高桥季景路169号(近夏碧路)"},{"poiid":"B2094757D06FA1FE449C","title":"外高桥皇冠假日酒店","lon":"121.59126","lat":"31.33923","category":"213","category_name":"五星级宾馆","address":"浦东新区杨高北路1000号(近夏碧路)"},{"poiid":"B2094757D06FA7F4469B","title":"浦东新区外高桥保税区四号门","lon":"121.59340667","lat":"31.337265014","category":"500","category_name":"未知分类","address":"上海浦东新区外高桥保税区四号门"},{"poiid":"B2094757D068A0FD4198","title":"一品全大酒店(外高桥店)","lon":"121.59096","lat":"31.33935","category":"76","category_name":"上海菜","address":"杨高北路960号(夏碧路12号)近春晖路"},{"poiid":"B2094654DB6AA5FB4898","title":"豪享来上海夏碧店","lon":"121.588","lat":"31.341","category":"247","category_name":"餐饮美食","address":"上海市浦东新区夏碧路118号一层"},{"poiid":"B2094654D46AAAFD489B","title":"味千拉面 夏碧路店","lon":"121.587551054","lat":"31.337981793","category":"95","category_name":"日本料理","address":"浦东新区夏碧路261号D-4室"},{"poiid":"B2094655D36CA0FB4393","title":"季景路春晖路","lon":"121.58628","lat":"31.34056","category":"38","category_name":"公交车站","address":""},{"poiid":"B2094757D069A2F44892","title":"茶思饭想港式茶餐厅","lon":"121.59012174","lat":"31.339589207","category":"72","category_name":"广东菜","address":"浦东新区夏碧路42号(近杨高北路)"},{"poiid":"B2094757D068A7F8469C","title":"世纪联华(外高桥店)","lon":"121.58778","lat":"31.33751","category":"118","category_name":"超级市场","address":"浦东新区夏碧路261号(近季景路)"},{"poiid":"B2094750DB6AABFA439C","title":"巴国布衣","lon":"121.591506","lat":"31.338499","category":"71","category_name":"四川菜","address":"浦东新区夏碧路18号(近杨高北路)"},{"poiid":"B2094757D06BA2FB409F","title":"蜀膳传火锅传奇 季景路店","lon":"121.58653","lat":"31.340267","category":"86","category_name":"火锅店","address":"浦东新区季景路22号(近春晖路)"},{"poiid":"B2094757D06AA1FF439E","title":"品尚豆捞(夏碧路店)","lon":"121.59056","lat":"31.33918","category":"86","category_name":"火锅店","address":"浦东新区夏碧路56号(皇冠假日酒店对面)"},{"poiid":"B2094654D46AAAFC4198","title":"春晖苑","lon":"121.58803","lat":"31.343513","category":"47","category_name":"住宅区","address":"春晖路368弄1-59号"},{"poiid":"B2094757D06BA3FF419E","title":"小南国(正地豪生店)","lon":"121.58599","lat":"31.33588","category":"75","category_name":"浙江菜","address":"浦东新区张杨北路5658号正地豪生大酒店3-4楼"},{"poiid":"B2094757D16DA3F8479B","title":"永久城市花园","lon":"121.58984","lat":"31.337259","category":"47","category_name":"住宅区","address":"上海市浦东新区夏碧路108号"},{"poiid":"B2094655D26DA4FD4599","title":"上海海事大学附属职业技术学校","lon":"121.58778","lat":"31.33699","category":"54","category_name":"职业技术学校","address":"浦东新区季景路206号(季景路夏碧路)"},{"poiid":"B2094757D06BA4FE479B","title":"Jepson Bread(季景路店)","lon":"121.58673","lat":"31.34","category":"67","category_name":"甜品店","address":"浦东新区季景路15号(近春晖路)"},{"poiid":"B2094757D464AAF9439F","title":"四海游龙 夏碧路店 OVERSEAS DRAGON","lon":"121.588658054","lat":"31.338423793","category":"68","category_name":"快餐厅","address":"浦东新区夏碧路108号(季景路口)"},{"poiid":"B2094654DB6AA5FB489B","title":"汉庭快捷(外高桥店)","lon":"121.5881","lat":"31.33865","category":"216","category_name":"经济型连锁酒店","address":"浦东新区外高桥保税区夏碧路118号(季景路夏碧路)"},{"poiid":"B2094654D46AAAFC4592","title":"富特四村","lon":"121.58759","lat":"31.339588","category":"47","category_name":"住宅区","address":"季景路19弄3-78号"},{"poiid":"B2094750D76CA2F94393","title":"85度C(季景路店)","lon":"121.587","lat":"31.3397","category":"112","category_name":"糕饼店","address":"浦东新区季景路26-2号(近春晖路)"},{"poiid":"B2094757D06AA7FF4192","title":"多利川菜馆 夏碧路店","lon":"121.591094054","lat":"31.340224793","category":"71","category_name":"四川菜","address":"浦东新区夏碧路22号(近杨高北路)"},{"poiid":"B2094655D268ABFA419C","title":"艺海龙廷","lon":"121.59148401138","lat":"31.340136836684","category":"76","category_name":"上海菜","address":"浦东新区夏碧路8号(夏碧路张杨北路)"},{"poiid":"B2094757D469A4FD4993","title":"泰奇 夏碧路店 touch bread","lon":"121.591166054","lat":"31.339706793","category":"112","category_name":"糕饼店","address":"浦东新区夏碧路83号(皇冠假日酒店)"},{"poiid":"B2094654D46AAAFD499E","title":"瑞禾明苑","lon":"121.5898","lat":"31.33837","category":"47","category_name":"住宅区","address":"浦东华夏三路85弄"},{"poiid":"B2094757D065A6FC469A","title":"一品粥坊","lon":"121.589242339","lat":"31.3388023402","category":"68","category_name":"快餐厅","address":"浦东新区夏碧路82号"},{"poiid":"B2094654D46AAAFB489C","title":"国际商品广场","lon":"121.59171","lat":"31.34084","category":"119","category_name":"商场","address":"上海浦东新区外高桥保税区4号门内(近杨高北路)  "},{"poiid":"B2094757D064A2FE4392","title":"有间饭店","lon":"121.58894","lat":"31.33847","category":"76","category_name":"上海菜","address":"浦东新区夏碧路100号(季景路夏碧路)"},{"poiid":"B2094654DB6AA5F44699","title":"中国石化物资大厦(富特西一路)","lon":"121.59107","lat":"31.34209","category":"46","category_name":"楼宇","address":"富特西一路139"},{"poiid":"B2094757D16BA0FA4798","title":"海上游子老鸭粉丝汤","lon":"121.588837339","lat":"31.3396298593","category":"68","category_name":"快餐厅","address":"浦东新区夏碧路89号"},{"poiid":"B2094655D36DA1F4449E","title":"夏碧路季景路","lon":"121.58805","lat":"31.33851","category":"38","category_name":"公交车站","address":""},{"poiid":"B2094757D465A4FF419B","title":"吉祥馄饨 季景店 Gll Wonton","lon":"121.586510054","lat":"31.340842793","category":"87","category_name":"特色／地方风味餐厅","address":"浦东新区季景路15号(近新侨医院)"},{"poiid":"B2094654D46AABF5439E","title":"金纬苑","lon":"121.58852","lat":"31.342571","category":"47","category_name":"住宅区","address":"春晖路25弄"},{"poiid":"B2094654D46AAAFC4499","title":"云贝奇轩饭店","lon":"121.589","lat":"31.33907","category":"76","category_name":"上海菜","address":"浦东新区夏碧路86号(近杨高北路)"},{"poiid":"B2094757DA65A5FA4998","title":"上海外高桥宜必思酒店","lon":"121.5903336","lat":"31.34012183","category":"215","category_name":"三星级宾馆","address":"浦东新区杨高北路938号(近夏碧路)"},{"poiid":"B2094757D16DA1F4429E","title":"尝尝香约食府","lon":"121.5909","lat":"31.33932","category":"74","category_name":"江苏菜","address":"浦东新区夏碧路18号(近杨高北路)"},{"poiid":"B2094654DB69A4F8449B","title":"星巴克咖啡(外高桥店)","lon":"121.59409","lat":"31.34077","category":"65","category_name":"咖啡厅","address":"浦东新区外高桥保税区加枫路24号"},{"poiid":"B2094654D46AAAFC439A","title":"外高桥美食城","lon":"121.59169618773","lat":"31.339793492319","category":"257","category_name":"中餐厅","address":"杨高北路998号外高桥保税区三号门对面"},{"poiid":"B2094655D26AA6FA4093","title":"绝味鸭脖 季景路店","lon":"121.586437054","lat":"31.340726793","category":"68","category_name":"快餐厅","address":"浦东新区季景路15号(近春晖路)"},{"poiid":"B2094750D76DA3FE479E","title":"泰煌鸡(夏碧路店)","lon":"121.586","lat":"31.3376","category":"68","category_name":"快餐厅","address":"浦东新区夏碧路252号(近张扬北路)"},{"poiid":"B2094757D16FA5F94698","title":"味千拉面(外高桥店)","lon":"121.58939953","lat":"31.344658108","category":"247","category_name":"餐饮美食","address":"上海夏碧路季景路"},{"poiid":"B2094654DB6AA5FB4793","title":"高南新村","lon":"121.58447","lat":"31.33927","category":"47","category_name":"住宅区","address":"季景北路180弄1-21号"},{"poiid":"B2094757D168A3FF4998","title":"上海畅联国际物流有限公司","lon":"121.593800339","lat":"31.341354899","category":"263","category_name":"公司","address":"上海市外高桥保税区日京路68号"},{"poiid":"B2094654D46AABF5439F","title":"金纬苑(北门)","lon":"121.5886","lat":"31.34294","category":"47","category_name":"住宅区","address":"春晖路25弄"},{"poiid":"B2094654D46AABF54399","title":"快客(春晖苑东北)","lon":"121.58846","lat":"31.34319","category":"117","category_name":"便民商店/便利店","address":"春晖路24"},{"poiid":"B2094655D26FA3F8449C","title":"味之都 外高桥店","lon":"121.588010054","lat":"31.338665793","category":"68","category_name":"快餐厅","address":"浦东新区夏碧路118号(季景路口)"},{"poiid":"B2094757D464AAF9459C","title":"重庆鸡公煲 外高桥店","lon":"121.586473054","lat":"31.337406793","category":"71","category_name":"四川菜","address":"浦东新区外高桥夏碧路304号"},{"poiid":"B2094654D46AABF5419C","title":"奥吉大厦","lon":"121.59004","lat":"31.34426","category":"46","category_name":"楼宇","address":"奥纳路18号"},{"poiid":"B2094757D064A5FB439D","title":"景典龙宫沐浴休闲俱乐部","lon":"121.59089","lat":"31.33943","category":"149","category_name":"洗浴推拿场所","address":"浦东新区夏碧路8号(近杨高北路)"},{"poiid":"B2094655D269AAF9499C","title":"金湘阁夏碧店","lon":"121.58542","lat":"31.33647","category":"77","category_name":"湖南菜","address":"浦东新区夏碧路340号(张杨北路口)"},{"poiid":"B2094654DB6AA5F44099","title":"茶风暴 外高桥店 Tea Storm","lon":"121.588140054","lat":"31.338110793","category":"113","category_name":"冷饮店","address":"浦东新区外高桥季景路169号(近夏碧路)"},{"poiid":"B2094757D06FA1FE449C","title":"外高桥皇冠假日酒店","lon":"121.59126","lat":"31.33923","category":"213","category_name":"五星级宾馆","address":"浦东新区杨高北路1000号(近夏碧路)"},{"poiid":"B2094757D06FA7F4469B","title":"浦东新区外高桥保税区四号门","lon":"121.59340667","lat":"31.337265014","category":"500","category_name":"未知分类","address":"上海浦东新区外高桥保税区四号门"},{"poiid":"B2094757D068A0FD4198","title":"一品全大酒店(外高桥店)","lon":"121.59096","lat":"31.33935","category":"76","category_name":"上海菜","address":"杨高北路960号(夏碧路12号)近春晖路"},{"poiid":"B2094654DB6AA5FB4898","title":"豪享来上海夏碧店","lon":"121.588","lat":"31.341","category":"247","category_name":"餐饮美食","address":"上海市浦东新区夏碧路118号一层"},{"poiid":"B2094654D46AAAFD489B","title":"味千拉面 夏碧路店","lon":"121.587551054","lat":"31.337981793","category":"95","category_name":"日本料理","address":"浦东新区夏碧路261号D-4室"},{"poiid":"B2094655D36CA0FB4393","title":"季景路春晖路","lon":"121.58628","lat":"31.34056","category":"38","category_name":"公交车站","address":""},{"poiid":"B2094757D069A2F44892","title":"茶思饭想港式茶餐厅","lon":"121.59012174","lat":"31.339589207","category":"72","category_name":"广东菜","address":"浦东新区夏碧路42号(近杨高北路)"},{"poiid":"B2094757D068A7F8469C","title":"世纪联华(外高桥店)","lon":"121.58778","lat":"31.33751","category":"118","category_name":"超级市场","address":"浦东新区夏碧路261号(近季景路)"},{"poiid":"B2094750DB6AABFA439C","title":"巴国布衣","lon":"121.591506","lat":"31.338499","category":"71","category_name":"四川菜","address":"浦东新区夏碧路18号(近杨高北路)"},{"poiid":"B2094757D06BA2FB409F","title":"蜀膳传火锅传奇 季景路店","lon":"121.58653","lat":"31.340267","category":"86","category_name":"火锅店","address":"浦东新区季景路22号(近春晖路)"},{"poiid":"B2094757D06AA1FF439E","title":"品尚豆捞(夏碧路店)","lon":"121.59056","lat":"31.33918","category":"86","category_name":"火锅店","address":"浦东新区夏碧路56号(皇冠假日酒店对面)"},{"poiid":"B2094654D46AAAFC4198","title":"春晖苑","lon":"121.58803","lat":"31.343513","category":"47","category_name":"住宅区","address":"春晖路368弄1-59号"},{"poiid":"B2094757D06BA3FF419E","title":"小南国(正地豪生店)","lon":"121.58599","lat":"31.33588","category":"75","category_name":"浙江菜","address":"浦东新区张杨北路5658号正地豪生大酒店3-4楼"},{"poiid":"B2094757D16DA3F8479B","title":"永久城市花园","lon":"121.58984","lat":"31.337259","category":"47","category_name":"住宅区","address":"上海市浦东新区夏碧路108号"},{"poiid":"B2094655D26DA4FD4599","title":"上海海事大学附属职业技术学校","lon":"121.58778","lat":"31.33699","category":"54","category_name":"职业技术学校","address":"浦东新区季景路206号(季景路夏碧路)"},{"poiid":"B2094757D06BA4FE479B","title":"Jepson Bread(季景路店)","lon":"121.58673","lat":"31.34","category":"67","category_name":"甜品店","address":"浦东新区季景路15号(近春晖路)"},{"poiid":"B2094757D464AAF9439F","title":"四海游龙 夏碧路店 OVERSEAS DRAGON","lon":"121.588658054","lat":"31.338423793","category":"68","category_name":"快餐厅","address":"浦东新区夏碧路108号(季景路口)"},{"poiid":"B2094654DB6AA5FB489B","title":"汉庭快捷(外高桥店)","lon":"121.5881","lat":"31.33865","category":"216","category_name":"经济型连锁酒店","address":"浦东新区外高桥保税区夏碧路118号(季景路夏碧路)"},{"poiid":"B2094654D46AAAFC4592","title":"富特四村","lon":"121.58759","lat":"31.339588","category":"47","category_name":"住宅区","address":"季景路19弄3-78号"},{"poiid":"B2094750D76CA2F94393","title":"85度C(季景路店)","lon":"121.587","lat":"31.3397","category":"112","category_name":"糕饼店","address":"浦东新区季景路26-2号(近春晖路)"},{"poiid":"B2094757D06AA7FF4192","title":"多利川菜馆 夏碧路店","lon":"121.591094054","lat":"31.340224793","category":"71","category_name":"四川菜","address":"浦东新区夏碧路22号(近杨高北路)"},{"poiid":"B2094655D268ABFA419C","title":"艺海龙廷","lon":"121.59148401138","lat":"31.340136836684","category":"76","category_name":"上海菜","address":"浦东新区夏碧路8号(夏碧路张杨北路)"},{"poiid":"B2094757D469A4FD4993","title":"泰奇 夏碧路店 touch bread","lon":"121.591166054","lat":"31.339706793","category":"112","category_name":"糕饼店","address":"浦东新区夏碧路83号(皇冠假日酒店)"},{"poiid":"B2094654D46AAAFD499E","title":"瑞禾明苑","lon":"121.5898","lat":"31.33837","category":"47","category_name":"住宅区","address":"浦东华夏三路85弄"},{"poiid":"B2094757D065A6FC469A","title":"一品粥坊","lon":"121.589242339","lat":"31.3388023402","category":"68","category_name":"快餐厅","address":"浦东新区夏碧路82号"},{"poiid":"B2094654D46AAAFB489C","title":"国际商品广场","lon":"121.59171","lat":"31.34084","category":"119","category_name":"商场","address":"上海浦东新区外高桥保税区4号门内(近杨高北路)  "},{"poiid":"B2094757D064A2FE4392","title":"有间饭店","lon":"121.58894","lat":"31.33847","category":"76","category_name":"上海菜","address":"浦东新区夏碧路100号(季景路夏碧路)"},{"poiid":"B2094654DB6AA5F44699","title":"中国石化物资大厦(富特西一路)","lon":"121.59107","lat":"31.34209","category":"46","category_name":"楼宇","address":"富特西一路139"},{"poiid":"B2094757D16BA0FA4798","title":"海上游子老鸭粉丝汤","lon":"121.588837339","lat":"31.3396298593","category":"68","category_name":"快餐厅","address":"浦东新区夏碧路89号"},{"poiid":"B2094655D36DA1F4449E","title":"夏碧路季景路","lon":"121.58805","lat":"31.33851","category":"38","category_name":"公交车站","address":""},{"poiid":"B2094757D465A4FF419B","title":"吉祥馄饨 季景店 Gll Wonton","lon":"121.586510054","lat":"31.340842793","category":"87","category_name":"特色／地方风味餐厅","address":"浦东新区季景路15号(近新侨医院)"},{"poiid":"B2094654D46AABF5439E","title":"金纬苑","lon":"121.58852","lat":"31.342571","category":"47","category_name":"住宅区","address":"春晖路25弄"},{"poiid":"B2094654D46AAAFC4499","title":"云贝奇轩饭店","lon":"121.589","lat":"31.33907","category":"76","category_name":"上海菜","address":"浦东新区夏碧路86号(近杨高北路)"},{"poiid":"B2094757DA65A5FA4998","title":"上海外高桥宜必思酒店","lon":"121.5903336","lat":"31.34012183","category":"215","category_name":"三星级宾馆","address":"浦东新区杨高北路938号(近夏碧路)"},{"poiid":"B2094757D16DA1F4429E","title":"尝尝香约食府","lon":"121.5909","lat":"31.33932","category":"74","category_name":"江苏菜","address":"浦东新区夏碧路18号(近杨高北路)"},{"poiid":"B2094654DB69A4F8449B","title":"星巴克咖啡(外高桥店)","lon":"121.59409","lat":"31.34077","category":"65","category_name":"咖啡厅","address":"浦东新区外高桥保税区加枫路24号"},{"poiid":"B2094654D46AAAFC439A","title":"外高桥美食城","lon":"121.59169618773","lat":"31.339793492319","category":"257","category_name":"中餐厅","address":"杨高北路998号外高桥保税区三号门对面"},{"poiid":"B2094655D26AA6FA4093","title":"绝味鸭脖 季景路店","lon":"121.586437054","lat":"31.340726793","category":"68","category_name":"快餐厅","address":"浦东新区季景路15号(近春晖路)"},{"poiid":"B2094750D76DA3FE479E","title":"泰煌鸡(夏碧路店)","lon":"121.586","lat":"31.3376","category":"68","category_name":"快餐厅","address":"浦东新区夏碧路252号(近张扬北路)"},{"poiid":"B2094757D16FA5F94698","title":"味千拉面(外高桥店)","lon":"121.58939953","lat":"31.344658108","category":"247","category_name":"餐饮美食","address":"上海夏碧路季景路"},{"poiid":"B2094654DB6AA5FB4793","title":"高南新村","lon":"121.58447","lat":"31.33927","category":"47","category_name":"住宅区","address":"季景北路180弄1-21号"},{"poiid":"B2094757D168A3FF4998","title":"上海畅联国际物流有限公司","lon":"121.593800339","lat":"31.341354899","category":"263","category_name":"公司","address":"上海市外高桥保税区日京路68号"},{"poiid":"B2094654D46AABF5439F","title":"金纬苑(北门)","lon":"121.5886","lat":"31.34294","category":"47","category_name":"住宅区","address":"春晖路25弄"},{"poiid":"B2094654D46AABF54399","title":"快客(春晖苑东北)","lon":"121.58846","lat":"31.34319","category":"117","category_name":"便民商店/便利店","address":"春晖路24"},{"poiid":"B2094655D26FA3F8449C","title":"味之都 外高桥店","lon":"121.588010054","lat":"31.338665793","category":"68","category_name":"快餐厅","address":"浦东新区夏碧路118号(季景路口)"},{"poiid":"B2094757D464AAF9459C","title":"重庆鸡公煲 外高桥店","lon":"121.586473054","lat":"31.337406793","category":"71","category_name":"四川菜","address":"浦东新区外高桥夏碧路304号"},{"poiid":"B2094654D46AABF5419C","title":"奥吉大厦","lon":"121.59004","lat":"31.34426","category":"46","category_name":"楼宇","address":"奥纳路18号"},{"poiid":"B2094757D064A5FB439D","title":"景典龙宫沐浴休闲俱乐部","lon":"121.59089","lat":"31.33943","category":"149","category_name":"洗浴推拿场所","address":"浦东新区夏碧路8号(近杨高北路)"},{"poiid":"B2094655D269AAF9499C","title":"金湘阁夏碧店","lon":"121.58542","lat":"31.33647","category":"77","category_name":"湖南菜","address":"浦东新区夏碧路340号(张杨北路口)"},{"poiid":"B2094654DB6AA5F44099","title":"茶风暴 外高桥店 Tea Storm","lon":"121.588140054","lat":"31.338110793","category":"113","category_name":"冷饮店","address":"浦东新区外高桥季景路169号(近夏碧路)"}]