[{"poiid":"B2094757D06EAAFB499C","title":"上海火车站地铁站","lon":"121.45871681","lat":"31.249312371","category":"36","category_name":"地铁站","address":"上海轨道交通 一号线 三号线 四号线 轨交上海火车站站 轻轨 1 3 4"},{"poiid":"B2094757D06EAAFE4398","title":"上海歌城(中兴路店)","lon":"121.46375","lat":"31.25196","category":"170","category_name":"KTV","address":"闸北区中兴路1233号中兴财富广场1幢1-2号(近共和新路)"},{"poiid":"B2094757D06EAAFC489B","title":"嘉里不夜城","lon":"121.463","lat":"31.2514","category":"500","category_name":"未知分类","address":"上海市松江区涞坊路599弄"},{"poiid":"B209475CD564A7F8439E","title":"上海滩中信泰富店","lon":"121.45602","lat":"31.22851","category":"119","category_name":"商场","address":"\"南京西路1168号中信泰富广场，店铺号221.\r\n\""},{"poiid":"B2094757D068A2FD4098","title":"长安大厦","lon":"121.458","lat":"31.2508","category":"46","category_name":"楼宇","address":"闸北区长安路1001号"},{"poiid":"B2094757D06AA0FC4499","title":"南北高架","lon":"121.46357196","lat":"31.250989706","category":"500","category_name":"未知分类","address":"上海天目西路至中环"},{"poiid":"B2094757D068A2FD469B","title":"共和新路中兴路","lon":"121.463348","lat":"31.251093","category":"500","category_name":"未知分类","address":"上海共和新路中兴路"},{"poiid":"B2094757D068A2F54292","title":"上海火车站普通候车室","lon":"121.4571","lat":"31.2505","category":"260","category_name":"其他","address":"闸北区上海火车站  "},{"poiid":"B2094654D464A3F54693","title":"上海站北广场","lon":"121.45623","lat":"31.25081","category":"22","category_name":"火车站","address":"闸北区天目西路"},{"poiid":"B2094757D06FA5FD4098","title":"锦程大厦","lon":"121.458","lat":"31.2526","category":"46","category_name":"楼宇","address":"上海天目西路511号"},{"poiid":"B2094757D06FA6FF499D","title":"呷哺呷哺(中华新路店)","lon":"121.4625924","lat":"31.2535794","category":"86","category_name":"火锅店","address":"闸北区中华新路567号王子百货3楼301-1号(近共和新路)"},{"poiid":"B2094654D464A2FF429E","title":"上海长征医院闸北分院","lon":"121.46159","lat":"31.25429","category":"162","category_name":"医院","address":"中华新路619号"},{"poiid":"B2094655D268A7FF489A","title":"中土大厦","lon":"121.463746","lat":"31.250478","category":"46","category_name":"楼宇","address":"上海市闸北区共和新路666号"},{"poiid":"B2094757D168A5FB439F","title":"上海火车站6号候车室","lon":"121.463178","lat":"31.251041","category":"22","category_name":"火车站","address":"闸北区上海火车站"},{"poiid":"B2094757D06AA1F4479D","title":"机电大厦","lon":"121.45911553","lat":"31.253063178475","category":"46","category_name":"楼宇","address":"上海普陀区宁夏路251号"},{"poiid":"B2094757D065AAF5469D","title":"三号线宝山路站","lon":"121.458655103","lat":"31.2522050416","category":"500","category_name":"未知分类","address":"上海宝山路"},{"poiid":"B2094654D464A3F5469E","title":"中祥戴斯大酒店","lon":"121.45731","lat":"31.2522","category":"214","category_name":"四星级宾馆","address":"上海市闸北区中兴路1558号(上海火车站地区,近大统路)"},{"poiid":"B2094654DB65A0FB449B","title":"城隍庙小吃世界 大统路店","lon":"121.459541054","lat":"31.253871793","category":"68","category_name":"快餐厅","address":"闸北区中华新路723号(近大统路)"},{"poiid":"B2094757D06AA0FB439C","title":"闸北区出入境管理局","lon":"121.462799","lat":"31.248908","category":"500","category_name":"未知分类","address":"上海天目中路578号"},{"poiid":"B2094654DA6CABFE4493","title":"康吉大厦","lon":"121.462","lat":"31.2518","category":"46","category_name":"楼宇","address":"天目西路290号"},{"poiid":"B2094655D26AA0F9409C","title":"地铁上海火车站站","lon":"121.45874","lat":"31.24933","category":"36","category_name":"地铁站","address":""},{"poiid":"B2094757D16FABFB449E","title":"麦当劳中海万锦城","lon":"121.458612103","lat":"31.2515120272","category":"68","category_name":"快餐厅","address":"闸北区大统路679-695号(近中海万锦城)"},{"poiid":"B2094757D06FAAFE4298","title":"越秀苑","lon":"121.4585","lat":"31.254604","category":"500","category_name":"未知分类","address":"上海市闸北区大统路938弄"},{"poiid":"B2094655D268ABFD499B","title":"三兴大楼","lon":"121.46071","lat":"31.25216","category":"46","category_name":"楼宇","address":"上海市闸北区中兴路1340弄"},{"poiid":"B2094757D069A6FF4093","title":"贵州苗家酸汤鱼馆 中兴路店","lon":"121.463040054","lat":"31.252511793","category":"83","category_name":"云贵菜","address":"闸北区中兴路1233号中兴财富广场内(近共和新路)"},{"poiid":"B209475CDA6CA3FE449A","title":"人民广场","lon":"121.458274","lat":"31.252695","category":"500","category_name":"未知分类","address":"上海市 人民大道"},{"poiid":"B2094757D068A5FB4799","title":"中兴财富国际公寓","lon":"121.46307","lat":"31.253281","category":"47","category_name":"住宅区","address":"上海市闸北区中华新路588弄"},{"poiid":"B2094655D26CAAFD409B","title":"卓悦居","lon":"121.463","lat":"31.2516","category":"47","category_name":"住宅区","address":"民立路289弄"},{"poiid":"B2094654D464A2FC479B","title":"克莉丝汀饼屋No.136(中兴路)","lon":"121.46032","lat":"31.25205","category":"112","category_name":"糕饼店","address":"中兴路1380"},{"poiid":"B2094757D16DABFC449C","title":"上海市公安局交警总队","lon":"121.459811453","lat":"31.2502752013","category":"500","category_name":"未知分类","address":"上海太阳山路38号"},{"poiid":"B2094757D66BA4FC409C","title":"大家乐港式茶餐厅","lon":"121.463040054","lat":"31.252511793","category":"257","category_name":"中餐厅","address":"共和新路570号中兴财富休闲广场内近中兴路"},{"poiid":"B2094757D065ABF54492","title":"欢乐谷 飞旋陀螺","lon":"121.45922893","lat":"31.249961495","category":"195","category_name":"游乐场","address":"松江区佘山镇林湖路888号上海欢乐谷内"},{"poiid":"B2094654D464A2FC489A","title":"三兴小区","lon":"121.46065","lat":"31.251787","category":"47","category_name":"住宅区","address":"中兴路1340弄"},{"poiid":"B2094750D46BA0FC499F","title":"江桥万达","lon":"121.45816","lat":"31.249639","category":"500","category_name":"未知分类","address":null},{"poiid":"B2094654DB64A6FB419B","title":"如家快捷酒店(上海火车站南广场店)","lon":"121.4616","lat":"31.2476","category":"216","category_name":"经济型连锁酒店","address":"闸北区天目中路749弄57号蕃瓜弄内(近大统路)"},{"poiid":"B2094750D769A3FF429C","title":"鲜汤骨头砂锅","lon":"121.459","lat":"31.2548","category":"86","category_name":"火锅店","address":"闸北区大统路956号(近大统路地道)"},{"poiid":"B2094753D66EA2F54598","title":"闸北区中心医院","lon":"121.460011","lat":"31.254576","category":"162","category_name":"医院","address":"上海市 中华新路共和新路"},{"poiid":"B2094654DB6AA4FA4699","title":"三兴小区(北门)","lon":"121.46085","lat":"31.25207","category":"47","category_name":"住宅区","address":"中兴路1340"},{"poiid":"B2094654DB6AA4FA4698","title":"良友(永兴路)","lon":"121.45998","lat":"31.25209","category":"117","category_name":"便民商店/便利店","address":"中兴路1400"},{"poiid":"B2094757D164A1FB4198","title":"集乡客鸭脖子(三门乐购店)","lon":"121.461004303","lat":"31.2519071354","category":"247","category_name":"餐饮美食","address":"上海杨浦区三门路501号(三门乐购1楼)  "},{"poiid":"B2094654D464A2FD419C","title":"北方佳苑商办楼","lon":"121.46203","lat":"31.25199","category":"46","category_name":"楼宇","address":"中兴路1286"},{"poiid":"B2094654D464A2FC469D","title":"快客(三兴小区西北)","lon":"121.45978","lat":"31.25207","category":"117","category_name":"便民商店/便利店","address":"中兴路1410"},{"poiid":"B2094757D169A4FE419F","title":"闸北区中心医院急诊药房","lon":"121.463735103","lat":"31.252413046","category":"500","category_name":"未知分类","address":"上海中华新路619号"},{"poiid":"B2094757D16CA7F9449D","title":"轨交4号线 宝山路","lon":"121.461099103","lat":"31.2486559675","category":"500","category_name":"未知分类","address":"上海市闸北区沈家宅路"},{"poiid":"B2094757D164A7FB4399","title":"中海万景城","lon":"121.461317103","lat":"31.2517550322","category":"47","category_name":"住宅区","address":"上海市闸北区永兴路888号"},{"poiid":"B2094750DB6DA0FE4999","title":"闸北中心医院","lon":"121.4592506866157","lat":"31.25478931129848","category":"162","category_name":"医院","address":"中华新路619号"},{"poiid":"B2094655D26AA0FB419C","title":"中祥戴斯大酒店中餐厅","lon":"121.45742","lat":"31.25232","category":"76","category_name":"上海菜","address":"闸北区中兴路1558号中祥戴斯大酒店2楼(近大统路)"},{"poiid":"B2094654D464A2FC469B","title":"万民百货商场","lon":"121.45932","lat":"31.25213","category":"119","category_name":"商场","address":""},{"poiid":"B2094655D36CA5FC409A","title":"大统路","lon":"121.45792","lat":"31.25336","category":"38","category_name":"公交车站","address":""},{"poiid":"B2094654D464A2FE4992","title":"海林湘菜馆","lon":"121.45938","lat":"31.25293","category":"77","category_name":"湖南菜","address":"闸北区大统路851号(近中兴路)"},{"poiid":"B2094757D06EAAFB499C","title":"上海火车站地铁站","lon":"121.45871681","lat":"31.249312371","category":"36","category_name":"地铁站","address":"上海轨道交通 一号线 三号线 四号线 轨交上海火车站站 轻轨 1 3 4"},{"poiid":"B2094757D06EAAFE4398","title":"上海歌城(中兴路店)","lon":"121.46375","lat":"31.25196","category":"170","category_name":"KTV","address":"闸北区中兴路1233号中兴财富广场1幢1-2号(近共和新路)"},{"poiid":"B2094757D06EAAFC489B","title":"嘉里不夜城","lon":"121.463","lat":"31.2514","category":"500","category_name":"未知分类","address":"上海市松江区涞坊路599弄"},{"poiid":"B209475CD564A7F8439E","title":"上海滩中信泰富店","lon":"121.45602","lat":"31.22851","category":"119","category_name":"商场","address":"\"南京西路1168号中信泰富广场，店铺号221.\r\n\""},{"poiid":"B2094757D068A2FD4098","title":"长安大厦","lon":"121.458","lat":"31.2508","category":"46","category_name":"楼宇","address":"闸北区长安路1001号"},{"poiid":"B2094757D06AA0FC4499","title":"南北高架","lon":"121.46357196","lat":"31.250989706","category":"500","category_name":"未知分类","address":"上海天目西路至中环"},{"poiid":"B2094757D068A2FD469B","title":"共和新路中兴路","lon":"121.463348","lat":"31.251093","category":"500","category_name":"未知分类","address":"上海共和新路中兴路"},{"poiid":"B2094757D068A2F54292","title":"上海火车站普通候车室","lon":"121.4571","lat":"31.2505","category":"260","category_name":"其他","address":"闸北区上海火车站  "},{"poiid":"B2094654D464A3F54693","title":"上海站北广场","lon":"121.45623","lat":"31.25081","category":"22","category_name":"火车站","address":"闸北区天目西路"},{"poiid":"B2094757D06FA5FD4098","title":"锦程大厦","lon":"121.458","lat":"31.2526","category":"46","category_name":"楼宇","address":"上海天目西路511号"},{"poiid":"B2094757D06FA6FF499D","title":"呷哺呷哺(中华新路店)","lon":"121.4625924","lat":"31.2535794","category":"86","category_name":"火锅店","address":"闸北区中华新路567号王子百货3楼301-1号(近共和新路)"},{"poiid":"B2094654D464A2FF429E","title":"上海长征医院闸北分院","lon":"121.46159","lat":"31.25429","category":"162","category_name":"医院","address":"中华新路619号"},{"poiid":"B2094655D268A7FF489A","title":"中土大厦","lon":"121.463746","lat":"31.250478","category":"46","category_name":"楼宇","address":"上海市闸北区共和新路666号"},{"poiid":"B2094757D168A5FB439F","title":"上海火车站6号候车室","lon":"121.463178","lat":"31.251041","category":"22","category_name":"火车站","address":"闸北区上海火车站"},{"poiid":"B2094757D06AA1F4479D","title":"机电大厦","lon":"121.45911553","lat":"31.253063178475","category":"46","category_name":"楼宇","address":"上海普陀区宁夏路251号"},{"poiid":"B2094757D065AAF5469D","title":"三号线宝山路站","lon":"121.458655103","lat":"31.2522050416","category":"500","category_name":"未知分类","address":"上海宝山路"},{"poiid":"B2094654D464A3F5469E","title":"中祥戴斯大酒店","lon":"121.45731","lat":"31.2522","category":"214","category_name":"四星级宾馆","address":"上海市闸北区中兴路1558号(上海火车站地区,近大统路)"},{"poiid":"B2094654DB65A0FB449B","title":"城隍庙小吃世界 大统路店","lon":"121.459541054","lat":"31.253871793","category":"68","category_name":"快餐厅","address":"闸北区中华新路723号(近大统路)"},{"poiid":"B2094757D06AA0FB439C","title":"闸北区出入境管理局","lon":"121.462799","lat":"31.248908","category":"500","category_name":"未知分类","address":"上海天目中路578号"},{"poiid":"B2094654DA6CABFE4493","title":"康吉大厦","lon":"121.462","lat":"31.2518","category":"46","category_name":"楼宇","address":"天目西路290号"},{"poiid":"B2094655D26AA0F9409C","title":"地铁上海火车站站","lon":"121.45874","lat":"31.24933","category":"36","category_name":"地铁站","address":""},{"poiid":"B2094757D16FABFB449E","title":"麦当劳中海万锦城","lon":"121.458612103","lat":"31.2515120272","category":"68","category_name":"快餐厅","address":"闸北区大统路679-695号(近中海万锦城)"},{"poiid":"B2094757D06FAAFE4298","title":"越秀苑","lon":"121.4585","lat":"31.254604","category":"500","category_name":"未知分类","address":"上海市闸北区大统路938弄"},{"poiid":"B2094655D268ABFD499B","title":"三兴大楼","lon":"121.46071","lat":"31.25216","category":"46","category_name":"楼宇","address":"上海市闸北区中兴路1340弄"},{"poiid":"B2094757D069A6FF4093","title":"贵州苗家酸汤鱼馆 中兴路店","lon":"121.463040054","lat":"31.252511793","category":"83","category_name":"云贵菜","address":"闸北区中兴路1233号中兴财富广场内(近共和新路)"},{"poiid":"B209475CDA6CA3FE449A","title":"人民广场","lon":"121.458274","lat":"31.252695","category":"500","category_name":"未知分类","address":"上海市 人民大道"},{"poiid":"B2094757D068A5FB4799","title":"中兴财富国际公寓","lon":"121.46307","lat":"31.253281","category":"47","category_name":"住宅区","address":"上海市闸北区中华新路588弄"},{"poiid":"B2094655D26CAAFD409B","title":"卓悦居","lon":"121.463","lat":"31.2516","category":"47","category_name":"住宅区","address":"民立路289弄"},{"poiid":"B2094654D464A2FC479B","title":"克莉丝汀饼屋No.136(中兴路)","lon":"121.46032","lat":"31.25205","category":"112","category_name":"糕饼店","address":"中兴路1380"},{"poiid":"B2094757D16DABFC449C","title":"上海市公安局交警总队","lon":"121.459811453","lat":"31.2502752013","category":"500","category_name":"未知分类","address":"上海太阳山路38号"},{"poiid":"B2094757D66BA4FC409C","title":"大家乐港式茶餐厅","lon":"121.463040054","lat":"31.252511793","category":"257","category_name":"中餐厅","address":"共和新路570号中兴财富休闲广场内近中兴路"},{"poiid":"B2094757D065ABF54492","title":"欢乐谷 飞旋陀螺","lon":"121.45922893","lat":"31.249961495","category":"195","category_name":"游乐场","address":"松江区佘山镇林湖路888号上海欢乐谷内"},{"poiid":"B2094654D464A2FC489A","title":"三兴小区","lon":"121.46065","lat":"31.251787","category":"47","category_name":"住宅区","address":"中兴路1340弄"},{"poiid":"B2094750D46BA0FC499F","title":"江桥万达","lon":"121.45816","lat":"31.249639","category":"500","category_name":"未知分类","address":null},{"poiid":"B2094654DB64A6FB419B","title":"如家快捷酒店(上海火车站南广场店)","lon":"121.4616","lat":"31.2476","category":"216","category_name":"经济型连锁酒店","address":"闸北区天目中路749弄57号蕃瓜弄内(近大统路)"},{"poiid":"B2094750D769A3FF429C","title":"鲜汤骨头砂锅","lon":"121.459","lat":"31.2548","category":"86","category_name":"火锅店","address":"闸北区大统路956号(近大统路地道)"},{"poiid":"B2094753D66EA2F54598","title":"闸北区中心医院","lon":"121.460011","lat":"31.254576","category":"162","category_name":"医院","address":"上海市 中华新路共和新路"},{"poiid":"B2094654DB6AA4FA4699","title":"三兴小区(北门)","lon":"121.46085","lat":"31.25207","category":"47","category_name":"住宅区","address":"中兴路1340"},{"poiid":"B2094654DB6AA4FA4698","title":"良友(永兴路)","lon":"121.45998","lat":"31.25209","category":"117","category_name":"便民商店/便利店","address":"中兴路1400"},{"poiid":"B2094757D164A1FB4198","title":"集乡客鸭脖子(三门乐购店)","lon":"121.461004303","lat":"31.2519071354","category":"247","category_name":"餐饮美食","address":"上海杨浦区三门路501号(三门乐购1楼)  "},{"poiid":"B2094654D464A2FD419C","title":"北方佳苑商办楼","lon":"121.46203","lat":"31.25199","category":"46","category_name":"楼宇","address":"中兴路1286"},{"poiid":"B2094654D464A2FC469D","title":"快客(三兴小区西北)","lon":"121.45978","lat":"31.25207","category":"117","category_name":"便民商店/便利店","address":"中兴路1410"},{"poiid":"B2094757D169A4FE419F","title":"闸北区中心医院急诊药房","lon":"121.463735103","lat":"31.252413046","category":"500","category_name":"未知分类","address":"上海中华新路619号"},{"poiid":"B2094757D16CA7F9449D","title":"轨交4号线 宝山路","lon":"121.461099103","lat":"31.2486559675","category":"500","category_name":"未知分类","address":"上海市闸北区沈家宅路"},{"poiid":"B2094757D164A7FB4399","title":"中海万景城","lon":"121.461317103","lat":"31.2517550322","category":"47","category_name":"住宅区","address":"上海市闸北区永兴路888号"},{"poiid":"B2094750DB6DA0FE4999","title":"闸北中心医院","lon":"121.4592506866157","lat":"31.25478931129848","category":"162","category_name":"医院","address":"中华新路619号"},{"poiid":"B2094655D26AA0FB419C","title":"中祥戴斯大酒店中餐厅","lon":"121.45742","lat":"31.25232","category":"76","category_name":"上海菜","address":"闸北区中兴路1558号中祥戴斯大酒店2楼(近大统路)"},{"poiid":"B2094654D464A2FC469B","title":"万民百货商场","lon":"121.45932","lat":"31.25213","category":"119","category_name":"商场","address":""},{"poiid":"B2094655D36CA5FC409A","title":"大统路","lon":"121.45792","lat":"31.25336","category":"38","category_name":"公交车站","address":""},{"poiid":"B2094654D464A2FE4992","title":"海林湘菜馆","lon":"121.45938","lat":"31.25293","category":"77","category_name":"湖南菜","address":"闸北区大统路851号(近中兴路)"},{"poiid":"B2094757D06EAAFB499C","title":"上海火车站地铁站","lon":"121.45871681","lat":"31.249312371","category":"36","category_name":"地铁站","address":"上海轨道交通 一号线 三号线 四号线 轨交上海火车站站 轻轨 1 3 4"},{"poiid":"B2094757D06EAAFE4398","title":"上海歌城(中兴路店)","lon":"121.46375","lat":"31.25196","category":"170","category_name":"KTV","address":"闸北区中兴路1233号中兴财富广场1幢1-2号(近共和新路)"},{"poiid":"B2094757D06EAAFC489B","title":"嘉里不夜城","lon":"121.463","lat":"31.2514","category":"500","category_name":"未知分类","address":"上海市松江区涞坊路599弄"},{"poiid":"B209475CD564A7F8439E","title":"上海滩中信泰富店","lon":"121.45602","lat":"31.22851","category":"119","category_name":"商场","address":"\"南京西路1168号中信泰富广场，店铺号221.\r\n\""},{"poiid":"B2094757D068A2FD4098","title":"长安大厦","lon":"121.458","lat":"31.2508","category":"46","category_name":"楼宇","address":"闸北区长安路1001号"},{"poiid":"B2094757D06AA0FC4499","title":"南北高架","lon":"121.46357196","lat":"31.250989706","category":"500","category_name":"未知分类","address":"上海天目西路至中环"},{"poiid":"B2094757D068A2FD469B","title":"共和新路中兴路","lon":"121.463348","lat":"31.251093","category":"500","category_name":"未知分类","address":"上海共和新路中兴路"},{"poiid":"B2094757D068A2F54292","title":"上海火车站普通候车室","lon":"121.4571","lat":"31.2505","category":"260","category_name":"其他","address":"闸北区上海火车站  "},{"poiid":"B2094654D464A3F54693","title":"上海站北广场","lon":"121.45623","lat":"31.25081","category":"22","category_name":"火车站","address":"闸北区天目西路"},{"poiid":"B2094757D06FA5FD4098","title":"锦程大厦","lon":"121.458","lat":"31.2526","category":"46","category_name":"楼宇","address":"上海天目西路511号"},{"poiid":"B2094757D06FA6FF499D","title":"呷哺呷哺(中华新路店)","lon":"121.4625924","lat":"31.2535794","category":"86","category_name":"火锅店","address":"闸北区中华新路567号王子百货3楼301-1号(近共和新路)"},{"poiid":"B2094654D464A2FF429E","title":"上海长征医院闸北分院","lon":"121.46159","lat":"31.25429","category":"162","category_name":"医院","address":"中华新路619号"},{"poiid":"B2094655D268A7FF489A","title":"中土大厦","lon":"121.463746","lat":"31.250478","category":"46","category_name":"楼宇","address":"上海市闸北区共和新路666号"},{"poiid":"B2094757D168A5FB439F","title":"上海火车站6号候车室","lon":"121.463178","lat":"31.251041","category":"22","category_name":"火车站","address":"闸北区上海火车站"},{"poiid":"B2094757D06AA1F4479D","title":"机电大厦","lon":"121.45911553","lat":"31.253063178475","category":"46","category_name":"楼宇","address":"上海普陀区宁夏路251号"},{"poiid":"B2094757D065AAF5469D","title":"三号线宝山路站","lon":"121.458655103","lat":"31.2522050416","category":"500","category_name":"未知分类","address":"上海宝山路"},{"poiid":"B2094654D464A3F5469E","title":"中祥戴斯大酒店","lon":"121.45731","lat":"31.2522","category":"214","category_name":"四星级宾馆","address":"上海市闸北区中兴路1558号(上海火车站地区,近大统路)"},{"poiid":"B2094654DB65A0FB449B","title":"城隍庙小吃世界 大统路店","lon":"121.459541054","lat":"31.253871793","category":"68","category_name":"快餐厅","address":"闸北区中华新路723号(近大统路)"},{"poiid":"B2094757D06AA0FB439C","title":"闸北区出入境管理局","lon":"121.462799","lat":"31.248908","category":"500","category_name":"未知分类","address":"上海天目中路578号"},{"poiid":"B2094654DA6CABFE4493","title":"康吉大厦","lon":"121.462","lat":"31.2518","category":"46","category_name":"楼宇","address":"天目西路290号"},{"poiid":"B2094655D26AA0F9409C","title":"地铁上海火车站站","lon":"121.45874","lat":"31.24933","category":"36","category_name":"地铁站","address":""},{"poiid":"B2094757D16FABFB449E","title":"麦当劳中海万锦城","lon":"121.458612103","lat":"31.2515120272","category":"68","category_name":"快餐厅","address":"闸北区大统路679-695号(近中海万锦城)"},{"poiid":"B2094757D06FAAFE4298","title":"越秀苑","lon":"121.4585","lat":"31.254604","category":"500","category_name":"未知分类","address":"上海市闸北区大统路938弄"},{"poiid":"B2094655D268ABFD499B","title":"三兴大楼","lon":"121.46071","lat":"31.25216","category":"46","category_name":"楼宇","address":"上海市闸北区中兴路1340弄"},{"poiid":"B2094757D069A6FF4093","title":"贵州苗家酸汤鱼馆 中兴路店","lon":"121.463040054","lat":"31.252511793","category":"83","category_name":"云贵菜","address":"闸北区中兴路1233号中兴财富广场内(近共和新路)"},{"poiid":"B209475CDA6CA3FE449A","title":"人民广场","lon":"121.458274","lat":"31.252695","category":"500","category_name":"未知分类","address":"上海市 人民大道"},{"poiid":"B2094757D068A5FB4799","title":"中兴财富国际公寓","lon":"121.46307","lat":"31.253281","category":"47","category_name":"住宅区","address":"上海市闸北区中华新路588弄"},{"poiid":"B2094655D26CAAFD409B","title":"卓悦居","lon":"121.463","lat":"31.2516","category":"47","category_name":"住宅区","address":"民立路289弄"},{"poiid":"B2094654D464A2FC479B","title":"克莉丝汀饼屋No.136(中兴路)","lon":"121.46032","lat":"31.25205","category":"112","category_name":"糕饼店","address":"中兴路1380"},{"poiid":"B2094757D16DABFC449C","title":"上海市公安局交警总队","lon":"121.459811453","lat":"31.2502752013","category":"500","category_name":"未知分类","address":"上海太阳山路38号"},{"poiid":"B2094757D66BA4FC409C","title":"大家乐港式茶餐厅","lon":"121.463040054","lat":"31.252511793","category":"257","category_name":"中餐厅","address":"共和新路570号中兴财富休闲广场内近中兴路"},{"poiid":"B2094757D065ABF54492","title":"欢乐谷 飞旋陀螺","lon":"121.45922893","lat":"31.249961495","category":"195","category_name":"游乐场","address":"松江区佘山镇林湖路888号上海欢乐谷内"},{"poiid":"B2094654D464A2FC489A","title":"三兴小区","lon":"121.46065","lat":"31.251787","category":"47","category_name":"住宅区","address":"中兴路1340弄"},{"poiid":"B2094750D46BA0FC499F","title":"江桥万达","lon":"121.45816","lat":"31.249639","category":"500","category_name":"未知分类","address":null},{"poiid":"B2094654DB64A6FB419B","title":"如家快捷酒店(上海火车站南广场店)","lon":"121.4616","lat":"31.2476","category":"216","category_name":"经济型连锁酒店","address":"闸北区天目中路749弄57号蕃瓜弄内(近大统路)"},{"poiid":"B2094750D769A3FF429C","title":"鲜汤骨头砂锅","lon":"121.459","lat":"31.2548","category":"86","category_name":"火锅店","address":"闸北区大统路956号(近大统路地道)"},{"poiid":"B2094753D66EA2F54598","title":"闸北区中心医院","lon":"121.460011","lat":"31.254576","category":"162","category_name":"医院","address":"上海市 中华新路共和新路"},{"poiid":"B2094654DB6AA4FA4699","title":"三兴小区(北门)","lon":"121.46085","lat":"31.25207","category":"47","category_name":"住宅区","address":"中兴路1340"},{"poiid":"B2094654DB6AA4FA4698","title":"良友(永兴路)","lon":"121.45998","lat":"31.25209","category":"117","category_name":"便民商店/便利店","address":"中兴路1400"},{"poiid":"B2094757D164A1FB4198","title":"集乡客鸭脖子(三门乐购店)","lon":"121.461004303","lat":"31.2519071354","category":"247","category_name":"餐饮美食","address":"上海杨浦区三门路501号(三门乐购1楼)  "},{"poiid":"B2094654D464A2FD419C","title":"北方佳苑商办楼","lon":"121.46203","lat":"31.25199","category":"46","category_name":"楼宇","address":"中兴路1286"},{"poiid":"B2094654D464A2FC469D","title":"快客(三兴小区西北)","lon":"121.45978","lat":"31.25207","category":"117","category_name":"便民商店/便利店","address":"中兴路1410"},{"poiid":"B2094757D169A4FE419F","title":"闸北区中心医院急诊药房","lon":"121.463735103","lat":"31.252413046","category":"500","category_name":"未知分类","address":"上海中华新路619号"},{"poiid":"B2094757D16CA7F9449D","title":"轨交4号线 宝山路","lon":"121.461099103","lat":"31.2486559675","category":"500","category_name":"未知分类","address":"上海市闸北区沈家宅路"},{"poiid":"B2094757D164A7FB4399","title":"中海万景城","lon":"121.461317103","lat":"31.2517550322","category":"47","category_name":"住宅区","address":"上海市闸北区永兴路888号"},{"poiid":"B2094750DB6DA0FE4999","title":"闸北中心医院","lon":"121.4592506866157","lat":"31.25478931129848","category":"162","category_name":"医院","address":"中华新路619号"},{"poiid":"B2094655D26AA0FB419C","title":"中祥戴斯大酒店中餐厅","lon":"121.45742","lat":"31.25232","category":"76","category_name":"上海菜","address":"闸北区中兴路1558号中祥戴斯大酒店2楼(近大统路)"},{"poiid":"B2094654D464A2FC469B","title":"万民百货商场","lon":"121.45932","lat":"31.25213","category":"119","category_name":"商场","address":""},{"poiid":"B2094655D36CA5FC409A","title":"大统路","lon":"121.45792","lat":"31.25336","category":"38","category_name":"公交车站","address":""},{"poiid":"B2094654D464A2FE4992","title":"海林湘菜馆","lon":"121.45938","lat":"31.25293","category":"77","category_name":"湖南菜","address":"闸北区大统路851号(近中兴路)"},{"poiid":"B2094757D06EAAFB499C","title":"上海火车站地铁站","lon":"121.45871681","lat":"31.249312371","category":"36","category_name":"地铁站","address":"上海轨道交通 一号线 三号线 四号线 轨交上海火车站站 轻轨 1 3 4"},{"poiid":"B2094757D06EAAFE4398","title":"上海歌城(中兴路店)","lon":"121.46375","lat":"31.25196","category":"170","category_name":"KTV","address":"闸北区中兴路1233号中兴财富广场1幢1-2号(近共和新路)"},{"poiid":"B2094757D06EAAFC489B","title":"嘉里不夜城","lon":"121.463","lat":"31.2514","category":"500","category_name":"未知分类","address":"上海市松江区涞坊路599弄"},{"poiid":"B209475CD564A7F8439E","title":"上海滩中信泰富店","lon":"121.45602","lat":"31.22851","category":"119","category_name":"商场","address":"\"南京西路1168号中信泰富广场，店铺号221.\r\n\""},{"poiid":"B2094757D068A2FD4098","title":"长安大厦","lon":"121.458","lat":"31.2508","category":"46","category_name":"楼宇","address":"闸北区长安路1001号"},{"poiid":"B2094757D06AA0FC4499","title":"南北高架","lon":"121.46357196","lat":"31.250989706","category":"500","category_name":"未知分类","address":"上海天目西路至中环"},{"poiid":"B2094757D068A2FD469B","title":"共和新路中兴路","lon":"121.463348","lat":"31.251093","category":"500","category_name":"未知分类","address":"上海共和新路中兴路"},{"poiid":"B2094757D068A2F54292","title":"上海火车站普通候车室","lon":"121.4571","lat":"31.2505","category":"260","category_name":"其他","address":"闸北区上海火车站  "},{"poiid":"B2094654D464A3F54693","title":"上海站北广场","lon":"121.45623","lat":"31.25081","category":"22","category_name":"火车站","address":"闸北区天目西路"},{"poiid":"B2094757D06FA5FD4098","title":"锦程大厦","lon":"121.458","lat":"31.2526","category":"46","category_name":"楼宇","address":"上海天目西路511号"},{"poiid":"B2094757D06FA6FF499D","title":"呷哺呷哺(中华新路店)","lon":"121.4625924","lat":"31.2535794","category":"86","category_name":"火锅店","address":"闸北区中华新路567号王子百货3楼301-1号(近共和新路)"},{"poiid":"B2094654D464A2FF429E","title":"上海长征医院闸北分院","lon":"121.46159","lat":"31.25429","category":"162","category_name":"医院","address":"中华新路619号"},{"poiid":"B2094655D268A7FF489A","title":"中土大厦","lon":"121.463746","lat":"31.250478","category":"46","category_name":"楼宇","address":"上海市闸北区共和新路666号"},{"poiid":"B2094757D168A5FB439F","title":"上海火车站6号候车室","lon":"121.463178","lat":"31.251041","category":"22","category_name":"火车站","address":"闸北区上海火车站"},{"poiid":"B2094757D06AA1F4479D","title":"机电大厦","lon":"121.45911553","lat":"31.253063178475","category":"46","category_name":"楼宇","address":"上海普陀区宁夏路251号"},{"poiid":"B2094757D065AAF5469D","title":"三号线宝山路站","lon":"121.458655103","lat":"31.2522050416","category":"500","category_name":"未知分类","address":"上海宝山路"},{"poiid":"B2094654D464A3F5469E","title":"中祥戴斯大酒店","lon":"121.45731","lat":"31.2522","category":"214","category_name":"四星级宾馆","address":"上海市闸北区中兴路1558号(上海火车站地区,近大统路)"},{"poiid":"B2094654DB65A0FB449B","title":"城隍庙小吃世界 大统路店","lon":"121.459541054","lat":"31.253871793","category":"68","category_name":"快餐厅","address":"闸北区中华新路723号(近大统路)"},{"poiid":"B2094757D06AA0FB439C","title":"闸北区出入境管理局","lon":"121.462799","lat":"31.248908","category":"500","category_name":"未知分类","address":"上海天目中路578号"},{"poiid":"B2094654DA6CABFE4493","title":"康吉大厦","lon":"121.462","lat":"31.2518","category":"46","category_name":"楼宇","address":"天目西路290号"},{"poiid":"B2094655D26AA0F9409C","title":"地铁上海火车站站","lon":"121.45874","lat":"31.24933","category":"36","category_name":"地铁站","address":""},{"poiid":"B2094757D16FABFB449E","title":"麦当劳中海万锦城","lon":"121.458612103","lat":"31.2515120272","category":"68","category_name":"快餐厅","address":"闸北区大统路679-695号(近中海万锦城)"},{"poiid":"B2094757D06FAAFE4298","title":"越秀苑","lon":"121.4585","lat":"31.254604","category":"500","category_name":"未知分类","address":"上海市闸北区大统路938弄"},{"poiid":"B2094655D268ABFD499B","title":"三兴大楼","lon":"121.46071","lat":"31.25216","category":"46","category_name":"楼宇","address":"上海市闸北区中兴路1340弄"},{"poiid":"B2094757D069A6FF4093","title":"贵州苗家酸汤鱼馆 中兴路店","lon":"121.463040054","lat":"31.252511793","category":"83","category_name":"云贵菜","address":"闸北区中兴路1233号中兴财富广场内(近共和新路)"},{"poiid":"B209475CDA6CA3FE449A","title":"人民广场","lon":"121.458274","lat":"31.252695","category":"500","category_name":"未知分类","address":"上海市 人民大道"},{"poiid":"B2094757D068A5FB4799","title":"中兴财富国际公寓","lon":"121.46307","lat":"31.253281","category":"47","category_name":"住宅区","address":"上海市闸北区中华新路588弄"},{"poiid":"B2094655D26CAAFD409B","title":"卓悦居","lon":"121.463","lat":"31.2516","category":"47","category_name":"住宅区","address":"民立路289弄"},{"poiid":"B2094654D464A2FC479B","title":"克莉丝汀饼屋No.136(中兴路)","lon":"121.46032","lat":"31.25205","category":"112","category_name":"糕饼店","address":"中兴路1380"},{"poiid":"B2094757D16DABFC449C","title":"上海市公安局交警总队","lon":"121.459811453","lat":"31.2502752013","category":"500","category_name":"未知分类","address":"上海太阳山路38号"},{"poiid":"B2094757D66BA4FC409C","title":"大家乐港式茶餐厅","lon":"121.463040054","lat":"31.252511793","category":"257","category_name":"中餐厅","address":"共和新路570号中兴财富休闲广场内近中兴路"},{"poiid":"B2094757D065ABF54492","title":"欢乐谷 飞旋陀螺","lon":"121.45922893","lat":"31.249961495","category":"195","category_name":"游乐场","address":"松江区佘山镇林湖路888号上海欢乐谷内"},{"poiid":"B2094654D464A2FC489A","title":"三兴小区","lon":"121.46065","lat":"31.251787","category":"47","category_name":"住宅区","address":"中兴路1340弄"},{"poiid":"B2094750D46BA0FC499F","title":"江桥万达","lon":"121.45816","lat":"31.249639","category":"500","category_name":"未知分类","address":null},{"poiid":"B2094654DB64A6FB419B","title":"如家快捷酒店(上海火车站南广场店)","lon":"121.4616","lat":"31.2476","category":"216","category_name":"经济型连锁酒店","address":"闸北区天目中路749弄57号蕃瓜弄内(近大统路)"},{"poiid":"B2094750D769A3FF429C","title":"鲜汤骨头砂锅","lon":"121.459","lat":"31.2548","category":"86","category_name":"火锅店","address":"闸北区大统路956号(近大统路地道)"},{"poiid":"B2094753D66EA2F54598","title":"闸北区中心医院","lon":"121.460011","lat":"31.254576","category":"162","category_name":"医院","address":"上海市 中华新路共和新路"},{"poiid":"B2094654DB6AA4FA4699","title":"三兴小区(北门)","lon":"121.46085","lat":"31.25207","category":"47","category_name":"住宅区","address":"中兴路1340"},{"poiid":"B2094654DB6AA4FA4698","title":"良友(永兴路)","lon":"121.45998","lat":"31.25209","category":"117","category_name":"便民商店/便利店","address":"中兴路1400"},{"poiid":"B2094757D164A1FB4198","title":"集乡客鸭脖子(三门乐购店)","lon":"121.461004303","lat":"31.2519071354","category":"247","category_name":"餐饮美食","address":"上海杨浦区三门路501号(三门乐购1楼)  "},{"poiid":"B2094654D464A2FD419C","title":"北方佳苑商办楼","lon":"121.46203","lat":"31.25199","category":"46","category_name":"楼宇","address":"中兴路1286"},{"poiid":"B2094654D464A2FC469D","title":"快客(三兴小区西北)","lon":"121.45978","lat":"31.25207","category":"117","category_name":"便民商店/便利店","address":"中兴路1410"},{"poiid":"B2094757D169A4FE419F","title":"闸北区中心医院急诊药房","lon":"121.463735103","lat":"31.252413046","category":"500","category_name":"未知分类","address":"上海中华新路619号"},{"poiid":"B2094757D16CA7F9449D","title":"轨交4号线 宝山路","lon":"121.461099103","lat":"31.2486559675","category":"500","category_name":"未知分类","address":"上海市闸北区沈家宅路"},{"poiid":"B2094757D164A7FB4399","title":"中海万景城","lon":"121.461317103","lat":"31.2517550322","category":"47","category_name":"住宅区","address":"上海市闸北区永兴路888号"},{"poiid":"B2094750DB6DA0FE4999","title":"闸北中心医院","lon":"121.4592506866157","lat":"31.25478931129848","category":"162","category_name":"医院","address":"中华新路619号"},{"poiid":"B2094655D26AA0FB419C","title":"中祥戴斯大酒店中餐厅","lon":"121.45742","lat":"31.25232","category":"76","category_name":"上海菜","address":"闸北区中兴路1558号中祥戴斯大酒店2楼(近大统路)"},{"poiid":"B2094654D464A2FC469B","title":"万民百货商场","lon":"121.45932","lat":"31.25213","category":"119","category_name":"商场","address":""},{"poiid":"B2094655D36CA5FC409A","title":"大统路","lon":"121.45792","lat":"31.25336","category":"38","category_name":"公交车站","address":""},{"poiid":"B2094654D464A2FE4992","title":"海林湘菜馆","lon":"121.45938","lat":"31.25293","category":"77","category_name":"湖南菜","address":"闸北区大统路851号(近中兴路)"}]