[{"poiid":"B2094655D36CA0FC4298","title":"巨峰路地铁站","lon":"121.58848","lat":"31.27957","category":"36","category_name":"地铁站","address":""},{"poiid":"B2094757D06FA2FC469D","title":"家乐福(巨峰店)","lon":"121.5928","lat":"31.2802","category":"118","category_name":"超级市场","address":"浦东新区巨峰路239号(近利津路)"},{"poiid":"B2094757D06FA2FA4198","title":"东靖路地铁站","lon":"121.58876565","lat":"31.29028212","category":"36","category_name":"地铁站","address":"上海轨道交通 六号线 轨交东靖路站 6"},{"poiid":"B2094757D06AABFD409B","title":"证大家园五期","lon":"121.59236","lat":"31.282457","category":"500","category_name":"未知分类","address":"浦东新区利津路1313弄"},{"poiid":"B2094757D06FAAF84493","title":"盆景汇大酒店","lon":"121.59943793","lat":"31.280443416","category":"76","category_name":"上海菜","address":"浦东新区五莲路1668号(近巨峰路)"},{"poiid":"B2094757D069A7FD489A","title":"证大家园","lon":"121.59651","lat":"31.281961","category":"500","category_name":"未知分类","address":"上海市浦东新区巨峰路667弄"},{"poiid":"B2094757D06FA6F4429F","title":"上海博宽羽毛球馆","lon":"121.60199","lat":"31.28451","category":"260","category_name":"其他","address":"浦东新区双桥路302号(近杨高北路)"},{"poiid":"B2094757D66CA6FC409F","title":"文峰","lon":"121.58973433","lat":"31.287347655","category":"500","category_name":"未知分类","address":"上海五莲路张扬北路"},{"poiid":"B2094757D06FA5F4489B","title":"肯德基 KFC (巨峰店)","lon":"121.59299","lat":"31.280109","category":"68","category_name":"快餐厅","address":"浦东新区巨峰路239号家乐福内(巨峰路利津路)"},{"poiid":"B2094757D068A0F5499D","title":"沪东新村","lon":"121.59076173881","lat":"31.276090782708","category":"47","category_name":"住宅区","address":"上海市浦东新区五莲路"},{"poiid":"B2094757D064A3FD4293","title":"棒约翰比萨(利津路店)","lon":"121.59385","lat":"31.28211","category":"94","category_name":"西餐厅","address":"浦东新区利津路1295号(近巨峰路)"},{"poiid":"B2094757D068ABFB409E","title":"富利达钱桥国际酒店","lon":"121.59730237","lat":"31.276689485","category":"215","category_name":"三星级宾馆","address":"浦东新区凌河路269号(五莲路口)"},{"poiid":"B2094655D26CA5FB459A","title":"东陆新村六街坊","lon":"121.59671","lat":"31.278631","category":"47","category_name":"住宅区","address":"巨峰路176弄"},{"poiid":"B2094654D568A0F5449C","title":"双桥小区(西南门)","lon":"121.5935","lat":"31.28481","category":"47","category_name":"住宅区","address":"双桥路180弄1-73号"},{"poiid":"B2094757D069A3FB459F","title":"浦东新区卫生发展研究院","lon":"121.5839523","lat":"31.2809492","category":"260","category_name":"其他","address":"上海莱阳路818号"},{"poiid":"B2094655D26AA0FA4393","title":"地铁巨峰路站","lon":"121.58832","lat":"31.27956","category":"36","category_name":"地铁站","address":""},{"poiid":"B2094655D26FA7FD4998","title":"金锦苑","lon":"121.59068774992","lat":"31.289862736207","category":"47","category_name":"住宅区","address":"东波路585弄1-115号"},{"poiid":"B2094757D06BAAFC4693","title":"顺元面馆","lon":"121.59364433","lat":"31.282709549","category":"68","category_name":"快餐厅","address":"浦东新区利津路1359号(近双桥路)"},{"poiid":"B2094757D06AA6F54598","title":"申崇六线(巨峰路终点站)","lon":"121.588585","lat":"31.280281","category":"500","category_name":"未知分类","address":"上海地铁六号线巨峰路站"},{"poiid":"B2094757D069A0FC4292","title":"豪享来上海五莲店","lon":"121.598","lat":"31.285","category":"247","category_name":"餐饮美食","address":"上海市浦东新区五莲路1705号"},{"poiid":"B2094757D164A4FE449A","title":"味鼎香","lon":"121.593675","lat":"31.281938","category":"68","category_name":"快餐厅","address":"浦东新区利津路1301号1楼(近上海新国际博览中心)"},{"poiid":"B2094757D064A2FB469E","title":"百赢力欧桌球俱乐部","lon":"121.59404","lat":"31.28309","category":"171","category_name":"台球厅","address":"浦东新区利津路1359号2楼(近双桥路)"},{"poiid":"B209475CD56BA1F5409D","title":"浦东国际机场-2号航站楼","lon":"121.592582","lat":"31.283016","category":"500","category_name":"未知分类","address":"上海市 浦东机场"},{"poiid":"B2094757D068A7F44299","title":"一兆韦德(证大店)","lon":"121.600569","lat":"31.281924","category":"221","category_name":"健身中心","address":"浦东新区五莲路1769弄46号证大家园"},{"poiid":"B2094655D26CA5FA499B","title":"喜士多便利店(利津路)","lon":"121.59365","lat":"31.28268","category":"117","category_name":"便民商店/便利店","address":"利津路1327"},{"poiid":"B2094655D264AAFE4993","title":"鲱鱼宝宝早教中心","lon":"121.59366","lat":"31.28172","category":"57","category_name":"幼儿园","address":"利津路1293-1295"},{"poiid":"B2094655D26FA1F5449B","title":"伟业金锦苑二邨","lon":"121.58506","lat":"31.28176","category":"47","category_name":"住宅区","address":"莱阳路880弄1-113号"},{"poiid":"B2094757D06FA1F5449C","title":"爱法新城","lon":"121.586","lat":"31.277746","category":"47","category_name":"住宅区","address":"上海浦东新区利津路385弄"},{"poiid":"B2094655D26BA0F8459A","title":"申之春利津路分公司","lon":"121.59364","lat":"31.2824","category":"148","category_name":"美容美发店","address":"利津路1315"},{"poiid":"B2094757D068A6FC429B","title":"全家便利(利津路店)","lon":"121.593652","lat":"31.281842","category":"117","category_name":"便民商店/便利店","address":"上海浦东新区利津路1297号"},{"poiid":"B2094757D16EAAFA439A","title":"梵一瑜伽会所","lon":"121.59672","lat":"31.28015","category":"148","category_name":"美容美发店","address":"浦东新区巨峰路399弄57-58号证大家园1楼102室(近五莲路)"},{"poiid":"B2094752D26CA6FA419F","title":"禾味牛杂凉茶铺","lon":"121.59388","lat":"31.28004","category":"68","category_name":"快餐厅","address":"浦东新区金桥镇利津路1204号(近巨峰路)"},{"poiid":"B2094757D16CABFC459A","title":"台之源云南米线","lon":"121.590201","lat":"31.283857","category":"247","category_name":"餐饮美食","address":"上海利津路双桥路"},{"poiid":"B2094757D165A5FC4393","title":"小熊之家","lon":"121.59345783","lat":"31.285330609","category":"500","category_name":"未知分类","address":"上海利津路"},{"poiid":"B2094757D16FABF54898","title":"鲱鱼宝宝证大店","lon":"121.59439729","lat":"31.283983458","category":"500","category_name":"未知分类","address":"上海利津路"},{"poiid":"B209475CD76EA1F8459B","title":"徐汇滨江绿地","lon":"121.590476","lat":"31.283721","category":"500","category_name":"未知分类","address":"上海市 龙腾大道"},{"poiid":"B2094757D16BA7F84193","title":"J's Home","lon":"121.59403733","lat":"31.283223561","category":"500","category_name":"未知分类","address":"上海市浦东新区张杨北路"},{"poiid":"B2094655D264AAFE499F","title":"小熊之家孕婴童时尚生活馆","lon":"121.59364","lat":"31.28271","category":"128","category_name":"儿童用品店","address":"利津路1329-1331"},{"poiid":"B2094655D26BA4FE4498","title":"醉仙楼7号","lon":"121.59367","lat":"31.28152","category":"70","category_name":"综合酒楼","address":"利津路1281-1283、1287"},{"poiid":"B2094757D069AAF5469F","title":"双桥小区","lon":"121.59892","lat":"31.282758","category":"47","category_name":"住宅区","address":"上海双桥路218弄"},{"poiid":"B2094757D069A0F8419F","title":"丽都成品","lon":"121.58979","lat":"31.275686","category":"47","category_name":"住宅区","address":"上海浦东新区利津路729弄"},{"poiid":"B2094655D36DA0F8479A","title":"杨高北路巨峰路","lon":"121.60158","lat":"31.28016","category":"38","category_name":"公交车站","address":""},{"poiid":"B2094757D16CA0F4409C","title":"中国工商银行(巨峰路支行)","lon":"121.59409","lat":"31.28197","category":"150","category_name":"银行","address":"浦东新区利津路1311号近巨峰路"},{"poiid":"B2094757D46DABFC4099","title":"争鲜外带寿司 巨峰路店","lon":"121.594883054","lat":"31.280204793","category":"95","category_name":"日本料理","address":"浦东新区巨峰路239号家乐福1楼(近利津路)"},{"poiid":"B2094757D16DA5FB449C","title":"广灵阁八仙海鲜城","lon":"121.59895281","lat":"31.281102726","category":"72","category_name":"广东菜","address":"浦东新区五莲路1739号(近巨峰路)"},{"poiid":"B2094757D16DABFD4598","title":"邻海小镇","lon":"121.5990423","lat":"31.2801028","category":"75","category_name":"浙江菜","address":"浦东新区五莲路1751号(近双桥路)"},{"poiid":"B2094757D064A0FE419C","title":"永和大王(巨峰路店)","lon":"121.59272497668644","lat":"31.280373123057124","category":"68","category_name":"快餐厅","address":"浦东新区巨峰路239号家乐福1楼(近利津路)"},{"poiid":"B2094655D26CA5FD409C","title":"证大家园(东门)","lon":"121.59357","lat":"31.28222","category":"48","category_name":"楼宇大门","address":"利津路1313弄1-54号"},{"poiid":"B2094757D06FA6FD499D","title":"伟业金锦苑","lon":"121.58762689","lat":"31.281868169","category":"47","category_name":"住宅区","address":"上海市浦东新区东陆路517号"},{"poiid":"B2094655D26DABF94392","title":"东陆新村五街坊","lon":"121.59283","lat":"31.278667","category":"47","category_name":"住宅区","address":"上海市浦东新区利津路1111弄"},{"poiid":"B2094655D36CA0FC4298","title":"巨峰路地铁站","lon":"121.58848","lat":"31.27957","category":"36","category_name":"地铁站","address":""},{"poiid":"B2094757D06FA2FC469D","title":"家乐福(巨峰店)","lon":"121.5928","lat":"31.2802","category":"118","category_name":"超级市场","address":"浦东新区巨峰路239号(近利津路)"},{"poiid":"B2094757D06FA2FA4198","title":"东靖路地铁站","lon":"121.58876565","lat":"31.29028212","category":"36","category_name":"地铁站","address":"上海轨道交通 六号线 轨交东靖路站 6"},{"poiid":"B2094757D06AABFD409B","title":"证大家园五期","lon":"121.59236","lat":"31.282457","category":"500","category_name":"未知分类","address":"浦东新区利津路1313弄"},{"poiid":"B2094757D06FAAF84493","title":"盆景汇大酒店","lon":"121.59943793","lat":"31.280443416","category":"76","category_name":"上海菜","address":"浦东新区五莲路1668号(近巨峰路)"},{"poiid":"B2094757D069A7FD489A","title":"证大家园","lon":"121.59651","lat":"31.281961","category":"500","category_name":"未知分类","address":"上海市浦东新区巨峰路667弄"},{"poiid":"B2094757D06FA6F4429F","title":"上海博宽羽毛球馆","lon":"121.60199","lat":"31.28451","category":"260","category_name":"其他","address":"浦东新区双桥路302号(近杨高北路)"},{"poiid":"B2094757D66CA6FC409F","title":"文峰","lon":"121.58973433","lat":"31.287347655","category":"500","category_name":"未知分类","address":"上海五莲路张扬北路"},{"poiid":"B2094757D06FA5F4489B","title":"肯德基 KFC (巨峰店)","lon":"121.59299","lat":"31.280109","category":"68","category_name":"快餐厅","address":"浦东新区巨峰路239号家乐福内(巨峰路利津路)"},{"poiid":"B2094757D068A0F5499D","title":"沪东新村","lon":"121.59076173881","lat":"31.276090782708","category":"47","category_name":"住宅区","address":"上海市浦东新区五莲路"},{"poiid":"B2094757D064A3FD4293","title":"棒约翰比萨(利津路店)","lon":"121.59385","lat":"31.28211","category":"94","category_name":"西餐厅","address":"浦东新区利津路1295号(近巨峰路)"},{"poiid":"B2094757D068ABFB409E","title":"富利达钱桥国际酒店","lon":"121.59730237","lat":"31.276689485","category":"215","category_name":"三星级宾馆","address":"浦东新区凌河路269号(五莲路口)"},{"poiid":"B2094655D26CA5FB459A","title":"东陆新村六街坊","lon":"121.59671","lat":"31.278631","category":"47","category_name":"住宅区","address":"巨峰路176弄"},{"poiid":"B2094654D568A0F5449C","title":"双桥小区(西南门)","lon":"121.5935","lat":"31.28481","category":"47","category_name":"住宅区","address":"双桥路180弄1-73号"},{"poiid":"B2094757D069A3FB459F","title":"浦东新区卫生发展研究院","lon":"121.5839523","lat":"31.2809492","category":"260","category_name":"其他","address":"上海莱阳路818号"},{"poiid":"B2094655D26AA0FA4393","title":"地铁巨峰路站","lon":"121.58832","lat":"31.27956","category":"36","category_name":"地铁站","address":""},{"poiid":"B2094655D26FA7FD4998","title":"金锦苑","lon":"121.59068774992","lat":"31.289862736207","category":"47","category_name":"住宅区","address":"东波路585弄1-115号"},{"poiid":"B2094757D06BAAFC4693","title":"顺元面馆","lon":"121.59364433","lat":"31.282709549","category":"68","category_name":"快餐厅","address":"浦东新区利津路1359号(近双桥路)"},{"poiid":"B2094757D06AA6F54598","title":"申崇六线(巨峰路终点站)","lon":"121.588585","lat":"31.280281","category":"500","category_name":"未知分类","address":"上海地铁六号线巨峰路站"},{"poiid":"B2094757D069A0FC4292","title":"豪享来上海五莲店","lon":"121.598","lat":"31.285","category":"247","category_name":"餐饮美食","address":"上海市浦东新区五莲路1705号"},{"poiid":"B2094757D164A4FE449A","title":"味鼎香","lon":"121.593675","lat":"31.281938","category":"68","category_name":"快餐厅","address":"浦东新区利津路1301号1楼(近上海新国际博览中心)"},{"poiid":"B2094757D064A2FB469E","title":"百赢力欧桌球俱乐部","lon":"121.59404","lat":"31.28309","category":"171","category_name":"台球厅","address":"浦东新区利津路1359号2楼(近双桥路)"},{"poiid":"B209475CD56BA1F5409D","title":"浦东国际机场-2号航站楼","lon":"121.592582","lat":"31.283016","category":"500","category_name":"未知分类","address":"上海市 浦东机场"},{"poiid":"B2094757D068A7F44299","title":"一兆韦德(证大店)","lon":"121.600569","lat":"31.281924","category":"221","category_name":"健身中心","address":"浦东新区五莲路1769弄46号证大家园"},{"poiid":"B2094655D26CA5FA499B","title":"喜士多便利店(利津路)","lon":"121.59365","lat":"31.28268","category":"117","category_name":"便民商店/便利店","address":"利津路1327"},{"poiid":"B2094655D264AAFE4993","title":"鲱鱼宝宝早教中心","lon":"121.59366","lat":"31.28172","category":"57","category_name":"幼儿园","address":"利津路1293-1295"},{"poiid":"B2094655D26FA1F5449B","title":"伟业金锦苑二邨","lon":"121.58506","lat":"31.28176","category":"47","category_name":"住宅区","address":"莱阳路880弄1-113号"},{"poiid":"B2094757D06FA1F5449C","title":"爱法新城","lon":"121.586","lat":"31.277746","category":"47","category_name":"住宅区","address":"上海浦东新区利津路385弄"},{"poiid":"B2094655D26BA0F8459A","title":"申之春利津路分公司","lon":"121.59364","lat":"31.2824","category":"148","category_name":"美容美发店","address":"利津路1315"},{"poiid":"B2094757D068A6FC429B","title":"全家便利(利津路店)","lon":"121.593652","lat":"31.281842","category":"117","category_name":"便民商店/便利店","address":"上海浦东新区利津路1297号"},{"poiid":"B2094757D16EAAFA439A","title":"梵一瑜伽会所","lon":"121.59672","lat":"31.28015","category":"148","category_name":"美容美发店","address":"浦东新区巨峰路399弄57-58号证大家园1楼102室(近五莲路)"},{"poiid":"B2094752D26CA6FA419F","title":"禾味牛杂凉茶铺","lon":"121.59388","lat":"31.28004","category":"68","category_name":"快餐厅","address":"浦东新区金桥镇利津路1204号(近巨峰路)"},{"poiid":"B2094757D16CABFC459A","title":"台之源云南米线","lon":"121.590201","lat":"31.283857","category":"247","category_name":"餐饮美食","address":"上海利津路双桥路"},{"poiid":"B2094757D165A5FC4393","title":"小熊之家","lon":"121.59345783","lat":"31.285330609","category":"500","category_name":"未知分类","address":"上海利津路"},{"poiid":"B2094757D16FABF54898","title":"鲱鱼宝宝证大店","lon":"121.59439729","lat":"31.283983458","category":"500","category_name":"未知分类","address":"上海利津路"},{"poiid":"B209475CD76EA1F8459B","title":"徐汇滨江绿地","lon":"121.590476","lat":"31.283721","category":"500","category_name":"未知分类","address":"上海市 龙腾大道"},{"poiid":"B2094757D16BA7F84193","title":"J's Home","lon":"121.59403733","lat":"31.283223561","category":"500","category_name":"未知分类","address":"上海市浦东新区张杨北路"},{"poiid":"B2094655D264AAFE499F","title":"小熊之家孕婴童时尚生活馆","lon":"121.59364","lat":"31.28271","category":"128","category_name":"儿童用品店","address":"利津路1329-1331"},{"poiid":"B2094655D26BA4FE4498","title":"醉仙楼7号","lon":"121.59367","lat":"31.28152","category":"70","category_name":"综合酒楼","address":"利津路1281-1283、1287"},{"poiid":"B2094757D069AAF5469F","title":"双桥小区","lon":"121.59892","lat":"31.282758","category":"47","category_name":"住宅区","address":"上海双桥路218弄"},{"poiid":"B2094757D069A0F8419F","title":"丽都成品","lon":"121.58979","lat":"31.275686","category":"47","category_name":"住宅区","address":"上海浦东新区利津路729弄"},{"poiid":"B2094655D36DA0F8479A","title":"杨高北路巨峰路","lon":"121.60158","lat":"31.28016","category":"38","category_name":"公交车站","address":""},{"poiid":"B2094757D16CA0F4409C","title":"中国工商银行(巨峰路支行)","lon":"121.59409","lat":"31.28197","category":"150","category_name":"银行","address":"浦东新区利津路1311号近巨峰路"},{"poiid":"B2094757D46DABFC4099","title":"争鲜外带寿司 巨峰路店","lon":"121.594883054","lat":"31.280204793","category":"95","category_name":"日本料理","address":"浦东新区巨峰路239号家乐福1楼(近利津路)"},{"poiid":"B2094757D16DA5FB449C","title":"广灵阁八仙海鲜城","lon":"121.59895281","lat":"31.281102726","category":"72","category_name":"广东菜","address":"浦东新区五莲路1739号(近巨峰路)"},{"poiid":"B2094757D16DABFD4598","title":"邻海小镇","lon":"121.5990423","lat":"31.2801028","category":"75","category_name":"浙江菜","address":"浦东新区五莲路1751号(近双桥路)"},{"poiid":"B2094757D064A0FE419C","title":"永和大王(巨峰路店)","lon":"121.59272497668644","lat":"31.280373123057124","category":"68","category_name":"快餐厅","address":"浦东新区巨峰路239号家乐福1楼(近利津路)"},{"poiid":"B2094655D26CA5FD409C","title":"证大家园(东门)","lon":"121.59357","lat":"31.28222","category":"48","category_name":"楼宇大门","address":"利津路1313弄1-54号"},{"poiid":"B2094757D06FA6FD499D","title":"伟业金锦苑","lon":"121.58762689","lat":"31.281868169","category":"47","category_name":"住宅区","address":"上海市浦东新区东陆路517号"},{"poiid":"B2094655D26DABF94392","title":"东陆新村五街坊","lon":"121.59283","lat":"31.278667","category":"47","category_name":"住宅区","address":"上海市浦东新区利津路1111弄"},{"poiid":"B2094655D36CA0FC4298","title":"巨峰路地铁站","lon":"121.58848","lat":"31.27957","category":"36","category_name":"地铁站","address":""},{"poiid":"B2094757D06FA2FC469D","title":"家乐福(巨峰店)","lon":"121.5928","lat":"31.2802","category":"118","category_name":"超级市场","address":"浦东新区巨峰路239号(近利津路)"},{"poiid":"B2094757D06FA2FA4198","title":"东靖路地铁站","lon":"121.58876565","lat":"31.29028212","category":"36","category_name":"地铁站","address":"上海轨道交通 六号线 轨交东靖路站 6"},{"poiid":"B2094757D06AABFD409B","title":"证大家园五期","lon":"121.59236","lat":"31.282457","category":"500","category_name":"未知分类","address":"浦东新区利津路1313弄"},{"poiid":"B2094757D06FAAF84493","title":"盆景汇大酒店","lon":"121.59943793","lat":"31.280443416","category":"76","category_name":"上海菜","address":"浦东新区五莲路1668号(近巨峰路)"},{"poiid":"B2094757D069A7FD489A","title":"证大家园","lon":"121.59651","lat":"31.281961","category":"500","category_name":"未知分类","address":"上海市浦东新区巨峰路667弄"},{"poiid":"B2094757D06FA6F4429F","title":"上海博宽羽毛球馆","lon":"121.60199","lat":"31.28451","category":"260","category_name":"其他","address":"浦东新区双桥路302号(近杨高北路)"},{"poiid":"B2094757D66CA6FC409F","title":"文峰","lon":"121.58973433","lat":"31.287347655","category":"500","category_name":"未知分类","address":"上海五莲路张扬北路"},{"poiid":"B2094757D06FA5F4489B","title":"肯德基 KFC (巨峰店)","lon":"121.59299","lat":"31.280109","category":"68","category_name":"快餐厅","address":"浦东新区巨峰路239号家乐福内(巨峰路利津路)"},{"poiid":"B2094757D068A0F5499D","title":"沪东新村","lon":"121.59076173881","lat":"31.276090782708","category":"47","category_name":"住宅区","address":"上海市浦东新区五莲路"},{"poiid":"B2094757D064A3FD4293","title":"棒约翰比萨(利津路店)","lon":"121.59385","lat":"31.28211","category":"94","category_name":"西餐厅","address":"浦东新区利津路1295号(近巨峰路)"},{"poiid":"B2094757D068ABFB409E","title":"富利达钱桥国际酒店","lon":"121.59730237","lat":"31.276689485","category":"215","category_name":"三星级宾馆","address":"浦东新区凌河路269号(五莲路口)"},{"poiid":"B2094655D26CA5FB459A","title":"东陆新村六街坊","lon":"121.59671","lat":"31.278631","category":"47","category_name":"住宅区","address":"巨峰路176弄"},{"poiid":"B2094654D568A0F5449C","title":"双桥小区(西南门)","lon":"121.5935","lat":"31.28481","category":"47","category_name":"住宅区","address":"双桥路180弄1-73号"},{"poiid":"B2094757D069A3FB459F","title":"浦东新区卫生发展研究院","lon":"121.5839523","lat":"31.2809492","category":"260","category_name":"其他","address":"上海莱阳路818号"},{"poiid":"B2094655D26AA0FA4393","title":"地铁巨峰路站","lon":"121.58832","lat":"31.27956","category":"36","category_name":"地铁站","address":""},{"poiid":"B2094655D26FA7FD4998","title":"金锦苑","lon":"121.59068774992","lat":"31.289862736207","category":"47","category_name":"住宅区","address":"东波路585弄1-115号"},{"poiid":"B2094757D06BAAFC4693","title":"顺元面馆","lon":"121.59364433","lat":"31.282709549","category":"68","category_name":"快餐厅","address":"浦东新区利津路1359号(近双桥路)"},{"poiid":"B2094757D06AA6F54598","title":"申崇六线(巨峰路终点站)","lon":"121.588585","lat":"31.280281","category":"500","category_name":"未知分类","address":"上海地铁六号线巨峰路站"},{"poiid":"B2094757D069A0FC4292","title":"豪享来上海五莲店","lon":"121.598","lat":"31.285","category":"247","category_name":"餐饮美食","address":"上海市浦东新区五莲路1705号"},{"poiid":"B2094757D164A4FE449A","title":"味鼎香","lon":"121.593675","lat":"31.281938","category":"68","category_name":"快餐厅","address":"浦东新区利津路1301号1楼(近上海新国际博览中心)"},{"poiid":"B2094757D064A2FB469E","title":"百赢力欧桌球俱乐部","lon":"121.59404","lat":"31.28309","category":"171","category_name":"台球厅","address":"浦东新区利津路1359号2楼(近双桥路)"},{"poiid":"B209475CD56BA1F5409D","title":"浦东国际机场-2号航站楼","lon":"121.592582","lat":"31.283016","category":"500","category_name":"未知分类","address":"上海市 浦东机场"},{"poiid":"B2094757D068A7F44299","title":"一兆韦德(证大店)","lon":"121.600569","lat":"31.281924","category":"221","category_name":"健身中心","address":"浦东新区五莲路1769弄46号证大家园"},{"poiid":"B2094655D26CA5FA499B","title":"喜士多便利店(利津路)","lon":"121.59365","lat":"31.28268","category":"117","category_name":"便民商店/便利店","address":"利津路1327"},{"poiid":"B2094655D264AAFE4993","title":"鲱鱼宝宝早教中心","lon":"121.59366","lat":"31.28172","category":"57","category_name":"幼儿园","address":"利津路1293-1295"},{"poiid":"B2094655D26FA1F5449B","title":"伟业金锦苑二邨","lon":"121.58506","lat":"31.28176","category":"47","category_name":"住宅区","address":"莱阳路880弄1-113号"},{"poiid":"B2094757D06FA1F5449C","title":"爱法新城","lon":"121.586","lat":"31.277746","category":"47","category_name":"住宅区","address":"上海浦东新区利津路385弄"},{"poiid":"B2094655D26BA0F8459A","title":"申之春利津路分公司","lon":"121.59364","lat":"31.2824","category":"148","category_name":"美容美发店","address":"利津路1315"},{"poiid":"B2094757D068A6FC429B","title":"全家便利(利津路店)","lon":"121.593652","lat":"31.281842","category":"117","category_name":"便民商店/便利店","address":"上海浦东新区利津路1297号"},{"poiid":"B2094757D16EAAFA439A","title":"梵一瑜伽会所","lon":"121.59672","lat":"31.28015","category":"148","category_name":"美容美发店","address":"浦东新区巨峰路399弄57-58号证大家园1楼102室(近五莲路)"},{"poiid":"B2094752D26CA6FA419F","title":"禾味牛杂凉茶铺","lon":"121.59388","lat":"31.28004","category":"68","category_name":"快餐厅","address":"浦东新区金桥镇利津路1204号(近巨峰路)"},{"poiid":"B2094757D16CABFC459A","title":"台之源云南米线","lon":"121.590201","lat":"31.283857","category":"247","category_name":"餐饮美食","address":"上海利津路双桥路"},{"poiid":"B2094757D165A5FC4393","title":"小熊之家","lon":"121.59345783","lat":"31.285330609","category":"500","category_name":"未知分类","address":"上海利津路"},{"poiid":"B2094757D16FABF54898","title":"鲱鱼宝宝证大店","lon":"121.59439729","lat":"31.283983458","category":"500","category_name":"未知分类","address":"上海利津路"},{"poiid":"B209475CD76EA1F8459B","title":"徐汇滨江绿地","lon":"121.590476","lat":"31.283721","category":"500","category_name":"未知分类","address":"上海市 龙腾大道"},{"poiid":"B2094757D16BA7F84193","title":"J's Home","lon":"121.59403733","lat":"31.283223561","category":"500","category_name":"未知分类","address":"上海市浦东新区张杨北路"},{"poiid":"B2094655D264AAFE499F","title":"小熊之家孕婴童时尚生活馆","lon":"121.59364","lat":"31.28271","category":"128","category_name":"儿童用品店","address":"利津路1329-1331"},{"poiid":"B2094655D26BA4FE4498","title":"醉仙楼7号","lon":"121.59367","lat":"31.28152","category":"70","category_name":"综合酒楼","address":"利津路1281-1283、1287"},{"poiid":"B2094757D069AAF5469F","title":"双桥小区","lon":"121.59892","lat":"31.282758","category":"47","category_name":"住宅区","address":"上海双桥路218弄"},{"poiid":"B2094757D069A0F8419F","title":"丽都成品","lon":"121.58979","lat":"31.275686","category":"47","category_name":"住宅区","address":"上海浦东新区利津路729弄"},{"poiid":"B2094655D36DA0F8479A","title":"杨高北路巨峰路","lon":"121.60158","lat":"31.28016","category":"38","category_name":"公交车站","address":""},{"poiid":"B2094757D16CA0F4409C","title":"中国工商银行(巨峰路支行)","lon":"121.59409","lat":"31.28197","category":"150","category_name":"银行","address":"浦东新区利津路1311号近巨峰路"},{"poiid":"B2094757D46DABFC4099","title":"争鲜外带寿司 巨峰路店","lon":"121.594883054","lat":"31.280204793","category":"95","category_name":"日本料理","address":"浦东新区巨峰路239号家乐福1楼(近利津路)"},{"poiid":"B2094757D16DA5FB449C","title":"广灵阁八仙海鲜城","lon":"121.59895281","lat":"31.281102726","category":"72","category_name":"广东菜","address":"浦东新区五莲路1739号(近巨峰路)"},{"poiid":"B2094757D16DABFD4598","title":"邻海小镇","lon":"121.5990423","lat":"31.2801028","category":"75","category_name":"浙江菜","address":"浦东新区五莲路1751号(近双桥路)"},{"poiid":"B2094757D064A0FE419C","title":"永和大王(巨峰路店)","lon":"121.59272497668644","lat":"31.280373123057124","category":"68","category_name":"快餐厅","address":"浦东新区巨峰路239号家乐福1楼(近利津路)"},{"poiid":"B2094655D26CA5FD409C","title":"证大家园(东门)","lon":"121.59357","lat":"31.28222","category":"48","category_name":"楼宇大门","address":"利津路1313弄1-54号"},{"poiid":"B2094757D06FA6FD499D","title":"伟业金锦苑","lon":"121.58762689","lat":"31.281868169","category":"47","category_name":"住宅区","address":"上海市浦东新区东陆路517号"},{"poiid":"B2094655D26DABF94392","title":"东陆新村五街坊","lon":"121.59283","lat":"31.278667","category":"47","category_name":"住宅区","address":"上海市浦东新区利津路1111弄"},{"poiid":"B2094655D36CA0FC4298","title":"巨峰路地铁站","lon":"121.58848","lat":"31.27957","category":"36","category_name":"地铁站","address":""},{"poiid":"B2094757D06FA2FC469D","title":"家乐福(巨峰店)","lon":"121.5928","lat":"31.2802","category":"118","category_name":"超级市场","address":"浦东新区巨峰路239号(近利津路)"},{"poiid":"B2094757D06FA2FA4198","title":"东靖路地铁站","lon":"121.58876565","lat":"31.29028212","category":"36","category_name":"地铁站","address":"上海轨道交通 六号线 轨交东靖路站 6"},{"poiid":"B2094757D06AABFD409B","title":"证大家园五期","lon":"121.59236","lat":"31.282457","category":"500","category_name":"未知分类","address":"浦东新区利津路1313弄"},{"poiid":"B2094757D06FAAF84493","title":"盆景汇大酒店","lon":"121.59943793","lat":"31.280443416","category":"76","category_name":"上海菜","address":"浦东新区五莲路1668号(近巨峰路)"},{"poiid":"B2094757D069A7FD489A","title":"证大家园","lon":"121.59651","lat":"31.281961","category":"500","category_name":"未知分类","address":"上海市浦东新区巨峰路667弄"},{"poiid":"B2094757D06FA6F4429F","title":"上海博宽羽毛球馆","lon":"121.60199","lat":"31.28451","category":"260","category_name":"其他","address":"浦东新区双桥路302号(近杨高北路)"},{"poiid":"B2094757D66CA6FC409F","title":"文峰","lon":"121.58973433","lat":"31.287347655","category":"500","category_name":"未知分类","address":"上海五莲路张扬北路"},{"poiid":"B2094757D06FA5F4489B","title":"肯德基 KFC (巨峰店)","lon":"121.59299","lat":"31.280109","category":"68","category_name":"快餐厅","address":"浦东新区巨峰路239号家乐福内(巨峰路利津路)"},{"poiid":"B2094757D068A0F5499D","title":"沪东新村","lon":"121.59076173881","lat":"31.276090782708","category":"47","category_name":"住宅区","address":"上海市浦东新区五莲路"},{"poiid":"B2094757D064A3FD4293","title":"棒约翰比萨(利津路店)","lon":"121.59385","lat":"31.28211","category":"94","category_name":"西餐厅","address":"浦东新区利津路1295号(近巨峰路)"},{"poiid":"B2094757D068ABFB409E","title":"富利达钱桥国际酒店","lon":"121.59730237","lat":"31.276689485","category":"215","category_name":"三星级宾馆","address":"浦东新区凌河路269号(五莲路口)"},{"poiid":"B2094655D26CA5FB459A","title":"东陆新村六街坊","lon":"121.59671","lat":"31.278631","category":"47","category_name":"住宅区","address":"巨峰路176弄"},{"poiid":"B2094654D568A0F5449C","title":"双桥小区(西南门)","lon":"121.5935","lat":"31.28481","category":"47","category_name":"住宅区","address":"双桥路180弄1-73号"},{"poiid":"B2094757D069A3FB459F","title":"浦东新区卫生发展研究院","lon":"121.5839523","lat":"31.2809492","category":"260","category_name":"其他","address":"上海莱阳路818号"},{"poiid":"B2094655D26AA0FA4393","title":"地铁巨峰路站","lon":"121.58832","lat":"31.27956","category":"36","category_name":"地铁站","address":""},{"poiid":"B2094655D26FA7FD4998","title":"金锦苑","lon":"121.59068774992","lat":"31.289862736207","category":"47","category_name":"住宅区","address":"东波路585弄1-115号"},{"poiid":"B2094757D06BAAFC4693","title":"顺元面馆","lon":"121.59364433","lat":"31.282709549","category":"68","category_name":"快餐厅","address":"浦东新区利津路1359号(近双桥路)"},{"poiid":"B2094757D06AA6F54598","title":"申崇六线(巨峰路终点站)","lon":"121.588585","lat":"31.280281","category":"500","category_name":"未知分类","address":"上海地铁六号线巨峰路站"},{"poiid":"B2094757D069A0FC4292","title":"豪享来上海五莲店","lon":"121.598","lat":"31.285","category":"247","category_name":"餐饮美食","address":"上海市浦东新区五莲路1705号"},{"poiid":"B2094757D164A4FE449A","title":"味鼎香","lon":"121.593675","lat":"31.281938","category":"68","category_name":"快餐厅","address":"浦东新区利津路1301号1楼(近上海新国际博览中心)"},{"poiid":"B2094757D064A2FB469E","title":"百赢力欧桌球俱乐部","lon":"121.59404","lat":"31.28309","category":"171","category_name":"台球厅","address":"浦东新区利津路1359号2楼(近双桥路)"},{"poiid":"B209475CD56BA1F5409D","title":"浦东国际机场-2号航站楼","lon":"121.592582","lat":"31.283016","category":"500","category_name":"未知分类","address":"上海市 浦东机场"},{"poiid":"B2094757D068A7F44299","title":"一兆韦德(证大店)","lon":"121.600569","lat":"31.281924","category":"221","category_name":"健身中心","address":"浦东新区五莲路1769弄46号证大家园"},{"poiid":"B2094655D26CA5FA499B","title":"喜士多便利店(利津路)","lon":"121.59365","lat":"31.28268","category":"117","category_name":"便民商店/便利店","address":"利津路1327"},{"poiid":"B2094655D264AAFE4993","title":"鲱鱼宝宝早教中心","lon":"121.59366","lat":"31.28172","category":"57","category_name":"幼儿园","address":"利津路1293-1295"},{"poiid":"B2094655D26FA1F5449B","title":"伟业金锦苑二邨","lon":"121.58506","lat":"31.28176","category":"47","category_name":"住宅区","address":"莱阳路880弄1-113号"},{"poiid":"B2094757D06FA1F5449C","title":"爱法新城","lon":"121.586","lat":"31.277746","category":"47","category_name":"住宅区","address":"上海浦东新区利津路385弄"},{"poiid":"B2094655D26BA0F8459A","title":"申之春利津路分公司","lon":"121.59364","lat":"31.2824","category":"148","category_name":"美容美发店","address":"利津路1315"},{"poiid":"B2094757D068A6FC429B","title":"全家便利(利津路店)","lon":"121.593652","lat":"31.281842","category":"117","category_name":"便民商店/便利店","address":"上海浦东新区利津路1297号"},{"poiid":"B2094757D16EAAFA439A","title":"梵一瑜伽会所","lon":"121.59672","lat":"31.28015","category":"148","category_name":"美容美发店","address":"浦东新区巨峰路399弄57-58号证大家园1楼102室(近五莲路)"},{"poiid":"B2094752D26CA6FA419F","title":"禾味牛杂凉茶铺","lon":"121.59388","lat":"31.28004","category":"68","category_name":"快餐厅","address":"浦东新区金桥镇利津路1204号(近巨峰路)"},{"poiid":"B2094757D16CABFC459A","title":"台之源云南米线","lon":"121.590201","lat":"31.283857","category":"247","category_name":"餐饮美食","address":"上海利津路双桥路"},{"poiid":"B2094757D165A5FC4393","title":"小熊之家","lon":"121.59345783","lat":"31.285330609","category":"500","category_name":"未知分类","address":"上海利津路"},{"poiid":"B2094757D16FABF54898","title":"鲱鱼宝宝证大店","lon":"121.59439729","lat":"31.283983458","category":"500","category_name":"未知分类","address":"上海利津路"},{"poiid":"B209475CD76EA1F8459B","title":"徐汇滨江绿地","lon":"121.590476","lat":"31.283721","category":"500","category_name":"未知分类","address":"上海市 龙腾大道"},{"poiid":"B2094757D16BA7F84193","title":"J's Home","lon":"121.59403733","lat":"31.283223561","category":"500","category_name":"未知分类","address":"上海市浦东新区张杨北路"},{"poiid":"B2094655D264AAFE499F","title":"小熊之家孕婴童时尚生活馆","lon":"121.59364","lat":"31.28271","category":"128","category_name":"儿童用品店","address":"利津路1329-1331"},{"poiid":"B2094655D26BA4FE4498","title":"醉仙楼7号","lon":"121.59367","lat":"31.28152","category":"70","category_name":"综合酒楼","address":"利津路1281-1283、1287"},{"poiid":"B2094757D069AAF5469F","title":"双桥小区","lon":"121.59892","lat":"31.282758","category":"47","category_name":"住宅区","address":"上海双桥路218弄"},{"poiid":"B2094757D069A0F8419F","title":"丽都成品","lon":"121.58979","lat":"31.275686","category":"47","category_name":"住宅区","address":"上海浦东新区利津路729弄"},{"poiid":"B2094655D36DA0F8479A","title":"杨高北路巨峰路","lon":"121.60158","lat":"31.28016","category":"38","category_name":"公交车站","address":""},{"poiid":"B2094757D16CA0F4409C","title":"中国工商银行(巨峰路支行)","lon":"121.59409","lat":"31.28197","category":"150","category_name":"银行","address":"浦东新区利津路1311号近巨峰路"},{"poiid":"B2094757D46DABFC4099","title":"争鲜外带寿司 巨峰路店","lon":"121.594883054","lat":"31.280204793","category":"95","category_name":"日本料理","address":"浦东新区巨峰路239号家乐福1楼(近利津路)"},{"poiid":"B2094757D16DA5FB449C","title":"广灵阁八仙海鲜城","lon":"121.59895281","lat":"31.281102726","category":"72","category_name":"广东菜","address":"浦东新区五莲路1739号(近巨峰路)"},{"poiid":"B2094757D16DABFD4598","title":"邻海小镇","lon":"121.5990423","lat":"31.2801028","category":"75","category_name":"浙江菜","address":"浦东新区五莲路1751号(近双桥路)"},{"poiid":"B2094757D064A0FE419C","title":"永和大王(巨峰路店)","lon":"121.59272497668644","lat":"31.280373123057124","category":"68","category_name":"快餐厅","address":"浦东新区巨峰路239号家乐福1楼(近利津路)"},{"poiid":"B2094655D26CA5FD409C","title":"证大家园(东门)","lon":"121.59357","lat":"31.28222","category":"48","category_name":"楼宇大门","address":"利津路1313弄1-54号"},{"poiid":"B2094757D06FA6FD499D","title":"伟业金锦苑","lon":"121.58762689","lat":"31.281868169","category":"47","category_name":"住宅区","address":"上海市浦东新区东陆路517号"},{"poiid":"B2094655D26DABF94392","title":"东陆新村五街坊","lon":"121.59283","lat":"31.278667","category":"47","category_name":"住宅区","address":"上海市浦东新区利津路1111弄"}]