[{"poiid":"B2094654DB65A5FC449C","title":"上海蓝海博龙国际大酒店","lon":"121.5608","lat":"31.1898","category":"247","category_name":"餐饮美食","address":"浦东新区高科西路2991号(近白杨路)"},{"poiid":"B2094757D06FA1FC449C","title":"通用电气中国科技园","lon":"121.58406304","lat":"31.192172644","category":"46","category_name":"楼宇","address":"上海浦东新区张江高科技园区华佗路1号(近达尔文路)"},{"poiid":"B2094757D06FA7FC419B","title":"罗山路中环段","lon":"121.58017194","lat":"31.186608022","category":"500","category_name":"未知分类","address":"上海罗山路高科西路口"},{"poiid":"B2094757D06FA2F8499D","title":"中国建设银行上海市分行培训中心","lon":"121.56188201","lat":"31.192485809","category":"150","category_name":"银行","address":"上海申波路292号"},{"poiid":"B2094757D06BA7FC469F","title":"蓝钻海鲜自助餐厅","lon":"121.56098","lat":"31.18962","category":"268","category_name":"自助","address":"浦东新区高科西路2991号蓝海博龙国际大酒店2楼(近白杨路)"},{"poiid":"B2094757D068A4FA459F","title":"龙象海鲜大酒店","lon":"121.56298268","lat":"31.1800419382","category":"260","category_name":"其他","address":"浦东新区莲溪路579号(新陈路口预计9月底营业)"},{"poiid":"B2094655D36CA1FA4698","title":"莲溪路北中路","lon":"121.56153","lat":"31.18184","category":"38","category_name":"公交车站","address":""},{"poiid":"B2094757D06FAAF8489F","title":"中国建设银行信用卡中心","lon":"121.56121797","lat":"31.193057191","category":"150","category_name":"银行","address":"上海申波路292号"},{"poiid":"B2094757D06AAAFE4398","title":"坤儒体育馆","lon":"121.56925987","lat":"31.187941651","category":"633","category_name":"商务服务类公司","address":"浦东新区镇中心路185号(近高科西路)"},{"poiid":"B2094654DA6AA0FF4593","title":"聚龙家园","lon":"121.56866","lat":"31.196918","category":"47","category_name":"住宅区","address":"上海浦东新区芳华路916弄"},{"poiid":"B2094757D16FAAFC4898","title":"中界村","lon":"121.573780875","lat":"31.1889184947","category":"47","category_name":"住宅区","address":"上海浦东新区北蔡镇中界村"},{"poiid":"B2094757D065A2F9499E","title":"上海第三十二机动车安全检测站","lon":"121.566987325","lat":"31.1808566563","category":"500","category_name":"未知分类","address":"上海新陈路678号(北蔡镇中心路口)"},{"poiid":"B2094654DA6AA0F5429A","title":"世外桃源花园别墅小区","lon":"121.56042","lat":"31.18675","category":"47","category_name":"住宅区","address":"上海市浦东新区莲溪路1-189号"},{"poiid":"B2094751DA68ABFB499B","title":"八佰伴","lon":"121.575568","lat":"31.183723","category":"500","category_name":"未知分类","address":"上海浦东张扬路浦东南路"},{"poiid":"B2094655D26FA1FD419F","title":"紫叶花园","lon":"121.559","lat":"31.1892","category":"47","category_name":"住宅区","address":"沪南路1105号"},{"poiid":"B2094757D06AA5FE469D","title":"鹏海小区","lon":"121.578","lat":"31.1833","category":"47","category_name":"住宅区","address":"上海五星路239弄"},{"poiid":"B2094757D06BA7F8409D","title":"星巴克 STARBUCKS (通用电气店)","lon":"121.583692","lat":"31.192177","category":"65","category_name":"咖啡厅","address":"浦东新区华佗路1号GE中国科技园2栋办公楼1楼A区(达尔文路)"},{"poiid":"B2094752DB6DA4FB4893","title":"上海市浦东新区图书馆","lon":"121.571365","lat":"31.185898","category":"500","category_name":"未知分类","address":"上海市 浦东新区锦绣路"},{"poiid":"B2094753D56BA7FE449E","title":"人民广场","lon":"121.572006","lat":"31.187604","category":"500","category_name":"未知分类","address":"上海市 淮海中路路946号"},{"poiid":"B2094757D16AA2FF4292","title":"地铁德平路车控室","lon":"121.571118975","lat":"31.1859690257","category":"46","category_name":"楼宇","address":"上海市浦东新区张扬路德平路"},{"poiid":"B2094655D36DA7FF4993","title":"中界","lon":"121.5673","lat":"31.19024","category":"38","category_name":"公交车站","address":""},{"poiid":"B2094654DA6AA1F44692","title":"联华(华中路)","lon":"121.57023","lat":"31.18755","category":"118","category_name":"超级市场","address":""},{"poiid":"B2094757D168A6F9409F","title":"罗山路高架","lon":"121.57910747","lat":"31.194238819","category":"500","category_name":"未知分类","address":"上海高架"},{"poiid":"B2094757D06BABF4439D","title":"上海外国语大学附属浦东外国语学校","lon":"121.584458575","lat":"31.1944999394","category":"500","category_name":"未知分类","address":"上海浦东新区张江达尔文路91号"},{"poiid":"B2094654DA6AA0F4499E","title":"聚丰港海鲜酒楼","lon":"121.56662","lat":"31.18271","category":"88","category_name":"海鲜酒楼","address":"浦东新区北蔡北新路8号(近北中路)"},{"poiid":"B2094654DA6AA0FF4392","title":"龙沟新苑","lon":"121.56876","lat":"31.197325","category":"47","category_name":"住宅区","address":"芳华路933弄1-86号"},{"poiid":"B2094655D36CA6FE429A","title":"高科西路镇中心路","lon":"121.56913","lat":"31.19042","category":"38","category_name":"公交车站","address":""},{"poiid":"B2094757D06BAAFD4399","title":"绿苑垂钓休闲中心","lon":"121.56563","lat":"31.18178","category":"500","category_name":"未知分类","address":"浦东新区北蔡北中路518号(北新路莲安东路)"},{"poiid":"B2094757D064AAFC489B","title":"北蔡家具广场","lon":"121.57519","lat":"31.19153","category":"123","category_name":"家具建材市场","address":"浦东新区高科西路4037号"},{"poiid":"B2094757D16EA3FF449C","title":"段氏龙虾(莲安东路店)","lon":"121.56079","lat":"31.18057","category":"68","category_name":"快餐厅","address":"浦东新区莲安东路234号(近莲溪路)"},{"poiid":"B2094757D66CA0FD4498","title":"莲溪路五星路","lon":"121.57357097","lat":"31.183754974","category":"500","category_name":"未知分类","address":"上海市浦东新区北蔡·镇中心路"},{"poiid":"B2094757D16BA0FE4599","title":"石府","lon":"121.575003775","lat":"31.1852382087","category":"47","category_name":"住宅区","address":"上海浦东北蔡"},{"poiid":"B2094757D068A4F4449C","title":"蓝海博龙国际大酒店宴会厅","lon":"121.56092","lat":"31.18936","category":"217","category_name":"旅馆招待所","address":"上海浦东新区高科西路2991号(近白杨路)  "},{"poiid":"B2094654DA6AA0F54093","title":"莲溪广场","lon":"121.56124","lat":"31.18358","category":"202","category_name":"公园广场","address":"上海莲溪路北中路"},{"poiid":"B2094655D36DA2FB489E","title":"中界桥","lon":"121.56843","lat":"31.18877","category":"250","category_name":"公园户外","address":""},{"poiid":"B2094757D065A7F9449C","title":"北蔡镇边","lon":"121.56913","lat":"31.190425","category":"500","category_name":"未知分类","address":"上海高科路镇中心路"},{"poiid":"B2094757D16AA4F8469C","title":"北艾路","lon":"121.573848975","lat":"31.1843779886","category":"500","category_name":"未知分类","address":"上海市浦东新区北蔡·镇"},{"poiid":"B2094751D569A3FD439A","title":"莲泰苑","lon":"121.57","lat":"31.1873","category":"627","category_name":"一般地点标志","address":"浦东新区新陈路303弄"},{"poiid":"B2094750D268A7F8439A","title":"北蔡休闲绿地","lon":"121.567054","lat":"31.186305","category":"250","category_name":"公园户外","address":null},{"poiid":"B2094757D069A6FE4992","title":"半岛科技园","lon":"121.58539581","lat":"31.192474365","category":"500","category_name":"未知分类","address":"浦东临港新城主城区申港大道200号"},{"poiid":"B2094654DB69ABFA469A","title":"申花酒店(新国际博览中心店)","lon":"121.56223","lat":"31.19116","category":"216","category_name":"经济型连锁酒店","address":"浦东新区申波路398号(近芳华路)"},{"poiid":"B2094654DA6AA6FA479E","title":"上海知乐不锈钢装饰工程有限公司","lon":"121.56948","lat":"31.1905","category":"123","category_name":"家具建材市场","address":""},{"poiid":"B2094751DA6EA2F5419D","title":"上海歌城八佰伴店","lon":"121.565774","lat":"31.189696","category":"500","category_name":"未知分类","address":null},{"poiid":"B2094752D36EA2FD439E","title":"上海浦东机场","lon":"121.562057","lat":"31.194992","category":"500","category_name":"未知分类","address":null},{"poiid":"B2094654DB64A3F94493","title":"莲溪六村","lon":"121.55984","lat":"31.186941","category":"47","category_name":"住宅区","address":"莲溪路126弄1-42号"},{"poiid":"B2094753DA65A0FA449A","title":"南京路步行街","lon":"121.580551","lat":"31.192008","category":"500","category_name":"未知分类","address":"上海市 南京东路"},{"poiid":"B2094757D069ABF4489F","title":"上海浦东国际机场快件监管中心","lon":"121.5616085","lat":"31.192903714","category":"46","category_name":"楼宇","address":"上海浦东机场海天五路600#"},{"poiid":"B2094757D069ABFA409B","title":"Nc.stop","lon":"121.578343975","lat":"31.1829249546","category":"46","category_name":"楼宇","address":"上海市浦东新区新陈路1063号"},{"poiid":"B2094757D06AA5FA439B","title":"龙阳路公交枢纽站","lon":"121.583716745","lat":"31.1853449312","category":"500","category_name":"未知分类","address":"上海市浦东新区龙阳路地铁站(永和大王对面)"},{"poiid":"B2094752D16DA2F54492","title":"和记小菜","lon":"121.575576","lat":"31.183718","category":"247","category_name":"餐饮美食","address":"上海市东方路"},{"poiid":"B2094654DB65A5FC449C","title":"上海蓝海博龙国际大酒店","lon":"121.5608","lat":"31.1898","category":"247","category_name":"餐饮美食","address":"浦东新区高科西路2991号(近白杨路)"},{"poiid":"B2094757D06FA1FC449C","title":"通用电气中国科技园","lon":"121.58406304","lat":"31.192172644","category":"46","category_name":"楼宇","address":"上海浦东新区张江高科技园区华佗路1号(近达尔文路)"},{"poiid":"B2094757D06FA7FC419B","title":"罗山路中环段","lon":"121.58017194","lat":"31.186608022","category":"500","category_name":"未知分类","address":"上海罗山路高科西路口"},{"poiid":"B2094757D06FA2F8499D","title":"中国建设银行上海市分行培训中心","lon":"121.56188201","lat":"31.192485809","category":"150","category_name":"银行","address":"上海申波路292号"},{"poiid":"B2094757D06BA7FC469F","title":"蓝钻海鲜自助餐厅","lon":"121.56098","lat":"31.18962","category":"268","category_name":"自助","address":"浦东新区高科西路2991号蓝海博龙国际大酒店2楼(近白杨路)"},{"poiid":"B2094757D068A4FA459F","title":"龙象海鲜大酒店","lon":"121.56298268","lat":"31.1800419382","category":"260","category_name":"其他","address":"浦东新区莲溪路579号(新陈路口预计9月底营业)"},{"poiid":"B2094655D36CA1FA4698","title":"莲溪路北中路","lon":"121.56153","lat":"31.18184","category":"38","category_name":"公交车站","address":""},{"poiid":"B2094757D06FAAF8489F","title":"中国建设银行信用卡中心","lon":"121.56121797","lat":"31.193057191","category":"150","category_name":"银行","address":"上海申波路292号"},{"poiid":"B2094757D06AAAFE4398","title":"坤儒体育馆","lon":"121.56925987","lat":"31.187941651","category":"633","category_name":"商务服务类公司","address":"浦东新区镇中心路185号(近高科西路)"},{"poiid":"B2094654DA6AA0FF4593","title":"聚龙家园","lon":"121.56866","lat":"31.196918","category":"47","category_name":"住宅区","address":"上海浦东新区芳华路916弄"},{"poiid":"B2094757D16FAAFC4898","title":"中界村","lon":"121.573780875","lat":"31.1889184947","category":"47","category_name":"住宅区","address":"上海浦东新区北蔡镇中界村"},{"poiid":"B2094757D065A2F9499E","title":"上海第三十二机动车安全检测站","lon":"121.566987325","lat":"31.1808566563","category":"500","category_name":"未知分类","address":"上海新陈路678号(北蔡镇中心路口)"},{"poiid":"B2094654DA6AA0F5429A","title":"世外桃源花园别墅小区","lon":"121.56042","lat":"31.18675","category":"47","category_name":"住宅区","address":"上海市浦东新区莲溪路1-189号"},{"poiid":"B2094751DA68ABFB499B","title":"八佰伴","lon":"121.575568","lat":"31.183723","category":"500","category_name":"未知分类","address":"上海浦东张扬路浦东南路"},{"poiid":"B2094655D26FA1FD419F","title":"紫叶花园","lon":"121.559","lat":"31.1892","category":"47","category_name":"住宅区","address":"沪南路1105号"},{"poiid":"B2094757D06AA5FE469D","title":"鹏海小区","lon":"121.578","lat":"31.1833","category":"47","category_name":"住宅区","address":"上海五星路239弄"},{"poiid":"B2094757D06BA7F8409D","title":"星巴克 STARBUCKS (通用电气店)","lon":"121.583692","lat":"31.192177","category":"65","category_name":"咖啡厅","address":"浦东新区华佗路1号GE中国科技园2栋办公楼1楼A区(达尔文路)"},{"poiid":"B2094752DB6DA4FB4893","title":"上海市浦东新区图书馆","lon":"121.571365","lat":"31.185898","category":"500","category_name":"未知分类","address":"上海市 浦东新区锦绣路"},{"poiid":"B2094753D56BA7FE449E","title":"人民广场","lon":"121.572006","lat":"31.187604","category":"500","category_name":"未知分类","address":"上海市 淮海中路路946号"},{"poiid":"B2094757D16AA2FF4292","title":"地铁德平路车控室","lon":"121.571118975","lat":"31.1859690257","category":"46","category_name":"楼宇","address":"上海市浦东新区张扬路德平路"},{"poiid":"B2094655D36DA7FF4993","title":"中界","lon":"121.5673","lat":"31.19024","category":"38","category_name":"公交车站","address":""},{"poiid":"B2094654DA6AA1F44692","title":"联华(华中路)","lon":"121.57023","lat":"31.18755","category":"118","category_name":"超级市场","address":""},{"poiid":"B2094757D168A6F9409F","title":"罗山路高架","lon":"121.57910747","lat":"31.194238819","category":"500","category_name":"未知分类","address":"上海高架"},{"poiid":"B2094757D06BABF4439D","title":"上海外国语大学附属浦东外国语学校","lon":"121.584458575","lat":"31.1944999394","category":"500","category_name":"未知分类","address":"上海浦东新区张江达尔文路91号"},{"poiid":"B2094654DA6AA0F4499E","title":"聚丰港海鲜酒楼","lon":"121.56662","lat":"31.18271","category":"88","category_name":"海鲜酒楼","address":"浦东新区北蔡北新路8号(近北中路)"},{"poiid":"B2094654DA6AA0FF4392","title":"龙沟新苑","lon":"121.56876","lat":"31.197325","category":"47","category_name":"住宅区","address":"芳华路933弄1-86号"},{"poiid":"B2094655D36CA6FE429A","title":"高科西路镇中心路","lon":"121.56913","lat":"31.19042","category":"38","category_name":"公交车站","address":""},{"poiid":"B2094757D06BAAFD4399","title":"绿苑垂钓休闲中心","lon":"121.56563","lat":"31.18178","category":"500","category_name":"未知分类","address":"浦东新区北蔡北中路518号(北新路莲安东路)"},{"poiid":"B2094757D064AAFC489B","title":"北蔡家具广场","lon":"121.57519","lat":"31.19153","category":"123","category_name":"家具建材市场","address":"浦东新区高科西路4037号"},{"poiid":"B2094757D16EA3FF449C","title":"段氏龙虾(莲安东路店)","lon":"121.56079","lat":"31.18057","category":"68","category_name":"快餐厅","address":"浦东新区莲安东路234号(近莲溪路)"},{"poiid":"B2094757D66CA0FD4498","title":"莲溪路五星路","lon":"121.57357097","lat":"31.183754974","category":"500","category_name":"未知分类","address":"上海市浦东新区北蔡·镇中心路"},{"poiid":"B2094757D16BA0FE4599","title":"石府","lon":"121.575003775","lat":"31.1852382087","category":"47","category_name":"住宅区","address":"上海浦东北蔡"},{"poiid":"B2094757D068A4F4449C","title":"蓝海博龙国际大酒店宴会厅","lon":"121.56092","lat":"31.18936","category":"217","category_name":"旅馆招待所","address":"上海浦东新区高科西路2991号(近白杨路)  "},{"poiid":"B2094654DA6AA0F54093","title":"莲溪广场","lon":"121.56124","lat":"31.18358","category":"202","category_name":"公园广场","address":"上海莲溪路北中路"},{"poiid":"B2094655D36DA2FB489E","title":"中界桥","lon":"121.56843","lat":"31.18877","category":"250","category_name":"公园户外","address":""},{"poiid":"B2094757D065A7F9449C","title":"北蔡镇边","lon":"121.56913","lat":"31.190425","category":"500","category_name":"未知分类","address":"上海高科路镇中心路"},{"poiid":"B2094757D16AA4F8469C","title":"北艾路","lon":"121.573848975","lat":"31.1843779886","category":"500","category_name":"未知分类","address":"上海市浦东新区北蔡·镇"},{"poiid":"B2094751D569A3FD439A","title":"莲泰苑","lon":"121.57","lat":"31.1873","category":"627","category_name":"一般地点标志","address":"浦东新区新陈路303弄"},{"poiid":"B2094750D268A7F8439A","title":"北蔡休闲绿地","lon":"121.567054","lat":"31.186305","category":"250","category_name":"公园户外","address":null},{"poiid":"B2094757D069A6FE4992","title":"半岛科技园","lon":"121.58539581","lat":"31.192474365","category":"500","category_name":"未知分类","address":"浦东临港新城主城区申港大道200号"},{"poiid":"B2094654DB69ABFA469A","title":"申花酒店(新国际博览中心店)","lon":"121.56223","lat":"31.19116","category":"216","category_name":"经济型连锁酒店","address":"浦东新区申波路398号(近芳华路)"},{"poiid":"B2094654DA6AA6FA479E","title":"上海知乐不锈钢装饰工程有限公司","lon":"121.56948","lat":"31.1905","category":"123","category_name":"家具建材市场","address":""},{"poiid":"B2094751DA6EA2F5419D","title":"上海歌城八佰伴店","lon":"121.565774","lat":"31.189696","category":"500","category_name":"未知分类","address":null},{"poiid":"B2094752D36EA2FD439E","title":"上海浦东机场","lon":"121.562057","lat":"31.194992","category":"500","category_name":"未知分类","address":null},{"poiid":"B2094654DB64A3F94493","title":"莲溪六村","lon":"121.55984","lat":"31.186941","category":"47","category_name":"住宅区","address":"莲溪路126弄1-42号"},{"poiid":"B2094753DA65A0FA449A","title":"南京路步行街","lon":"121.580551","lat":"31.192008","category":"500","category_name":"未知分类","address":"上海市 南京东路"},{"poiid":"B2094757D069ABF4489F","title":"上海浦东国际机场快件监管中心","lon":"121.5616085","lat":"31.192903714","category":"46","category_name":"楼宇","address":"上海浦东机场海天五路600#"},{"poiid":"B2094757D069ABFA409B","title":"Nc.stop","lon":"121.578343975","lat":"31.1829249546","category":"46","category_name":"楼宇","address":"上海市浦东新区新陈路1063号"},{"poiid":"B2094757D06AA5FA439B","title":"龙阳路公交枢纽站","lon":"121.583716745","lat":"31.1853449312","category":"500","category_name":"未知分类","address":"上海市浦东新区龙阳路地铁站(永和大王对面)"},{"poiid":"B2094752D16DA2F54492","title":"和记小菜","lon":"121.575576","lat":"31.183718","category":"247","category_name":"餐饮美食","address":"上海市东方路"},{"poiid":"B2094654DB65A5FC449C","title":"上海蓝海博龙国际大酒店","lon":"121.5608","lat":"31.1898","category":"247","category_name":"餐饮美食","address":"浦东新区高科西路2991号(近白杨路)"},{"poiid":"B2094757D06FA1FC449C","title":"通用电气中国科技园","lon":"121.58406304","lat":"31.192172644","category":"46","category_name":"楼宇","address":"上海浦东新区张江高科技园区华佗路1号(近达尔文路)"},{"poiid":"B2094757D06FA7FC419B","title":"罗山路中环段","lon":"121.58017194","lat":"31.186608022","category":"500","category_name":"未知分类","address":"上海罗山路高科西路口"},{"poiid":"B2094757D06FA2F8499D","title":"中国建设银行上海市分行培训中心","lon":"121.56188201","lat":"31.192485809","category":"150","category_name":"银行","address":"上海申波路292号"},{"poiid":"B2094757D06BA7FC469F","title":"蓝钻海鲜自助餐厅","lon":"121.56098","lat":"31.18962","category":"268","category_name":"自助","address":"浦东新区高科西路2991号蓝海博龙国际大酒店2楼(近白杨路)"},{"poiid":"B2094757D068A4FA459F","title":"龙象海鲜大酒店","lon":"121.56298268","lat":"31.1800419382","category":"260","category_name":"其他","address":"浦东新区莲溪路579号(新陈路口预计9月底营业)"},{"poiid":"B2094655D36CA1FA4698","title":"莲溪路北中路","lon":"121.56153","lat":"31.18184","category":"38","category_name":"公交车站","address":""},{"poiid":"B2094757D06FAAF8489F","title":"中国建设银行信用卡中心","lon":"121.56121797","lat":"31.193057191","category":"150","category_name":"银行","address":"上海申波路292号"},{"poiid":"B2094757D06AAAFE4398","title":"坤儒体育馆","lon":"121.56925987","lat":"31.187941651","category":"633","category_name":"商务服务类公司","address":"浦东新区镇中心路185号(近高科西路)"},{"poiid":"B2094654DA6AA0FF4593","title":"聚龙家园","lon":"121.56866","lat":"31.196918","category":"47","category_name":"住宅区","address":"上海浦东新区芳华路916弄"},{"poiid":"B2094757D16FAAFC4898","title":"中界村","lon":"121.573780875","lat":"31.1889184947","category":"47","category_name":"住宅区","address":"上海浦东新区北蔡镇中界村"},{"poiid":"B2094757D065A2F9499E","title":"上海第三十二机动车安全检测站","lon":"121.566987325","lat":"31.1808566563","category":"500","category_name":"未知分类","address":"上海新陈路678号(北蔡镇中心路口)"},{"poiid":"B2094654DA6AA0F5429A","title":"世外桃源花园别墅小区","lon":"121.56042","lat":"31.18675","category":"47","category_name":"住宅区","address":"上海市浦东新区莲溪路1-189号"},{"poiid":"B2094751DA68ABFB499B","title":"八佰伴","lon":"121.575568","lat":"31.183723","category":"500","category_name":"未知分类","address":"上海浦东张扬路浦东南路"},{"poiid":"B2094655D26FA1FD419F","title":"紫叶花园","lon":"121.559","lat":"31.1892","category":"47","category_name":"住宅区","address":"沪南路1105号"},{"poiid":"B2094757D06AA5FE469D","title":"鹏海小区","lon":"121.578","lat":"31.1833","category":"47","category_name":"住宅区","address":"上海五星路239弄"},{"poiid":"B2094757D06BA7F8409D","title":"星巴克 STARBUCKS (通用电气店)","lon":"121.583692","lat":"31.192177","category":"65","category_name":"咖啡厅","address":"浦东新区华佗路1号GE中国科技园2栋办公楼1楼A区(达尔文路)"},{"poiid":"B2094752DB6DA4FB4893","title":"上海市浦东新区图书馆","lon":"121.571365","lat":"31.185898","category":"500","category_name":"未知分类","address":"上海市 浦东新区锦绣路"},{"poiid":"B2094753D56BA7FE449E","title":"人民广场","lon":"121.572006","lat":"31.187604","category":"500","category_name":"未知分类","address":"上海市 淮海中路路946号"},{"poiid":"B2094757D16AA2FF4292","title":"地铁德平路车控室","lon":"121.571118975","lat":"31.1859690257","category":"46","category_name":"楼宇","address":"上海市浦东新区张扬路德平路"},{"poiid":"B2094655D36DA7FF4993","title":"中界","lon":"121.5673","lat":"31.19024","category":"38","category_name":"公交车站","address":""},{"poiid":"B2094654DA6AA1F44692","title":"联华(华中路)","lon":"121.57023","lat":"31.18755","category":"118","category_name":"超级市场","address":""},{"poiid":"B2094757D168A6F9409F","title":"罗山路高架","lon":"121.57910747","lat":"31.194238819","category":"500","category_name":"未知分类","address":"上海高架"},{"poiid":"B2094757D06BABF4439D","title":"上海外国语大学附属浦东外国语学校","lon":"121.584458575","lat":"31.1944999394","category":"500","category_name":"未知分类","address":"上海浦东新区张江达尔文路91号"},{"poiid":"B2094654DA6AA0F4499E","title":"聚丰港海鲜酒楼","lon":"121.56662","lat":"31.18271","category":"88","category_name":"海鲜酒楼","address":"浦东新区北蔡北新路8号(近北中路)"},{"poiid":"B2094654DA6AA0FF4392","title":"龙沟新苑","lon":"121.56876","lat":"31.197325","category":"47","category_name":"住宅区","address":"芳华路933弄1-86号"},{"poiid":"B2094655D36CA6FE429A","title":"高科西路镇中心路","lon":"121.56913","lat":"31.19042","category":"38","category_name":"公交车站","address":""},{"poiid":"B2094757D06BAAFD4399","title":"绿苑垂钓休闲中心","lon":"121.56563","lat":"31.18178","category":"500","category_name":"未知分类","address":"浦东新区北蔡北中路518号(北新路莲安东路)"},{"poiid":"B2094757D064AAFC489B","title":"北蔡家具广场","lon":"121.57519","lat":"31.19153","category":"123","category_name":"家具建材市场","address":"浦东新区高科西路4037号"},{"poiid":"B2094757D16EA3FF449C","title":"段氏龙虾(莲安东路店)","lon":"121.56079","lat":"31.18057","category":"68","category_name":"快餐厅","address":"浦东新区莲安东路234号(近莲溪路)"},{"poiid":"B2094757D66CA0FD4498","title":"莲溪路五星路","lon":"121.57357097","lat":"31.183754974","category":"500","category_name":"未知分类","address":"上海市浦东新区北蔡·镇中心路"},{"poiid":"B2094757D16BA0FE4599","title":"石府","lon":"121.575003775","lat":"31.1852382087","category":"47","category_name":"住宅区","address":"上海浦东北蔡"},{"poiid":"B2094757D068A4F4449C","title":"蓝海博龙国际大酒店宴会厅","lon":"121.56092","lat":"31.18936","category":"217","category_name":"旅馆招待所","address":"上海浦东新区高科西路2991号(近白杨路)  "},{"poiid":"B2094654DA6AA0F54093","title":"莲溪广场","lon":"121.56124","lat":"31.18358","category":"202","category_name":"公园广场","address":"上海莲溪路北中路"},{"poiid":"B2094655D36DA2FB489E","title":"中界桥","lon":"121.56843","lat":"31.18877","category":"250","category_name":"公园户外","address":""},{"poiid":"B2094757D065A7F9449C","title":"北蔡镇边","lon":"121.56913","lat":"31.190425","category":"500","category_name":"未知分类","address":"上海高科路镇中心路"},{"poiid":"B2094757D16AA4F8469C","title":"北艾路","lon":"121.573848975","lat":"31.1843779886","category":"500","category_name":"未知分类","address":"上海市浦东新区北蔡·镇"},{"poiid":"B2094751D569A3FD439A","title":"莲泰苑","lon":"121.57","lat":"31.1873","category":"627","category_name":"一般地点标志","address":"浦东新区新陈路303弄"},{"poiid":"B2094750D268A7F8439A","title":"北蔡休闲绿地","lon":"121.567054","lat":"31.186305","category":"250","category_name":"公园户外","address":null},{"poiid":"B2094757D069A6FE4992","title":"半岛科技园","lon":"121.58539581","lat":"31.192474365","category":"500","category_name":"未知分类","address":"浦东临港新城主城区申港大道200号"},{"poiid":"B2094654DB69ABFA469A","title":"申花酒店(新国际博览中心店)","lon":"121.56223","lat":"31.19116","category":"216","category_name":"经济型连锁酒店","address":"浦东新区申波路398号(近芳华路)"},{"poiid":"B2094654DA6AA6FA479E","title":"上海知乐不锈钢装饰工程有限公司","lon":"121.56948","lat":"31.1905","category":"123","category_name":"家具建材市场","address":""},{"poiid":"B2094751DA6EA2F5419D","title":"上海歌城八佰伴店","lon":"121.565774","lat":"31.189696","category":"500","category_name":"未知分类","address":null},{"poiid":"B2094752D36EA2FD439E","title":"上海浦东机场","lon":"121.562057","lat":"31.194992","category":"500","category_name":"未知分类","address":null},{"poiid":"B2094654DB64A3F94493","title":"莲溪六村","lon":"121.55984","lat":"31.186941","category":"47","category_name":"住宅区","address":"莲溪路126弄1-42号"},{"poiid":"B2094753DA65A0FA449A","title":"南京路步行街","lon":"121.580551","lat":"31.192008","category":"500","category_name":"未知分类","address":"上海市 南京东路"},{"poiid":"B2094757D069ABF4489F","title":"上海浦东国际机场快件监管中心","lon":"121.5616085","lat":"31.192903714","category":"46","category_name":"楼宇","address":"上海浦东机场海天五路600#"},{"poiid":"B2094757D069ABFA409B","title":"Nc.stop","lon":"121.578343975","lat":"31.1829249546","category":"46","category_name":"楼宇","address":"上海市浦东新区新陈路1063号"},{"poiid":"B2094757D06AA5FA439B","title":"龙阳路公交枢纽站","lon":"121.583716745","lat":"31.1853449312","category":"500","category_name":"未知分类","address":"上海市浦东新区龙阳路地铁站(永和大王对面)"},{"poiid":"B2094752D16DA2F54492","title":"和记小菜","lon":"121.575576","lat":"31.183718","category":"247","category_name":"餐饮美食","address":"上海市东方路"},{"poiid":"B2094654DB65A5FC449C","title":"上海蓝海博龙国际大酒店","lon":"121.5608","lat":"31.1898","category":"247","category_name":"餐饮美食","address":"浦东新区高科西路2991号(近白杨路)"},{"poiid":"B2094757D06FA1FC449C","title":"通用电气中国科技园","lon":"121.58406304","lat":"31.192172644","category":"46","category_name":"楼宇","address":"上海浦东新区张江高科技园区华佗路1号(近达尔文路)"},{"poiid":"B2094757D06FA7FC419B","title":"罗山路中环段","lon":"121.58017194","lat":"31.186608022","category":"500","category_name":"未知分类","address":"上海罗山路高科西路口"},{"poiid":"B2094757D06FA2F8499D","title":"中国建设银行上海市分行培训中心","lon":"121.56188201","lat":"31.192485809","category":"150","category_name":"银行","address":"上海申波路292号"},{"poiid":"B2094757D06BA7FC469F","title":"蓝钻海鲜自助餐厅","lon":"121.56098","lat":"31.18962","category":"268","category_name":"自助","address":"浦东新区高科西路2991号蓝海博龙国际大酒店2楼(近白杨路)"},{"poiid":"B2094757D068A4FA459F","title":"龙象海鲜大酒店","lon":"121.56298268","lat":"31.1800419382","category":"260","category_name":"其他","address":"浦东新区莲溪路579号(新陈路口预计9月底营业)"},{"poiid":"B2094655D36CA1FA4698","title":"莲溪路北中路","lon":"121.56153","lat":"31.18184","category":"38","category_name":"公交车站","address":""},{"poiid":"B2094757D06FAAF8489F","title":"中国建设银行信用卡中心","lon":"121.56121797","lat":"31.193057191","category":"150","category_name":"银行","address":"上海申波路292号"},{"poiid":"B2094757D06AAAFE4398","title":"坤儒体育馆","lon":"121.56925987","lat":"31.187941651","category":"633","category_name":"商务服务类公司","address":"浦东新区镇中心路185号(近高科西路)"},{"poiid":"B2094654DA6AA0FF4593","title":"聚龙家园","lon":"121.56866","lat":"31.196918","category":"47","category_name":"住宅区","address":"上海浦东新区芳华路916弄"},{"poiid":"B2094757D16FAAFC4898","title":"中界村","lon":"121.573780875","lat":"31.1889184947","category":"47","category_name":"住宅区","address":"上海浦东新区北蔡镇中界村"},{"poiid":"B2094757D065A2F9499E","title":"上海第三十二机动车安全检测站","lon":"121.566987325","lat":"31.1808566563","category":"500","category_name":"未知分类","address":"上海新陈路678号(北蔡镇中心路口)"},{"poiid":"B2094654DA6AA0F5429A","title":"世外桃源花园别墅小区","lon":"121.56042","lat":"31.18675","category":"47","category_name":"住宅区","address":"上海市浦东新区莲溪路1-189号"},{"poiid":"B2094751DA68ABFB499B","title":"八佰伴","lon":"121.575568","lat":"31.183723","category":"500","category_name":"未知分类","address":"上海浦东张扬路浦东南路"},{"poiid":"B2094655D26FA1FD419F","title":"紫叶花园","lon":"121.559","lat":"31.1892","category":"47","category_name":"住宅区","address":"沪南路1105号"},{"poiid":"B2094757D06AA5FE469D","title":"鹏海小区","lon":"121.578","lat":"31.1833","category":"47","category_name":"住宅区","address":"上海五星路239弄"},{"poiid":"B2094757D06BA7F8409D","title":"星巴克 STARBUCKS (通用电气店)","lon":"121.583692","lat":"31.192177","category":"65","category_name":"咖啡厅","address":"浦东新区华佗路1号GE中国科技园2栋办公楼1楼A区(达尔文路)"},{"poiid":"B2094752DB6DA4FB4893","title":"上海市浦东新区图书馆","lon":"121.571365","lat":"31.185898","category":"500","category_name":"未知分类","address":"上海市 浦东新区锦绣路"},{"poiid":"B2094753D56BA7FE449E","title":"人民广场","lon":"121.572006","lat":"31.187604","category":"500","category_name":"未知分类","address":"上海市 淮海中路路946号"},{"poiid":"B2094757D16AA2FF4292","title":"地铁德平路车控室","lon":"121.571118975","lat":"31.1859690257","category":"46","category_name":"楼宇","address":"上海市浦东新区张扬路德平路"},{"poiid":"B2094655D36DA7FF4993","title":"中界","lon":"121.5673","lat":"31.19024","category":"38","category_name":"公交车站","address":""},{"poiid":"B2094654DA6AA1F44692","title":"联华(华中路)","lon":"121.57023","lat":"31.18755","category":"118","category_name":"超级市场","address":""},{"poiid":"B2094757D168A6F9409F","title":"罗山路高架","lon":"121.57910747","lat":"31.194238819","category":"500","category_name":"未知分类","address":"上海高架"},{"poiid":"B2094757D06BABF4439D","title":"上海外国语大学附属浦东外国语学校","lon":"121.584458575","lat":"31.1944999394","category":"500","category_name":"未知分类","address":"上海浦东新区张江达尔文路91号"},{"poiid":"B2094654DA6AA0F4499E","title":"聚丰港海鲜酒楼","lon":"121.56662","lat":"31.18271","category":"88","category_name":"海鲜酒楼","address":"浦东新区北蔡北新路8号(近北中路)"},{"poiid":"B2094654DA6AA0FF4392","title":"龙沟新苑","lon":"121.56876","lat":"31.197325","category":"47","category_name":"住宅区","address":"芳华路933弄1-86号"},{"poiid":"B2094655D36CA6FE429A","title":"高科西路镇中心路","lon":"121.56913","lat":"31.19042","category":"38","category_name":"公交车站","address":""},{"poiid":"B2094757D06BAAFD4399","title":"绿苑垂钓休闲中心","lon":"121.56563","lat":"31.18178","category":"500","category_name":"未知分类","address":"浦东新区北蔡北中路518号(北新路莲安东路)"},{"poiid":"B2094757D064AAFC489B","title":"北蔡家具广场","lon":"121.57519","lat":"31.19153","category":"123","category_name":"家具建材市场","address":"浦东新区高科西路4037号"},{"poiid":"B2094757D16EA3FF449C","title":"段氏龙虾(莲安东路店)","lon":"121.56079","lat":"31.18057","category":"68","category_name":"快餐厅","address":"浦东新区莲安东路234号(近莲溪路)"},{"poiid":"B2094757D66CA0FD4498","title":"莲溪路五星路","lon":"121.57357097","lat":"31.183754974","category":"500","category_name":"未知分类","address":"上海市浦东新区北蔡·镇中心路"},{"poiid":"B2094757D16BA0FE4599","title":"石府","lon":"121.575003775","lat":"31.1852382087","category":"47","category_name":"住宅区","address":"上海浦东北蔡"},{"poiid":"B2094757D068A4F4449C","title":"蓝海博龙国际大酒店宴会厅","lon":"121.56092","lat":"31.18936","category":"217","category_name":"旅馆招待所","address":"上海浦东新区高科西路2991号(近白杨路)  "},{"poiid":"B2094654DA6AA0F54093","title":"莲溪广场","lon":"121.56124","lat":"31.18358","category":"202","category_name":"公园广场","address":"上海莲溪路北中路"},{"poiid":"B2094655D36DA2FB489E","title":"中界桥","lon":"121.56843","lat":"31.18877","category":"250","category_name":"公园户外","address":""},{"poiid":"B2094757D065A7F9449C","title":"北蔡镇边","lon":"121.56913","lat":"31.190425","category":"500","category_name":"未知分类","address":"上海高科路镇中心路"},{"poiid":"B2094757D16AA4F8469C","title":"北艾路","lon":"121.573848975","lat":"31.1843779886","category":"500","category_name":"未知分类","address":"上海市浦东新区北蔡·镇"},{"poiid":"B2094751D569A3FD439A","title":"莲泰苑","lon":"121.57","lat":"31.1873","category":"627","category_name":"一般地点标志","address":"浦东新区新陈路303弄"},{"poiid":"B2094750D268A7F8439A","title":"北蔡休闲绿地","lon":"121.567054","lat":"31.186305","category":"250","category_name":"公园户外","address":null},{"poiid":"B2094757D069A6FE4992","title":"半岛科技园","lon":"121.58539581","lat":"31.192474365","category":"500","category_name":"未知分类","address":"浦东临港新城主城区申港大道200号"},{"poiid":"B2094654DB69ABFA469A","title":"申花酒店(新国际博览中心店)","lon":"121.56223","lat":"31.19116","category":"216","category_name":"经济型连锁酒店","address":"浦东新区申波路398号(近芳华路)"},{"poiid":"B2094654DA6AA6FA479E","title":"上海知乐不锈钢装饰工程有限公司","lon":"121.56948","lat":"31.1905","category":"123","category_name":"家具建材市场","address":""},{"poiid":"B2094751DA6EA2F5419D","title":"上海歌城八佰伴店","lon":"121.565774","lat":"31.189696","category":"500","category_name":"未知分类","address":null},{"poiid":"B2094752D36EA2FD439E","title":"上海浦东机场","lon":"121.562057","lat":"31.194992","category":"500","category_name":"未知分类","address":null},{"poiid":"B2094654DB64A3F94493","title":"莲溪六村","lon":"121.55984","lat":"31.186941","category":"47","category_name":"住宅区","address":"莲溪路126弄1-42号"},{"poiid":"B2094753DA65A0FA449A","title":"南京路步行街","lon":"121.580551","lat":"31.192008","category":"500","category_name":"未知分类","address":"上海市 南京东路"},{"poiid":"B2094757D069ABF4489F","title":"上海浦东国际机场快件监管中心","lon":"121.5616085","lat":"31.192903714","category":"46","category_name":"楼宇","address":"上海浦东机场海天五路600#"},{"poiid":"B2094757D069ABFA409B","title":"Nc.stop","lon":"121.578343975","lat":"31.1829249546","category":"46","category_name":"楼宇","address":"上海市浦东新区新陈路1063号"},{"poiid":"B2094757D06AA5FA439B","title":"龙阳路公交枢纽站","lon":"121.583716745","lat":"31.1853449312","category":"500","category_name":"未知分类","address":"上海市浦东新区龙阳路地铁站(永和大王对面)"},{"poiid":"B2094752D16DA2F54492","title":"和记小菜","lon":"121.575576","lat":"31.183718","category":"247","category_name":"餐饮美食","address":"上海市东方路"}]