[{"poiid":"B2094654DB6AA6FF439D","title":"方塔公园","lon":"121.24581","lat":"31.00652","category":"196","category_name":"公园","address":"松江区中山东路235路"},{"poiid":"B2094757D06FA6F4479F","title":"星美乐莫国际影城","lon":"121.25474","lat":"31.00927","category":"178","category_name":"电影院","address":"松江区环城路515-555号LOMO玩库3楼(近松东路)"},{"poiid":"B2094757D068A4FC4593","title":"松江二中","lon":"121.247600486","lat":"31.0086362483","category":"55","category_name":"中学","address":"上海市松江区中山东路250号"},{"poiid":"B2094654DB64A0FD439D","title":"易初莲花购物中心","lon":"121.24114","lat":"31.01773","category":"118","category_name":"超级市场","address":"松江区松江荣乐中路8号"},{"poiid":"B2094654DB6DAAFA439E","title":"松江方塔中医医院","lon":"121.25234","lat":"31.00686","category":"162","category_name":"医院","address":"松江区中山东路39号"},{"poiid":"B2094757D06BA0FB4793","title":"沁韵渔火","lon":"121.255016793","lat":"31.0103385638","category":"86","category_name":"火锅店","address":"松江区环城路518号(近LOMO玩库)"},{"poiid":"B2094655D268A2F8459E","title":"绿地伯顿广场","lon":"121.24660055340769","lat":"31.01704298003939","category":"46","category_name":"楼宇","address":"松江区荣乐东路2369弄"},{"poiid":"B2094654DB6DAAFA4399","title":"森活","lon":"121.25196","lat":"31.00845","category":"47","category_name":"住宅区","address":"松江区中山东路70号"},{"poiid":"B2094757D068A7FD4099","title":"卜蜂莲花(松江岳阳店)","lon":"121.24351","lat":"31.01668","category":"118","category_name":"超级市场","address":"松江区荣乐中路8号"},{"poiid":"B2094654DB6EA4FB4492","title":"晋盛食府(松东路)","lon":"121.25592","lat":"31.01276","category":"76","category_name":"上海菜","address":"松江区松江松东路76号(繁华路松东路)"},{"poiid":"B2094757D464A7F8429A","title":"三德屋日本料理 松江店","lon":"121.25501924243","lat":"31.011631808326","category":"95","category_name":"日本料理","address":"松江区松东路50号甲(松东路松江环城路)"},{"poiid":"B2094757D169A7FE4299","title":"麦盛莉(松江店)","lon":"121.24893","lat":"31.01727","category":"76","category_name":"上海菜","address":"松江区荣乐东路2283号"},{"poiid":"B2094654DB6EA4FA419D","title":"蓝天新村","lon":"121.25504","lat":"31.014357","category":"47","category_name":"住宅区","address":"松江工业区中山街道"},{"poiid":"B2094655D26BA2FB4798","title":"松东路","lon":"121.25523","lat":"31.01743","category":"38","category_name":"公交车站","address":""},{"poiid":"B2094757D06AA4FE469B","title":"肯德基 KFC (方舟店)","lon":"121.240858","lat":"31.017601","category":"500","category_name":"未知分类","address":"松江区荣乐中路8号"},{"poiid":"B2094654DB6EA2FE469A","title":"荣都公寓(东侧)","lon":"121.24581","lat":"31.01423","category":"47","category_name":"住宅区","address":"沪松路17弄1-8号"},{"poiid":"B2094757D66CA3FA4499","title":"同济城市雅筑","lon":"121.24692","lat":"31.013661","category":"47","category_name":"住宅区","address":"松江环城路860号(靠近方塔北路)"},{"poiid":"B2094757D664A1F8489E","title":"七欣天迷宗蟹 松江店","lon":"121.243638054","lat":"31.013775793","category":"86","category_name":"火锅店","address":"松江区环城东路980号(近沪松路)"},{"poiid":"B2094654DB6EA1FA439D","title":"天堂人间大浴场","lon":"121.2485","lat":"31.01882","category":"149","category_name":"洗浴推拿场所","address":""},{"poiid":"B2094757D66AA5F9439B","title":"潮福城","lon":"121.254134054","lat":"31.010985793","category":"76","category_name":"上海菜","address":"松江区环城路550号(近松东路)"},{"poiid":"B2094752D56AABFB4598","title":"上海松江区中心医院","lon":"121.247805","lat":"31.014384","category":"162","category_name":"医院","address":"上海近郊松江区中山中路746号（近华老街）"},{"poiid":"B2094655D26DA6FD4498","title":"花园浜小区","lon":"121.243","lat":"31.0153","category":"47","category_name":"住宅区","address":"仓汇路400弄"},{"poiid":"B2094757D065A7FE499A","title":"肯德基 KFC (沪松(DT)店)","lon":"121.247194","lat":"31.017226","category":"500","category_name":"未知分类","address":"上海市松江荣乐东路605号2层"},{"poiid":"B2094757D465A6FF4898","title":"新招鲜本地鸡窝 松江店","lon":"121.254414054","lat":"31.005491793","category":"86","category_name":"火锅店","address":"松江区环城路976弄54号(近松东茶叶市场)"},{"poiid":"B2094655D268A3FA4092","title":"格林豪泰上海松江松东酒店","lon":"121.25531","lat":"31.0093","category":"216","category_name":"经济型连锁酒店","address":"上海市松江区环城路421号(松东路口)"},{"poiid":"B2094655D36CA2FA409F","title":"荣乐路方塔北路","lon":"121.24964","lat":"31.01734","category":"38","category_name":"公交车站","address":""},{"poiid":"B2094654DB6EA4F9479F","title":"灵盛河鲜馆","lon":"121.25534","lat":"31.01055","category":"76","category_name":"上海菜","address":"松江区松东路21号(近环城路)"},{"poiid":"B2094757D16FA3F5469B","title":"建设大厦","lon":"121.252174467","lat":"31.0170242139","category":"252","category_name":"楼宇机构","address":"上海市松江区荣乐东路"},{"poiid":"B2094654DB6EA4FA429B","title":"樱木屋","lon":"121.25562","lat":"31.01558","category":"95","category_name":"日本料理","address":"松江区荣乐东路1587号-2-3号(近松卫北路)"},{"poiid":"B2094752D26DABFE409C","title":"福建烧烤","lon":"121.248931","lat":"31.012327","category":"68","category_name":"快餐厅","address":"松江区松东路38号(近环城路)"},{"poiid":"B2094654DB6EA2FE469C","title":"两岸咖啡·西餐(松江·环城路)","lon":"121.24507","lat":"31.01319","category":"94","category_name":"西餐厅","address":""},{"poiid":"B2094655D268A1FB449B","title":"荣乐东路141弄小区","lon":"121.24935","lat":"31.01571","category":"47","category_name":"住宅区","address":"荣乐东路141弄"},{"poiid":"B2094654DB6EA2FE4699","title":"平高商业广场","lon":"121.24423","lat":"31.01356","category":"119","category_name":"商场","address":""},{"poiid":"B2094655D36CA6F94092","title":"方塔北路","lon":"121.24696","lat":"31.01732","category":"38","category_name":"公交车站","address":""},{"poiid":"B2094654DB6EA3F54498","title":"月厦新天地","lon":"121.244","lat":"31.0161","category":"46","category_name":"楼宇","address":"松乐路128号"},{"poiid":"B2094655D268A3FD4193","title":"玩库","lon":"121.25411","lat":"31.0103","category":"119","category_name":"商场","address":""},{"poiid":"B2094757D16FA7FC4792","title":"松江佳网斯柯达","lon":"121.244108","lat":"31.021317","category":"500","category_name":"未知分类","address":"上海松江区美能达路800号"},{"poiid":"B2094750D76FA5F44992","title":"山沟沟土菜馆","lon":"121.247","lat":"31.0069","category":"87","category_name":"特色／地方风味餐厅","address":"松江区中山东路235号方塔附近"},{"poiid":"B2094654DB6DAAFA4892","title":"舜龙公寓","lon":"121.25327","lat":"31.016115","category":"47","category_name":"住宅区","address":"松江荣乐东路38号"},{"poiid":"B2094757D16BA6FD4099","title":"松江区职业介绍所","lon":"121.247075767","lat":"31.0173232204","category":"500","category_name":"未知分类","address":"上海荣乐东路2378号"},{"poiid":"B2094757D66DA7F44499","title":"新石器盘古烤肉","lon":"121.240959767","lat":"31.0177071289","category":"96","category_name":"韩国料理","address":"上海松江区荣乐中路"},{"poiid":"B2094750D768AAFC439C","title":"鱼满楼","lon":"121.256","lat":"31.0147","category":"86","category_name":"火锅店","address":"松江区松东路146-148号(近荣乐东路)"},{"poiid":"B2094654DB6EA2FE489A","title":"九峰实验学校","lon":"121.24749","lat":"31.01071","category":"55","category_name":"中学","address":"松江区方塔北路319"},{"poiid":"B2094757D06BA3F5439A","title":"曙光医院松江分院","lon":"121.252356269","lat":"31.0068563322","category":"162","category_name":"医院","address":"上海松江区中山东路39号"},{"poiid":"B2094757D16EA4F5479B","title":"呷哺呷哺(松江卜蜂莲花荣乐餐厅)","lon":"121.241108053","lat":"31.017171277","category":"86","category_name":"火锅店","address":"松江区荣乐中路8号卜蜂莲花2A-04室"},{"poiid":"B2094654DB69A5F84293","title":"文峰美容美发(环城路店)","lon":"121.24736","lat":"31.01177","category":"148","category_name":"美容美发店","address":"青浦区环城路401-407号(靠松东路)"},{"poiid":"B2094655D268A1FB449A","title":"荣乐东路141弄小区(北门)","lon":"121.24922","lat":"31.01655","category":"47","category_name":"住宅区","address":"荣乐东路141弄"},{"poiid":"B2094757D16AABFE459C","title":"高木日本料理(松江店)","lon":"121.256328051","lat":"31.0166706997","category":"95","category_name":"日本料理","address":"松江区松东路238号(近荣乐路)"},{"poiid":"B2094750D16AA1FD419D","title":"星美国际影城上海松江店","lon":"121.254012","lat":"31.010243","category":"178","category_name":"电影院","address":"环城路515号玩库生活广场3层"},{"poiid":"B2094654DB6DAAF44692","title":"松江区教师进修学院","lon":"121.24869","lat":"31.01007","category":"53","category_name":"成人教育","address":"方塔北路318"},{"poiid":"B2094757D16DABF54592","title":"百味佳","lon":"121.25588","lat":"31.01181","category":"76","category_name":"上海菜","address":"松江区松东路168号(近荣乐东路)"},{"poiid":"B2094757D66DA1FC479C","title":"十八香小龙虾(松东路店)","lon":"121.25574","lat":"31.01258","category":"68","category_name":"快餐厅","address":"松江区松东路145号"},{"poiid":"B2094750D06CA1FA4992","title":"唛酷量版ktv","lon":"121.253372","lat":"31.009998","category":"170","category_name":"KTV","address":null},{"poiid":"B2094655D268A1F8439B","title":"蓝天一村(北门)","lon":"121.25049","lat":"31.01706","category":"47","category_name":"住宅区","address":""},{"poiid":"B2094757D465ABF8419D","title":"虾之道","lon":"121.2558074","lat":"31.015238","category":"76","category_name":"上海菜","address":"松江区松东路(环城路)"},{"poiid":"B2094654DB6EA4FA409A","title":"黄山楼","lon":"121.25547","lat":"31.01301","category":"76","category_name":"上海菜","address":"松东路161-165号近俞塘路"},{"poiid":"B2094655D268A6FD419B","title":"荣都公寓(东一门)","lon":"121.2436","lat":"31.01501","category":"47","category_name":"住宅区","address":"泸松路11弄"},{"poiid":"B2094655D268A1F84398","title":"蓝天一村","lon":"121.25054","lat":"31.01676","category":"47","category_name":"住宅区","address":""},{"poiid":"B2094757D66EA2F84692","title":"竹筷子","lon":"121.24711246","lat":"31.011658096","category":"500","category_name":"未知分类","address":"上海乐都路"},{"poiid":"B2094654DB6DAAFB409E","title":"松江工业区乐民经济城","lon":"121.25089","lat":"31.01713","category":"45","category_name":"产业园区","address":"荣乐东路123号"},{"poiid":"B2094654DB6EA2FE489E","title":"松江二中(集团)初级中学","lon":"121.24608","lat":"31.01066","category":"55","category_name":"中学","address":""},{"poiid":"B2094757D56CA0FC499C","title":"川流龙虾城","lon":"121.243001054","lat":"31.017556793","category":"71","category_name":"四川菜","address":"松江区荣乐中路12弄313号(近谷阳北路)"},{"poiid":"B2094654DB65AAFA469E","title":"松江区民办九峰中学","lon":"121.2475","lat":"31.01071","category":"55","category_name":"中学","address":"松江区方塔北路319号"},{"poiid":"B2094655D268A6FD4898","title":"荣都公寓东侧(西门)","lon":"121.24404","lat":"31.0147","category":"47","category_name":"住宅区","address":"沪松路20弄"},{"poiid":"B2094654DB69A6F84998","title":"普政苑","lon":"121.246","lat":"31.0116","category":"47","category_name":"住宅区","address":"松江区普照路75弄"},{"poiid":"B2094654DB69A4FB429C","title":"重庆鸡公煲(方舟店)","lon":"121.24043","lat":"31.01787","category":"71","category_name":"四川菜","address":"松江区荣乐中路12弄29号(近卜蜂莲花)"},{"poiid":"B2094757D16CA3FE4399","title":"天母蓝鸟咖啡(上海松江店)","lon":"121.255901","lat":"31.017212476","category":"65","category_name":"咖啡厅","address":"上海市松江区荣乐东路31号"},{"poiid":"B2094654DB6EA1FA439F","title":"上海永达松江别克","lon":"121.24867","lat":"31.01989","category":"158","category_name":"汽车销售","address":"方塔北路588号"},{"poiid":"B2094654DB6EA4FB459E","title":"百味佳特色风味酒楼","lon":"121.25588","lat":"31.01181","category":"70","category_name":"综合酒楼","address":"松江区松东路60号(繁华路松东路)"},{"poiid":"B2094655D268A5FD4793","title":"松江工业区","lon":"121.25487","lat":"31.01695","category":"46","category_name":"楼宇","address":"荣乐东路81号"},{"poiid":"B2094757D16EA0FE4792","title":"九峰实验中学","lon":"121.24777","lat":"31.01044","category":"253","category_name":"校园生活","address":"松江区中山街道方塔北路319号(方塔北路松江环城路)"},{"poiid":"B2094757D66EAAFD489F","title":"蓝天","lon":"121.252219787","lat":"31.0143558753","category":"500","category_name":"未知分类","address":"松东路1号"},{"poiid":"B2094757D164A7F9479A","title":"中联重科上海公司","lon":"121.249343","lat":"31.01242","category":"500","category_name":"未知分类","address":"上海市松江区茸北工业园区缤纷路297号"},{"poiid":"B2094757D66CAAF9449E","title":"上海永达通盛汽车销售服务有限公司","lon":"121.248322917","lat":"31.0180262359","category":"500","category_name":"未知分类","address":"上海松江俞塘路555号"},{"poiid":"B2094655D36CA7FE459A","title":"沪松公路","lon":"121.24245","lat":"31.01373","category":"38","category_name":"公交车站","address":""},{"poiid":"B2094751D56CA0FF4992","title":"竹筷子农家菜(乐都路店)","lon":"121.24085","lat":"31.01372","category":"87","category_name":"特色／地方风味餐厅","address":"松江区乐都路9弄(近袜子弄)"},{"poiid":"B2094757D16DA4FA4298","title":"地中海广场","lon":"121.253173828","lat":"31.0111503601","category":"500","category_name":"未知分类","address":"上海松江区"},{"poiid":"B2094757D769ABFC4398","title":"毛湘土菜馆 松东路店","lon":"121.255952","lat":"31.012904","category":"77","category_name":"湖南菜","address":"松江区松东路78号(近俞塘路)"},{"poiid":"B2094654DB6DAAFB4492","title":"立民汽车装潢","lon":"121.24877","lat":"31.01185","category":"159","category_name":"汽车维修","address":"环城路738"},{"poiid":"B2094757D66CA7F4439C","title":"中权汽车技术服务","lon":"121.24571446","lat":"31.012825121","category":"500","category_name":"未知分类","address":"上海松江环城路956号"},{"poiid":"B2094654DB6EA4FA409F","title":"川味餐馆","lon":"121.25595","lat":"31.016008","category":"71","category_name":"四川菜","address":"松江区松东路173号"},{"poiid":"B2094757D56EA0F9489A","title":"松江二中食堂","lon":"121.2452245","lat":"31.00858483","category":"68","category_name":"快餐厅","address":"松江区中山东路250号(近方塔北路)"},{"poiid":"B2094757D16FA6F8419C","title":"松江博物馆","lon":"121.24649601","lat":"31.00604726","category":"179","category_name":"音乐厅","address":"松江区松江中山东路233号"},{"poiid":"B2094750D664ABF54692","title":"田字食号","lon":"121.256","lat":"31.0119","category":"76","category_name":"上海菜","address":"松江区松东路80弄(近黄山楼)"},{"poiid":"B2094654DB6DAAFB4093","title":"中国农业银行东开支行","lon":"121.25031","lat":"31.01712","category":"150","category_name":"银行","address":"荣乐东路127"},{"poiid":"B2094654DB6EA2FE489B","title":"天主教上海教区邱家湾天主堂","lon":"121.24782","lat":"31.00955","category":"245","category_name":"教堂","address":"方塔北路10号"},{"poiid":"B2094654DB6DAAFA4798","title":"舜龙商务楼","lon":"121.25411","lat":"31.01718","category":"46","category_name":"楼宇","address":"荣乐东路83弄1号"},{"poiid":"B2094654DB64A0FC459F","title":"流金岁月","lon":"121.24254","lat":"31.01412","category":"170","category_name":"KTV","address":""},{"poiid":"B2094655D268A6F9489C","title":"北内路绿地","lon":"121.24162","lat":"31.01296","category":"196","category_name":"公园","address":""},{"poiid":"B2094757D16AA5FC499F","title":"上海潮福城大酒楼","lon":"121.253155467","lat":"31.0107330758","category":"247","category_name":"餐饮美食","address":"上海松江区环城路550号"},{"poiid":"B2094655D26BA2FB4599","title":"松江北门","lon":"121.2437","lat":"31.01887","category":"38","category_name":"公交车站","address":""},{"poiid":"B2094757D16BA0FF419E","title":"好饰家(松江店)","lon":"121.24277","lat":"31.01666","category":"123","category_name":"家具建材市场","address":"松江区荣乐中路12弄方舟广场318号(近沪松路)"},{"poiid":"B2094757DA6BABFF489F","title":"LOMO玩库","lon":"121.250353","lat":"31.009835","category":"252","category_name":"楼宇机构","address":"松江区环城路555号"},{"poiid":"B2094655D36DA7F8449E","title":"中山东路","lon":"121.24404","lat":"31.00703","category":"38","category_name":"公交车站","address":""},{"poiid":"B2094757D66EA6FF4899","title":"人民公社松江店","lon":"121.256413803","lat":"31.0121489143","category":"77","category_name":"湖南菜","address":"松江区环城路380号(近松东路)"},{"poiid":"B2094757D168A6F9489D","title":"私はあなたを爱する","lon":"121.243486067","lat":"31.0175382252","category":"500","category_name":"未知分类","address":null},{"poiid":"B2094654DB6EA4FA409D","title":"无名粥吧","lon":"121.25549","lat":"31.01336","category":"257","category_name":"中餐厅","address":"松东路179号"},{"poiid":"B2094655D268A3FD419D","title":"蓝色港湾(星美乐莫国际影城西北)","lon":"121.2533","lat":"31.01088","category":"170","category_name":"KTV","address":"环城路574"},{"poiid":"B2094751D26DA2F54699","title":"辰山植物园","lon":"121.243247","lat":"31.016897","category":"196","category_name":"公园","address":null},{"poiid":"B2094654DB6DAAFA419F","title":"雯雯点心店","lon":"121.24949","lat":"31.00696","category":"112","category_name":"糕饼店","address":""},{"poiid":"B2094654DB6EA4FA409E","title":"好德便利NO.564","lon":"121.25548","lat":"31.01316","category":"117","category_name":"便民商店/便利店","address":"松江工业区"},{"poiid":"B2094654DB6EA4FA4298","title":"月光公寓(松东路)","lon":"121.25478","lat":"31.01568","category":"47","category_name":"住宅区","address":""},{"poiid":"B2094757D66FA6F8489D","title":"松江邱家湾天主堂","lon":"121.248328467","lat":"31.009921058","category":"500","category_name":"未知分类","address":"上海方塔北路10号"},{"poiid":"B2094655D268A3FA409E","title":"乐家购物广场","lon":"121.25545","lat":"31.01239","category":"119","category_name":"商场","address":""},{"poiid":"B2094753D66FA1F4459E","title":"烤友社烧烤店","lon":"121.253394","lat":"31.009567","category":"96","category_name":"韩国料理","address":"松江镇环城路311号"},{"poiid":"B2094654DB6EA4FA429D","title":"中共上海市松江工业区委员会","lon":"121.25487","lat":"31.01694","category":"45","category_name":"产业园区","address":"荣乐东路81号"},{"poiid":"B2094655D26FABF4489D","title":"天主教上海教区邱家湾天主堂(东门)","lon":"121.2481","lat":"31.00952","category":"680","category_name":"楼宇机构","address":"方塔北路10号"},{"poiid":"B2094654DB6AA1FA4798","title":"明丰文化苑","lon":"121.241","lat":"31.0162","category":"47","category_name":"住宅区","address":"上海市松江区中山二路70-72号"},{"poiid":"B2094757D66EABF44992","title":"放弃","lon":"121.25104","lat":"31.010671","category":"500","category_name":"未知分类","address":"上海A part of life"},{"poiid":"B2094655D36CA2FC419C","title":"皇骐爱丽舍","lon":"121.24425590281","lat":"31.020530421599","category":"47","category_name":"住宅区","address":"上海市松江区北翠路158弄"},{"poiid":"B2094757D16AA3FC4392","title":"哈里欧咖啡 松江店 Hecto Coffee","lon":"121.24080009389","lat":"31.013781300341","category":"260","category_name":"其他","address":"松江区乐都路北门街1号(乐都路松江环城路)"},{"poiid":"B2094757D66FA1FB489F","title":"DQ(易初莲花)","lon":"121.240908467","lat":"31.0176772282","category":"247","category_name":"餐饮美食","address":"上海荣乐东路28号易初莲花一层"},{"poiid":"B2094654DB6EA2FF489A","title":"松江科技馆","lon":"121.24504","lat":"31.00654","category":"186","category_name":"科技馆","address":"中山东路237"},{"poiid":"B2094654DB6EA4F9489D","title":"天天美味居","lon":"121.25541","lat":"31.01134","category":"257","category_name":"中餐厅","address":"松东路51-53"},{"poiid":"B2094757D66EA3F5429E","title":"韩浦江 碳烤","lon":"121.255644103","lat":"31.0114772995","category":"247","category_name":"餐饮美食","address":"上海松东路81号"},{"poiid":"B2094655D26EAAFF4992","title":"鲁山人日本料理(松东路店)","lon":"121.25567","lat":"31.01221","category":"95","category_name":"日本料理","address":"松江区松东路72号"},{"poiid":"B2094654DB6EA4F9499E","title":"老东北菜馆松江店","lon":"121.25543","lat":"31.01219","category":"82","category_name":"东北菜","address":""},{"poiid":"B2094654DB6EA4FB439E","title":"东北风味农家小菜","lon":"121.25599","lat":"31.01408","category":"82","category_name":"东北菜","address":"松东路128号"},{"poiid":"B2094655D268A5FD479D","title":"宏拓大楼","lon":"121.25501","lat":"31.01045","category":"46","category_name":"楼宇","address":""},{"poiid":"B2094654DB6EA4FB429F","title":"喜士多便利连锁(松东路)","lon":"121.25605","lat":"31.01521","category":"117","category_name":"便民商店/便利店","address":"松东路182、184"},{"poiid":"B2094654DB6EA4FB429A","title":"快客全国连锁超市NO.01719","lon":"121.25607","lat":"31.01557","category":"117","category_name":"便民商店/便利店","address":""},{"poiid":"B2094654DB6EA1FA4092","title":"上海建伍电子有限公司","lon":"121.25154","lat":"31.01821","category":"263","category_name":"公司","address":"松江区荣乐东路60号"},{"poiid":"B2094655D268A5F94798","title":"菜花泾25弄小区","lon":"121.2409","lat":"31.01264","category":"47","category_name":"住宅区","address":"菜花泾25弄"},{"poiid":"B2094654DB6EA1FA439E","title":"雪佛兰永达松江店","lon":"121.24883","lat":"31.01991","category":"158","category_name":"汽车销售","address":""},{"poiid":"B2094654DB6EA4FB4498","title":"上海市松江警松门诊部","lon":"121.25594","lat":"31.01347","category":"162","category_name":"医院","address":"松东路102号"},{"poiid":"B2094750DA6CA0F9439F","title":"方塔幼儿园","lon":"121.250198","lat":"31.007705","category":"57","category_name":"幼儿园","address":"方塔东村25号"},{"poiid":"B2094655D26FABFB479C","title":"快客No.5233","lon":"121.24032","lat":"31.01315","category":"117","category_name":"便民商店/便利店","address":""},{"poiid":"B2094654DB6DAAFA489F","title":"中国银行上海市松江工业区支行","lon":"121.25368","lat":"31.0172","category":"150","category_name":"银行","address":"松江区荣乐东路89号"},{"poiid":"B2094757D66EA5FC459F","title":"汤天下","lon":"121.254752203","lat":"31.0108446855","category":"247","category_name":"餐饮美食","address":"上海松东路62号"},{"poiid":"B2094655D268A6FA469A","title":"松江二中游泳馆","lon":"121.24337","lat":"31.00927","category":"231","category_name":"游泳馆","address":"松江区中山东路250号松江二中"},{"poiid":"B2094654DB6EA4F9489E","title":"浙江快客风味馆","lon":"121.2554","lat":"31.01113","category":"75","category_name":"浙江菜","address":"松江区松东路43号"},{"poiid":"B2094655D26FAAFC409D","title":"中山东路180弄小区","lon":"121.24675","lat":"31.00747","category":"47","category_name":"住宅区","address":"中山东路180弄"},{"poiid":"B2094757D06BA3FA419B","title":"西藏中路北京东路","lon":"121.24690246","lat":"31.007120132","category":"38","category_name":"公交车站","address":"上海西藏中路北京东路公交站"},{"poiid":"B2094654DB6EA2FF439D","title":"余天成药店方塔分店","lon":"121.24794","lat":"31.00728","category":"162","category_name":"医院","address":"中山东路170号"},{"poiid":"B2094752D46AA2F5479D","title":"乐都加油站","lon":"121.244104","lat":"31.01939","category":"153","category_name":"加油站","address":"上海市松江区松江镇乐都路143号(近谷阳北路)"},{"poiid":"B2094757D168A0FA4193","title":"青春驿站","lon":"121.24237823","lat":"31.013765335","category":"500","category_name":"未知分类","address":"上海九新公路沪松公路口"},{"poiid":"B2094654DB6EA4FB4093","title":"小羊の家","lon":"121.25601","lat":"31.01649","category":"95","category_name":"日本料理","address":"松东路258"},{"poiid":"B2094757D66DA0FA449A","title":"幸福海","lon":"121.252271567","lat":"31.0103560675","category":"500","category_name":"未知分类","address":"上海松江区中山东路32弄"},{"poiid":"B2094654DB6EA1FE479D","title":"松江区蓝天幼儿园","lon":"121.24585","lat":"31.02091","category":"57","category_name":"幼儿园","address":""},{"poiid":"B2094655D268A5F4479A","title":"耀江花苑(西门)","lon":"121.25605","lat":"31.01504","category":"47","category_name":"住宅区","address":"松东路180弄1-28号"},{"poiid":"B2094654DB6EA1FE4693","title":"荣乐东路派出所","lon":"121.24676","lat":"31.02025","category":"609","category_name":"警察局","address":"俞塘支弄110"},{"poiid":"B2094654DB6AA3FF479D","title":"邮政储蓄东开支所","lon":"121.25271","lat":"31.01714","category":"248","category_name":"生活娱乐","address":"松江区荣乐东路93号"},{"poiid":"B2094655D268A5F94799","title":"菜花泾25弄小区(西门)","lon":"121.24052","lat":"31.01268","category":"47","category_name":"住宅区","address":"菜花泾25弄"},{"poiid":"B2094655D26FABF54992","title":"中山东路120弄小区","lon":"121.25002","lat":"31.00773","category":"47","category_name":"住宅区","address":"中山东路120弄"},{"poiid":"B2094654DB6EA1FA419D","title":"天威工业城","lon":"121.2522","lat":"31.02134","category":"45","category_name":"产业园区","address":"俞塘路512号"},{"poiid":"B2094654DB6DAAFA429B","title":"好德便利NO.872","lon":"121.24961","lat":"31.00697","category":"117","category_name":"便民商店/便利店","address":"方塔东一村23号"},{"poiid":"B2094654DB6EA2FF4698","title":"好德NO.230","lon":"121.24748","lat":"31.00689","category":"117","category_name":"便民商店/便利店","address":"中山东路163"},{"poiid":"B2094654DB6EA4FB459C","title":"川人川味","lon":"121.25585","lat":"31.01118","category":"71","category_name":"四川菜","address":"松东路52号近美能达路"},{"poiid":"B2094654DB6EA1FE489D","title":"北方饭庄","lon":"121.24452","lat":"31.021","category":"82","category_name":"东北菜","address":"美能达路611弄5号"},{"poiid":"B2094757D165A5FD4292","title":"长飞光纤光缆(上海)有限公司","lon":"121.24358506","lat":"31.017535425","category":"263","category_name":"公司","address":"上海市松江区江田东路212号"},{"poiid":"B2094654DB6DAAFA429D","title":"方东小区(东大门)","lon":"121.25085","lat":"31.00703","category":"47","category_name":"住宅区","address":""},{"poiid":"B2094757D16BA0FD479E","title":"3M松江厂区","lon":"121.253138","lat":"31.01718","category":"263","category_name":"公司","address":"上海荣乐东路"},{"poiid":"B2094654DB6EA4FB429C","title":"耀江花苑","lon":"121.25645","lat":"31.014961","category":"47","category_name":"住宅区","address":"松东路180弄1-28号"},{"poiid":"B2094654DB6EA2FF479A","title":"天天瓜子店","lon":"121.24675","lat":"31.00687","category":"117","category_name":"便民商店/便利店","address":"松江区中山东路211号"},{"poiid":"B2094757D06BA7FF4198","title":"网鱼网咖(九峰店)","lon":"121.2406378","lat":"31.0172025","category":"173","category_name":"游戏厅","address":"松江区荣乐中路12弄方舟广场123-126号1-2楼(近沪松路)"},{"poiid":"B2094655D26FAAFC409F","title":"中山东路180弄小区(南门)","lon":"121.24678","lat":"31.00724","category":"47","category_name":"住宅区","address":"中山东路180弄"},{"poiid":"B2094757D16BA2F8459A","title":"松江3路　谷阳北路乐都路站","lon":"121.24159936","lat":"31.013420434","category":"500","category_name":"未知分类","address":"上海松江区谷阳北路乐都路"},{"poiid":"B2094655D26FABF54099","title":"中山东路120弄小区(南门)","lon":"121.25001","lat":"31.00736","category":"47","category_name":"住宅区","address":"中山东路120弄"},{"poiid":"B2094655D268A1FB439F","title":"上海新新潘晓婷撞球俱乐部","lon":"121.25411","lat":"31.01029","category":"171","category_name":"台球厅","address":""},{"poiid":"B2094655D268A7FA419F","title":"中山东路274弄小区","lon":"121.2433","lat":"31.00758","category":"47","category_name":"住宅区","address":"中山东路274弄"},{"poiid":"B2094654DB6DAAFA439D","title":"好德便利NO.639","lon":"121.2517","lat":"31.00696","category":"117","category_name":"便民商店/便利店","address":"松江镇"},{"poiid":"B2094655D26FABF5409A","title":"森活(南门)","lon":"121.25193","lat":"31.00751","category":"47","category_name":"住宅区","address":"中山东路70弄"},{"poiid":"B2094757D064AAFE4399","title":"竹筷子农家菜","lon":"121.241284967","lat":"31.0136631401","category":"260","category_name":"其他","address":"上海近郊松江区仓汇路591号(玉乐小区东门南侧)  "},{"poiid":"B2094757D66EA7F84398","title":"上海出入境检验检验局松江局","lon":"121.2566191","lat":"31.016024399","category":"500","category_name":"未知分类","address":"上海市松江区荣乐东路2001号"},{"poiid":"B2094654DB64A0FC489B","title":"新华书店(松江·中山东路)","lon":"121.24806","lat":"31.00689","category":"125","category_name":"书店","address":""},{"poiid":"B2094654DB6EA1FF4099","title":"广州本田松江店","lon":"121.24338","lat":"31.02118","category":"158","category_name":"汽车销售","address":"近郊松江区沪松路228号(沪松路美能达路)"},{"poiid":"B2094655D268A1F4469D","title":"东外苑(西门)","lon":"121.25588","lat":"31.01024","category":"47","category_name":"住宅区","address":"环城路450弄"},{"poiid":"B2094654DB6EA4FA429F","title":"中国建设银行上海市东开支行","lon":"121.25545","lat":"31.01692","category":"150","category_name":"银行","address":"松江区荣乐东路81号(荣乐东路松东路)"},{"poiid":"B2094655D268A4FD449A","title":"方塔西村","lon":"121.24783","lat":"31.006462","category":"47","category_name":"住宅区","address":"方塔南路"},{"poiid":"B2094757D06BA1FE469B","title":"松江公安分局","lon":"121.242585","lat":"31.007785","category":"500","category_name":"未知分类","address":"上海松江·中山东路290号"},{"poiid":"B2094757D16BA3FE4193","title":"喵","lon":"121.240541467","lat":"31.0125531157","category":"500","category_name":"未知分类","address":"上海我爱猫咪"},{"poiid":"B2094655D268A1F4499B","title":"建设大厦(东门)","lon":"121.2527","lat":"31.01633","category":"656","category_name":"大门","address":"松江工业区"},{"poiid":"B2094654DB6EA2FF4898","title":"长宁科技进修学院松江分部","lon":"121.24546","lat":"31.00745","category":"53","category_name":"成人教育","address":"中山东路237"},{"poiid":"B2094757D169A3FF409A","title":"松江二中男生宿舍","lon":"121.248239","lat":"31.008033","category":"252","category_name":"楼宇机构","address":"上海松江区中山东路250号"},{"poiid":"B2094757D16FA1FE499D","title":"上海市松江区 环城路中山东路","lon":"121.25219566","lat":"31.008160256","category":"500","category_name":"未知分类","address":"上海市松江区 环城路中山东路"},{"poiid":"B2094757D66CA3F84193","title":"雅凤阁","lon":"121.24492346","lat":"31.007868012","category":"500","category_name":"未知分类","address":"上海市松江区方塔公园后门"},{"poiid":"B2094757D168ABF54992","title":"方东小区","lon":"121.244516","lat":"31.007208","category":"252","category_name":"楼宇机构","address":"上海松江区中山东路"},{"poiid":"B2094655D268A7FA419E","title":"中山东路274弄小区(南门)","lon":"121.24333","lat":"31.00727","category":"47","category_name":"住宅区","address":"中山东路274弄"},{"poiid":"B2094757D66EA4FC4999","title":"松江区有线电视中心营业厅","lon":"121.24808326","lat":"31.007485004","category":"500","category_name":"未知分类","address":"上海乐都路267号"},{"poiid":"B2094757D66FA0F94898","title":"荣景苑","lon":"121.241","lat":"31.0103","category":"252","category_name":"楼宇机构","address":"上海松江松汇西路"},{"poiid":"B2094654DB6EA4FB449B","title":"香山足道馆","lon":"121.25614","lat":"31.01356","category":"149","category_name":"洗浴推拿场所","address":""},{"poiid":"B2094655D268A1F44999","title":"舜龙公寓(北一门)","lon":"121.25286","lat":"31.01622","category":"656","category_name":"大门","address":"松江工业区"},{"poiid":"B2094757D16BA1FA419F","title":"霞逸桌球风暴","lon":"121.240913","lat":"31.010432","category":"171","category_name":"台球厅","address":"上海松江区松汇路鹿都国际购物广场4楼"},{"poiid":"B2094757D66CA1F8469E","title":"上海第十九机动车检测站","lon":"121.256058","lat":"31.016159","category":"500","category_name":"未知分类","address":"上海松东路"},{"poiid":"B2094654DB6DAAFA479F","title":"上海市松江区城建档案室","lon":"121.25411","lat":"31.01718","category":"193","category_name":"档案馆","address":"荣乐东路83弄1号7层"},{"poiid":"B2094757D66EA0FD489B","title":"松江区民兵训练基地","lon":"121.24865","lat":"31.006451","category":"500","category_name":"未知分类","address":"上海方塔南路"},{"poiid":"B2094655D268A1F8429C","title":"舜龙公寓(北门)","lon":"121.25344","lat":"31.01714","category":"656","category_name":"大门","address":""},{"poiid":"B2094654DB6EA1FF4092","title":"上海松江工业总公司","lon":"121.24264","lat":"31.02025","category":"263","category_name":"公司","address":"沪松路23号"},{"poiid":"B2094757D66EA3F5459B","title":"冀雅(上海)电子有限公司","lon":"121.240482","lat":"31.018165","category":"249","category_name":"购物服务","address":"上海市松江区联阳路(与荣乐东路交界处)"},{"poiid":"B2094654DB6EA2FE499A","title":"上海市公安局松江分局","lon":"121.24258","lat":"31.00779","category":"248","category_name":"生活娱乐","address":"中山东路290"},{"poiid":"B2094655D268A5FE429C","title":"蓝天新村(东一门)","lon":"121.25521","lat":"31.01249","category":"656","category_name":"大门","address":"松江工业区"},{"poiid":"B2094655D268A5FE429A","title":"蓝天新村(东门)","lon":"121.25519","lat":"31.01411","category":"656","category_name":"大门","address":""},{"poiid":"B2094655D268A6FA4698","title":"舜龙公寓(北二门)","lon":"121.25428","lat":"31.01719","category":"656","category_name":"大门","address":"松江工业区"},{"poiid":"B2094654DB6EA1FF409C","title":"上海老来青米业合作社","lon":"121.2425","lat":"31.02071","category":"263","category_name":"公司","address":"松江区沪松路25号"},{"poiid":"B2094655D268A5FB429D","title":"月光公寓(东门)","lon":"121.25523","lat":"31.0157","category":"656","category_name":"大门","address":""},{"poiid":"B2094655D26FAAF4459A","title":"方塔园(北门)","lon":"121.24592","lat":"31.00681","category":"656","category_name":"大门","address":""},{"poiid":"B2094655D268A7FB4098","title":"方塔西村(北门)","lon":"121.24741","lat":"31.00689","category":"656","category_name":"大门","address":""},{"poiid":"B2094655D26FABF4499B","title":"方东小区(西门)","lon":"121.24865","lat":"31.00593","category":"656","category_name":"大门","address":""},{"poiid":"B2094655D26FAAF44493","title":"方塔西村(北一门)","lon":"121.24643","lat":"31.00686","category":"656","category_name":"大门","address":""},{"poiid":"B2094655D26FAAF44492","title":"方塔西村(东门)","lon":"121.24827","lat":"31.00608","category":"656","category_name":"大门","address":""}]