[{"poiid":"B2094757D06AA4F44193","title":"上海大众汽车一厂","lon":"121.168218289","lat":"31.3003356326","category":"500","category_name":"未知分类","address":"上海嘉定区安亭镇洛浦路63号"},{"poiid":"B2094757D06FA3F4409B","title":"上海大众汽车有限公司","lon":"121.16294097","lat":"31.295793533","category":"46","category_name":"楼宇","address":"上海安亭镇昌吉路188号"},{"poiid":"B2094757D06FA1FA479C","title":"上海大众汽车","lon":"121.167815","lat":"31.299914","category":"500","category_name":"未知分类","address":"徐汇区安亭洛浦路63号"},{"poiid":"B2094757D068A6FE439D","title":"安亭市民广场","lon":"121.16414","lat":"31.29896","category":"250","category_name":"公园户外","address":"嘉定区安亭镇墨玉路(近和静路)"},{"poiid":"B2094757D06BA2F9469C","title":"安亭镇文体活动中心","lon":"121.16436013","lat":"31.30559144","category":"220","category_name":"运动场所","address":"上海嘉定区安亭镇墨玉路621号"},{"poiid":"B2094757D069A2FE459A","title":"安亭医院","lon":"121.16136195","lat":"31.295944036","category":"162","category_name":"医院","address":"嘉定区安亭镇昌吉路204号(昌吉路墨玉路)"},{"poiid":"B2094757D065A0F5439E","title":"中泰量贩KTV","lon":"121.16429228","lat":"31.301352153","category":"170","category_name":"KTV","address":"上海市嘉定区和静路"},{"poiid":"B2094655D36CA4FD469C","title":"安亭镇","lon":"121.16529","lat":"31.29153","category":"38","category_name":"公交车站","address":""},{"poiid":"B2094757D069A1FF4599","title":"延锋伟世通汽车饰件系统有限公司","lon":"121.162649","lat":"31.303654","category":"263","category_name":"公司","address":"上海墨玉路540号"},{"poiid":"B2094757D06AA0FE409E","title":"安亭北站","lon":"121.16539728","lat":"31.311927371","category":"22","category_name":"火车站","address":"上海嘉定区安亭镇新源路宝安公路 沪宁高铁 安亭北站"},{"poiid":"B2094757D16FABF8429D","title":"澳门豆捞坊","lon":"121.1636","lat":"31.29124","category":"86","category_name":"火锅店","address":"嘉定区墨玉南路1055号嘉亭荟城市生活广场2A412号铺(近安亭地铁站)"},{"poiid":"B2094757D068A4FB4193","title":"金湘隆（安亭店）","lon":"121.15498326620104","lat":"31.29728460678262","category":"77","category_name":"湖南菜","address":"嘉定区安亭镇新源路602号（近昌吉路）"},{"poiid":"B2094757D068A4F94299","title":"世纪联华(安亭店)","lon":"121.16378","lat":"31.3058","category":"118","category_name":"超级市场","address":"嘉定区民丰路568号(近墨玉路)"},{"poiid":"B2094757D064ABFD4699","title":"迪欧咖啡 安亭店 DIO CAFE","lon":"121.15974841114","lat":"31.302033958359","category":"65","category_name":"咖啡厅","address":"嘉定区安亭镇和静路市民广场(和静路墨玉路)"},{"poiid":"B2094654D46BA2F54399","title":"玉兰三村(阜康路)","lon":"121.16023","lat":"31.29872","category":"47","category_name":"住宅区","address":"墨玉路362弄"},{"poiid":"B2094654DB6AA5F54492","title":"肯德基 昌吉路店 KFC","lon":"121.164513054","lat":"31.295557793","category":"68","category_name":"快餐厅","address":"嘉定区昌吉路188号(近墨玉路)"},{"poiid":"B2094655D26EA1F9429C","title":"鼎越花园酒家","lon":"121.16474","lat":"31.30105","category":"70","category_name":"综合酒楼","address":"安亭市民广场A座"},{"poiid":"B2094757D169A5FE469C","title":"和静路汽车站","lon":"121.165102","lat":"31.301123","category":"35","category_name":"长途汽车站","address":"上海安亭镇和静路"},{"poiid":"B2094654D46BA0F8469A","title":"芙蓉新村一街坊","lon":"121.168","lat":"31.2975","category":"47","category_name":"住宅区","address":"泽普路316弄"},{"poiid":"B2094654DB65A2F8409B","title":"上海国际汽车城人才培训学院","lon":"121.16438","lat":"31.30146","category":"190","category_name":"培训机构","address":"和静路986号世康大厦5层502"},{"poiid":"B2094757D165A4FE409F","title":"大众试车场","lon":"121.163161389","lat":"31.3029872872","category":"163","category_name":"4S店","address":"上海嘉定区安亭镇保安公路"},{"poiid":"B2094654D46BA0F94292","title":"泰宸舒庭","lon":"121.16255","lat":"31.299047","category":"47","category_name":"住宅区","address":"上海市嘉定区墨玉路350号"},{"poiid":"B2094654DB6AA4FD489A","title":"好德No.348","lon":"121.16286","lat":"31.2999","category":"117","category_name":"便民商店/便利店","address":"墨玉路364号"},{"poiid":"B2094750D16AA6FC4492","title":"永乐生活电器(安亭店)","lon":"121.163169","lat":"31.299047","category":"119","category_name":"商场","address":"嘉定区墨玉路328号"},{"poiid":"B2094654DB69A7F84492","title":"中国联通上海公司安亭营业厅","lon":"121.16286","lat":"31.30002","category":"151","category_name":"电讯营业厅","address":"嘉定区安亭镇墨玉路370号"},{"poiid":"B2094757D16EA5F8409B","title":"和亭佳苑","lon":"121.15398","lat":"31.304905","category":"47","category_name":"住宅区","address":"上海市嘉定区民丰路897弄"},{"poiid":"B2094757D66BA7FD449F","title":"吉阿婆麻辣烫 安亭店","lon":"121.162955054","lat":"31.306447793","category":"76","category_name":"上海菜","address":"嘉定区安亭镇民丰路568号世纪联华底楼(墨玉路口)"},{"poiid":"B2094655D26EA1FF4792","title":"上海大众技术中心","lon":"121.16782","lat":"31.29991","category":"191","category_name":"科研机构","address":"洛浦路58"},{"poiid":"B2094654D46BA2F8419F","title":"安亭大厦","lon":"121.16951379498","lat":"31.300258849613","category":"46","category_name":"楼宇","address":"墨玉路98弄1-2号"},{"poiid":"B2094757D06AABFE479C","title":"大众","lon":"121.168182","lat":"31.303021","category":"500","category_name":"未知分类","address":"上海洛浦路63号"},{"poiid":"B2094757D169A1F8429B","title":"昆山花桥","lon":"121.16220948","lat":"31.304642221","category":"500","category_name":"未知分类","address":"上海麦当劳(易买得店)"},{"poiid":"B2094757D16BA3FA4693","title":"曼胡默尔","lon":"121.16198358","lat":"31.303473397","category":"500","category_name":"未知分类","address":"上海市嘉定区兴庆路168号"},{"poiid":"B2094757D16CA4FB4692","title":"玉兰二村","lon":"121.15772","lat":"31.297319","category":"47","category_name":"住宅区","address":"上海市嘉定区安亭镇阜康西路"},{"poiid":"B2094650D16BA7F4469D","title":"金都安亭家园","lon":"121.15711429363","lat":"31.300996824625","category":"47","category_name":"住宅区","address":"三星路88号"},{"poiid":"B2094655D26FA1FA429A","title":"世康大厦","lon":"121.17091516336","lat":"31.307389888843","category":"46","category_name":"楼宇","address":"松江区工业区鼎源路广富林路路口"},{"poiid":"B2094757D164A0FB459F","title":"安亭 玉兰四村","lon":"121.165731289","lat":"31.2964780532","category":"500","category_name":"未知分类","address":"上海嘉定安亭玉兰四村"},{"poiid":"B2094654D46BA1FA4098","title":"安亭苑大厦","lon":"121.16386","lat":"31.29784","category":"46","category_name":"楼宇","address":"墨玉路185号"},{"poiid":"B2094654D46BA1FA409A","title":"玉兰四村","lon":"121.16485","lat":"31.297699","category":"47","category_name":"住宅区","address":"阜康西路9弄"},{"poiid":"B2094757D16BA5F5449B","title":"上海金泰工程机械有限公司","lon":"121.16791323","lat":"31.300489285","category":"500","category_name":"未知分类","address":"上海洛浦路45号"},{"poiid":"B2094654DB6AA5F5469E","title":"上海大众汽车有限公司(北门)","lon":"121.16734","lat":"31.3056","category":"263","category_name":"公司","address":"洛浦路109"},{"poiid":"B2094654D46BA0FB439F","title":"中国移动墨玉路营业厅","lon":"121.16358","lat":"31.29771","category":"151","category_name":"电讯营业厅","address":"墨玉路181"},{"poiid":"B2094655D26BA1F94393","title":"民丰路墨玉路","lon":"121.16152","lat":"31.30604","category":"38","category_name":"公交车站","address":""},{"poiid":"B2094654D46BA2FF4392","title":"上海市嘉定区安亭中学","lon":"121.15529","lat":"31.30153","category":"55","category_name":"中学","address":"和静路"},{"poiid":"B2094655D26EA1F84193","title":"安亭镇文体信息传媒中心办公楼","lon":"121.16476","lat":"31.29702","category":"46","category_name":"楼宇","address":"墨玉路155"},{"poiid":"B2094757D16CA4FA459A","title":"戴美克斯健身","lon":"121.16296828","lat":"31.306218253","category":"500","category_name":"未知分类","address":"上海市嘉定区墨玉路"},{"poiid":"B2094654D46BA1FA4192","title":"玉兰饭店","lon":"121.16301","lat":"31.29725","category":"217","category_name":"旅馆招待所","address":"安亭镇墨玉路182号"},{"poiid":"B2094654D46BA0F94692","title":"龙安佳苑","lon":"121.16524","lat":"31.295946","category":"47","category_name":"住宅区","address":"上海市嘉定区昌吉路1682弄"},{"poiid":"B2094757D164A5FB419B","title":"大众汽车一厂北门班车","lon":"121.16726758","lat":"31.307224274","category":"500","category_name":"未知分类","address":"上海民丰路墨玉路"},{"poiid":"B2094654DB64A7FB419D","title":"上海安亭建筑工程有限公司","lon":"121.16669","lat":"31.30616","category":"263","category_name":"公司","address":"民丰路448号"},{"poiid":"B2094654D46BA0FB439E","title":"名角女士生活馆(墨玉路)","lon":"121.1636","lat":"31.29739","category":"148","category_name":"美容美发店","address":"墨玉路173"},{"poiid":"B2094757D06AA4F44193","title":"上海大众汽车一厂","lon":"121.168218289","lat":"31.3003356326","category":"500","category_name":"未知分类","address":"上海嘉定区安亭镇洛浦路63号"},{"poiid":"B2094757D06FA3F4409B","title":"上海大众汽车有限公司","lon":"121.16294097","lat":"31.295793533","category":"46","category_name":"楼宇","address":"上海安亭镇昌吉路188号"},{"poiid":"B2094757D06FA1FA479C","title":"上海大众汽车","lon":"121.167815","lat":"31.299914","category":"500","category_name":"未知分类","address":"徐汇区安亭洛浦路63号"},{"poiid":"B2094757D068A6FE439D","title":"安亭市民广场","lon":"121.16414","lat":"31.29896","category":"250","category_name":"公园户外","address":"嘉定区安亭镇墨玉路(近和静路)"},{"poiid":"B2094757D06BA2F9469C","title":"安亭镇文体活动中心","lon":"121.16436013","lat":"31.30559144","category":"220","category_name":"运动场所","address":"上海嘉定区安亭镇墨玉路621号"},{"poiid":"B2094757D069A2FE459A","title":"安亭医院","lon":"121.16136195","lat":"31.295944036","category":"162","category_name":"医院","address":"嘉定区安亭镇昌吉路204号(昌吉路墨玉路)"},{"poiid":"B2094757D065A0F5439E","title":"中泰量贩KTV","lon":"121.16429228","lat":"31.301352153","category":"170","category_name":"KTV","address":"上海市嘉定区和静路"},{"poiid":"B2094655D36CA4FD469C","title":"安亭镇","lon":"121.16529","lat":"31.29153","category":"38","category_name":"公交车站","address":""},{"poiid":"B2094757D069A1FF4599","title":"延锋伟世通汽车饰件系统有限公司","lon":"121.162649","lat":"31.303654","category":"263","category_name":"公司","address":"上海墨玉路540号"},{"poiid":"B2094757D06AA0FE409E","title":"安亭北站","lon":"121.16539728","lat":"31.311927371","category":"22","category_name":"火车站","address":"上海嘉定区安亭镇新源路宝安公路 沪宁高铁 安亭北站"},{"poiid":"B2094757D16FABF8429D","title":"澳门豆捞坊","lon":"121.1636","lat":"31.29124","category":"86","category_name":"火锅店","address":"嘉定区墨玉南路1055号嘉亭荟城市生活广场2A412号铺(近安亭地铁站)"},{"poiid":"B2094757D068A4FB4193","title":"金湘隆（安亭店）","lon":"121.15498326620104","lat":"31.29728460678262","category":"77","category_name":"湖南菜","address":"嘉定区安亭镇新源路602号（近昌吉路）"},{"poiid":"B2094757D068A4F94299","title":"世纪联华(安亭店)","lon":"121.16378","lat":"31.3058","category":"118","category_name":"超级市场","address":"嘉定区民丰路568号(近墨玉路)"},{"poiid":"B2094757D064ABFD4699","title":"迪欧咖啡 安亭店 DIO CAFE","lon":"121.15974841114","lat":"31.302033958359","category":"65","category_name":"咖啡厅","address":"嘉定区安亭镇和静路市民广场(和静路墨玉路)"},{"poiid":"B2094654D46BA2F54399","title":"玉兰三村(阜康路)","lon":"121.16023","lat":"31.29872","category":"47","category_name":"住宅区","address":"墨玉路362弄"},{"poiid":"B2094654DB6AA5F54492","title":"肯德基 昌吉路店 KFC","lon":"121.164513054","lat":"31.295557793","category":"68","category_name":"快餐厅","address":"嘉定区昌吉路188号(近墨玉路)"},{"poiid":"B2094655D26EA1F9429C","title":"鼎越花园酒家","lon":"121.16474","lat":"31.30105","category":"70","category_name":"综合酒楼","address":"安亭市民广场A座"},{"poiid":"B2094757D169A5FE469C","title":"和静路汽车站","lon":"121.165102","lat":"31.301123","category":"35","category_name":"长途汽车站","address":"上海安亭镇和静路"},{"poiid":"B2094654D46BA0F8469A","title":"芙蓉新村一街坊","lon":"121.168","lat":"31.2975","category":"47","category_name":"住宅区","address":"泽普路316弄"},{"poiid":"B2094654DB65A2F8409B","title":"上海国际汽车城人才培训学院","lon":"121.16438","lat":"31.30146","category":"190","category_name":"培训机构","address":"和静路986号世康大厦5层502"},{"poiid":"B2094757D165A4FE409F","title":"大众试车场","lon":"121.163161389","lat":"31.3029872872","category":"163","category_name":"4S店","address":"上海嘉定区安亭镇保安公路"},{"poiid":"B2094654D46BA0F94292","title":"泰宸舒庭","lon":"121.16255","lat":"31.299047","category":"47","category_name":"住宅区","address":"上海市嘉定区墨玉路350号"},{"poiid":"B2094654DB6AA4FD489A","title":"好德No.348","lon":"121.16286","lat":"31.2999","category":"117","category_name":"便民商店/便利店","address":"墨玉路364号"},{"poiid":"B2094750D16AA6FC4492","title":"永乐生活电器(安亭店)","lon":"121.163169","lat":"31.299047","category":"119","category_name":"商场","address":"嘉定区墨玉路328号"},{"poiid":"B2094654DB69A7F84492","title":"中国联通上海公司安亭营业厅","lon":"121.16286","lat":"31.30002","category":"151","category_name":"电讯营业厅","address":"嘉定区安亭镇墨玉路370号"},{"poiid":"B2094757D16EA5F8409B","title":"和亭佳苑","lon":"121.15398","lat":"31.304905","category":"47","category_name":"住宅区","address":"上海市嘉定区民丰路897弄"},{"poiid":"B2094757D66BA7FD449F","title":"吉阿婆麻辣烫 安亭店","lon":"121.162955054","lat":"31.306447793","category":"76","category_name":"上海菜","address":"嘉定区安亭镇民丰路568号世纪联华底楼(墨玉路口)"},{"poiid":"B2094655D26EA1FF4792","title":"上海大众技术中心","lon":"121.16782","lat":"31.29991","category":"191","category_name":"科研机构","address":"洛浦路58"},{"poiid":"B2094654D46BA2F8419F","title":"安亭大厦","lon":"121.16951379498","lat":"31.300258849613","category":"46","category_name":"楼宇","address":"墨玉路98弄1-2号"},{"poiid":"B2094757D06AABFE479C","title":"大众","lon":"121.168182","lat":"31.303021","category":"500","category_name":"未知分类","address":"上海洛浦路63号"},{"poiid":"B2094757D169A1F8429B","title":"昆山花桥","lon":"121.16220948","lat":"31.304642221","category":"500","category_name":"未知分类","address":"上海麦当劳(易买得店)"},{"poiid":"B2094757D16BA3FA4693","title":"曼胡默尔","lon":"121.16198358","lat":"31.303473397","category":"500","category_name":"未知分类","address":"上海市嘉定区兴庆路168号"},{"poiid":"B2094757D16CA4FB4692","title":"玉兰二村","lon":"121.15772","lat":"31.297319","category":"47","category_name":"住宅区","address":"上海市嘉定区安亭镇阜康西路"},{"poiid":"B2094650D16BA7F4469D","title":"金都安亭家园","lon":"121.15711429363","lat":"31.300996824625","category":"47","category_name":"住宅区","address":"三星路88号"},{"poiid":"B2094655D26FA1FA429A","title":"世康大厦","lon":"121.17091516336","lat":"31.307389888843","category":"46","category_name":"楼宇","address":"松江区工业区鼎源路广富林路路口"},{"poiid":"B2094757D164A0FB459F","title":"安亭 玉兰四村","lon":"121.165731289","lat":"31.2964780532","category":"500","category_name":"未知分类","address":"上海嘉定安亭玉兰四村"},{"poiid":"B2094654D46BA1FA4098","title":"安亭苑大厦","lon":"121.16386","lat":"31.29784","category":"46","category_name":"楼宇","address":"墨玉路185号"},{"poiid":"B2094654D46BA1FA409A","title":"玉兰四村","lon":"121.16485","lat":"31.297699","category":"47","category_name":"住宅区","address":"阜康西路9弄"},{"poiid":"B2094757D16BA5F5449B","title":"上海金泰工程机械有限公司","lon":"121.16791323","lat":"31.300489285","category":"500","category_name":"未知分类","address":"上海洛浦路45号"},{"poiid":"B2094654DB6AA5F5469E","title":"上海大众汽车有限公司(北门)","lon":"121.16734","lat":"31.3056","category":"263","category_name":"公司","address":"洛浦路109"},{"poiid":"B2094654D46BA0FB439F","title":"中国移动墨玉路营业厅","lon":"121.16358","lat":"31.29771","category":"151","category_name":"电讯营业厅","address":"墨玉路181"},{"poiid":"B2094655D26BA1F94393","title":"民丰路墨玉路","lon":"121.16152","lat":"31.30604","category":"38","category_name":"公交车站","address":""},{"poiid":"B2094654D46BA2FF4392","title":"上海市嘉定区安亭中学","lon":"121.15529","lat":"31.30153","category":"55","category_name":"中学","address":"和静路"},{"poiid":"B2094655D26EA1F84193","title":"安亭镇文体信息传媒中心办公楼","lon":"121.16476","lat":"31.29702","category":"46","category_name":"楼宇","address":"墨玉路155"},{"poiid":"B2094757D16CA4FA459A","title":"戴美克斯健身","lon":"121.16296828","lat":"31.306218253","category":"500","category_name":"未知分类","address":"上海市嘉定区墨玉路"},{"poiid":"B2094654D46BA1FA4192","title":"玉兰饭店","lon":"121.16301","lat":"31.29725","category":"217","category_name":"旅馆招待所","address":"安亭镇墨玉路182号"},{"poiid":"B2094654D46BA0F94692","title":"龙安佳苑","lon":"121.16524","lat":"31.295946","category":"47","category_name":"住宅区","address":"上海市嘉定区昌吉路1682弄"},{"poiid":"B2094757D164A5FB419B","title":"大众汽车一厂北门班车","lon":"121.16726758","lat":"31.307224274","category":"500","category_name":"未知分类","address":"上海民丰路墨玉路"},{"poiid":"B2094654DB64A7FB419D","title":"上海安亭建筑工程有限公司","lon":"121.16669","lat":"31.30616","category":"263","category_name":"公司","address":"民丰路448号"},{"poiid":"B2094654D46BA0FB439E","title":"名角女士生活馆(墨玉路)","lon":"121.1636","lat":"31.29739","category":"148","category_name":"美容美发店","address":"墨玉路173"},{"poiid":"B2094757D06AA4F44193","title":"上海大众汽车一厂","lon":"121.168218289","lat":"31.3003356326","category":"500","category_name":"未知分类","address":"上海嘉定区安亭镇洛浦路63号"},{"poiid":"B2094757D06FA3F4409B","title":"上海大众汽车有限公司","lon":"121.16294097","lat":"31.295793533","category":"46","category_name":"楼宇","address":"上海安亭镇昌吉路188号"},{"poiid":"B2094757D06FA1FA479C","title":"上海大众汽车","lon":"121.167815","lat":"31.299914","category":"500","category_name":"未知分类","address":"徐汇区安亭洛浦路63号"},{"poiid":"B2094757D068A6FE439D","title":"安亭市民广场","lon":"121.16414","lat":"31.29896","category":"250","category_name":"公园户外","address":"嘉定区安亭镇墨玉路(近和静路)"},{"poiid":"B2094757D06BA2F9469C","title":"安亭镇文体活动中心","lon":"121.16436013","lat":"31.30559144","category":"220","category_name":"运动场所","address":"上海嘉定区安亭镇墨玉路621号"},{"poiid":"B2094757D069A2FE459A","title":"安亭医院","lon":"121.16136195","lat":"31.295944036","category":"162","category_name":"医院","address":"嘉定区安亭镇昌吉路204号(昌吉路墨玉路)"},{"poiid":"B2094757D065A0F5439E","title":"中泰量贩KTV","lon":"121.16429228","lat":"31.301352153","category":"170","category_name":"KTV","address":"上海市嘉定区和静路"},{"poiid":"B2094655D36CA4FD469C","title":"安亭镇","lon":"121.16529","lat":"31.29153","category":"38","category_name":"公交车站","address":""},{"poiid":"B2094757D069A1FF4599","title":"延锋伟世通汽车饰件系统有限公司","lon":"121.162649","lat":"31.303654","category":"263","category_name":"公司","address":"上海墨玉路540号"},{"poiid":"B2094757D06AA0FE409E","title":"安亭北站","lon":"121.16539728","lat":"31.311927371","category":"22","category_name":"火车站","address":"上海嘉定区安亭镇新源路宝安公路 沪宁高铁 安亭北站"},{"poiid":"B2094757D16FABF8429D","title":"澳门豆捞坊","lon":"121.1636","lat":"31.29124","category":"86","category_name":"火锅店","address":"嘉定区墨玉南路1055号嘉亭荟城市生活广场2A412号铺(近安亭地铁站)"},{"poiid":"B2094757D068A4FB4193","title":"金湘隆（安亭店）","lon":"121.15498326620104","lat":"31.29728460678262","category":"77","category_name":"湖南菜","address":"嘉定区安亭镇新源路602号（近昌吉路）"},{"poiid":"B2094757D068A4F94299","title":"世纪联华(安亭店)","lon":"121.16378","lat":"31.3058","category":"118","category_name":"超级市场","address":"嘉定区民丰路568号(近墨玉路)"},{"poiid":"B2094757D064ABFD4699","title":"迪欧咖啡 安亭店 DIO CAFE","lon":"121.15974841114","lat":"31.302033958359","category":"65","category_name":"咖啡厅","address":"嘉定区安亭镇和静路市民广场(和静路墨玉路)"},{"poiid":"B2094654D46BA2F54399","title":"玉兰三村(阜康路)","lon":"121.16023","lat":"31.29872","category":"47","category_name":"住宅区","address":"墨玉路362弄"},{"poiid":"B2094654DB6AA5F54492","title":"肯德基 昌吉路店 KFC","lon":"121.164513054","lat":"31.295557793","category":"68","category_name":"快餐厅","address":"嘉定区昌吉路188号(近墨玉路)"},{"poiid":"B2094655D26EA1F9429C","title":"鼎越花园酒家","lon":"121.16474","lat":"31.30105","category":"70","category_name":"综合酒楼","address":"安亭市民广场A座"},{"poiid":"B2094757D169A5FE469C","title":"和静路汽车站","lon":"121.165102","lat":"31.301123","category":"35","category_name":"长途汽车站","address":"上海安亭镇和静路"},{"poiid":"B2094654D46BA0F8469A","title":"芙蓉新村一街坊","lon":"121.168","lat":"31.2975","category":"47","category_name":"住宅区","address":"泽普路316弄"},{"poiid":"B2094654DB65A2F8409B","title":"上海国际汽车城人才培训学院","lon":"121.16438","lat":"31.30146","category":"190","category_name":"培训机构","address":"和静路986号世康大厦5层502"},{"poiid":"B2094757D165A4FE409F","title":"大众试车场","lon":"121.163161389","lat":"31.3029872872","category":"163","category_name":"4S店","address":"上海嘉定区安亭镇保安公路"},{"poiid":"B2094654D46BA0F94292","title":"泰宸舒庭","lon":"121.16255","lat":"31.299047","category":"47","category_name":"住宅区","address":"上海市嘉定区墨玉路350号"},{"poiid":"B2094654DB6AA4FD489A","title":"好德No.348","lon":"121.16286","lat":"31.2999","category":"117","category_name":"便民商店/便利店","address":"墨玉路364号"},{"poiid":"B2094750D16AA6FC4492","title":"永乐生活电器(安亭店)","lon":"121.163169","lat":"31.299047","category":"119","category_name":"商场","address":"嘉定区墨玉路328号"},{"poiid":"B2094654DB69A7F84492","title":"中国联通上海公司安亭营业厅","lon":"121.16286","lat":"31.30002","category":"151","category_name":"电讯营业厅","address":"嘉定区安亭镇墨玉路370号"},{"poiid":"B2094757D16EA5F8409B","title":"和亭佳苑","lon":"121.15398","lat":"31.304905","category":"47","category_name":"住宅区","address":"上海市嘉定区民丰路897弄"},{"poiid":"B2094757D66BA7FD449F","title":"吉阿婆麻辣烫 安亭店","lon":"121.162955054","lat":"31.306447793","category":"76","category_name":"上海菜","address":"嘉定区安亭镇民丰路568号世纪联华底楼(墨玉路口)"},{"poiid":"B2094655D26EA1FF4792","title":"上海大众技术中心","lon":"121.16782","lat":"31.29991","category":"191","category_name":"科研机构","address":"洛浦路58"},{"poiid":"B2094654D46BA2F8419F","title":"安亭大厦","lon":"121.16951379498","lat":"31.300258849613","category":"46","category_name":"楼宇","address":"墨玉路98弄1-2号"},{"poiid":"B2094757D06AABFE479C","title":"大众","lon":"121.168182","lat":"31.303021","category":"500","category_name":"未知分类","address":"上海洛浦路63号"},{"poiid":"B2094757D169A1F8429B","title":"昆山花桥","lon":"121.16220948","lat":"31.304642221","category":"500","category_name":"未知分类","address":"上海麦当劳(易买得店)"},{"poiid":"B2094757D16BA3FA4693","title":"曼胡默尔","lon":"121.16198358","lat":"31.303473397","category":"500","category_name":"未知分类","address":"上海市嘉定区兴庆路168号"},{"poiid":"B2094757D16CA4FB4692","title":"玉兰二村","lon":"121.15772","lat":"31.297319","category":"47","category_name":"住宅区","address":"上海市嘉定区安亭镇阜康西路"},{"poiid":"B2094650D16BA7F4469D","title":"金都安亭家园","lon":"121.15711429363","lat":"31.300996824625","category":"47","category_name":"住宅区","address":"三星路88号"},{"poiid":"B2094655D26FA1FA429A","title":"世康大厦","lon":"121.17091516336","lat":"31.307389888843","category":"46","category_name":"楼宇","address":"松江区工业区鼎源路广富林路路口"},{"poiid":"B2094757D164A0FB459F","title":"安亭 玉兰四村","lon":"121.165731289","lat":"31.2964780532","category":"500","category_name":"未知分类","address":"上海嘉定安亭玉兰四村"},{"poiid":"B2094654D46BA1FA4098","title":"安亭苑大厦","lon":"121.16386","lat":"31.29784","category":"46","category_name":"楼宇","address":"墨玉路185号"},{"poiid":"B2094654D46BA1FA409A","title":"玉兰四村","lon":"121.16485","lat":"31.297699","category":"47","category_name":"住宅区","address":"阜康西路9弄"},{"poiid":"B2094757D16BA5F5449B","title":"上海金泰工程机械有限公司","lon":"121.16791323","lat":"31.300489285","category":"500","category_name":"未知分类","address":"上海洛浦路45号"},{"poiid":"B2094654DB6AA5F5469E","title":"上海大众汽车有限公司(北门)","lon":"121.16734","lat":"31.3056","category":"263","category_name":"公司","address":"洛浦路109"},{"poiid":"B2094654D46BA0FB439F","title":"中国移动墨玉路营业厅","lon":"121.16358","lat":"31.29771","category":"151","category_name":"电讯营业厅","address":"墨玉路181"},{"poiid":"B2094655D26BA1F94393","title":"民丰路墨玉路","lon":"121.16152","lat":"31.30604","category":"38","category_name":"公交车站","address":""},{"poiid":"B2094654D46BA2FF4392","title":"上海市嘉定区安亭中学","lon":"121.15529","lat":"31.30153","category":"55","category_name":"中学","address":"和静路"},{"poiid":"B2094655D26EA1F84193","title":"安亭镇文体信息传媒中心办公楼","lon":"121.16476","lat":"31.29702","category":"46","category_name":"楼宇","address":"墨玉路155"},{"poiid":"B2094757D16CA4FA459A","title":"戴美克斯健身","lon":"121.16296828","lat":"31.306218253","category":"500","category_name":"未知分类","address":"上海市嘉定区墨玉路"},{"poiid":"B2094654D46BA1FA4192","title":"玉兰饭店","lon":"121.16301","lat":"31.29725","category":"217","category_name":"旅馆招待所","address":"安亭镇墨玉路182号"},{"poiid":"B2094654D46BA0F94692","title":"龙安佳苑","lon":"121.16524","lat":"31.295946","category":"47","category_name":"住宅区","address":"上海市嘉定区昌吉路1682弄"},{"poiid":"B2094757D164A5FB419B","title":"大众汽车一厂北门班车","lon":"121.16726758","lat":"31.307224274","category":"500","category_name":"未知分类","address":"上海民丰路墨玉路"},{"poiid":"B2094654DB64A7FB419D","title":"上海安亭建筑工程有限公司","lon":"121.16669","lat":"31.30616","category":"263","category_name":"公司","address":"民丰路448号"},{"poiid":"B2094654D46BA0FB439E","title":"名角女士生活馆(墨玉路)","lon":"121.1636","lat":"31.29739","category":"148","category_name":"美容美发店","address":"墨玉路173"},{"poiid":"B2094757D06AA4F44193","title":"上海大众汽车一厂","lon":"121.168218289","lat":"31.3003356326","category":"500","category_name":"未知分类","address":"上海嘉定区安亭镇洛浦路63号"},{"poiid":"B2094757D06FA3F4409B","title":"上海大众汽车有限公司","lon":"121.16294097","lat":"31.295793533","category":"46","category_name":"楼宇","address":"上海安亭镇昌吉路188号"},{"poiid":"B2094757D06FA1FA479C","title":"上海大众汽车","lon":"121.167815","lat":"31.299914","category":"500","category_name":"未知分类","address":"徐汇区安亭洛浦路63号"},{"poiid":"B2094757D068A6FE439D","title":"安亭市民广场","lon":"121.16414","lat":"31.29896","category":"250","category_name":"公园户外","address":"嘉定区安亭镇墨玉路(近和静路)"},{"poiid":"B2094757D06BA2F9469C","title":"安亭镇文体活动中心","lon":"121.16436013","lat":"31.30559144","category":"220","category_name":"运动场所","address":"上海嘉定区安亭镇墨玉路621号"},{"poiid":"B2094757D069A2FE459A","title":"安亭医院","lon":"121.16136195","lat":"31.295944036","category":"162","category_name":"医院","address":"嘉定区安亭镇昌吉路204号(昌吉路墨玉路)"},{"poiid":"B2094757D065A0F5439E","title":"中泰量贩KTV","lon":"121.16429228","lat":"31.301352153","category":"170","category_name":"KTV","address":"上海市嘉定区和静路"},{"poiid":"B2094655D36CA4FD469C","title":"安亭镇","lon":"121.16529","lat":"31.29153","category":"38","category_name":"公交车站","address":""},{"poiid":"B2094757D069A1FF4599","title":"延锋伟世通汽车饰件系统有限公司","lon":"121.162649","lat":"31.303654","category":"263","category_name":"公司","address":"上海墨玉路540号"},{"poiid":"B2094757D06AA0FE409E","title":"安亭北站","lon":"121.16539728","lat":"31.311927371","category":"22","category_name":"火车站","address":"上海嘉定区安亭镇新源路宝安公路 沪宁高铁 安亭北站"},{"poiid":"B2094757D16FABF8429D","title":"澳门豆捞坊","lon":"121.1636","lat":"31.29124","category":"86","category_name":"火锅店","address":"嘉定区墨玉南路1055号嘉亭荟城市生活广场2A412号铺(近安亭地铁站)"},{"poiid":"B2094757D068A4FB4193","title":"金湘隆（安亭店）","lon":"121.15498326620104","lat":"31.29728460678262","category":"77","category_name":"湖南菜","address":"嘉定区安亭镇新源路602号（近昌吉路）"},{"poiid":"B2094757D068A4F94299","title":"世纪联华(安亭店)","lon":"121.16378","lat":"31.3058","category":"118","category_name":"超级市场","address":"嘉定区民丰路568号(近墨玉路)"},{"poiid":"B2094757D064ABFD4699","title":"迪欧咖啡 安亭店 DIO CAFE","lon":"121.15974841114","lat":"31.302033958359","category":"65","category_name":"咖啡厅","address":"嘉定区安亭镇和静路市民广场(和静路墨玉路)"},{"poiid":"B2094654D46BA2F54399","title":"玉兰三村(阜康路)","lon":"121.16023","lat":"31.29872","category":"47","category_name":"住宅区","address":"墨玉路362弄"},{"poiid":"B2094654DB6AA5F54492","title":"肯德基 昌吉路店 KFC","lon":"121.164513054","lat":"31.295557793","category":"68","category_name":"快餐厅","address":"嘉定区昌吉路188号(近墨玉路)"},{"poiid":"B2094655D26EA1F9429C","title":"鼎越花园酒家","lon":"121.16474","lat":"31.30105","category":"70","category_name":"综合酒楼","address":"安亭市民广场A座"},{"poiid":"B2094757D169A5FE469C","title":"和静路汽车站","lon":"121.165102","lat":"31.301123","category":"35","category_name":"长途汽车站","address":"上海安亭镇和静路"},{"poiid":"B2094654D46BA0F8469A","title":"芙蓉新村一街坊","lon":"121.168","lat":"31.2975","category":"47","category_name":"住宅区","address":"泽普路316弄"},{"poiid":"B2094654DB65A2F8409B","title":"上海国际汽车城人才培训学院","lon":"121.16438","lat":"31.30146","category":"190","category_name":"培训机构","address":"和静路986号世康大厦5层502"},{"poiid":"B2094757D165A4FE409F","title":"大众试车场","lon":"121.163161389","lat":"31.3029872872","category":"163","category_name":"4S店","address":"上海嘉定区安亭镇保安公路"},{"poiid":"B2094654D46BA0F94292","title":"泰宸舒庭","lon":"121.16255","lat":"31.299047","category":"47","category_name":"住宅区","address":"上海市嘉定区墨玉路350号"},{"poiid":"B2094654DB6AA4FD489A","title":"好德No.348","lon":"121.16286","lat":"31.2999","category":"117","category_name":"便民商店/便利店","address":"墨玉路364号"},{"poiid":"B2094750D16AA6FC4492","title":"永乐生活电器(安亭店)","lon":"121.163169","lat":"31.299047","category":"119","category_name":"商场","address":"嘉定区墨玉路328号"},{"poiid":"B2094654DB69A7F84492","title":"中国联通上海公司安亭营业厅","lon":"121.16286","lat":"31.30002","category":"151","category_name":"电讯营业厅","address":"嘉定区安亭镇墨玉路370号"},{"poiid":"B2094757D16EA5F8409B","title":"和亭佳苑","lon":"121.15398","lat":"31.304905","category":"47","category_name":"住宅区","address":"上海市嘉定区民丰路897弄"},{"poiid":"B2094757D66BA7FD449F","title":"吉阿婆麻辣烫 安亭店","lon":"121.162955054","lat":"31.306447793","category":"76","category_name":"上海菜","address":"嘉定区安亭镇民丰路568号世纪联华底楼(墨玉路口)"},{"poiid":"B2094655D26EA1FF4792","title":"上海大众技术中心","lon":"121.16782","lat":"31.29991","category":"191","category_name":"科研机构","address":"洛浦路58"},{"poiid":"B2094654D46BA2F8419F","title":"安亭大厦","lon":"121.16951379498","lat":"31.300258849613","category":"46","category_name":"楼宇","address":"墨玉路98弄1-2号"},{"poiid":"B2094757D06AABFE479C","title":"大众","lon":"121.168182","lat":"31.303021","category":"500","category_name":"未知分类","address":"上海洛浦路63号"},{"poiid":"B2094757D169A1F8429B","title":"昆山花桥","lon":"121.16220948","lat":"31.304642221","category":"500","category_name":"未知分类","address":"上海麦当劳(易买得店)"},{"poiid":"B2094757D16BA3FA4693","title":"曼胡默尔","lon":"121.16198358","lat":"31.303473397","category":"500","category_name":"未知分类","address":"上海市嘉定区兴庆路168号"},{"poiid":"B2094757D16CA4FB4692","title":"玉兰二村","lon":"121.15772","lat":"31.297319","category":"47","category_name":"住宅区","address":"上海市嘉定区安亭镇阜康西路"},{"poiid":"B2094650D16BA7F4469D","title":"金都安亭家园","lon":"121.15711429363","lat":"31.300996824625","category":"47","category_name":"住宅区","address":"三星路88号"},{"poiid":"B2094655D26FA1FA429A","title":"世康大厦","lon":"121.17091516336","lat":"31.307389888843","category":"46","category_name":"楼宇","address":"松江区工业区鼎源路广富林路路口"},{"poiid":"B2094757D164A0FB459F","title":"安亭 玉兰四村","lon":"121.165731289","lat":"31.2964780532","category":"500","category_name":"未知分类","address":"上海嘉定安亭玉兰四村"},{"poiid":"B2094654D46BA1FA4098","title":"安亭苑大厦","lon":"121.16386","lat":"31.29784","category":"46","category_name":"楼宇","address":"墨玉路185号"},{"poiid":"B2094654D46BA1FA409A","title":"玉兰四村","lon":"121.16485","lat":"31.297699","category":"47","category_name":"住宅区","address":"阜康西路9弄"},{"poiid":"B2094757D16BA5F5449B","title":"上海金泰工程机械有限公司","lon":"121.16791323","lat":"31.300489285","category":"500","category_name":"未知分类","address":"上海洛浦路45号"},{"poiid":"B2094654DB6AA5F5469E","title":"上海大众汽车有限公司(北门)","lon":"121.16734","lat":"31.3056","category":"263","category_name":"公司","address":"洛浦路109"},{"poiid":"B2094654D46BA0FB439F","title":"中国移动墨玉路营业厅","lon":"121.16358","lat":"31.29771","category":"151","category_name":"电讯营业厅","address":"墨玉路181"},{"poiid":"B2094655D26BA1F94393","title":"民丰路墨玉路","lon":"121.16152","lat":"31.30604","category":"38","category_name":"公交车站","address":""},{"poiid":"B2094654D46BA2FF4392","title":"上海市嘉定区安亭中学","lon":"121.15529","lat":"31.30153","category":"55","category_name":"中学","address":"和静路"},{"poiid":"B2094655D26EA1F84193","title":"安亭镇文体信息传媒中心办公楼","lon":"121.16476","lat":"31.29702","category":"46","category_name":"楼宇","address":"墨玉路155"},{"poiid":"B2094757D16CA4FA459A","title":"戴美克斯健身","lon":"121.16296828","lat":"31.306218253","category":"500","category_name":"未知分类","address":"上海市嘉定区墨玉路"},{"poiid":"B2094654D46BA1FA4192","title":"玉兰饭店","lon":"121.16301","lat":"31.29725","category":"217","category_name":"旅馆招待所","address":"安亭镇墨玉路182号"},{"poiid":"B2094654D46BA0F94692","title":"龙安佳苑","lon":"121.16524","lat":"31.295946","category":"47","category_name":"住宅区","address":"上海市嘉定区昌吉路1682弄"},{"poiid":"B2094757D164A5FB419B","title":"大众汽车一厂北门班车","lon":"121.16726758","lat":"31.307224274","category":"500","category_name":"未知分类","address":"上海民丰路墨玉路"},{"poiid":"B2094654DB64A7FB419D","title":"上海安亭建筑工程有限公司","lon":"121.16669","lat":"31.30616","category":"263","category_name":"公司","address":"民丰路448号"},{"poiid":"B2094654D46BA0FB439E","title":"名角女士生活馆(墨玉路)","lon":"121.1636","lat":"31.29739","category":"148","category_name":"美容美发店","address":"墨玉路173"}]