[{"poiid":"B2094655D26CA4FC439B","title":"华东医院(总部)","lon":"121.44155","lat":"31.21829","category":"162","category_name":"医院","address":"上海静安区延安西路221号(近华山医院)"},{"poiid":"B2094654D565A0FD499C","title":"华敏翰尊国际","lon":"121.44","lat":"31.2219","category":"46","category_name":"楼宇","address":"延安西路726-728号"},{"poiid":"B2094654DB6AA6F84099","title":"上海美丽园龙都大酒店","lon":"121.43815763806344","lat":"31.21838530295108","category":"214","category_name":"四星级宾馆","address":"上海市静安区延安西路396号(上海戏剧学院对面,圆明讲堂旁)"},{"poiid":"B2094753D76FAAFA449C","title":"上海滩国泰旗舰店","lon":"121.466011","lat":"31.216125","category":"249","category_name":"购物服务","address":"淮海中路868号"},{"poiid":"B209475CD564A7F8439E","title":"上海滩中信泰富店","lon":"121.45602","lat":"31.22851","category":"119","category_name":"商场","address":"\"南京西路1168号中信泰富广场，店铺号221.\r\n\""},{"poiid":"B2094757D06FA3F5429E","title":"一罗华","lon":"121.4405083858","lat":"31.219661097649","category":"95","category_name":"日本料理","address":"静安区延安西路200号2号楼底楼(近乌鲁木齐北路)"},{"poiid":"B2094750D164ABFF4693","title":"Seesaw Coffee","lon":"121.440521","lat":"31.222074","category":"65","category_name":"咖啡厅","address":"静安区愚园路433号静安设计中心内(市西中学对面)"},{"poiid":"B2094750D26DABFE419A","title":"潮辣重庆老火锅","lon":"121.43697","lat":"31.22105","category":"86","category_name":"火锅店","address":"静安区愚园路582号(近镇宁路)"},{"poiid":"B2094757D06FA3FA459E","title":"星巴克(协和店)","lon":"121.43694","lat":"31.21935","category":"260","category_name":"其他","address":"静安区南京西路2068号协和城01C铺(镇宁路口)"},{"poiid":"B2094757D068A7F84599","title":"静安区牙病防治所(愚园路门诊部)","lon":"121.4397","lat":"31.22177","category":"162","category_name":"医院","address":"静安区愚园路507号(近华山路)"},{"poiid":"B2094757D06FAAFD4399","title":"小南国海之源日式温泉(美丽园店)","lon":"121.437987","lat":"31.218408","category":"149","category_name":"洗浴推拿场所","address":"上海静安区延安西路396号美丽园龙都大酒店3-4楼(镇宁路口)  "},{"poiid":"B2094654DB65A3F4479E","title":"华东医院门诊急诊住院部","lon":"121.44035","lat":"31.21891","category":"162","category_name":"医院","address":"延安西路257"},{"poiid":"B2094654D565A7FA4992","title":"申亚金融广场","lon":"121.439","lat":"31.2206","category":"46","category_name":"楼宇","address":"上海市杨浦区邯郸路近淞沪路口"},{"poiid":"B2094750DA6FA6F84192","title":"Wine Connection Bar & Bistro","lon":"121.4412","lat":"31.221744","category":"247","category_name":"餐饮美食","address":"静安区愚园路439号"},{"poiid":"B2094654D565A0F84299","title":"美丽园大厦","lon":"121.43921","lat":"31.21888","category":"46","category_name":"楼宇","address":"城西路188、200号等"},{"poiid":"B2094757DA64A0FF469C","title":"太平洋企业中心","lon":"121.439","lat":"31.2209","category":"252","category_name":"楼宇机构","address":"上海市长宁区延安西路889号"},{"poiid":"B2094654DB6BA7F54999","title":"复旦大学附属华东医院(延安西路)","lon":"121.44165","lat":"31.21905","category":"265","category_name":"知名企业","address":"延安西路221"},{"poiid":"B2094757D16DA4FE479D","title":"上海戏剧学院学生公寓","lon":"121.439758951","lat":"31.2178285935","category":"500","category_name":"未知分类","address":"上海延安西路331号尚熙大厦"},{"poiid":"B2094654D564A4FC4599","title":"裕丰国际大厦","lon":"121.441","lat":"31.2205","category":"46","category_name":"楼宇","address":"黄浦区南京东路311号"},{"poiid":"B2094757D06FA0FD419C","title":"乐购(镇宁店)","lon":"121.43677266","lat":"31.21965569","category":"118","category_name":"超级市场","address":"静安区南京西路2068号协和城B1-B2楼(镇宁路口)"},{"poiid":"B2094750DA6DAAFD469F","title":"上海东方艺术中心","lon":"121.440086","lat":"31.218324","category":"500","category_name":"未知分类","address":null},{"poiid":"B2094654D564A4F4449B","title":"尚熙大厦","lon":"121.43985","lat":"31.21836","category":"46","category_name":"楼宇","address":"朝阳区北三环东路与京顺路交接处路口北侧"},{"poiid":"B2094654D564A4F44393","title":"华东医院门诊部","lon":"121.44006","lat":"31.21881","category":"162","category_name":"医院","address":""},{"poiid":"B2094751D568A4FD429D","title":"上海一号私藏菜（南京西路店）","lon":"121.4392837","lat":"31.2218077","category":"247","category_name":"餐饮美食","address":null},{"poiid":"B2094757D569A3F54892","title":"复旦大学附属华东医院门诊住院部","lon":"121.4399466","lat":"31.21876763","category":"162","category_name":"医院","address":"延安西路321"},{"poiid":"B2094654D565A0FA4793","title":"振鼎鸡(愚园路)","lon":"121.437","lat":"31.22097","category":"68","category_name":"快餐厅","address":"静安区愚园路631号(近镇宁路)"},{"poiid":"B2094655D26FA0FA439C","title":"圆明讲堂(延安西路)","lon":"121.43772","lat":"31.21771","category":"250","category_name":"公园户外","address":"延安西路458"},{"poiid":"B2094750DB65A1F5479F","title":"市三女中","lon":"121.438446","lat":"31.220645","category":"253","category_name":"校园生活","address":"长宁区江苏路愚园路"},{"poiid":"B2094750D769A2FE4493","title":"鸟重居酒屋(南京西路店)","lon":"121.442","lat":"31.2206","category":"95","category_name":"日本料理","address":"静安区南京西路1959号(乌鲁木齐中路)"},{"poiid":"B2094757D069A0F5459F","title":"华东医院东楼","lon":"121.442301586","lat":"31.2185812032","category":"162","category_name":"医院","address":"上海市静安区延安西路221号"},{"poiid":"B2094751D56EA0F84492","title":"清迈府泰国料理(延安西路店)","lon":"121.43834","lat":"31.21885","category":"99","category_name":"泰国／越南菜品餐厅","address":"静安区延安西路358号美丽园大厦内(近镇宁路)"},{"poiid":"B2094757D068AAF54699","title":"美丽园小区","lon":"121.43933","lat":"31.217754","category":"47","category_name":"住宅区","address":"上海南京西路延安西路"},{"poiid":"B2094751D264A0FC469E","title":"一罗华日式炭火烧烤","lon":"121.44163227730712","lat":"31.22025410807329","category":"269","category_name":"烧烤","address":"静安区南京西路2007号"},{"poiid":"B2094654D564A4FC4898","title":"佳都大厦","lon":"121.441","lat":"31.2207","category":"46","category_name":"楼宇","address":"延安西路719号"},{"poiid":"B2094757D469A0FE489C","title":"云水肴","lon":"121.4394467","lat":"31.2218878","category":"91","category_name":"台湾菜","address":"静安区愚园路494-1号(乌鲁木齐北路口)"},{"poiid":"B2094757D169A5FB4792","title":"华东医院急诊","lon":"121.440829586","lat":"31.2196652244","category":"902","category_name":"楼宇机构","address":"上海延安西路"},{"poiid":"B2094757D069AAFC459D","title":"全家便利店(延安西路店)","lon":"121.44085","lat":"31.21886","category":"117","category_name":"便民商店/便利店","address":"上海静安区延安西路238号(南京西路口)"},{"poiid":"B2094757D064A3F5489C","title":"tutu anna(新天地店)","lon":"121.440134529","lat":"31.2196759532","category":"141","category_name":"服装鞋帽皮具店","address":"上海卢湾区马当路245号新天地时尚购物广场B122室(近复兴中路)"},{"poiid":"B2094655D264A7F94292","title":"PaPaYaCoffeeBar","lon":"121.4408","lat":"31.21994","category":"65","category_name":"咖啡厅","address":"南京西路2028弄7"},{"poiid":"B2094757D068A5F4429D","title":"欣安大厦","lon":"121.43734216","lat":"31.218569001","category":"46","category_name":"楼宇","address":"内外联公寓位于静安长宁路江苏路"},{"poiid":"B2094757D165A7FE459C","title":"中福会少年宫小伙伴爱好者活动中心","lon":"121.43930558","lat":"31.218490201","category":"500","category_name":"未知分类","address":"上海延安西路300号静安大厦"},{"poiid":"B2094757D06BA3FF4093","title":"红宝石 愚园路店 Ruby","lon":"121.441391054","lat":"31.222798793","category":"67","category_name":"甜品店","address":"静安区愚园路477号(近乌鲁木齐北路)"},{"poiid":"B2094655D26FA6FB499A","title":"上海凯利商务中心","lon":"121.44074","lat":"31.2201","category":"46","category_name":"楼宇","address":"南京西路2028弄7-23号"},{"poiid":"B2094750DB6CA1F44592","title":"上海国际贵都大酒店","lon":"121.439631","lat":"31.221656","category":"500","category_name":"未知分类","address":null},{"poiid":"B2094654D565A0F8469F","title":"面酒房","lon":"121.43808","lat":"31.22159","category":"95","category_name":"日本料理","address":"静安区愚园路558号(近镇宁路)"},{"poiid":"B2094655D26AA4F4439F","title":"欧梵造型设计南京西路店","lon":"121.43802","lat":"31.21982","category":"247","category_name":"餐饮美食","address":"静安区南京西路2066号乐购B2楼(近镇宁路)"},{"poiid":"B2094753DB6CA5FB4598","title":"粉豆趣","lon":"121.440093","lat":"31.221269","category":"500","category_name":"未知分类","address":"上海市 上海市静安区愚园路278号"},{"poiid":"B2094757D16EA5FE429B","title":"复旦大学附属华东医院七号楼十楼普外科","lon":"121.440515586","lat":"31.2186782051","category":"162","category_name":"医院","address":"上海延安西路221号"},{"poiid":"B2094757D16AA4F5489B","title":"兰博基尼上海城市展厅(旗舰店)","lon":"121.439405586","lat":"31.2184011997","category":"500","category_name":"未知分类","address":"长宁区延安西路327号尚熙大夏1楼(南京西路延安西路)"},{"poiid":"B2094654D565A0F94998","title":"老爷鱼翅 Royal Restaurant","lon":"121.44250109909","lat":"31.219730710459","category":"72","category_name":"广东菜","address":"静安区延安西路200号文艺宾馆(近乌鲁木齐北路)"},{"poiid":"B2094655D26CA4FC439B","title":"华东医院(总部)","lon":"121.44155","lat":"31.21829","category":"162","category_name":"医院","address":"上海静安区延安西路221号(近华山医院)"},{"poiid":"B2094654D565A0FD499C","title":"华敏翰尊国际","lon":"121.44","lat":"31.2219","category":"46","category_name":"楼宇","address":"延安西路726-728号"},{"poiid":"B2094654DB6AA6F84099","title":"上海美丽园龙都大酒店","lon":"121.43815763806344","lat":"31.21838530295108","category":"214","category_name":"四星级宾馆","address":"上海市静安区延安西路396号(上海戏剧学院对面,圆明讲堂旁)"},{"poiid":"B2094753D76FAAFA449C","title":"上海滩国泰旗舰店","lon":"121.466011","lat":"31.216125","category":"249","category_name":"购物服务","address":"淮海中路868号"},{"poiid":"B209475CD564A7F8439E","title":"上海滩中信泰富店","lon":"121.45602","lat":"31.22851","category":"119","category_name":"商场","address":"\"南京西路1168号中信泰富广场，店铺号221.\r\n\""},{"poiid":"B2094757D06FA3F5429E","title":"一罗华","lon":"121.4405083858","lat":"31.219661097649","category":"95","category_name":"日本料理","address":"静安区延安西路200号2号楼底楼(近乌鲁木齐北路)"},{"poiid":"B2094750D164ABFF4693","title":"Seesaw Coffee","lon":"121.440521","lat":"31.222074","category":"65","category_name":"咖啡厅","address":"静安区愚园路433号静安设计中心内(市西中学对面)"},{"poiid":"B2094750D26DABFE419A","title":"潮辣重庆老火锅","lon":"121.43697","lat":"31.22105","category":"86","category_name":"火锅店","address":"静安区愚园路582号(近镇宁路)"},{"poiid":"B2094757D06FA3FA459E","title":"星巴克(协和店)","lon":"121.43694","lat":"31.21935","category":"260","category_name":"其他","address":"静安区南京西路2068号协和城01C铺(镇宁路口)"},{"poiid":"B2094757D068A7F84599","title":"静安区牙病防治所(愚园路门诊部)","lon":"121.4397","lat":"31.22177","category":"162","category_name":"医院","address":"静安区愚园路507号(近华山路)"},{"poiid":"B2094757D06FAAFD4399","title":"小南国海之源日式温泉(美丽园店)","lon":"121.437987","lat":"31.218408","category":"149","category_name":"洗浴推拿场所","address":"上海静安区延安西路396号美丽园龙都大酒店3-4楼(镇宁路口)  "},{"poiid":"B2094654DB65A3F4479E","title":"华东医院门诊急诊住院部","lon":"121.44035","lat":"31.21891","category":"162","category_name":"医院","address":"延安西路257"},{"poiid":"B2094654D565A7FA4992","title":"申亚金融广场","lon":"121.439","lat":"31.2206","category":"46","category_name":"楼宇","address":"上海市杨浦区邯郸路近淞沪路口"},{"poiid":"B2094750DA6FA6F84192","title":"Wine Connection Bar & Bistro","lon":"121.4412","lat":"31.221744","category":"247","category_name":"餐饮美食","address":"静安区愚园路439号"},{"poiid":"B2094654D565A0F84299","title":"美丽园大厦","lon":"121.43921","lat":"31.21888","category":"46","category_name":"楼宇","address":"城西路188、200号等"},{"poiid":"B2094757DA64A0FF469C","title":"太平洋企业中心","lon":"121.439","lat":"31.2209","category":"252","category_name":"楼宇机构","address":"上海市长宁区延安西路889号"},{"poiid":"B2094654DB6BA7F54999","title":"复旦大学附属华东医院(延安西路)","lon":"121.44165","lat":"31.21905","category":"265","category_name":"知名企业","address":"延安西路221"},{"poiid":"B2094757D16DA4FE479D","title":"上海戏剧学院学生公寓","lon":"121.439758951","lat":"31.2178285935","category":"500","category_name":"未知分类","address":"上海延安西路331号尚熙大厦"},{"poiid":"B2094654D564A4FC4599","title":"裕丰国际大厦","lon":"121.441","lat":"31.2205","category":"46","category_name":"楼宇","address":"黄浦区南京东路311号"},{"poiid":"B2094757D06FA0FD419C","title":"乐购(镇宁店)","lon":"121.43677266","lat":"31.21965569","category":"118","category_name":"超级市场","address":"静安区南京西路2068号协和城B1-B2楼(镇宁路口)"},{"poiid":"B2094750DA6DAAFD469F","title":"上海东方艺术中心","lon":"121.440086","lat":"31.218324","category":"500","category_name":"未知分类","address":null},{"poiid":"B2094654D564A4F4449B","title":"尚熙大厦","lon":"121.43985","lat":"31.21836","category":"46","category_name":"楼宇","address":"朝阳区北三环东路与京顺路交接处路口北侧"},{"poiid":"B2094654D564A4F44393","title":"华东医院门诊部","lon":"121.44006","lat":"31.21881","category":"162","category_name":"医院","address":""},{"poiid":"B2094751D568A4FD429D","title":"上海一号私藏菜（南京西路店）","lon":"121.4392837","lat":"31.2218077","category":"247","category_name":"餐饮美食","address":null},{"poiid":"B2094757D569A3F54892","title":"复旦大学附属华东医院门诊住院部","lon":"121.4399466","lat":"31.21876763","category":"162","category_name":"医院","address":"延安西路321"},{"poiid":"B2094654D565A0FA4793","title":"振鼎鸡(愚园路)","lon":"121.437","lat":"31.22097","category":"68","category_name":"快餐厅","address":"静安区愚园路631号(近镇宁路)"},{"poiid":"B2094655D26FA0FA439C","title":"圆明讲堂(延安西路)","lon":"121.43772","lat":"31.21771","category":"250","category_name":"公园户外","address":"延安西路458"},{"poiid":"B2094750DB65A1F5479F","title":"市三女中","lon":"121.438446","lat":"31.220645","category":"253","category_name":"校园生活","address":"长宁区江苏路愚园路"},{"poiid":"B2094750D769A2FE4493","title":"鸟重居酒屋(南京西路店)","lon":"121.442","lat":"31.2206","category":"95","category_name":"日本料理","address":"静安区南京西路1959号(乌鲁木齐中路)"},{"poiid":"B2094757D069A0F5459F","title":"华东医院东楼","lon":"121.442301586","lat":"31.2185812032","category":"162","category_name":"医院","address":"上海市静安区延安西路221号"},{"poiid":"B2094751D56EA0F84492","title":"清迈府泰国料理(延安西路店)","lon":"121.43834","lat":"31.21885","category":"99","category_name":"泰国／越南菜品餐厅","address":"静安区延安西路358号美丽园大厦内(近镇宁路)"},{"poiid":"B2094757D068AAF54699","title":"美丽园小区","lon":"121.43933","lat":"31.217754","category":"47","category_name":"住宅区","address":"上海南京西路延安西路"},{"poiid":"B2094751D264A0FC469E","title":"一罗华日式炭火烧烤","lon":"121.44163227730712","lat":"31.22025410807329","category":"269","category_name":"烧烤","address":"静安区南京西路2007号"},{"poiid":"B2094654D564A4FC4898","title":"佳都大厦","lon":"121.441","lat":"31.2207","category":"46","category_name":"楼宇","address":"延安西路719号"},{"poiid":"B2094757D469A0FE489C","title":"云水肴","lon":"121.4394467","lat":"31.2218878","category":"91","category_name":"台湾菜","address":"静安区愚园路494-1号(乌鲁木齐北路口)"},{"poiid":"B2094757D169A5FB4792","title":"华东医院急诊","lon":"121.440829586","lat":"31.2196652244","category":"902","category_name":"楼宇机构","address":"上海延安西路"},{"poiid":"B2094757D069AAFC459D","title":"全家便利店(延安西路店)","lon":"121.44085","lat":"31.21886","category":"117","category_name":"便民商店/便利店","address":"上海静安区延安西路238号(南京西路口)"},{"poiid":"B2094757D064A3F5489C","title":"tutu anna(新天地店)","lon":"121.440134529","lat":"31.2196759532","category":"141","category_name":"服装鞋帽皮具店","address":"上海卢湾区马当路245号新天地时尚购物广场B122室(近复兴中路)"},{"poiid":"B2094655D264A7F94292","title":"PaPaYaCoffeeBar","lon":"121.4408","lat":"31.21994","category":"65","category_name":"咖啡厅","address":"南京西路2028弄7"},{"poiid":"B2094757D068A5F4429D","title":"欣安大厦","lon":"121.43734216","lat":"31.218569001","category":"46","category_name":"楼宇","address":"内外联公寓位于静安长宁路江苏路"},{"poiid":"B2094757D165A7FE459C","title":"中福会少年宫小伙伴爱好者活动中心","lon":"121.43930558","lat":"31.218490201","category":"500","category_name":"未知分类","address":"上海延安西路300号静安大厦"},{"poiid":"B2094757D06BA3FF4093","title":"红宝石 愚园路店 Ruby","lon":"121.441391054","lat":"31.222798793","category":"67","category_name":"甜品店","address":"静安区愚园路477号(近乌鲁木齐北路)"},{"poiid":"B2094655D26FA6FB499A","title":"上海凯利商务中心","lon":"121.44074","lat":"31.2201","category":"46","category_name":"楼宇","address":"南京西路2028弄7-23号"},{"poiid":"B2094750DB6CA1F44592","title":"上海国际贵都大酒店","lon":"121.439631","lat":"31.221656","category":"500","category_name":"未知分类","address":null},{"poiid":"B2094654D565A0F8469F","title":"面酒房","lon":"121.43808","lat":"31.22159","category":"95","category_name":"日本料理","address":"静安区愚园路558号(近镇宁路)"},{"poiid":"B2094655D26AA4F4439F","title":"欧梵造型设计南京西路店","lon":"121.43802","lat":"31.21982","category":"247","category_name":"餐饮美食","address":"静安区南京西路2066号乐购B2楼(近镇宁路)"},{"poiid":"B2094753DB6CA5FB4598","title":"粉豆趣","lon":"121.440093","lat":"31.221269","category":"500","category_name":"未知分类","address":"上海市 上海市静安区愚园路278号"},{"poiid":"B2094757D16EA5FE429B","title":"复旦大学附属华东医院七号楼十楼普外科","lon":"121.440515586","lat":"31.2186782051","category":"162","category_name":"医院","address":"上海延安西路221号"},{"poiid":"B2094757D16AA4F5489B","title":"兰博基尼上海城市展厅(旗舰店)","lon":"121.439405586","lat":"31.2184011997","category":"500","category_name":"未知分类","address":"长宁区延安西路327号尚熙大夏1楼(南京西路延安西路)"},{"poiid":"B2094654D565A0F94998","title":"老爷鱼翅 Royal Restaurant","lon":"121.44250109909","lat":"31.219730710459","category":"72","category_name":"广东菜","address":"静安区延安西路200号文艺宾馆(近乌鲁木齐北路)"},{"poiid":"B2094655D26CA4FC439B","title":"华东医院(总部)","lon":"121.44155","lat":"31.21829","category":"162","category_name":"医院","address":"上海静安区延安西路221号(近华山医院)"},{"poiid":"B2094654D565A0FD499C","title":"华敏翰尊国际","lon":"121.44","lat":"31.2219","category":"46","category_name":"楼宇","address":"延安西路726-728号"},{"poiid":"B2094654DB6AA6F84099","title":"上海美丽园龙都大酒店","lon":"121.43815763806344","lat":"31.21838530295108","category":"214","category_name":"四星级宾馆","address":"上海市静安区延安西路396号(上海戏剧学院对面,圆明讲堂旁)"},{"poiid":"B2094753D76FAAFA449C","title":"上海滩国泰旗舰店","lon":"121.466011","lat":"31.216125","category":"249","category_name":"购物服务","address":"淮海中路868号"},{"poiid":"B209475CD564A7F8439E","title":"上海滩中信泰富店","lon":"121.45602","lat":"31.22851","category":"119","category_name":"商场","address":"\"南京西路1168号中信泰富广场，店铺号221.\r\n\""},{"poiid":"B2094757D06FA3F5429E","title":"一罗华","lon":"121.4405083858","lat":"31.219661097649","category":"95","category_name":"日本料理","address":"静安区延安西路200号2号楼底楼(近乌鲁木齐北路)"},{"poiid":"B2094750D164ABFF4693","title":"Seesaw Coffee","lon":"121.440521","lat":"31.222074","category":"65","category_name":"咖啡厅","address":"静安区愚园路433号静安设计中心内(市西中学对面)"},{"poiid":"B2094750D26DABFE419A","title":"潮辣重庆老火锅","lon":"121.43697","lat":"31.22105","category":"86","category_name":"火锅店","address":"静安区愚园路582号(近镇宁路)"},{"poiid":"B2094757D06FA3FA459E","title":"星巴克(协和店)","lon":"121.43694","lat":"31.21935","category":"260","category_name":"其他","address":"静安区南京西路2068号协和城01C铺(镇宁路口)"},{"poiid":"B2094757D068A7F84599","title":"静安区牙病防治所(愚园路门诊部)","lon":"121.4397","lat":"31.22177","category":"162","category_name":"医院","address":"静安区愚园路507号(近华山路)"},{"poiid":"B2094757D06FAAFD4399","title":"小南国海之源日式温泉(美丽园店)","lon":"121.437987","lat":"31.218408","category":"149","category_name":"洗浴推拿场所","address":"上海静安区延安西路396号美丽园龙都大酒店3-4楼(镇宁路口)  "},{"poiid":"B2094654DB65A3F4479E","title":"华东医院门诊急诊住院部","lon":"121.44035","lat":"31.21891","category":"162","category_name":"医院","address":"延安西路257"},{"poiid":"B2094654D565A7FA4992","title":"申亚金融广场","lon":"121.439","lat":"31.2206","category":"46","category_name":"楼宇","address":"上海市杨浦区邯郸路近淞沪路口"},{"poiid":"B2094750DA6FA6F84192","title":"Wine Connection Bar & Bistro","lon":"121.4412","lat":"31.221744","category":"247","category_name":"餐饮美食","address":"静安区愚园路439号"},{"poiid":"B2094654D565A0F84299","title":"美丽园大厦","lon":"121.43921","lat":"31.21888","category":"46","category_name":"楼宇","address":"城西路188、200号等"},{"poiid":"B2094757DA64A0FF469C","title":"太平洋企业中心","lon":"121.439","lat":"31.2209","category":"252","category_name":"楼宇机构","address":"上海市长宁区延安西路889号"},{"poiid":"B2094654DB6BA7F54999","title":"复旦大学附属华东医院(延安西路)","lon":"121.44165","lat":"31.21905","category":"265","category_name":"知名企业","address":"延安西路221"},{"poiid":"B2094757D16DA4FE479D","title":"上海戏剧学院学生公寓","lon":"121.439758951","lat":"31.2178285935","category":"500","category_name":"未知分类","address":"上海延安西路331号尚熙大厦"},{"poiid":"B2094654D564A4FC4599","title":"裕丰国际大厦","lon":"121.441","lat":"31.2205","category":"46","category_name":"楼宇","address":"黄浦区南京东路311号"},{"poiid":"B2094757D06FA0FD419C","title":"乐购(镇宁店)","lon":"121.43677266","lat":"31.21965569","category":"118","category_name":"超级市场","address":"静安区南京西路2068号协和城B1-B2楼(镇宁路口)"},{"poiid":"B2094750DA6DAAFD469F","title":"上海东方艺术中心","lon":"121.440086","lat":"31.218324","category":"500","category_name":"未知分类","address":null},{"poiid":"B2094654D564A4F4449B","title":"尚熙大厦","lon":"121.43985","lat":"31.21836","category":"46","category_name":"楼宇","address":"朝阳区北三环东路与京顺路交接处路口北侧"},{"poiid":"B2094654D564A4F44393","title":"华东医院门诊部","lon":"121.44006","lat":"31.21881","category":"162","category_name":"医院","address":""},{"poiid":"B2094751D568A4FD429D","title":"上海一号私藏菜（南京西路店）","lon":"121.4392837","lat":"31.2218077","category":"247","category_name":"餐饮美食","address":null},{"poiid":"B2094757D569A3F54892","title":"复旦大学附属华东医院门诊住院部","lon":"121.4399466","lat":"31.21876763","category":"162","category_name":"医院","address":"延安西路321"},{"poiid":"B2094654D565A0FA4793","title":"振鼎鸡(愚园路)","lon":"121.437","lat":"31.22097","category":"68","category_name":"快餐厅","address":"静安区愚园路631号(近镇宁路)"},{"poiid":"B2094655D26FA0FA439C","title":"圆明讲堂(延安西路)","lon":"121.43772","lat":"31.21771","category":"250","category_name":"公园户外","address":"延安西路458"},{"poiid":"B2094750DB65A1F5479F","title":"市三女中","lon":"121.438446","lat":"31.220645","category":"253","category_name":"校园生活","address":"长宁区江苏路愚园路"},{"poiid":"B2094750D769A2FE4493","title":"鸟重居酒屋(南京西路店)","lon":"121.442","lat":"31.2206","category":"95","category_name":"日本料理","address":"静安区南京西路1959号(乌鲁木齐中路)"},{"poiid":"B2094757D069A0F5459F","title":"华东医院东楼","lon":"121.442301586","lat":"31.2185812032","category":"162","category_name":"医院","address":"上海市静安区延安西路221号"},{"poiid":"B2094751D56EA0F84492","title":"清迈府泰国料理(延安西路店)","lon":"121.43834","lat":"31.21885","category":"99","category_name":"泰国／越南菜品餐厅","address":"静安区延安西路358号美丽园大厦内(近镇宁路)"},{"poiid":"B2094757D068AAF54699","title":"美丽园小区","lon":"121.43933","lat":"31.217754","category":"47","category_name":"住宅区","address":"上海南京西路延安西路"},{"poiid":"B2094751D264A0FC469E","title":"一罗华日式炭火烧烤","lon":"121.44163227730712","lat":"31.22025410807329","category":"269","category_name":"烧烤","address":"静安区南京西路2007号"},{"poiid":"B2094654D564A4FC4898","title":"佳都大厦","lon":"121.441","lat":"31.2207","category":"46","category_name":"楼宇","address":"延安西路719号"},{"poiid":"B2094757D469A0FE489C","title":"云水肴","lon":"121.4394467","lat":"31.2218878","category":"91","category_name":"台湾菜","address":"静安区愚园路494-1号(乌鲁木齐北路口)"},{"poiid":"B2094757D169A5FB4792","title":"华东医院急诊","lon":"121.440829586","lat":"31.2196652244","category":"902","category_name":"楼宇机构","address":"上海延安西路"},{"poiid":"B2094757D069AAFC459D","title":"全家便利店(延安西路店)","lon":"121.44085","lat":"31.21886","category":"117","category_name":"便民商店/便利店","address":"上海静安区延安西路238号(南京西路口)"},{"poiid":"B2094757D064A3F5489C","title":"tutu anna(新天地店)","lon":"121.440134529","lat":"31.2196759532","category":"141","category_name":"服装鞋帽皮具店","address":"上海卢湾区马当路245号新天地时尚购物广场B122室(近复兴中路)"},{"poiid":"B2094655D264A7F94292","title":"PaPaYaCoffeeBar","lon":"121.4408","lat":"31.21994","category":"65","category_name":"咖啡厅","address":"南京西路2028弄7"},{"poiid":"B2094757D068A5F4429D","title":"欣安大厦","lon":"121.43734216","lat":"31.218569001","category":"46","category_name":"楼宇","address":"内外联公寓位于静安长宁路江苏路"},{"poiid":"B2094757D165A7FE459C","title":"中福会少年宫小伙伴爱好者活动中心","lon":"121.43930558","lat":"31.218490201","category":"500","category_name":"未知分类","address":"上海延安西路300号静安大厦"},{"poiid":"B2094757D06BA3FF4093","title":"红宝石 愚园路店 Ruby","lon":"121.441391054","lat":"31.222798793","category":"67","category_name":"甜品店","address":"静安区愚园路477号(近乌鲁木齐北路)"},{"poiid":"B2094655D26FA6FB499A","title":"上海凯利商务中心","lon":"121.44074","lat":"31.2201","category":"46","category_name":"楼宇","address":"南京西路2028弄7-23号"},{"poiid":"B2094750DB6CA1F44592","title":"上海国际贵都大酒店","lon":"121.439631","lat":"31.221656","category":"500","category_name":"未知分类","address":null},{"poiid":"B2094654D565A0F8469F","title":"面酒房","lon":"121.43808","lat":"31.22159","category":"95","category_name":"日本料理","address":"静安区愚园路558号(近镇宁路)"},{"poiid":"B2094655D26AA4F4439F","title":"欧梵造型设计南京西路店","lon":"121.43802","lat":"31.21982","category":"247","category_name":"餐饮美食","address":"静安区南京西路2066号乐购B2楼(近镇宁路)"},{"poiid":"B2094753DB6CA5FB4598","title":"粉豆趣","lon":"121.440093","lat":"31.221269","category":"500","category_name":"未知分类","address":"上海市 上海市静安区愚园路278号"},{"poiid":"B2094757D16EA5FE429B","title":"复旦大学附属华东医院七号楼十楼普外科","lon":"121.440515586","lat":"31.2186782051","category":"162","category_name":"医院","address":"上海延安西路221号"},{"poiid":"B2094757D16AA4F5489B","title":"兰博基尼上海城市展厅(旗舰店)","lon":"121.439405586","lat":"31.2184011997","category":"500","category_name":"未知分类","address":"长宁区延安西路327号尚熙大夏1楼(南京西路延安西路)"},{"poiid":"B2094654D565A0F94998","title":"老爷鱼翅 Royal Restaurant","lon":"121.44250109909","lat":"31.219730710459","category":"72","category_name":"广东菜","address":"静安区延安西路200号文艺宾馆(近乌鲁木齐北路)"},{"poiid":"B2094655D26CA4FC439B","title":"华东医院(总部)","lon":"121.44155","lat":"31.21829","category":"162","category_name":"医院","address":"上海静安区延安西路221号(近华山医院)"},{"poiid":"B2094654D565A0FD499C","title":"华敏翰尊国际","lon":"121.44","lat":"31.2219","category":"46","category_name":"楼宇","address":"延安西路726-728号"},{"poiid":"B2094654DB6AA6F84099","title":"上海美丽园龙都大酒店","lon":"121.43815763806344","lat":"31.21838530295108","category":"214","category_name":"四星级宾馆","address":"上海市静安区延安西路396号(上海戏剧学院对面,圆明讲堂旁)"},{"poiid":"B2094753D76FAAFA449C","title":"上海滩国泰旗舰店","lon":"121.466011","lat":"31.216125","category":"249","category_name":"购物服务","address":"淮海中路868号"},{"poiid":"B209475CD564A7F8439E","title":"上海滩中信泰富店","lon":"121.45602","lat":"31.22851","category":"119","category_name":"商场","address":"\"南京西路1168号中信泰富广场，店铺号221.\r\n\""},{"poiid":"B2094757D06FA3F5429E","title":"一罗华","lon":"121.4405083858","lat":"31.219661097649","category":"95","category_name":"日本料理","address":"静安区延安西路200号2号楼底楼(近乌鲁木齐北路)"},{"poiid":"B2094750D164ABFF4693","title":"Seesaw Coffee","lon":"121.440521","lat":"31.222074","category":"65","category_name":"咖啡厅","address":"静安区愚园路433号静安设计中心内(市西中学对面)"},{"poiid":"B2094750D26DABFE419A","title":"潮辣重庆老火锅","lon":"121.43697","lat":"31.22105","category":"86","category_name":"火锅店","address":"静安区愚园路582号(近镇宁路)"},{"poiid":"B2094757D06FA3FA459E","title":"星巴克(协和店)","lon":"121.43694","lat":"31.21935","category":"260","category_name":"其他","address":"静安区南京西路2068号协和城01C铺(镇宁路口)"},{"poiid":"B2094757D068A7F84599","title":"静安区牙病防治所(愚园路门诊部)","lon":"121.4397","lat":"31.22177","category":"162","category_name":"医院","address":"静安区愚园路507号(近华山路)"},{"poiid":"B2094757D06FAAFD4399","title":"小南国海之源日式温泉(美丽园店)","lon":"121.437987","lat":"31.218408","category":"149","category_name":"洗浴推拿场所","address":"上海静安区延安西路396号美丽园龙都大酒店3-4楼(镇宁路口)  "},{"poiid":"B2094654DB65A3F4479E","title":"华东医院门诊急诊住院部","lon":"121.44035","lat":"31.21891","category":"162","category_name":"医院","address":"延安西路257"},{"poiid":"B2094654D565A7FA4992","title":"申亚金融广场","lon":"121.439","lat":"31.2206","category":"46","category_name":"楼宇","address":"上海市杨浦区邯郸路近淞沪路口"},{"poiid":"B2094750DA6FA6F84192","title":"Wine Connection Bar & Bistro","lon":"121.4412","lat":"31.221744","category":"247","category_name":"餐饮美食","address":"静安区愚园路439号"},{"poiid":"B2094654D565A0F84299","title":"美丽园大厦","lon":"121.43921","lat":"31.21888","category":"46","category_name":"楼宇","address":"城西路188、200号等"},{"poiid":"B2094757DA64A0FF469C","title":"太平洋企业中心","lon":"121.439","lat":"31.2209","category":"252","category_name":"楼宇机构","address":"上海市长宁区延安西路889号"},{"poiid":"B2094654DB6BA7F54999","title":"复旦大学附属华东医院(延安西路)","lon":"121.44165","lat":"31.21905","category":"265","category_name":"知名企业","address":"延安西路221"},{"poiid":"B2094757D16DA4FE479D","title":"上海戏剧学院学生公寓","lon":"121.439758951","lat":"31.2178285935","category":"500","category_name":"未知分类","address":"上海延安西路331号尚熙大厦"},{"poiid":"B2094654D564A4FC4599","title":"裕丰国际大厦","lon":"121.441","lat":"31.2205","category":"46","category_name":"楼宇","address":"黄浦区南京东路311号"},{"poiid":"B2094757D06FA0FD419C","title":"乐购(镇宁店)","lon":"121.43677266","lat":"31.21965569","category":"118","category_name":"超级市场","address":"静安区南京西路2068号协和城B1-B2楼(镇宁路口)"},{"poiid":"B2094750DA6DAAFD469F","title":"上海东方艺术中心","lon":"121.440086","lat":"31.218324","category":"500","category_name":"未知分类","address":null},{"poiid":"B2094654D564A4F4449B","title":"尚熙大厦","lon":"121.43985","lat":"31.21836","category":"46","category_name":"楼宇","address":"朝阳区北三环东路与京顺路交接处路口北侧"},{"poiid":"B2094654D564A4F44393","title":"华东医院门诊部","lon":"121.44006","lat":"31.21881","category":"162","category_name":"医院","address":""},{"poiid":"B2094751D568A4FD429D","title":"上海一号私藏菜（南京西路店）","lon":"121.4392837","lat":"31.2218077","category":"247","category_name":"餐饮美食","address":null},{"poiid":"B2094757D569A3F54892","title":"复旦大学附属华东医院门诊住院部","lon":"121.4399466","lat":"31.21876763","category":"162","category_name":"医院","address":"延安西路321"},{"poiid":"B2094654D565A0FA4793","title":"振鼎鸡(愚园路)","lon":"121.437","lat":"31.22097","category":"68","category_name":"快餐厅","address":"静安区愚园路631号(近镇宁路)"},{"poiid":"B2094655D26FA0FA439C","title":"圆明讲堂(延安西路)","lon":"121.43772","lat":"31.21771","category":"250","category_name":"公园户外","address":"延安西路458"},{"poiid":"B2094750DB65A1F5479F","title":"市三女中","lon":"121.438446","lat":"31.220645","category":"253","category_name":"校园生活","address":"长宁区江苏路愚园路"},{"poiid":"B2094750D769A2FE4493","title":"鸟重居酒屋(南京西路店)","lon":"121.442","lat":"31.2206","category":"95","category_name":"日本料理","address":"静安区南京西路1959号(乌鲁木齐中路)"},{"poiid":"B2094757D069A0F5459F","title":"华东医院东楼","lon":"121.442301586","lat":"31.2185812032","category":"162","category_name":"医院","address":"上海市静安区延安西路221号"},{"poiid":"B2094751D56EA0F84492","title":"清迈府泰国料理(延安西路店)","lon":"121.43834","lat":"31.21885","category":"99","category_name":"泰国／越南菜品餐厅","address":"静安区延安西路358号美丽园大厦内(近镇宁路)"},{"poiid":"B2094757D068AAF54699","title":"美丽园小区","lon":"121.43933","lat":"31.217754","category":"47","category_name":"住宅区","address":"上海南京西路延安西路"},{"poiid":"B2094751D264A0FC469E","title":"一罗华日式炭火烧烤","lon":"121.44163227730712","lat":"31.22025410807329","category":"269","category_name":"烧烤","address":"静安区南京西路2007号"},{"poiid":"B2094654D564A4FC4898","title":"佳都大厦","lon":"121.441","lat":"31.2207","category":"46","category_name":"楼宇","address":"延安西路719号"},{"poiid":"B2094757D469A0FE489C","title":"云水肴","lon":"121.4394467","lat":"31.2218878","category":"91","category_name":"台湾菜","address":"静安区愚园路494-1号(乌鲁木齐北路口)"},{"poiid":"B2094757D169A5FB4792","title":"华东医院急诊","lon":"121.440829586","lat":"31.2196652244","category":"902","category_name":"楼宇机构","address":"上海延安西路"},{"poiid":"B2094757D069AAFC459D","title":"全家便利店(延安西路店)","lon":"121.44085","lat":"31.21886","category":"117","category_name":"便民商店/便利店","address":"上海静安区延安西路238号(南京西路口)"},{"poiid":"B2094757D064A3F5489C","title":"tutu anna(新天地店)","lon":"121.440134529","lat":"31.2196759532","category":"141","category_name":"服装鞋帽皮具店","address":"上海卢湾区马当路245号新天地时尚购物广场B122室(近复兴中路)"},{"poiid":"B2094655D264A7F94292","title":"PaPaYaCoffeeBar","lon":"121.4408","lat":"31.21994","category":"65","category_name":"咖啡厅","address":"南京西路2028弄7"},{"poiid":"B2094757D068A5F4429D","title":"欣安大厦","lon":"121.43734216","lat":"31.218569001","category":"46","category_name":"楼宇","address":"内外联公寓位于静安长宁路江苏路"},{"poiid":"B2094757D165A7FE459C","title":"中福会少年宫小伙伴爱好者活动中心","lon":"121.43930558","lat":"31.218490201","category":"500","category_name":"未知分类","address":"上海延安西路300号静安大厦"},{"poiid":"B2094757D06BA3FF4093","title":"红宝石 愚园路店 Ruby","lon":"121.441391054","lat":"31.222798793","category":"67","category_name":"甜品店","address":"静安区愚园路477号(近乌鲁木齐北路)"},{"poiid":"B2094655D26FA6FB499A","title":"上海凯利商务中心","lon":"121.44074","lat":"31.2201","category":"46","category_name":"楼宇","address":"南京西路2028弄7-23号"},{"poiid":"B2094750DB6CA1F44592","title":"上海国际贵都大酒店","lon":"121.439631","lat":"31.221656","category":"500","category_name":"未知分类","address":null},{"poiid":"B2094654D565A0F8469F","title":"面酒房","lon":"121.43808","lat":"31.22159","category":"95","category_name":"日本料理","address":"静安区愚园路558号(近镇宁路)"},{"poiid":"B2094655D26AA4F4439F","title":"欧梵造型设计南京西路店","lon":"121.43802","lat":"31.21982","category":"247","category_name":"餐饮美食","address":"静安区南京西路2066号乐购B2楼(近镇宁路)"},{"poiid":"B2094753DB6CA5FB4598","title":"粉豆趣","lon":"121.440093","lat":"31.221269","category":"500","category_name":"未知分类","address":"上海市 上海市静安区愚园路278号"},{"poiid":"B2094757D16EA5FE429B","title":"复旦大学附属华东医院七号楼十楼普外科","lon":"121.440515586","lat":"31.2186782051","category":"162","category_name":"医院","address":"上海延安西路221号"},{"poiid":"B2094757D16AA4F5489B","title":"兰博基尼上海城市展厅(旗舰店)","lon":"121.439405586","lat":"31.2184011997","category":"500","category_name":"未知分类","address":"长宁区延安西路327号尚熙大夏1楼(南京西路延安西路)"},{"poiid":"B2094654D565A0F94998","title":"老爷鱼翅 Royal Restaurant","lon":"121.44250109909","lat":"31.219730710459","category":"72","category_name":"广东菜","address":"静安区延安西路200号文艺宾馆(近乌鲁木齐北路)"}]