[{"poiid":"B2094757D16AA7FF4899","title":"上海喜来春农业观光旅游区","lon":"121.73930218","lat":"31.219346543","category":"500","category_name":"未知分类","address":"上海市浦东新区合庆镇三甲路537号"},{"poiid":"B2094757D068A3F9479F","title":"远东大道地铁站","lon":"121.75617378","lat":"31.199824513","category":"36","category_name":"地铁站","address":"上海轨道交通 二号线 轨交远东大道站 2"},{"poiid":"B2094757D068A7FA499B","title":"蔡路","lon":"121.727589","lat":"31.21622","category":"500","category_name":"未知分类","address":"上海东川公路"},{"poiid":"B2094655D36CA0F94993","title":"建光","lon":"121.74253","lat":"31.21213","category":"38","category_name":"公交车站","address":""},{"poiid":"B2094654DA6AAAFA4492","title":"燕宇生态林","lon":"121.74273","lat":"31.21526","category":"248","category_name":"生活娱乐","address":""},{"poiid":"B2094654DB69A6F9459D","title":"裕隆商务大厦","lon":"121.7473","lat":"31.20707","category":"46","category_name":"楼宇","address":"越秀区环市东路362-366号"},{"poiid":"B2094654DA6BA1FA419F","title":"上海一尘大酒店","lon":"121.7629","lat":"31.21919","category":"88","category_name":"海鲜酒楼","address":"上海市浦东新区三甲港人民塘路4008号(近华夏东路最东端三甲港海滨乐园"},{"poiid":"B2094655D36CA5FD4292","title":"春雷村","lon":"121.74336","lat":"31.22077","category":"38","category_name":"公交车站","address":"上海,上海市,春雷村5队郭家宅"},{"poiid":"B2094655D264ABF94199","title":"易捷便利店","lon":"121.74469","lat":"31.20782","category":"117","category_name":"便民商店/便利店","address":"合庆镇"},{"poiid":"B2094757D66EA0F54193","title":"上海勤昌烟草机械配件厂","lon":"121.738917085","lat":"31.2160617711","category":"500","category_name":"未知分类","address":"上海市浦东新区合庆镇三甲路516号"},{"poiid":"B2094655D36DA6FF419B","title":"远东大道","lon":"121.75613","lat":"31.19979","category":"38","category_name":"公交车站","address":""},{"poiid":"B2094757D66BA2F54298","title":"金尊农庄","lon":"121.7315776","lat":"31.2073225","category":"76","category_name":"上海菜","address":"浦东新区华夏东路4176号(近川南奉公路)"},{"poiid":"B2094757D06BAAFF479F","title":"小营房","lon":"121.729655","lat":"31.206974","category":"500","category_name":"未知分类","address":"上海浦东新区华夏东路川南奉公路"},{"poiid":"B2094654DA6AAAFA479E","title":"远东小区","lon":"121.73181","lat":"31.213169","category":"47","category_name":"住宅区","address":"塘东街178弄"},{"poiid":"B2094757D66DAAF5419E","title":"吉祥馄饨华夏店","lon":"121.739629","lat":"31.209339","category":"500","category_name":"未知分类","address":"上海华夏二路98号"},{"poiid":"B2094655D36CA4FD429D","title":"白龙港","lon":"121.74451","lat":"31.23305","category":"38","category_name":"公交车站","address":""},{"poiid":"B2094753D26EA6F9409D","title":"浦东机场高架路","lon":"121.749619","lat":"31.207611","category":"500","category_name":"未知分类","address":"上海市 远东大道"},{"poiid":"B2094655D36CA7FB409F","title":"海塘","lon":"121.75539","lat":"31.21454","category":"38","category_name":"公交车站","address":""},{"poiid":"B2094655D36DA2F84199","title":"海塘桥","lon":"121.75462","lat":"31.215","category":"250","category_name":"公园户外","address":""},{"poiid":"B2094655D265A5F94193","title":"G1501华夏东路收费站","lon":"121.75156","lat":"31.20611","category":"267","category_name":"收费站","address":""},{"poiid":"B2094757D568A7F54398","title":"张记食府","lon":"121.734295","lat":"31.202908","category":"257","category_name":"中餐厅","address":"浦东新区川南奉公路553弄1号(东川公路华洲路)"},{"poiid":"B2094655D36DA7FF459C","title":"直属村","lon":"121.75214","lat":"31.22117","category":"38","category_name":"公交车站","address":""},{"poiid":"B2094654DA6AAAF9479E","title":"世纪华联超市直属分店No.1246","lon":"121.75146","lat":"31.22148","category":"118","category_name":"超级市场","address":"合庆镇"},{"poiid":"B2094654DA6AAAF94899","title":"浦东合庆新苗小学","lon":"121.73797","lat":"31.22356","category":"56","category_name":"小学","address":"浦东新区合庆镇友谊村（远东大道到联星路再过100米左右）"},{"poiid":"B2094654DA6BA3FD459F","title":"国妹妹冷饮站","lon":"121.73068","lat":"31.21375","category":"113","category_name":"冷饮店","address":""},{"poiid":"B2094654DA6AAAF9479F","title":"上海河口海岸科学研究中心","lon":"121.74759","lat":"31.22142","category":"191","category_name":"科研机构","address":"星升路1045号"},{"poiid":"B2094655D36CA5FB4598","title":"蔡路镇","lon":"121.7308","lat":"31.20873","category":"38","category_name":"公交车站","address":""},{"poiid":"B2094655D36CA0F54698","title":"华洲路新营村","lon":"121.74758","lat":"31.1981","category":"38","category_name":"公交车站","address":""},{"poiid":"B2094654DB65A0FA4093","title":"合庆镇蔡路逸夫小学","lon":"121.72949","lat":"31.21251","category":"56","category_name":"小学","address":"浦东新区蔡路镇东川公路7947弄28号"},{"poiid":"B2094654DA6AA4FC409F","title":"上海浦东新区蔡路交管站","lon":"121.73135","lat":"31.2095","category":"250","category_name":"公园户外","address":"东川公路2队"},{"poiid":"B2094654DA6AAAFC439C","title":"上海森林特种钢门有限公司中型钢门研究所","lon":"121.74658","lat":"31.20402","category":"263","category_name":"公司","address":""},{"poiid":"B2094655D264A6F94099","title":"花木人家休闲农庄","lon":"121.72731","lat":"31.20757","category":"248","category_name":"生活娱乐","address":"华夏东路3548号"},{"poiid":"B2094654DA6AAAFC449A","title":"上海绿腾装饰材料有限公司","lon":"121.74599","lat":"31.20393","category":"263","category_name":"公司","address":"森塘路88"},{"poiid":"B2094654DA6AA5F5449B","title":"上海川沙欣欣商场","lon":"121.72915","lat":"31.21697","category":"119","category_name":"商场","address":"东川公路3号"},{"poiid":"B2094654DA6BA3FD459B","title":"蔡路菜市场","lon":"121.73043","lat":"31.21373","category":"117","category_name":"便民商店/便利店","address":""},{"poiid":"B2094757D66CA5FD499B","title":"百福东方国际物流责任有限公司","lon":"121.757926392","lat":"31.20817975","category":"500","category_name":"未知分类","address":"上海华夏东路4689号"},{"poiid":"B2094654DA6AAAFA4792","title":"上海市蔡路中学","lon":"121.72817","lat":"31.21432","category":"55","category_name":"中学","address":"浦东新区合庆镇蔡路东川公路7851号(庆利路庆荣路)"},{"poiid":"B2094654DA6AAAFA469C","title":"金晨不锈钢上海直销处","lon":"121.73129","lat":"31.20975","category":"123","category_name":"家具建材市场","address":""},{"poiid":"B2094752DA6DA1FF469E","title":"川沙地铁站","lon":"121.739023","lat":"31.200008","category":"36","category_name":"地铁站","address":null},{"poiid":"B2094654DA6AA4FE4292","title":"上海色线浦东生产基地","lon":"121.73852","lat":"31.22569","category":"45","category_name":"产业园区","address":""},{"poiid":"B2094655D26EA1F5429E","title":"上海市蔡路中学体育馆","lon":"121.72841","lat":"31.21435","category":"224","category_name":"综合体育馆","address":"东川公路7851"},{"poiid":"B2094654DA6AAAF9489E","title":"浦东新区合庆镇友谊村社区卫生服务站","lon":"121.73524","lat":"31.22537","category":"162","category_name":"医院","address":""},{"poiid":"B2094655D36DA2F8429B","title":"G1501合庆服务区","lon":"121.73424","lat":"31.22412","category":"250","category_name":"公园户外","address":""},{"poiid":"B2094655D26EA0FC4798","title":"上海市蔡路中学体育馆(西门)","lon":"121.72817","lat":"31.21428","category":"224","category_name":"综合体育馆","address":"东川公路7851"},{"poiid":"B2094654DA6AA5F4499C","title":"蔡路派出所","lon":"121.72882","lat":"31.21175","category":"609","category_name":"警察局","address":"浦东新区东川公路7779号"},{"poiid":"B2094654DA6AA4FC429C","title":"名流大酒店","lon":"121.72831","lat":"31.214","category":"250","category_name":"公园户外","address":"东川公路1746号"},{"poiid":"B2094654DA6BA3FD4799","title":"中国农业银行蔡路分理处","lon":"121.72853","lat":"31.21391","category":"150","category_name":"银行","address":"浦东新区蔡路镇塘东街3号(东川公路跃东路)"},{"poiid":"B2094655D36DA2F8409C","title":"沙脚河桥","lon":"121.75977","lat":"31.20908","category":"250","category_name":"公园户外","address":""},{"poiid":"B2094655D36CA0F54692","title":"华洲路川南奉公路","lon":"121.73555","lat":"31.19574","category":"38","category_name":"公交车站","address":""},{"poiid":"B2094654DB69ABFE4599","title":"农工商超市(蔡路店)","lon":"121.72671","lat":"31.21987","category":"118","category_name":"超级市场","address":"浦东新区蔡路镇东川公路7858号"},{"poiid":"B2094757D16AA7FF4899","title":"上海喜来春农业观光旅游区","lon":"121.73930218","lat":"31.219346543","category":"500","category_name":"未知分类","address":"上海市浦东新区合庆镇三甲路537号"},{"poiid":"B2094757D068A3F9479F","title":"远东大道地铁站","lon":"121.75617378","lat":"31.199824513","category":"36","category_name":"地铁站","address":"上海轨道交通 二号线 轨交远东大道站 2"},{"poiid":"B2094757D068A7FA499B","title":"蔡路","lon":"121.727589","lat":"31.21622","category":"500","category_name":"未知分类","address":"上海东川公路"},{"poiid":"B2094655D36CA0F94993","title":"建光","lon":"121.74253","lat":"31.21213","category":"38","category_name":"公交车站","address":""},{"poiid":"B2094654DA6AAAFA4492","title":"燕宇生态林","lon":"121.74273","lat":"31.21526","category":"248","category_name":"生活娱乐","address":""},{"poiid":"B2094654DB69A6F9459D","title":"裕隆商务大厦","lon":"121.7473","lat":"31.20707","category":"46","category_name":"楼宇","address":"越秀区环市东路362-366号"},{"poiid":"B2094654DA6BA1FA419F","title":"上海一尘大酒店","lon":"121.7629","lat":"31.21919","category":"88","category_name":"海鲜酒楼","address":"上海市浦东新区三甲港人民塘路4008号(近华夏东路最东端三甲港海滨乐园"},{"poiid":"B2094655D36CA5FD4292","title":"春雷村","lon":"121.74336","lat":"31.22077","category":"38","category_name":"公交车站","address":"上海,上海市,春雷村5队郭家宅"},{"poiid":"B2094655D264ABF94199","title":"易捷便利店","lon":"121.74469","lat":"31.20782","category":"117","category_name":"便民商店/便利店","address":"合庆镇"},{"poiid":"B2094757D66EA0F54193","title":"上海勤昌烟草机械配件厂","lon":"121.738917085","lat":"31.2160617711","category":"500","category_name":"未知分类","address":"上海市浦东新区合庆镇三甲路516号"},{"poiid":"B2094655D36DA6FF419B","title":"远东大道","lon":"121.75613","lat":"31.19979","category":"38","category_name":"公交车站","address":""},{"poiid":"B2094757D66BA2F54298","title":"金尊农庄","lon":"121.7315776","lat":"31.2073225","category":"76","category_name":"上海菜","address":"浦东新区华夏东路4176号(近川南奉公路)"},{"poiid":"B2094757D06BAAFF479F","title":"小营房","lon":"121.729655","lat":"31.206974","category":"500","category_name":"未知分类","address":"上海浦东新区华夏东路川南奉公路"},{"poiid":"B2094654DA6AAAFA479E","title":"远东小区","lon":"121.73181","lat":"31.213169","category":"47","category_name":"住宅区","address":"塘东街178弄"},{"poiid":"B2094757D66DAAF5419E","title":"吉祥馄饨华夏店","lon":"121.739629","lat":"31.209339","category":"500","category_name":"未知分类","address":"上海华夏二路98号"},{"poiid":"B2094655D36CA4FD429D","title":"白龙港","lon":"121.74451","lat":"31.23305","category":"38","category_name":"公交车站","address":""},{"poiid":"B2094753D26EA6F9409D","title":"浦东机场高架路","lon":"121.749619","lat":"31.207611","category":"500","category_name":"未知分类","address":"上海市 远东大道"},{"poiid":"B2094655D36CA7FB409F","title":"海塘","lon":"121.75539","lat":"31.21454","category":"38","category_name":"公交车站","address":""},{"poiid":"B2094655D36DA2F84199","title":"海塘桥","lon":"121.75462","lat":"31.215","category":"250","category_name":"公园户外","address":""},{"poiid":"B2094655D265A5F94193","title":"G1501华夏东路收费站","lon":"121.75156","lat":"31.20611","category":"267","category_name":"收费站","address":""},{"poiid":"B2094757D568A7F54398","title":"张记食府","lon":"121.734295","lat":"31.202908","category":"257","category_name":"中餐厅","address":"浦东新区川南奉公路553弄1号(东川公路华洲路)"},{"poiid":"B2094655D36DA7FF459C","title":"直属村","lon":"121.75214","lat":"31.22117","category":"38","category_name":"公交车站","address":""},{"poiid":"B2094654DA6AAAF9479E","title":"世纪华联超市直属分店No.1246","lon":"121.75146","lat":"31.22148","category":"118","category_name":"超级市场","address":"合庆镇"},{"poiid":"B2094654DA6AAAF94899","title":"浦东合庆新苗小学","lon":"121.73797","lat":"31.22356","category":"56","category_name":"小学","address":"浦东新区合庆镇友谊村（远东大道到联星路再过100米左右）"},{"poiid":"B2094654DA6BA3FD459F","title":"国妹妹冷饮站","lon":"121.73068","lat":"31.21375","category":"113","category_name":"冷饮店","address":""},{"poiid":"B2094654DA6AAAF9479F","title":"上海河口海岸科学研究中心","lon":"121.74759","lat":"31.22142","category":"191","category_name":"科研机构","address":"星升路1045号"},{"poiid":"B2094655D36CA5FB4598","title":"蔡路镇","lon":"121.7308","lat":"31.20873","category":"38","category_name":"公交车站","address":""},{"poiid":"B2094655D36CA0F54698","title":"华洲路新营村","lon":"121.74758","lat":"31.1981","category":"38","category_name":"公交车站","address":""},{"poiid":"B2094654DB65A0FA4093","title":"合庆镇蔡路逸夫小学","lon":"121.72949","lat":"31.21251","category":"56","category_name":"小学","address":"浦东新区蔡路镇东川公路7947弄28号"},{"poiid":"B2094654DA6AA4FC409F","title":"上海浦东新区蔡路交管站","lon":"121.73135","lat":"31.2095","category":"250","category_name":"公园户外","address":"东川公路2队"},{"poiid":"B2094654DA6AAAFC439C","title":"上海森林特种钢门有限公司中型钢门研究所","lon":"121.74658","lat":"31.20402","category":"263","category_name":"公司","address":""},{"poiid":"B2094655D264A6F94099","title":"花木人家休闲农庄","lon":"121.72731","lat":"31.20757","category":"248","category_name":"生活娱乐","address":"华夏东路3548号"},{"poiid":"B2094654DA6AAAFC449A","title":"上海绿腾装饰材料有限公司","lon":"121.74599","lat":"31.20393","category":"263","category_name":"公司","address":"森塘路88"},{"poiid":"B2094654DA6AA5F5449B","title":"上海川沙欣欣商场","lon":"121.72915","lat":"31.21697","category":"119","category_name":"商场","address":"东川公路3号"},{"poiid":"B2094654DA6BA3FD459B","title":"蔡路菜市场","lon":"121.73043","lat":"31.21373","category":"117","category_name":"便民商店/便利店","address":""},{"poiid":"B2094757D66CA5FD499B","title":"百福东方国际物流责任有限公司","lon":"121.757926392","lat":"31.20817975","category":"500","category_name":"未知分类","address":"上海华夏东路4689号"},{"poiid":"B2094654DA6AAAFA4792","title":"上海市蔡路中学","lon":"121.72817","lat":"31.21432","category":"55","category_name":"中学","address":"浦东新区合庆镇蔡路东川公路7851号(庆利路庆荣路)"},{"poiid":"B2094654DA6AAAFA469C","title":"金晨不锈钢上海直销处","lon":"121.73129","lat":"31.20975","category":"123","category_name":"家具建材市场","address":""},{"poiid":"B2094752DA6DA1FF469E","title":"川沙地铁站","lon":"121.739023","lat":"31.200008","category":"36","category_name":"地铁站","address":null},{"poiid":"B2094654DA6AA4FE4292","title":"上海色线浦东生产基地","lon":"121.73852","lat":"31.22569","category":"45","category_name":"产业园区","address":""},{"poiid":"B2094655D26EA1F5429E","title":"上海市蔡路中学体育馆","lon":"121.72841","lat":"31.21435","category":"224","category_name":"综合体育馆","address":"东川公路7851"},{"poiid":"B2094654DA6AAAF9489E","title":"浦东新区合庆镇友谊村社区卫生服务站","lon":"121.73524","lat":"31.22537","category":"162","category_name":"医院","address":""},{"poiid":"B2094655D36DA2F8429B","title":"G1501合庆服务区","lon":"121.73424","lat":"31.22412","category":"250","category_name":"公园户外","address":""},{"poiid":"B2094655D26EA0FC4798","title":"上海市蔡路中学体育馆(西门)","lon":"121.72817","lat":"31.21428","category":"224","category_name":"综合体育馆","address":"东川公路7851"},{"poiid":"B2094654DA6AA5F4499C","title":"蔡路派出所","lon":"121.72882","lat":"31.21175","category":"609","category_name":"警察局","address":"浦东新区东川公路7779号"},{"poiid":"B2094654DA6AA4FC429C","title":"名流大酒店","lon":"121.72831","lat":"31.214","category":"250","category_name":"公园户外","address":"东川公路1746号"},{"poiid":"B2094654DA6BA3FD4799","title":"中国农业银行蔡路分理处","lon":"121.72853","lat":"31.21391","category":"150","category_name":"银行","address":"浦东新区蔡路镇塘东街3号(东川公路跃东路)"},{"poiid":"B2094655D36DA2F8409C","title":"沙脚河桥","lon":"121.75977","lat":"31.20908","category":"250","category_name":"公园户外","address":""},{"poiid":"B2094655D36CA0F54692","title":"华洲路川南奉公路","lon":"121.73555","lat":"31.19574","category":"38","category_name":"公交车站","address":""},{"poiid":"B2094654DB69ABFE4599","title":"农工商超市(蔡路店)","lon":"121.72671","lat":"31.21987","category":"118","category_name":"超级市场","address":"浦东新区蔡路镇东川公路7858号"}]