[{"poiid":"B2094757D06FA7FA479B","title":"复旦大学上海医学院第一教学楼","lon":"121.45016419","lat":"31.196352118","category":"500","category_name":"未知分类","address":"上海东安路130号"},{"poiid":"B2094757D06FA6F8439F","title":"复旦大学枫林校区第二教学楼","lon":"121.448604396","lat":"31.1959811913","category":"253","category_name":"校园生活","address":"上海市徐汇区东安路130号"},{"poiid":"B2094654DA6DAAFA459D","title":"家乐福(徐汇店)","lon":"121.45114","lat":"31.1941","category":"118","category_name":"超级市场","address":"徐汇区斜土路1995号(近东安路)"},{"poiid":"B2094753D76FAAFA449C","title":"上海滩国泰旗舰店","lon":"121.466011","lat":"31.216125","category":"249","category_name":"购物服务","address":"淮海中路868号"},{"poiid":"B2094757D06FA1F9479F","title":"新利查西餐馆(东安店)","lon":"121.45135","lat":"31.19333","category":"94","category_name":"西餐厅","address":"徐汇区斜土路2068号(近东安路)"},{"poiid":"B2094757D06FA3FF429E","title":"麦当劳(斜土路店)","lon":"121.45187","lat":"31.194","category":"68","category_name":"快餐厅","address":"徐汇区斜土路1969号(近东安路)"},{"poiid":"B2094757D06FA5FD4092","title":"天天周末(斜土路店)","lon":"121.44957","lat":"31.19228","category":"173","category_name":"游戏厅","address":"徐汇区斜土路2200弄8号(近东安路)"},{"poiid":"B2094757D06FAAFC4192","title":"徐汇区房地产交易中心","lon":"121.45081329","lat":"31.19335556","category":"252","category_name":"楼宇机构","address":"上海斜土路2088号"},{"poiid":"B2094757D06FA0FE4098","title":"腾飞大厦","lon":"121.449","lat":"31.1946","category":"46","category_name":"楼宇","address":"行宫位于沈河北站一路41号"},{"poiid":"B2094757D068A5F9499D","title":"复旦大学医科图书馆","lon":"121.44932102","lat":"31.196121364","category":"253","category_name":"校园生活","address":"上海徐汇区东安路130号复旦大学枫林校区内(西苑篮球场西侧)"},{"poiid":"B2094757D069A3F54599","title":"斜土路宛平南路","lon":"121.44817258","lat":"31.193041703","category":"500","category_name":"未知分类","address":"上海市徐汇区肇嘉浜路"},{"poiid":"B2094654DA6DA4F84198","title":"临江豪园","lon":"121.447","lat":"31.1944","category":"47","category_name":"住宅区","address":"上海市徐汇区宛平南路921号"},{"poiid":"B2094757D06FA4FD489E","title":"苏武牧羊(徐汇店)","lon":"121.44805","lat":"31.19126","category":"86","category_name":"火锅店","address":"徐汇区斜土路2422号(近宛平南路)"},{"poiid":"B2094757D069A3FB4092","title":"英雄大厦","lon":"121.449","lat":"31.192","category":"46","category_name":"楼宇","address":"丰台学城海鹰路1号"},{"poiid":"B2094757DA6FA1FE4399","title":"梅赛德斯-奔驰文化中心","lon":"121.448848","lat":"31.191104","category":"248","category_name":"生活娱乐","address":"浦东世博大道1200号"},{"poiid":"B2094757D068A6FA489A","title":"争鲜回转寿司 斜土路店","lon":"121.45276762136","lat":"31.194759594949","category":"95","category_name":"日本料理","address":"徐汇区斜土路1995号(近家乐福斜土路店)"},{"poiid":"B2094752D26AA0FA439D","title":"石锅坊","lon":"121.44927","lat":"31.194089","category":"247","category_name":"餐饮美食","address":"东安路258号"},{"poiid":"B2094757D065A2FB499A","title":"上海影城3号放映厅","lon":"121.450059586","lat":"31.1928021992","category":"248","category_name":"生活娱乐","address":"长宁区新华路160号(近番禺路口)上海影城6楼"},{"poiid":"B2094655D26FA5FD4492","title":"谨斜小区","lon":"121.44878","lat":"31.193199","category":"47","category_name":"住宅区","address":"斜土路2167,2183,2365弄"},{"poiid":"B2094757D06FA5F8409C","title":"四海游龙(东安路店)","lon":"121.45073","lat":"31.1966","category":"68","category_name":"快餐厅","address":"徐汇区东安路40号(近青松城大酒店)"},{"poiid":"B2094757D169A2FA4192","title":"那不勒斯比萨","lon":"121.44894458","lat":"31.194344729","category":"94","category_name":"西餐厅","address":"徐汇区斜土路2066号(近东安路)"},{"poiid":"B2094655D26CA4FA4793","title":"恒盛·阳光名苑","lon":"121.44986","lat":"31.19414","category":"47","category_name":"住宅区","address":"斜土路1975弄1-9号"},{"poiid":"B2094655D26BA2FE489A","title":"宛平南路","lon":"121.44806","lat":"31.19217","category":"38","category_name":"公交车站","address":""},{"poiid":"B2094757D068A2FD489A","title":"京世造型(宛平店)","lon":"121.446784","lat":"31.192901","category":"148","category_name":"美容美发店","address":"上海徐汇区宛平南路271号"},{"poiid":"B2094757D169A4F84792","title":"上海中医药大学附属龙华医院(徐汇总院)西十楼骨伤科病房","lon":"121.449571","lat":"31.194975","category":"162","category_name":"医院","address":"上海宛平南路725号西十楼"},{"poiid":"B2094757D069A3FA4299","title":"提香研磨咖啡","lon":"121.44662799152","lat":"31.193403622937","category":"260","category_name":"其他","address":"徐汇区宛平南路263号(近斜土路)"},{"poiid":"B2094654DA6DA0F4479B","title":"申峰大厦","lon":"121.448","lat":"31.1937","category":"46","category_name":"楼宇","address":"上海市徐汇区天钥桥路438号"},{"poiid":"B2094750D46DAAFD4799","title":"姐弟俩土豆粉","lon":"121.447593","lat":"31.193534","category":"247","category_name":"餐饮美食","address":null},{"poiid":"B2094757D164A7FA429A","title":"上海计生所医院","lon":"121.450355","lat":"31.193022","category":"162","category_name":"医院","address":"徐汇区斜土路2120号(东安路口)"},{"poiid":"B2094757D16AABF4479D","title":"复旦大学医学院第一教学楼1201教室","lon":"121.44997368","lat":"31.19441103","category":"253","category_name":"校园生活","address":null},{"poiid":"B2094757D069A7FA4199","title":"斜土路阳光名苑","lon":"121.449859619","lat":"31.1941432953","category":"252","category_name":"楼宇机构","address":"上海斜土路1975弄"},{"poiid":"B2094655D264A7FD4398","title":"阳光巴黎","lon":"121.45067","lat":"31.19397","category":"47","category_name":"住宅区","address":"上海市徐汇区斜土路2143号"},{"poiid":"B2094757D069A5FB4298","title":"康骏会馆(斜土路店)","lon":"121.45124185","lat":"31.194073189","category":"149","category_name":"洗浴推拿场所","address":"徐汇区斜土路1975弄(近东安路)"},{"poiid":"B2094757D16BA2FB409B","title":"Carl'sJr. (美罗城)","lon":"121.44802808","lat":"31.196717505","category":"500","category_name":"未知分类","address":"上海肇嘉浜路1111号美罗城B1-33"},{"poiid":"B2094654DA6EA1FC449F","title":"复旦大学中山医院高压氧舱治疗室","lon":"121.45072","lat":"31.19257","category":"162","category_name":"医院","address":"徐汇区斜土路2094号(近东安路)"},{"poiid":"B2094654DA6EA1FC4293","title":"东方有线网络有限公司徐汇分公司(斜土路)","lon":"121.44921","lat":"31.19255","category":"263","category_name":"公司","address":"斜土路2300、2302"},{"poiid":"B2094655D26EA2FF499F","title":"阳光名苑(南2门)","lon":"121.45042","lat":"31.19371","category":"47","category_name":"住宅区","address":"斜土路2099弄1-3"},{"poiid":"B2094757D66DA1F94492","title":"泰勒瓦","lon":"121.448184586","lat":"31.1923228899","category":"172","category_name":"酒吧","address":"上海斜土路2129号"},{"poiid":"B2094750D66DA6FC4492","title":"上海肿瘤医院","lon":"121.448425","lat":"31.194686","category":"162","category_name":"医院","address":null},{"poiid":"B2094750D66DA1FB479C","title":"徐家汇五番街","lon":"121.451797","lat":"31.195696","category":"116","category_name":"特色商业街","address":"上海市 上海徐汇区肇嘉浜路1111号美罗城B1"},{"poiid":"B2094654DA6DAAFA459F","title":"阳光名苑(南门)","lon":"121.44946","lat":"31.1931","category":"47","category_name":"住宅区","address":"斜土路2009"},{"poiid":"B2094757D66DA3FA479A","title":"上海市肿瘤医院放射治疗科","lon":"121.450347","lat":"31.193179","category":"162","category_name":"医院","address":"上海东安路270号门诊大楼"},{"poiid":"B2094757D569A3FB4493","title":"徐家汇花园二期","lon":"121.4478072","lat":"31.19344306","category":"47","category_name":"住宅区","address":"徐家汇花园二期位于徐汇宛平南路233弄"},{"poiid":"B2094750D364A7FB4198","title":"茜尔维亚修身连锁会所","lon":"121.44935","lat":"31.19256","category":"148","category_name":"美容美发店","address":"徐汇区华山路2088号汇银广场南楼1606(近肇嘉浜路)"},{"poiid":"B2094753D668AAF9499E","title":"复旦大学医学院","lon":"121.449872","lat":"31.194703","category":"500","category_name":"未知分类","address":"上海市 东安路79号"},{"poiid":"B2094654DA6DA0FB469C","title":"明达公寓","lon":"121.448","lat":"31.1932","category":"46","category_name":"楼宇","address":"徐汇区天钥桥路408号(近慈云街)"},{"poiid":"B2094757D168A7FB459B","title":"斜土路2183","lon":"121.448140586","lat":"31.1942387273","category":"47","category_name":"住宅区","address":"上海市徐汇区斜土路"},{"poiid":"B2094655D36DA1F5479E","title":"斜土路东安路","lon":"121.45172","lat":"31.19409","category":"38","category_name":"公交车站","address":"上海斜土路东安路"},{"poiid":"B2094655D268A4FA409C","title":"零陵小区","lon":"121.451","lat":"31.1929","category":"47","category_name":"住宅区","address":"零陵路677弄1-12号"},{"poiid":"B2094757D465A3FC469F","title":"杏花楼食品专卖 斜土路店","lon":"121.451577054","lat":"31.193893793","category":"112","category_name":"糕饼店","address":"徐汇区斜土路2140号东1(近东安路)"},{"poiid":"B2094757D06FA7FA479B","title":"复旦大学上海医学院第一教学楼","lon":"121.45016419","lat":"31.196352118","category":"500","category_name":"未知分类","address":"上海东安路130号"},{"poiid":"B2094757D06FA6F8439F","title":"复旦大学枫林校区第二教学楼","lon":"121.448604396","lat":"31.1959811913","category":"253","category_name":"校园生活","address":"上海市徐汇区东安路130号"},{"poiid":"B2094654DA6DAAFA459D","title":"家乐福(徐汇店)","lon":"121.45114","lat":"31.1941","category":"118","category_name":"超级市场","address":"徐汇区斜土路1995号(近东安路)"},{"poiid":"B2094753D76FAAFA449C","title":"上海滩国泰旗舰店","lon":"121.466011","lat":"31.216125","category":"249","category_name":"购物服务","address":"淮海中路868号"},{"poiid":"B2094757D06FA1F9479F","title":"新利查西餐馆(东安店)","lon":"121.45135","lat":"31.19333","category":"94","category_name":"西餐厅","address":"徐汇区斜土路2068号(近东安路)"},{"poiid":"B2094757D06FA3FF429E","title":"麦当劳(斜土路店)","lon":"121.45187","lat":"31.194","category":"68","category_name":"快餐厅","address":"徐汇区斜土路1969号(近东安路)"},{"poiid":"B2094757D06FA5FD4092","title":"天天周末(斜土路店)","lon":"121.44957","lat":"31.19228","category":"173","category_name":"游戏厅","address":"徐汇区斜土路2200弄8号(近东安路)"},{"poiid":"B2094757D06FAAFC4192","title":"徐汇区房地产交易中心","lon":"121.45081329","lat":"31.19335556","category":"252","category_name":"楼宇机构","address":"上海斜土路2088号"},{"poiid":"B2094757D06FA0FE4098","title":"腾飞大厦","lon":"121.449","lat":"31.1946","category":"46","category_name":"楼宇","address":"行宫位于沈河北站一路41号"},{"poiid":"B2094757D068A5F9499D","title":"复旦大学医科图书馆","lon":"121.44932102","lat":"31.196121364","category":"253","category_name":"校园生活","address":"上海徐汇区东安路130号复旦大学枫林校区内(西苑篮球场西侧)"},{"poiid":"B2094757D069A3F54599","title":"斜土路宛平南路","lon":"121.44817258","lat":"31.193041703","category":"500","category_name":"未知分类","address":"上海市徐汇区肇嘉浜路"},{"poiid":"B2094654DA6DA4F84198","title":"临江豪园","lon":"121.447","lat":"31.1944","category":"47","category_name":"住宅区","address":"上海市徐汇区宛平南路921号"},{"poiid":"B2094757D06FA4FD489E","title":"苏武牧羊(徐汇店)","lon":"121.44805","lat":"31.19126","category":"86","category_name":"火锅店","address":"徐汇区斜土路2422号(近宛平南路)"},{"poiid":"B2094757D069A3FB4092","title":"英雄大厦","lon":"121.449","lat":"31.192","category":"46","category_name":"楼宇","address":"丰台学城海鹰路1号"},{"poiid":"B2094757DA6FA1FE4399","title":"梅赛德斯-奔驰文化中心","lon":"121.448848","lat":"31.191104","category":"248","category_name":"生活娱乐","address":"浦东世博大道1200号"},{"poiid":"B2094757D068A6FA489A","title":"争鲜回转寿司 斜土路店","lon":"121.45276762136","lat":"31.194759594949","category":"95","category_name":"日本料理","address":"徐汇区斜土路1995号(近家乐福斜土路店)"},{"poiid":"B2094752D26AA0FA439D","title":"石锅坊","lon":"121.44927","lat":"31.194089","category":"247","category_name":"餐饮美食","address":"东安路258号"},{"poiid":"B2094757D065A2FB499A","title":"上海影城3号放映厅","lon":"121.450059586","lat":"31.1928021992","category":"248","category_name":"生活娱乐","address":"长宁区新华路160号(近番禺路口)上海影城6楼"},{"poiid":"B2094655D26FA5FD4492","title":"谨斜小区","lon":"121.44878","lat":"31.193199","category":"47","category_name":"住宅区","address":"斜土路2167,2183,2365弄"},{"poiid":"B2094757D06FA5F8409C","title":"四海游龙(东安路店)","lon":"121.45073","lat":"31.1966","category":"68","category_name":"快餐厅","address":"徐汇区东安路40号(近青松城大酒店)"},{"poiid":"B2094757D169A2FA4192","title":"那不勒斯比萨","lon":"121.44894458","lat":"31.194344729","category":"94","category_name":"西餐厅","address":"徐汇区斜土路2066号(近东安路)"},{"poiid":"B2094655D26CA4FA4793","title":"恒盛·阳光名苑","lon":"121.44986","lat":"31.19414","category":"47","category_name":"住宅区","address":"斜土路1975弄1-9号"},{"poiid":"B2094655D26BA2FE489A","title":"宛平南路","lon":"121.44806","lat":"31.19217","category":"38","category_name":"公交车站","address":""},{"poiid":"B2094757D068A2FD489A","title":"京世造型(宛平店)","lon":"121.446784","lat":"31.192901","category":"148","category_name":"美容美发店","address":"上海徐汇区宛平南路271号"},{"poiid":"B2094757D169A4F84792","title":"上海中医药大学附属龙华医院(徐汇总院)西十楼骨伤科病房","lon":"121.449571","lat":"31.194975","category":"162","category_name":"医院","address":"上海宛平南路725号西十楼"},{"poiid":"B2094757D069A3FA4299","title":"提香研磨咖啡","lon":"121.44662799152","lat":"31.193403622937","category":"260","category_name":"其他","address":"徐汇区宛平南路263号(近斜土路)"},{"poiid":"B2094654DA6DA0F4479B","title":"申峰大厦","lon":"121.448","lat":"31.1937","category":"46","category_name":"楼宇","address":"上海市徐汇区天钥桥路438号"},{"poiid":"B2094750D46DAAFD4799","title":"姐弟俩土豆粉","lon":"121.447593","lat":"31.193534","category":"247","category_name":"餐饮美食","address":null},{"poiid":"B2094757D164A7FA429A","title":"上海计生所医院","lon":"121.450355","lat":"31.193022","category":"162","category_name":"医院","address":"徐汇区斜土路2120号(东安路口)"},{"poiid":"B2094757D16AABF4479D","title":"复旦大学医学院第一教学楼1201教室","lon":"121.44997368","lat":"31.19441103","category":"253","category_name":"校园生活","address":null},{"poiid":"B2094757D069A7FA4199","title":"斜土路阳光名苑","lon":"121.449859619","lat":"31.1941432953","category":"252","category_name":"楼宇机构","address":"上海斜土路1975弄"},{"poiid":"B2094655D264A7FD4398","title":"阳光巴黎","lon":"121.45067","lat":"31.19397","category":"47","category_name":"住宅区","address":"上海市徐汇区斜土路2143号"},{"poiid":"B2094757D069A5FB4298","title":"康骏会馆(斜土路店)","lon":"121.45124185","lat":"31.194073189","category":"149","category_name":"洗浴推拿场所","address":"徐汇区斜土路1975弄(近东安路)"},{"poiid":"B2094757D16BA2FB409B","title":"Carl'sJr. (美罗城)","lon":"121.44802808","lat":"31.196717505","category":"500","category_name":"未知分类","address":"上海肇嘉浜路1111号美罗城B1-33"},{"poiid":"B2094654DA6EA1FC449F","title":"复旦大学中山医院高压氧舱治疗室","lon":"121.45072","lat":"31.19257","category":"162","category_name":"医院","address":"徐汇区斜土路2094号(近东安路)"},{"poiid":"B2094654DA6EA1FC4293","title":"东方有线网络有限公司徐汇分公司(斜土路)","lon":"121.44921","lat":"31.19255","category":"263","category_name":"公司","address":"斜土路2300、2302"},{"poiid":"B2094655D26EA2FF499F","title":"阳光名苑(南2门)","lon":"121.45042","lat":"31.19371","category":"47","category_name":"住宅区","address":"斜土路2099弄1-3"},{"poiid":"B2094757D66DA1F94492","title":"泰勒瓦","lon":"121.448184586","lat":"31.1923228899","category":"172","category_name":"酒吧","address":"上海斜土路2129号"},{"poiid":"B2094750D66DA6FC4492","title":"上海肿瘤医院","lon":"121.448425","lat":"31.194686","category":"162","category_name":"医院","address":null},{"poiid":"B2094750D66DA1FB479C","title":"徐家汇五番街","lon":"121.451797","lat":"31.195696","category":"116","category_name":"特色商业街","address":"上海市 上海徐汇区肇嘉浜路1111号美罗城B1"},{"poiid":"B2094654DA6DAAFA459F","title":"阳光名苑(南门)","lon":"121.44946","lat":"31.1931","category":"47","category_name":"住宅区","address":"斜土路2009"},{"poiid":"B2094757D66DA3FA479A","title":"上海市肿瘤医院放射治疗科","lon":"121.450347","lat":"31.193179","category":"162","category_name":"医院","address":"上海东安路270号门诊大楼"},{"poiid":"B2094757D569A3FB4493","title":"徐家汇花园二期","lon":"121.4478072","lat":"31.19344306","category":"47","category_name":"住宅区","address":"徐家汇花园二期位于徐汇宛平南路233弄"},{"poiid":"B2094750D364A7FB4198","title":"茜尔维亚修身连锁会所","lon":"121.44935","lat":"31.19256","category":"148","category_name":"美容美发店","address":"徐汇区华山路2088号汇银广场南楼1606(近肇嘉浜路)"},{"poiid":"B2094753D668AAF9499E","title":"复旦大学医学院","lon":"121.449872","lat":"31.194703","category":"500","category_name":"未知分类","address":"上海市 东安路79号"},{"poiid":"B2094654DA6DA0FB469C","title":"明达公寓","lon":"121.448","lat":"31.1932","category":"46","category_name":"楼宇","address":"徐汇区天钥桥路408号(近慈云街)"},{"poiid":"B2094757D168A7FB459B","title":"斜土路2183","lon":"121.448140586","lat":"31.1942387273","category":"47","category_name":"住宅区","address":"上海市徐汇区斜土路"},{"poiid":"B2094655D36DA1F5479E","title":"斜土路东安路","lon":"121.45172","lat":"31.19409","category":"38","category_name":"公交车站","address":"上海斜土路东安路"},{"poiid":"B2094655D268A4FA409C","title":"零陵小区","lon":"121.451","lat":"31.1929","category":"47","category_name":"住宅区","address":"零陵路677弄1-12号"},{"poiid":"B2094757D465A3FC469F","title":"杏花楼食品专卖 斜土路店","lon":"121.451577054","lat":"31.193893793","category":"112","category_name":"糕饼店","address":"徐汇区斜土路2140号东1(近东安路)"},{"poiid":"B2094757D06FA7FA479B","title":"复旦大学上海医学院第一教学楼","lon":"121.45016419","lat":"31.196352118","category":"500","category_name":"未知分类","address":"上海东安路130号"},{"poiid":"B2094757D06FA6F8439F","title":"复旦大学枫林校区第二教学楼","lon":"121.448604396","lat":"31.1959811913","category":"253","category_name":"校园生活","address":"上海市徐汇区东安路130号"},{"poiid":"B2094654DA6DAAFA459D","title":"家乐福(徐汇店)","lon":"121.45114","lat":"31.1941","category":"118","category_name":"超级市场","address":"徐汇区斜土路1995号(近东安路)"},{"poiid":"B2094753D76FAAFA449C","title":"上海滩国泰旗舰店","lon":"121.466011","lat":"31.216125","category":"249","category_name":"购物服务","address":"淮海中路868号"},{"poiid":"B2094757D06FA1F9479F","title":"新利查西餐馆(东安店)","lon":"121.45135","lat":"31.19333","category":"94","category_name":"西餐厅","address":"徐汇区斜土路2068号(近东安路)"},{"poiid":"B2094757D06FA3FF429E","title":"麦当劳(斜土路店)","lon":"121.45187","lat":"31.194","category":"68","category_name":"快餐厅","address":"徐汇区斜土路1969号(近东安路)"},{"poiid":"B2094757D06FA5FD4092","title":"天天周末(斜土路店)","lon":"121.44957","lat":"31.19228","category":"173","category_name":"游戏厅","address":"徐汇区斜土路2200弄8号(近东安路)"},{"poiid":"B2094757D06FAAFC4192","title":"徐汇区房地产交易中心","lon":"121.45081329","lat":"31.19335556","category":"252","category_name":"楼宇机构","address":"上海斜土路2088号"},{"poiid":"B2094757D06FA0FE4098","title":"腾飞大厦","lon":"121.449","lat":"31.1946","category":"46","category_name":"楼宇","address":"行宫位于沈河北站一路41号"},{"poiid":"B2094757D068A5F9499D","title":"复旦大学医科图书馆","lon":"121.44932102","lat":"31.196121364","category":"253","category_name":"校园生活","address":"上海徐汇区东安路130号复旦大学枫林校区内(西苑篮球场西侧)"},{"poiid":"B2094757D069A3F54599","title":"斜土路宛平南路","lon":"121.44817258","lat":"31.193041703","category":"500","category_name":"未知分类","address":"上海市徐汇区肇嘉浜路"},{"poiid":"B2094654DA6DA4F84198","title":"临江豪园","lon":"121.447","lat":"31.1944","category":"47","category_name":"住宅区","address":"上海市徐汇区宛平南路921号"},{"poiid":"B2094757D06FA4FD489E","title":"苏武牧羊(徐汇店)","lon":"121.44805","lat":"31.19126","category":"86","category_name":"火锅店","address":"徐汇区斜土路2422号(近宛平南路)"},{"poiid":"B2094757D069A3FB4092","title":"英雄大厦","lon":"121.449","lat":"31.192","category":"46","category_name":"楼宇","address":"丰台学城海鹰路1号"},{"poiid":"B2094757DA6FA1FE4399","title":"梅赛德斯-奔驰文化中心","lon":"121.448848","lat":"31.191104","category":"248","category_name":"生活娱乐","address":"浦东世博大道1200号"},{"poiid":"B2094757D068A6FA489A","title":"争鲜回转寿司 斜土路店","lon":"121.45276762136","lat":"31.194759594949","category":"95","category_name":"日本料理","address":"徐汇区斜土路1995号(近家乐福斜土路店)"},{"poiid":"B2094752D26AA0FA439D","title":"石锅坊","lon":"121.44927","lat":"31.194089","category":"247","category_name":"餐饮美食","address":"东安路258号"},{"poiid":"B2094757D065A2FB499A","title":"上海影城3号放映厅","lon":"121.450059586","lat":"31.1928021992","category":"248","category_name":"生活娱乐","address":"长宁区新华路160号(近番禺路口)上海影城6楼"},{"poiid":"B2094655D26FA5FD4492","title":"谨斜小区","lon":"121.44878","lat":"31.193199","category":"47","category_name":"住宅区","address":"斜土路2167,2183,2365弄"},{"poiid":"B2094757D06FA5F8409C","title":"四海游龙(东安路店)","lon":"121.45073","lat":"31.1966","category":"68","category_name":"快餐厅","address":"徐汇区东安路40号(近青松城大酒店)"},{"poiid":"B2094757D169A2FA4192","title":"那不勒斯比萨","lon":"121.44894458","lat":"31.194344729","category":"94","category_name":"西餐厅","address":"徐汇区斜土路2066号(近东安路)"},{"poiid":"B2094655D26CA4FA4793","title":"恒盛·阳光名苑","lon":"121.44986","lat":"31.19414","category":"47","category_name":"住宅区","address":"斜土路1975弄1-9号"},{"poiid":"B2094655D26BA2FE489A","title":"宛平南路","lon":"121.44806","lat":"31.19217","category":"38","category_name":"公交车站","address":""},{"poiid":"B2094757D068A2FD489A","title":"京世造型(宛平店)","lon":"121.446784","lat":"31.192901","category":"148","category_name":"美容美发店","address":"上海徐汇区宛平南路271号"},{"poiid":"B2094757D169A4F84792","title":"上海中医药大学附属龙华医院(徐汇总院)西十楼骨伤科病房","lon":"121.449571","lat":"31.194975","category":"162","category_name":"医院","address":"上海宛平南路725号西十楼"},{"poiid":"B2094757D069A3FA4299","title":"提香研磨咖啡","lon":"121.44662799152","lat":"31.193403622937","category":"260","category_name":"其他","address":"徐汇区宛平南路263号(近斜土路)"},{"poiid":"B2094654DA6DA0F4479B","title":"申峰大厦","lon":"121.448","lat":"31.1937","category":"46","category_name":"楼宇","address":"上海市徐汇区天钥桥路438号"},{"poiid":"B2094750D46DAAFD4799","title":"姐弟俩土豆粉","lon":"121.447593","lat":"31.193534","category":"247","category_name":"餐饮美食","address":null},{"poiid":"B2094757D164A7FA429A","title":"上海计生所医院","lon":"121.450355","lat":"31.193022","category":"162","category_name":"医院","address":"徐汇区斜土路2120号(东安路口)"},{"poiid":"B2094757D16AABF4479D","title":"复旦大学医学院第一教学楼1201教室","lon":"121.44997368","lat":"31.19441103","category":"253","category_name":"校园生活","address":null},{"poiid":"B2094757D069A7FA4199","title":"斜土路阳光名苑","lon":"121.449859619","lat":"31.1941432953","category":"252","category_name":"楼宇机构","address":"上海斜土路1975弄"},{"poiid":"B2094655D264A7FD4398","title":"阳光巴黎","lon":"121.45067","lat":"31.19397","category":"47","category_name":"住宅区","address":"上海市徐汇区斜土路2143号"},{"poiid":"B2094757D069A5FB4298","title":"康骏会馆(斜土路店)","lon":"121.45124185","lat":"31.194073189","category":"149","category_name":"洗浴推拿场所","address":"徐汇区斜土路1975弄(近东安路)"},{"poiid":"B2094757D16BA2FB409B","title":"Carl'sJr. (美罗城)","lon":"121.44802808","lat":"31.196717505","category":"500","category_name":"未知分类","address":"上海肇嘉浜路1111号美罗城B1-33"},{"poiid":"B2094654DA6EA1FC449F","title":"复旦大学中山医院高压氧舱治疗室","lon":"121.45072","lat":"31.19257","category":"162","category_name":"医院","address":"徐汇区斜土路2094号(近东安路)"},{"poiid":"B2094654DA6EA1FC4293","title":"东方有线网络有限公司徐汇分公司(斜土路)","lon":"121.44921","lat":"31.19255","category":"263","category_name":"公司","address":"斜土路2300、2302"},{"poiid":"B2094655D26EA2FF499F","title":"阳光名苑(南2门)","lon":"121.45042","lat":"31.19371","category":"47","category_name":"住宅区","address":"斜土路2099弄1-3"},{"poiid":"B2094757D66DA1F94492","title":"泰勒瓦","lon":"121.448184586","lat":"31.1923228899","category":"172","category_name":"酒吧","address":"上海斜土路2129号"},{"poiid":"B2094750D66DA6FC4492","title":"上海肿瘤医院","lon":"121.448425","lat":"31.194686","category":"162","category_name":"医院","address":null},{"poiid":"B2094750D66DA1FB479C","title":"徐家汇五番街","lon":"121.451797","lat":"31.195696","category":"116","category_name":"特色商业街","address":"上海市 上海徐汇区肇嘉浜路1111号美罗城B1"},{"poiid":"B2094654DA6DAAFA459F","title":"阳光名苑(南门)","lon":"121.44946","lat":"31.1931","category":"47","category_name":"住宅区","address":"斜土路2009"},{"poiid":"B2094757D66DA3FA479A","title":"上海市肿瘤医院放射治疗科","lon":"121.450347","lat":"31.193179","category":"162","category_name":"医院","address":"上海东安路270号门诊大楼"},{"poiid":"B2094757D569A3FB4493","title":"徐家汇花园二期","lon":"121.4478072","lat":"31.19344306","category":"47","category_name":"住宅区","address":"徐家汇花园二期位于徐汇宛平南路233弄"},{"poiid":"B2094750D364A7FB4198","title":"茜尔维亚修身连锁会所","lon":"121.44935","lat":"31.19256","category":"148","category_name":"美容美发店","address":"徐汇区华山路2088号汇银广场南楼1606(近肇嘉浜路)"},{"poiid":"B2094753D668AAF9499E","title":"复旦大学医学院","lon":"121.449872","lat":"31.194703","category":"500","category_name":"未知分类","address":"上海市 东安路79号"},{"poiid":"B2094654DA6DA0FB469C","title":"明达公寓","lon":"121.448","lat":"31.1932","category":"46","category_name":"楼宇","address":"徐汇区天钥桥路408号(近慈云街)"},{"poiid":"B2094757D168A7FB459B","title":"斜土路2183","lon":"121.448140586","lat":"31.1942387273","category":"47","category_name":"住宅区","address":"上海市徐汇区斜土路"},{"poiid":"B2094655D36DA1F5479E","title":"斜土路东安路","lon":"121.45172","lat":"31.19409","category":"38","category_name":"公交车站","address":"上海斜土路东安路"},{"poiid":"B2094655D268A4FA409C","title":"零陵小区","lon":"121.451","lat":"31.1929","category":"47","category_name":"住宅区","address":"零陵路677弄1-12号"},{"poiid":"B2094757D465A3FC469F","title":"杏花楼食品专卖 斜土路店","lon":"121.451577054","lat":"31.193893793","category":"112","category_name":"糕饼店","address":"徐汇区斜土路2140号东1(近东安路)"},{"poiid":"B2094757D06FA7FA479B","title":"复旦大学上海医学院第一教学楼","lon":"121.45016419","lat":"31.196352118","category":"500","category_name":"未知分类","address":"上海东安路130号"},{"poiid":"B2094757D06FA6F8439F","title":"复旦大学枫林校区第二教学楼","lon":"121.448604396","lat":"31.1959811913","category":"253","category_name":"校园生活","address":"上海市徐汇区东安路130号"},{"poiid":"B2094654DA6DAAFA459D","title":"家乐福(徐汇店)","lon":"121.45114","lat":"31.1941","category":"118","category_name":"超级市场","address":"徐汇区斜土路1995号(近东安路)"},{"poiid":"B2094753D76FAAFA449C","title":"上海滩国泰旗舰店","lon":"121.466011","lat":"31.216125","category":"249","category_name":"购物服务","address":"淮海中路868号"},{"poiid":"B2094757D06FA1F9479F","title":"新利查西餐馆(东安店)","lon":"121.45135","lat":"31.19333","category":"94","category_name":"西餐厅","address":"徐汇区斜土路2068号(近东安路)"},{"poiid":"B2094757D06FA3FF429E","title":"麦当劳(斜土路店)","lon":"121.45187","lat":"31.194","category":"68","category_name":"快餐厅","address":"徐汇区斜土路1969号(近东安路)"},{"poiid":"B2094757D06FA5FD4092","title":"天天周末(斜土路店)","lon":"121.44957","lat":"31.19228","category":"173","category_name":"游戏厅","address":"徐汇区斜土路2200弄8号(近东安路)"},{"poiid":"B2094757D06FAAFC4192","title":"徐汇区房地产交易中心","lon":"121.45081329","lat":"31.19335556","category":"252","category_name":"楼宇机构","address":"上海斜土路2088号"},{"poiid":"B2094757D06FA0FE4098","title":"腾飞大厦","lon":"121.449","lat":"31.1946","category":"46","category_name":"楼宇","address":"行宫位于沈河北站一路41号"},{"poiid":"B2094757D068A5F9499D","title":"复旦大学医科图书馆","lon":"121.44932102","lat":"31.196121364","category":"253","category_name":"校园生活","address":"上海徐汇区东安路130号复旦大学枫林校区内(西苑篮球场西侧)"},{"poiid":"B2094757D069A3F54599","title":"斜土路宛平南路","lon":"121.44817258","lat":"31.193041703","category":"500","category_name":"未知分类","address":"上海市徐汇区肇嘉浜路"},{"poiid":"B2094654DA6DA4F84198","title":"临江豪园","lon":"121.447","lat":"31.1944","category":"47","category_name":"住宅区","address":"上海市徐汇区宛平南路921号"},{"poiid":"B2094757D06FA4FD489E","title":"苏武牧羊(徐汇店)","lon":"121.44805","lat":"31.19126","category":"86","category_name":"火锅店","address":"徐汇区斜土路2422号(近宛平南路)"},{"poiid":"B2094757D069A3FB4092","title":"英雄大厦","lon":"121.449","lat":"31.192","category":"46","category_name":"楼宇","address":"丰台学城海鹰路1号"},{"poiid":"B2094757DA6FA1FE4399","title":"梅赛德斯-奔驰文化中心","lon":"121.448848","lat":"31.191104","category":"248","category_name":"生活娱乐","address":"浦东世博大道1200号"},{"poiid":"B2094757D068A6FA489A","title":"争鲜回转寿司 斜土路店","lon":"121.45276762136","lat":"31.194759594949","category":"95","category_name":"日本料理","address":"徐汇区斜土路1995号(近家乐福斜土路店)"},{"poiid":"B2094752D26AA0FA439D","title":"石锅坊","lon":"121.44927","lat":"31.194089","category":"247","category_name":"餐饮美食","address":"东安路258号"},{"poiid":"B2094757D065A2FB499A","title":"上海影城3号放映厅","lon":"121.450059586","lat":"31.1928021992","category":"248","category_name":"生活娱乐","address":"长宁区新华路160号(近番禺路口)上海影城6楼"},{"poiid":"B2094655D26FA5FD4492","title":"谨斜小区","lon":"121.44878","lat":"31.193199","category":"47","category_name":"住宅区","address":"斜土路2167,2183,2365弄"},{"poiid":"B2094757D06FA5F8409C","title":"四海游龙(东安路店)","lon":"121.45073","lat":"31.1966","category":"68","category_name":"快餐厅","address":"徐汇区东安路40号(近青松城大酒店)"},{"poiid":"B2094757D169A2FA4192","title":"那不勒斯比萨","lon":"121.44894458","lat":"31.194344729","category":"94","category_name":"西餐厅","address":"徐汇区斜土路2066号(近东安路)"},{"poiid":"B2094655D26CA4FA4793","title":"恒盛·阳光名苑","lon":"121.44986","lat":"31.19414","category":"47","category_name":"住宅区","address":"斜土路1975弄1-9号"},{"poiid":"B2094655D26BA2FE489A","title":"宛平南路","lon":"121.44806","lat":"31.19217","category":"38","category_name":"公交车站","address":""},{"poiid":"B2094757D068A2FD489A","title":"京世造型(宛平店)","lon":"121.446784","lat":"31.192901","category":"148","category_name":"美容美发店","address":"上海徐汇区宛平南路271号"},{"poiid":"B2094757D169A4F84792","title":"上海中医药大学附属龙华医院(徐汇总院)西十楼骨伤科病房","lon":"121.449571","lat":"31.194975","category":"162","category_name":"医院","address":"上海宛平南路725号西十楼"},{"poiid":"B2094757D069A3FA4299","title":"提香研磨咖啡","lon":"121.44662799152","lat":"31.193403622937","category":"260","category_name":"其他","address":"徐汇区宛平南路263号(近斜土路)"},{"poiid":"B2094654DA6DA0F4479B","title":"申峰大厦","lon":"121.448","lat":"31.1937","category":"46","category_name":"楼宇","address":"上海市徐汇区天钥桥路438号"},{"poiid":"B2094750D46DAAFD4799","title":"姐弟俩土豆粉","lon":"121.447593","lat":"31.193534","category":"247","category_name":"餐饮美食","address":null},{"poiid":"B2094757D164A7FA429A","title":"上海计生所医院","lon":"121.450355","lat":"31.193022","category":"162","category_name":"医院","address":"徐汇区斜土路2120号(东安路口)"},{"poiid":"B2094757D16AABF4479D","title":"复旦大学医学院第一教学楼1201教室","lon":"121.44997368","lat":"31.19441103","category":"253","category_name":"校园生活","address":null},{"poiid":"B2094757D069A7FA4199","title":"斜土路阳光名苑","lon":"121.449859619","lat":"31.1941432953","category":"252","category_name":"楼宇机构","address":"上海斜土路1975弄"},{"poiid":"B2094655D264A7FD4398","title":"阳光巴黎","lon":"121.45067","lat":"31.19397","category":"47","category_name":"住宅区","address":"上海市徐汇区斜土路2143号"},{"poiid":"B2094757D069A5FB4298","title":"康骏会馆(斜土路店)","lon":"121.45124185","lat":"31.194073189","category":"149","category_name":"洗浴推拿场所","address":"徐汇区斜土路1975弄(近东安路)"},{"poiid":"B2094757D16BA2FB409B","title":"Carl'sJr. (美罗城)","lon":"121.44802808","lat":"31.196717505","category":"500","category_name":"未知分类","address":"上海肇嘉浜路1111号美罗城B1-33"},{"poiid":"B2094654DA6EA1FC449F","title":"复旦大学中山医院高压氧舱治疗室","lon":"121.45072","lat":"31.19257","category":"162","category_name":"医院","address":"徐汇区斜土路2094号(近东安路)"},{"poiid":"B2094654DA6EA1FC4293","title":"东方有线网络有限公司徐汇分公司(斜土路)","lon":"121.44921","lat":"31.19255","category":"263","category_name":"公司","address":"斜土路2300、2302"},{"poiid":"B2094655D26EA2FF499F","title":"阳光名苑(南2门)","lon":"121.45042","lat":"31.19371","category":"47","category_name":"住宅区","address":"斜土路2099弄1-3"},{"poiid":"B2094757D66DA1F94492","title":"泰勒瓦","lon":"121.448184586","lat":"31.1923228899","category":"172","category_name":"酒吧","address":"上海斜土路2129号"},{"poiid":"B2094750D66DA6FC4492","title":"上海肿瘤医院","lon":"121.448425","lat":"31.194686","category":"162","category_name":"医院","address":null},{"poiid":"B2094750D66DA1FB479C","title":"徐家汇五番街","lon":"121.451797","lat":"31.195696","category":"116","category_name":"特色商业街","address":"上海市 上海徐汇区肇嘉浜路1111号美罗城B1"},{"poiid":"B2094654DA6DAAFA459F","title":"阳光名苑(南门)","lon":"121.44946","lat":"31.1931","category":"47","category_name":"住宅区","address":"斜土路2009"},{"poiid":"B2094757D66DA3FA479A","title":"上海市肿瘤医院放射治疗科","lon":"121.450347","lat":"31.193179","category":"162","category_name":"医院","address":"上海东安路270号门诊大楼"},{"poiid":"B2094757D569A3FB4493","title":"徐家汇花园二期","lon":"121.4478072","lat":"31.19344306","category":"47","category_name":"住宅区","address":"徐家汇花园二期位于徐汇宛平南路233弄"},{"poiid":"B2094750D364A7FB4198","title":"茜尔维亚修身连锁会所","lon":"121.44935","lat":"31.19256","category":"148","category_name":"美容美发店","address":"徐汇区华山路2088号汇银广场南楼1606(近肇嘉浜路)"},{"poiid":"B2094753D668AAF9499E","title":"复旦大学医学院","lon":"121.449872","lat":"31.194703","category":"500","category_name":"未知分类","address":"上海市 东安路79号"},{"poiid":"B2094654DA6DA0FB469C","title":"明达公寓","lon":"121.448","lat":"31.1932","category":"46","category_name":"楼宇","address":"徐汇区天钥桥路408号(近慈云街)"},{"poiid":"B2094757D168A7FB459B","title":"斜土路2183","lon":"121.448140586","lat":"31.1942387273","category":"47","category_name":"住宅区","address":"上海市徐汇区斜土路"},{"poiid":"B2094655D36DA1F5479E","title":"斜土路东安路","lon":"121.45172","lat":"31.19409","category":"38","category_name":"公交车站","address":"上海斜土路东安路"},{"poiid":"B2094655D268A4FA409C","title":"零陵小区","lon":"121.451","lat":"31.1929","category":"47","category_name":"住宅区","address":"零陵路677弄1-12号"},{"poiid":"B2094757D465A3FC469F","title":"杏花楼食品专卖 斜土路店","lon":"121.451577054","lat":"31.193893793","category":"112","category_name":"糕饼店","address":"徐汇区斜土路2140号东1(近东安路)"}]