[{"poiid":"B2094654DB68A1FD479D","title":"上海滨海高尔夫俱乐部","lon":"121.89634","lat":"30.98686","category":"206","category_name":"高尔夫相关","address":"南江滨海旅游度假区"},{"poiid":"B2094757D06FA0FA469D","title":"滨海森林公园","lon":"121.911233048","lat":"30.9699341393","category":"196","category_name":"公园","address":"浦东新区滨海镇滨海旅游度假区东大公路5366号(滨海高尔夫球场对面)"},{"poiid":"B2094757D66FA3FE4798","title":"葵园","lon":"121.880938087","lat":"30.9819261943","category":"207","category_name":"度假疗养场所","address":"上海浦东新区书院镇东大公路4677号"},{"poiid":"B2094757D66CA7FC4193","title":"葵園農家樂","lon":"121.89906568","lat":"30.985601183","category":"247","category_name":"餐饮美食","address":"上海唐下公路"},{"poiid":"B2094654DB68A1FE4298","title":"滨海高尔夫酒店","lon":"121.89647","lat":"30.98617","category":"250","category_name":"公园户外","address":""},{"poiid":"B2094654DB68A1FE429B","title":"上海滨海俱乐部管理有限公司","lon":"121.9043","lat":"30.9893","category":"263","category_name":"公司","address":"滨海东大公路东首"},{"poiid":"B2094757D06BABFE439F","title":"滨海高尔夫俱乐部","lon":"121.90451","lat":"30.97131","category":"500","category_name":"未知分类","address":"浦东新区滨海旅游度假区东大公路5333弄(近A30)"},{"poiid":"B2094757D568AAF4439E","title":"滨海高尔夫会所餐厅","lon":"121.904153","lat":"30.97147","category":"76","category_name":"上海菜","address":"浦东新区滨海渡假区滨海高尔夫俱乐部内"},{"poiid":"B2094654DB68A1FD489B","title":"滨海高尔夫","lon":"121.90409","lat":"30.97232","category":"206","category_name":"高尔夫相关","address":"东大公路"},{"poiid":"B2094757D56EA5FB4493","title":"上海滨海森林公园(西北门)","lon":"121.910152","lat":"30.971784","category":"250","category_name":"公园户外","address":"中国上海市浦东新区"},{"poiid":"B2094654DB68A1FE429A","title":"森林公园酒店","lon":"121.91094","lat":"30.97257","category":"250","category_name":"公园户外","address":"白玉兰大道118号"},{"poiid":"B2094757D16DAAFC449E","title":"东海农场大东海青少年教育基地","lon":"121.890942","lat":"31.000218","category":"184","category_name":"美术馆","address":"上海市浦东新区桃园北路"},{"poiid":"B2094757D66CA1F94399","title":"协和高尔夫","lon":"121.88882906","lat":"30.970510057","category":"500","category_name":"未知分类","address":"上海嘉定区"},{"poiid":"B2094757DA6EAAF4459B","title":"上海川升机械有限公司","lon":"121.888489000001","lat":"30.9671339999999","category":"263","category_name":"公司","address":"浦东新区书院镇塘下公路1403弄35号"}]