[{"poiid":"B2094655D26BA1FF449C","title":"南码头路昌里东路","lon":"121.51529","lat":"31.17986","category":"38","category_name":"公交车站","address":""},{"poiid":"B2094757D06FA4F9479D","title":"阿明小菜","lon":"121.517","lat":"31.17739","category":"76","category_name":"上海菜","address":"浦东新区南码头路1510号(近昌里东路)"},{"poiid":"B2094757D16FA6FE479E","title":"昌里東路","lon":"121.51064373","lat":"31.178186191","category":"500","category_name":"未知分类","address":"上海昌里東路"},{"poiid":"B2094757D068A7F5409B","title":"京世日韩专业烫染店(昌里店)","lon":"121.51645","lat":"31.17933","category":"148","category_name":"美容美发店","address":"上海浦东新区昌里东路608号(近南码头路)  "},{"poiid":"B2094757D06FAAFD4498","title":"齐七小区","lon":"121.51158","lat":"31.178322","category":"47","category_name":"住宅区","address":"昌里东路395弄57"},{"poiid":"B2094757D068ABFA439F","title":"亿家门(南码头店)","lon":"121.51664","lat":"31.17704","category":"76","category_name":"上海菜","address":"浦东新区南码头路1444号(近昌里东路)"},{"poiid":"B2094757D16FA7FD489E","title":"浦东新区周家渡地段医院","lon":"121.508960738","lat":"31.1768931643","category":"162","category_name":"医院","address":"上海浦东新"},{"poiid":"B2094654DA6AA2F4419B","title":"客家小厨(南码头店)","lon":"121.51648","lat":"31.17814","category":"72","category_name":"广东菜","address":"浦东新区南码头路1444号"},{"poiid":"B2094654DA6AA2FB489C","title":"中国电信昌里东路营业厅","lon":"121.51515","lat":"31.17937","category":"151","category_name":"电讯营业厅","address":"上海市浦东新区昌里东路501号(近南码头路)"},{"poiid":"B2094655D26DA7F8479E","title":"爵仕悦","lon":"121.513","lat":"31.1754","category":"47","category_name":"住宅区","address":"云台路529弄1-15号"},{"poiid":"B2094654DA6AA2F8419E","title":"新亚大包 昌里店","lon":"121.509641054","lat":"31.175951793","category":"68","category_name":"快餐厅","address":"浦东新区东明路1096号(昌里东路口)"},{"poiid":"B2094654DA6AA2F54498","title":"昌四小区","lon":"121.51489","lat":"31.176691","category":"47","category_name":"住宅区","address":"南码头路1696弄1-62号"},{"poiid":"B2094654DA6AA2F4459D","title":"上南中学北校","lon":"121.51528","lat":"31.18153","category":"55","category_name":"中学","address":"浦东新区南码头路1347号(近齐河路)"},{"poiid":"B2094654DA6AA2F8409E","title":"云台二小区","lon":"121.50871","lat":"31.1753","category":"47","category_name":"住宅区","address":"昌里东路190弄1-36号"},{"poiid":"B2094757D16DA7F5489A","title":"浦南幼儿园云莲校区","lon":"121.51275548","lat":"31.177339473","category":"253","category_name":"校园生活","address":"浦东新区浦东新区东明路600弄25号(近齐河路)"},{"poiid":"B2094757D06AA4F5479B","title":"锐斯桌球俱乐部","lon":"121.5143594","lat":"31.1786191","category":"171","category_name":"台球厅","address":"浦东新区昌里东路441-453号3楼(近南码头路)"},{"poiid":"B2094757D06FA5FF499F","title":"上南八村","lon":"121.511","lat":"31.1788","category":"47","category_name":"住宅区","address":"上海浦东新区成山路洪山路"},{"poiid":"B2094757D66CA2FA449A","title":"紫竹华庭","lon":"121.51096","lat":"31.177868","category":"47","category_name":"住宅区","address":"上海市浦东新区昌里东路333弄"},{"poiid":"B2094654DA6AA2F44693","title":"紫竹馨苑","lon":"121.51442","lat":"31.180164","category":"47","category_name":"住宅区","address":"上海市浦东新区昌里东路607号"},{"poiid":"B2094757D468A7FD469C","title":"好莱喔涮涮煲 昌里东路店","lon":"121.513625054","lat":"31.178814793","category":"86","category_name":"火锅店","address":"浦东新区昌里东路425号"},{"poiid":"B2094751D569A1FC419F","title":"东方医院","lon":"121.511079","lat":"31.17836","category":"162","category_name":"医院","address":null},{"poiid":"B2094757D76BABFB429A","title":"妙邻居菜馆","lon":"121.516454","lat":"31.178192","category":"72","category_name":"广东菜","address":"浦东新区南码头路1444号(近昌里东路)"},{"poiid":"B2094654DA6AA2F44898","title":"上海乔家栅小吃世界齐河店","lon":"121.51398","lat":"31.17855","category":"68","category_name":"快餐厅","address":"浦东新区昌里东路411弄1号(近南码头路)"},{"poiid":"B2094654DA6AA2FB4992","title":"行东菜馆","lon":"121.51453736263","lat":"31.179004670494","category":"76","category_name":"上海菜","address":"浦东新区昌里东路600号(近南码头路)"},{"poiid":"B2094654DA6AA2F4409E","title":"行东麻辣烫(南码头路)","lon":"121.51565","lat":"31.17916","category":"68","category_name":"快餐厅","address":"浦东新区昌里东路600号(近南码头路)"},{"poiid":"B2094757D069A1FB4393","title":"周家渡派出所","lon":"121.50838473","lat":"31.176638158","category":"609","category_name":"警察局","address":"昌里东路185号-1"},{"poiid":"B2094654DA6AA2F4469B","title":"上海电视大学浦东新区分校上南分部","lon":"121.51306","lat":"31.17977","category":"52","category_name":"高等院校","address":"浦东新区昌里东路411弄56号"},{"poiid":"B2094654DA6AA2F54393","title":"昌七小区(边门)","lon":"121.51373","lat":"31.17472","category":"47","category_name":"住宅区","address":"南码头路1675弄"},{"poiid":"B2094654DA6AA2F4499A","title":"齐八小区","lon":"121.51347","lat":"31.17868","category":"47","category_name":"住宅区","address":"昌里东路411弄1-50号"},{"poiid":"B2094654DA6AA2F8489D","title":"东明家园","lon":"121.50913","lat":"31.179401","category":"47","category_name":"住宅区","address":"上海市浦东新区东明路586号"},{"poiid":"B2094655D268A6F8469D","title":"东明综合办公楼","lon":"121.51071","lat":"31.17869","category":"46","category_name":"楼宇","address":"东明路651弄2号"},{"poiid":"B2094654DA6AA2F8409C","title":"周家渡社区卫生服务中心","lon":"121.50897","lat":"31.17708","category":"162","category_name":"医院","address":"浦东新区昌里东路239号(近南码头路)"},{"poiid":"B2094757D06BA3FE429C","title":"无名生煎","lon":"121.515798054","lat":"31.179761793","category":"68","category_name":"快餐厅","address":"浦东新区昌里东路516号(近南码头路)"},{"poiid":"B2094655D36CA6FA4999","title":"东明路","lon":"121.50985","lat":"31.17817","category":"38","category_name":"公交车站","address":""},{"poiid":"B2094757D164A1FA4393","title":"成山路陸家莊","lon":"121.51240073","lat":"31.177111168","category":"500","category_name":"未知分类","address":"上海市浦东新区成山路"},{"poiid":"B2094654DA6AA2F54192","title":"齐七小区(边门)","lon":"121.5114","lat":"31.17721","category":"47","category_name":"住宅区","address":"昌里东路395弄"},{"poiid":"B2094757D069A5FC4199","title":"陈刚海鲜大排档","lon":"121.516695888","lat":"31.1778919679","category":"88","category_name":"海鲜酒楼","address":"浦东新区南码头路(近昌里东路)"},{"poiid":"B2094655D26DA1FF439F","title":"逸耘茶馆","lon":"121.510032054","lat":"31.179444793","category":"66","category_name":"茶艺馆","address":"东明路568号昌里路齐河路间"},{"poiid":"B2094654DA6AA2F4419A","title":"段氏龙虾NO.0188","lon":"121.51646","lat":"31.17816","category":"88","category_name":"海鲜酒楼","address":""},{"poiid":"B2094654DA6AA2F54392","title":"上南中学东校","lon":"121.51294","lat":"31.17555","category":"55","category_name":"中学","address":"浦东新区邹平路10号(南码头路邹平路)"},{"poiid":"B2094654DA6AA2F54193","title":"文峰美发美容(昌里东路)","lon":"121.5117","lat":"31.17691","category":"148","category_name":"美容美发店","address":"昌里东路340"},{"poiid":"B2094654DA6AA2F5429F","title":"紫竹华庭(南门)","lon":"121.51081","lat":"31.17706","category":"48","category_name":"楼宇大门","address":"昌里东路333弄1-14号"},{"poiid":"B2094757D66EABFE479B","title":"盛风养生SPA保健中心","lon":"121.511268738","lat":"31.1782381929","category":"500","category_name":"未知分类","address":"上海昌里东路东明路"},{"poiid":"B2094757D16CA6FA4499","title":"贝孚少儿教育","lon":"121.50991958","lat":"31.179690548","category":"500","category_name":"未知分类","address":"上海东明路齐河路"},{"poiid":"B2094655D268A4F4449B","title":"昌四小区(边门)","lon":"121.51316","lat":"31.17697","category":"47","category_name":"住宅区","address":"南码头路1696弄"},{"poiid":"B2094757D168A4F44299","title":"云一小区","lon":"121.513","lat":"31.1783","category":"252","category_name":"楼宇机构","address":"上海市浦东新区昌里路"},{"poiid":"B2094757D66CA1F4499F","title":"留夫黑鸭(昌里路二店)","lon":"121.51162","lat":"31.17673","category":"247","category_name":"餐饮美食","address":"上海浦东新区昌里路332号(近长清路)  "},{"poiid":"B2094655D26DA4F94892","title":"凡仔汉堡 邹平路店","lon":"121.512975","lat":"31.175792","category":"68","category_name":"快餐厅","address":"浦东新区邹平路92号(近南码头路)"},{"poiid":"B2094750D76EABF4409D","title":"谢记重庆麻辣烫(昌里东路店)","lon":"121.515","lat":"31.1792","category":"68","category_name":"快餐厅","address":"浦东新区昌里东路564号(近南码头路)"},{"poiid":"B2094757D065ABFE4393","title":"乔家栅(齐河店)","lon":"121.51265428","lat":"31.178264443","category":"500","category_name":"未知分类","address":"上海昌里东路411弄1号"},{"poiid":"B2094655D26BA1FF449C","title":"南码头路昌里东路","lon":"121.51529","lat":"31.17986","category":"38","category_name":"公交车站","address":""},{"poiid":"B2094757D06FA4F9479D","title":"阿明小菜","lon":"121.517","lat":"31.17739","category":"76","category_name":"上海菜","address":"浦东新区南码头路1510号(近昌里东路)"},{"poiid":"B2094757D16FA6FE479E","title":"昌里東路","lon":"121.51064373","lat":"31.178186191","category":"500","category_name":"未知分类","address":"上海昌里東路"},{"poiid":"B2094757D068A7F5409B","title":"京世日韩专业烫染店(昌里店)","lon":"121.51645","lat":"31.17933","category":"148","category_name":"美容美发店","address":"上海浦东新区昌里东路608号(近南码头路)  "},{"poiid":"B2094757D06FAAFD4498","title":"齐七小区","lon":"121.51158","lat":"31.178322","category":"47","category_name":"住宅区","address":"昌里东路395弄57"},{"poiid":"B2094757D068ABFA439F","title":"亿家门(南码头店)","lon":"121.51664","lat":"31.17704","category":"76","category_name":"上海菜","address":"浦东新区南码头路1444号(近昌里东路)"},{"poiid":"B2094757D16FA7FD489E","title":"浦东新区周家渡地段医院","lon":"121.508960738","lat":"31.1768931643","category":"162","category_name":"医院","address":"上海浦东新"},{"poiid":"B2094654DA6AA2F4419B","title":"客家小厨(南码头店)","lon":"121.51648","lat":"31.17814","category":"72","category_name":"广东菜","address":"浦东新区南码头路1444号"},{"poiid":"B2094654DA6AA2FB489C","title":"中国电信昌里东路营业厅","lon":"121.51515","lat":"31.17937","category":"151","category_name":"电讯营业厅","address":"上海市浦东新区昌里东路501号(近南码头路)"},{"poiid":"B2094655D26DA7F8479E","title":"爵仕悦","lon":"121.513","lat":"31.1754","category":"47","category_name":"住宅区","address":"云台路529弄1-15号"},{"poiid":"B2094654DA6AA2F8419E","title":"新亚大包 昌里店","lon":"121.509641054","lat":"31.175951793","category":"68","category_name":"快餐厅","address":"浦东新区东明路1096号(昌里东路口)"},{"poiid":"B2094654DA6AA2F54498","title":"昌四小区","lon":"121.51489","lat":"31.176691","category":"47","category_name":"住宅区","address":"南码头路1696弄1-62号"},{"poiid":"B2094654DA6AA2F4459D","title":"上南中学北校","lon":"121.51528","lat":"31.18153","category":"55","category_name":"中学","address":"浦东新区南码头路1347号(近齐河路)"},{"poiid":"B2094654DA6AA2F8409E","title":"云台二小区","lon":"121.50871","lat":"31.1753","category":"47","category_name":"住宅区","address":"昌里东路190弄1-36号"},{"poiid":"B2094757D16DA7F5489A","title":"浦南幼儿园云莲校区","lon":"121.51275548","lat":"31.177339473","category":"253","category_name":"校园生活","address":"浦东新区浦东新区东明路600弄25号(近齐河路)"},{"poiid":"B2094757D06AA4F5479B","title":"锐斯桌球俱乐部","lon":"121.5143594","lat":"31.1786191","category":"171","category_name":"台球厅","address":"浦东新区昌里东路441-453号3楼(近南码头路)"},{"poiid":"B2094757D06FA5FF499F","title":"上南八村","lon":"121.511","lat":"31.1788","category":"47","category_name":"住宅区","address":"上海浦东新区成山路洪山路"},{"poiid":"B2094757D66CA2FA449A","title":"紫竹华庭","lon":"121.51096","lat":"31.177868","category":"47","category_name":"住宅区","address":"上海市浦东新区昌里东路333弄"},{"poiid":"B2094654DA6AA2F44693","title":"紫竹馨苑","lon":"121.51442","lat":"31.180164","category":"47","category_name":"住宅区","address":"上海市浦东新区昌里东路607号"},{"poiid":"B2094757D468A7FD469C","title":"好莱喔涮涮煲 昌里东路店","lon":"121.513625054","lat":"31.178814793","category":"86","category_name":"火锅店","address":"浦东新区昌里东路425号"},{"poiid":"B2094751D569A1FC419F","title":"东方医院","lon":"121.511079","lat":"31.17836","category":"162","category_name":"医院","address":null},{"poiid":"B2094757D76BABFB429A","title":"妙邻居菜馆","lon":"121.516454","lat":"31.178192","category":"72","category_name":"广东菜","address":"浦东新区南码头路1444号(近昌里东路)"},{"poiid":"B2094654DA6AA2F44898","title":"上海乔家栅小吃世界齐河店","lon":"121.51398","lat":"31.17855","category":"68","category_name":"快餐厅","address":"浦东新区昌里东路411弄1号(近南码头路)"},{"poiid":"B2094654DA6AA2FB4992","title":"行东菜馆","lon":"121.51453736263","lat":"31.179004670494","category":"76","category_name":"上海菜","address":"浦东新区昌里东路600号(近南码头路)"},{"poiid":"B2094654DA6AA2F4409E","title":"行东麻辣烫(南码头路)","lon":"121.51565","lat":"31.17916","category":"68","category_name":"快餐厅","address":"浦东新区昌里东路600号(近南码头路)"},{"poiid":"B2094757D069A1FB4393","title":"周家渡派出所","lon":"121.50838473","lat":"31.176638158","category":"609","category_name":"警察局","address":"昌里东路185号-1"},{"poiid":"B2094654DA6AA2F4469B","title":"上海电视大学浦东新区分校上南分部","lon":"121.51306","lat":"31.17977","category":"52","category_name":"高等院校","address":"浦东新区昌里东路411弄56号"},{"poiid":"B2094654DA6AA2F54393","title":"昌七小区(边门)","lon":"121.51373","lat":"31.17472","category":"47","category_name":"住宅区","address":"南码头路1675弄"},{"poiid":"B2094654DA6AA2F4499A","title":"齐八小区","lon":"121.51347","lat":"31.17868","category":"47","category_name":"住宅区","address":"昌里东路411弄1-50号"},{"poiid":"B2094654DA6AA2F8489D","title":"东明家园","lon":"121.50913","lat":"31.179401","category":"47","category_name":"住宅区","address":"上海市浦东新区东明路586号"},{"poiid":"B2094655D268A6F8469D","title":"东明综合办公楼","lon":"121.51071","lat":"31.17869","category":"46","category_name":"楼宇","address":"东明路651弄2号"},{"poiid":"B2094654DA6AA2F8409C","title":"周家渡社区卫生服务中心","lon":"121.50897","lat":"31.17708","category":"162","category_name":"医院","address":"浦东新区昌里东路239号(近南码头路)"},{"poiid":"B2094757D06BA3FE429C","title":"无名生煎","lon":"121.515798054","lat":"31.179761793","category":"68","category_name":"快餐厅","address":"浦东新区昌里东路516号(近南码头路)"},{"poiid":"B2094655D36CA6FA4999","title":"东明路","lon":"121.50985","lat":"31.17817","category":"38","category_name":"公交车站","address":""},{"poiid":"B2094757D164A1FA4393","title":"成山路陸家莊","lon":"121.51240073","lat":"31.177111168","category":"500","category_name":"未知分类","address":"上海市浦东新区成山路"},{"poiid":"B2094654DA6AA2F54192","title":"齐七小区(边门)","lon":"121.5114","lat":"31.17721","category":"47","category_name":"住宅区","address":"昌里东路395弄"},{"poiid":"B2094757D069A5FC4199","title":"陈刚海鲜大排档","lon":"121.516695888","lat":"31.1778919679","category":"88","category_name":"海鲜酒楼","address":"浦东新区南码头路(近昌里东路)"},{"poiid":"B2094655D26DA1FF439F","title":"逸耘茶馆","lon":"121.510032054","lat":"31.179444793","category":"66","category_name":"茶艺馆","address":"东明路568号昌里路齐河路间"},{"poiid":"B2094654DA6AA2F4419A","title":"段氏龙虾NO.0188","lon":"121.51646","lat":"31.17816","category":"88","category_name":"海鲜酒楼","address":""},{"poiid":"B2094654DA6AA2F54392","title":"上南中学东校","lon":"121.51294","lat":"31.17555","category":"55","category_name":"中学","address":"浦东新区邹平路10号(南码头路邹平路)"},{"poiid":"B2094654DA6AA2F54193","title":"文峰美发美容(昌里东路)","lon":"121.5117","lat":"31.17691","category":"148","category_name":"美容美发店","address":"昌里东路340"},{"poiid":"B2094654DA6AA2F5429F","title":"紫竹华庭(南门)","lon":"121.51081","lat":"31.17706","category":"48","category_name":"楼宇大门","address":"昌里东路333弄1-14号"},{"poiid":"B2094757D66EABFE479B","title":"盛风养生SPA保健中心","lon":"121.511268738","lat":"31.1782381929","category":"500","category_name":"未知分类","address":"上海昌里东路东明路"},{"poiid":"B2094757D16CA6FA4499","title":"贝孚少儿教育","lon":"121.50991958","lat":"31.179690548","category":"500","category_name":"未知分类","address":"上海东明路齐河路"},{"poiid":"B2094655D268A4F4449B","title":"昌四小区(边门)","lon":"121.51316","lat":"31.17697","category":"47","category_name":"住宅区","address":"南码头路1696弄"},{"poiid":"B2094757D168A4F44299","title":"云一小区","lon":"121.513","lat":"31.1783","category":"252","category_name":"楼宇机构","address":"上海市浦东新区昌里路"},{"poiid":"B2094757D66CA1F4499F","title":"留夫黑鸭(昌里路二店)","lon":"121.51162","lat":"31.17673","category":"247","category_name":"餐饮美食","address":"上海浦东新区昌里路332号(近长清路)  "},{"poiid":"B2094655D26DA4F94892","title":"凡仔汉堡 邹平路店","lon":"121.512975","lat":"31.175792","category":"68","category_name":"快餐厅","address":"浦东新区邹平路92号(近南码头路)"},{"poiid":"B2094750D76EABF4409D","title":"谢记重庆麻辣烫(昌里东路店)","lon":"121.515","lat":"31.1792","category":"68","category_name":"快餐厅","address":"浦东新区昌里东路564号(近南码头路)"},{"poiid":"B2094757D065ABFE4393","title":"乔家栅(齐河店)","lon":"121.51265428","lat":"31.178264443","category":"500","category_name":"未知分类","address":"上海昌里东路411弄1号"},{"poiid":"B2094655D26BA1FF449C","title":"南码头路昌里东路","lon":"121.51529","lat":"31.17986","category":"38","category_name":"公交车站","address":""},{"poiid":"B2094757D06FA4F9479D","title":"阿明小菜","lon":"121.517","lat":"31.17739","category":"76","category_name":"上海菜","address":"浦东新区南码头路1510号(近昌里东路)"},{"poiid":"B2094757D16FA6FE479E","title":"昌里東路","lon":"121.51064373","lat":"31.178186191","category":"500","category_name":"未知分类","address":"上海昌里東路"},{"poiid":"B2094757D068A7F5409B","title":"京世日韩专业烫染店(昌里店)","lon":"121.51645","lat":"31.17933","category":"148","category_name":"美容美发店","address":"上海浦东新区昌里东路608号(近南码头路)  "},{"poiid":"B2094757D06FAAFD4498","title":"齐七小区","lon":"121.51158","lat":"31.178322","category":"47","category_name":"住宅区","address":"昌里东路395弄57"},{"poiid":"B2094757D068ABFA439F","title":"亿家门(南码头店)","lon":"121.51664","lat":"31.17704","category":"76","category_name":"上海菜","address":"浦东新区南码头路1444号(近昌里东路)"},{"poiid":"B2094757D16FA7FD489E","title":"浦东新区周家渡地段医院","lon":"121.508960738","lat":"31.1768931643","category":"162","category_name":"医院","address":"上海浦东新"},{"poiid":"B2094654DA6AA2F4419B","title":"客家小厨(南码头店)","lon":"121.51648","lat":"31.17814","category":"72","category_name":"广东菜","address":"浦东新区南码头路1444号"},{"poiid":"B2094654DA6AA2FB489C","title":"中国电信昌里东路营业厅","lon":"121.51515","lat":"31.17937","category":"151","category_name":"电讯营业厅","address":"上海市浦东新区昌里东路501号(近南码头路)"},{"poiid":"B2094655D26DA7F8479E","title":"爵仕悦","lon":"121.513","lat":"31.1754","category":"47","category_name":"住宅区","address":"云台路529弄1-15号"},{"poiid":"B2094654DA6AA2F8419E","title":"新亚大包 昌里店","lon":"121.509641054","lat":"31.175951793","category":"68","category_name":"快餐厅","address":"浦东新区东明路1096号(昌里东路口)"},{"poiid":"B2094654DA6AA2F54498","title":"昌四小区","lon":"121.51489","lat":"31.176691","category":"47","category_name":"住宅区","address":"南码头路1696弄1-62号"},{"poiid":"B2094654DA6AA2F4459D","title":"上南中学北校","lon":"121.51528","lat":"31.18153","category":"55","category_name":"中学","address":"浦东新区南码头路1347号(近齐河路)"},{"poiid":"B2094654DA6AA2F8409E","title":"云台二小区","lon":"121.50871","lat":"31.1753","category":"47","category_name":"住宅区","address":"昌里东路190弄1-36号"},{"poiid":"B2094757D16DA7F5489A","title":"浦南幼儿园云莲校区","lon":"121.51275548","lat":"31.177339473","category":"253","category_name":"校园生活","address":"浦东新区浦东新区东明路600弄25号(近齐河路)"},{"poiid":"B2094757D06AA4F5479B","title":"锐斯桌球俱乐部","lon":"121.5143594","lat":"31.1786191","category":"171","category_name":"台球厅","address":"浦东新区昌里东路441-453号3楼(近南码头路)"},{"poiid":"B2094757D06FA5FF499F","title":"上南八村","lon":"121.511","lat":"31.1788","category":"47","category_name":"住宅区","address":"上海浦东新区成山路洪山路"},{"poiid":"B2094757D66CA2FA449A","title":"紫竹华庭","lon":"121.51096","lat":"31.177868","category":"47","category_name":"住宅区","address":"上海市浦东新区昌里东路333弄"},{"poiid":"B2094654DA6AA2F44693","title":"紫竹馨苑","lon":"121.51442","lat":"31.180164","category":"47","category_name":"住宅区","address":"上海市浦东新区昌里东路607号"},{"poiid":"B2094757D468A7FD469C","title":"好莱喔涮涮煲 昌里东路店","lon":"121.513625054","lat":"31.178814793","category":"86","category_name":"火锅店","address":"浦东新区昌里东路425号"},{"poiid":"B2094751D569A1FC419F","title":"东方医院","lon":"121.511079","lat":"31.17836","category":"162","category_name":"医院","address":null},{"poiid":"B2094757D76BABFB429A","title":"妙邻居菜馆","lon":"121.516454","lat":"31.178192","category":"72","category_name":"广东菜","address":"浦东新区南码头路1444号(近昌里东路)"},{"poiid":"B2094654DA6AA2F44898","title":"上海乔家栅小吃世界齐河店","lon":"121.51398","lat":"31.17855","category":"68","category_name":"快餐厅","address":"浦东新区昌里东路411弄1号(近南码头路)"},{"poiid":"B2094654DA6AA2FB4992","title":"行东菜馆","lon":"121.51453736263","lat":"31.179004670494","category":"76","category_name":"上海菜","address":"浦东新区昌里东路600号(近南码头路)"},{"poiid":"B2094654DA6AA2F4409E","title":"行东麻辣烫(南码头路)","lon":"121.51565","lat":"31.17916","category":"68","category_name":"快餐厅","address":"浦东新区昌里东路600号(近南码头路)"},{"poiid":"B2094757D069A1FB4393","title":"周家渡派出所","lon":"121.50838473","lat":"31.176638158","category":"609","category_name":"警察局","address":"昌里东路185号-1"},{"poiid":"B2094654DA6AA2F4469B","title":"上海电视大学浦东新区分校上南分部","lon":"121.51306","lat":"31.17977","category":"52","category_name":"高等院校","address":"浦东新区昌里东路411弄56号"},{"poiid":"B2094654DA6AA2F54393","title":"昌七小区(边门)","lon":"121.51373","lat":"31.17472","category":"47","category_name":"住宅区","address":"南码头路1675弄"},{"poiid":"B2094654DA6AA2F4499A","title":"齐八小区","lon":"121.51347","lat":"31.17868","category":"47","category_name":"住宅区","address":"昌里东路411弄1-50号"},{"poiid":"B2094654DA6AA2F8489D","title":"东明家园","lon":"121.50913","lat":"31.179401","category":"47","category_name":"住宅区","address":"上海市浦东新区东明路586号"},{"poiid":"B2094655D268A6F8469D","title":"东明综合办公楼","lon":"121.51071","lat":"31.17869","category":"46","category_name":"楼宇","address":"东明路651弄2号"},{"poiid":"B2094654DA6AA2F8409C","title":"周家渡社区卫生服务中心","lon":"121.50897","lat":"31.17708","category":"162","category_name":"医院","address":"浦东新区昌里东路239号(近南码头路)"},{"poiid":"B2094757D06BA3FE429C","title":"无名生煎","lon":"121.515798054","lat":"31.179761793","category":"68","category_name":"快餐厅","address":"浦东新区昌里东路516号(近南码头路)"},{"poiid":"B2094655D36CA6FA4999","title":"东明路","lon":"121.50985","lat":"31.17817","category":"38","category_name":"公交车站","address":""},{"poiid":"B2094757D164A1FA4393","title":"成山路陸家莊","lon":"121.51240073","lat":"31.177111168","category":"500","category_name":"未知分类","address":"上海市浦东新区成山路"},{"poiid":"B2094654DA6AA2F54192","title":"齐七小区(边门)","lon":"121.5114","lat":"31.17721","category":"47","category_name":"住宅区","address":"昌里东路395弄"},{"poiid":"B2094757D069A5FC4199","title":"陈刚海鲜大排档","lon":"121.516695888","lat":"31.1778919679","category":"88","category_name":"海鲜酒楼","address":"浦东新区南码头路(近昌里东路)"},{"poiid":"B2094655D26DA1FF439F","title":"逸耘茶馆","lon":"121.510032054","lat":"31.179444793","category":"66","category_name":"茶艺馆","address":"东明路568号昌里路齐河路间"},{"poiid":"B2094654DA6AA2F4419A","title":"段氏龙虾NO.0188","lon":"121.51646","lat":"31.17816","category":"88","category_name":"海鲜酒楼","address":""},{"poiid":"B2094654DA6AA2F54392","title":"上南中学东校","lon":"121.51294","lat":"31.17555","category":"55","category_name":"中学","address":"浦东新区邹平路10号(南码头路邹平路)"},{"poiid":"B2094654DA6AA2F54193","title":"文峰美发美容(昌里东路)","lon":"121.5117","lat":"31.17691","category":"148","category_name":"美容美发店","address":"昌里东路340"},{"poiid":"B2094654DA6AA2F5429F","title":"紫竹华庭(南门)","lon":"121.51081","lat":"31.17706","category":"48","category_name":"楼宇大门","address":"昌里东路333弄1-14号"},{"poiid":"B2094757D66EABFE479B","title":"盛风养生SPA保健中心","lon":"121.511268738","lat":"31.1782381929","category":"500","category_name":"未知分类","address":"上海昌里东路东明路"},{"poiid":"B2094757D16CA6FA4499","title":"贝孚少儿教育","lon":"121.50991958","lat":"31.179690548","category":"500","category_name":"未知分类","address":"上海东明路齐河路"},{"poiid":"B2094655D268A4F4449B","title":"昌四小区(边门)","lon":"121.51316","lat":"31.17697","category":"47","category_name":"住宅区","address":"南码头路1696弄"},{"poiid":"B2094757D168A4F44299","title":"云一小区","lon":"121.513","lat":"31.1783","category":"252","category_name":"楼宇机构","address":"上海市浦东新区昌里路"},{"poiid":"B2094757D66CA1F4499F","title":"留夫黑鸭(昌里路二店)","lon":"121.51162","lat":"31.17673","category":"247","category_name":"餐饮美食","address":"上海浦东新区昌里路332号(近长清路)  "},{"poiid":"B2094655D26DA4F94892","title":"凡仔汉堡 邹平路店","lon":"121.512975","lat":"31.175792","category":"68","category_name":"快餐厅","address":"浦东新区邹平路92号(近南码头路)"},{"poiid":"B2094750D76EABF4409D","title":"谢记重庆麻辣烫(昌里东路店)","lon":"121.515","lat":"31.1792","category":"68","category_name":"快餐厅","address":"浦东新区昌里东路564号(近南码头路)"},{"poiid":"B2094757D065ABFE4393","title":"乔家栅(齐河店)","lon":"121.51265428","lat":"31.178264443","category":"500","category_name":"未知分类","address":"上海昌里东路411弄1号"},{"poiid":"B2094655D26BA1FF449C","title":"南码头路昌里东路","lon":"121.51529","lat":"31.17986","category":"38","category_name":"公交车站","address":""},{"poiid":"B2094757D06FA4F9479D","title":"阿明小菜","lon":"121.517","lat":"31.17739","category":"76","category_name":"上海菜","address":"浦东新区南码头路1510号(近昌里东路)"},{"poiid":"B2094757D16FA6FE479E","title":"昌里東路","lon":"121.51064373","lat":"31.178186191","category":"500","category_name":"未知分类","address":"上海昌里東路"},{"poiid":"B2094757D068A7F5409B","title":"京世日韩专业烫染店(昌里店)","lon":"121.51645","lat":"31.17933","category":"148","category_name":"美容美发店","address":"上海浦东新区昌里东路608号(近南码头路)  "},{"poiid":"B2094757D06FAAFD4498","title":"齐七小区","lon":"121.51158","lat":"31.178322","category":"47","category_name":"住宅区","address":"昌里东路395弄57"},{"poiid":"B2094757D068ABFA439F","title":"亿家门(南码头店)","lon":"121.51664","lat":"31.17704","category":"76","category_name":"上海菜","address":"浦东新区南码头路1444号(近昌里东路)"},{"poiid":"B2094757D16FA7FD489E","title":"浦东新区周家渡地段医院","lon":"121.508960738","lat":"31.1768931643","category":"162","category_name":"医院","address":"上海浦东新"},{"poiid":"B2094654DA6AA2F4419B","title":"客家小厨(南码头店)","lon":"121.51648","lat":"31.17814","category":"72","category_name":"广东菜","address":"浦东新区南码头路1444号"},{"poiid":"B2094654DA6AA2FB489C","title":"中国电信昌里东路营业厅","lon":"121.51515","lat":"31.17937","category":"151","category_name":"电讯营业厅","address":"上海市浦东新区昌里东路501号(近南码头路)"},{"poiid":"B2094655D26DA7F8479E","title":"爵仕悦","lon":"121.513","lat":"31.1754","category":"47","category_name":"住宅区","address":"云台路529弄1-15号"},{"poiid":"B2094654DA6AA2F8419E","title":"新亚大包 昌里店","lon":"121.509641054","lat":"31.175951793","category":"68","category_name":"快餐厅","address":"浦东新区东明路1096号(昌里东路口)"},{"poiid":"B2094654DA6AA2F54498","title":"昌四小区","lon":"121.51489","lat":"31.176691","category":"47","category_name":"住宅区","address":"南码头路1696弄1-62号"},{"poiid":"B2094654DA6AA2F4459D","title":"上南中学北校","lon":"121.51528","lat":"31.18153","category":"55","category_name":"中学","address":"浦东新区南码头路1347号(近齐河路)"},{"poiid":"B2094654DA6AA2F8409E","title":"云台二小区","lon":"121.50871","lat":"31.1753","category":"47","category_name":"住宅区","address":"昌里东路190弄1-36号"},{"poiid":"B2094757D16DA7F5489A","title":"浦南幼儿园云莲校区","lon":"121.51275548","lat":"31.177339473","category":"253","category_name":"校园生活","address":"浦东新区浦东新区东明路600弄25号(近齐河路)"},{"poiid":"B2094757D06AA4F5479B","title":"锐斯桌球俱乐部","lon":"121.5143594","lat":"31.1786191","category":"171","category_name":"台球厅","address":"浦东新区昌里东路441-453号3楼(近南码头路)"},{"poiid":"B2094757D06FA5FF499F","title":"上南八村","lon":"121.511","lat":"31.1788","category":"47","category_name":"住宅区","address":"上海浦东新区成山路洪山路"},{"poiid":"B2094757D66CA2FA449A","title":"紫竹华庭","lon":"121.51096","lat":"31.177868","category":"47","category_name":"住宅区","address":"上海市浦东新区昌里东路333弄"},{"poiid":"B2094654DA6AA2F44693","title":"紫竹馨苑","lon":"121.51442","lat":"31.180164","category":"47","category_name":"住宅区","address":"上海市浦东新区昌里东路607号"},{"poiid":"B2094757D468A7FD469C","title":"好莱喔涮涮煲 昌里东路店","lon":"121.513625054","lat":"31.178814793","category":"86","category_name":"火锅店","address":"浦东新区昌里东路425号"},{"poiid":"B2094751D569A1FC419F","title":"东方医院","lon":"121.511079","lat":"31.17836","category":"162","category_name":"医院","address":null},{"poiid":"B2094757D76BABFB429A","title":"妙邻居菜馆","lon":"121.516454","lat":"31.178192","category":"72","category_name":"广东菜","address":"浦东新区南码头路1444号(近昌里东路)"},{"poiid":"B2094654DA6AA2F44898","title":"上海乔家栅小吃世界齐河店","lon":"121.51398","lat":"31.17855","category":"68","category_name":"快餐厅","address":"浦东新区昌里东路411弄1号(近南码头路)"},{"poiid":"B2094654DA6AA2FB4992","title":"行东菜馆","lon":"121.51453736263","lat":"31.179004670494","category":"76","category_name":"上海菜","address":"浦东新区昌里东路600号(近南码头路)"},{"poiid":"B2094654DA6AA2F4409E","title":"行东麻辣烫(南码头路)","lon":"121.51565","lat":"31.17916","category":"68","category_name":"快餐厅","address":"浦东新区昌里东路600号(近南码头路)"},{"poiid":"B2094757D069A1FB4393","title":"周家渡派出所","lon":"121.50838473","lat":"31.176638158","category":"609","category_name":"警察局","address":"昌里东路185号-1"},{"poiid":"B2094654DA6AA2F4469B","title":"上海电视大学浦东新区分校上南分部","lon":"121.51306","lat":"31.17977","category":"52","category_name":"高等院校","address":"浦东新区昌里东路411弄56号"},{"poiid":"B2094654DA6AA2F54393","title":"昌七小区(边门)","lon":"121.51373","lat":"31.17472","category":"47","category_name":"住宅区","address":"南码头路1675弄"},{"poiid":"B2094654DA6AA2F4499A","title":"齐八小区","lon":"121.51347","lat":"31.17868","category":"47","category_name":"住宅区","address":"昌里东路411弄1-50号"},{"poiid":"B2094654DA6AA2F8489D","title":"东明家园","lon":"121.50913","lat":"31.179401","category":"47","category_name":"住宅区","address":"上海市浦东新区东明路586号"},{"poiid":"B2094655D268A6F8469D","title":"东明综合办公楼","lon":"121.51071","lat":"31.17869","category":"46","category_name":"楼宇","address":"东明路651弄2号"},{"poiid":"B2094654DA6AA2F8409C","title":"周家渡社区卫生服务中心","lon":"121.50897","lat":"31.17708","category":"162","category_name":"医院","address":"浦东新区昌里东路239号(近南码头路)"},{"poiid":"B2094757D06BA3FE429C","title":"无名生煎","lon":"121.515798054","lat":"31.179761793","category":"68","category_name":"快餐厅","address":"浦东新区昌里东路516号(近南码头路)"},{"poiid":"B2094655D36CA6FA4999","title":"东明路","lon":"121.50985","lat":"31.17817","category":"38","category_name":"公交车站","address":""},{"poiid":"B2094757D164A1FA4393","title":"成山路陸家莊","lon":"121.51240073","lat":"31.177111168","category":"500","category_name":"未知分类","address":"上海市浦东新区成山路"},{"poiid":"B2094654DA6AA2F54192","title":"齐七小区(边门)","lon":"121.5114","lat":"31.17721","category":"47","category_name":"住宅区","address":"昌里东路395弄"},{"poiid":"B2094757D069A5FC4199","title":"陈刚海鲜大排档","lon":"121.516695888","lat":"31.1778919679","category":"88","category_name":"海鲜酒楼","address":"浦东新区南码头路(近昌里东路)"},{"poiid":"B2094655D26DA1FF439F","title":"逸耘茶馆","lon":"121.510032054","lat":"31.179444793","category":"66","category_name":"茶艺馆","address":"东明路568号昌里路齐河路间"},{"poiid":"B2094654DA6AA2F4419A","title":"段氏龙虾NO.0188","lon":"121.51646","lat":"31.17816","category":"88","category_name":"海鲜酒楼","address":""},{"poiid":"B2094654DA6AA2F54392","title":"上南中学东校","lon":"121.51294","lat":"31.17555","category":"55","category_name":"中学","address":"浦东新区邹平路10号(南码头路邹平路)"},{"poiid":"B2094654DA6AA2F54193","title":"文峰美发美容(昌里东路)","lon":"121.5117","lat":"31.17691","category":"148","category_name":"美容美发店","address":"昌里东路340"},{"poiid":"B2094654DA6AA2F5429F","title":"紫竹华庭(南门)","lon":"121.51081","lat":"31.17706","category":"48","category_name":"楼宇大门","address":"昌里东路333弄1-14号"},{"poiid":"B2094757D66EABFE479B","title":"盛风养生SPA保健中心","lon":"121.511268738","lat":"31.1782381929","category":"500","category_name":"未知分类","address":"上海昌里东路东明路"},{"poiid":"B2094757D16CA6FA4499","title":"贝孚少儿教育","lon":"121.50991958","lat":"31.179690548","category":"500","category_name":"未知分类","address":"上海东明路齐河路"},{"poiid":"B2094655D268A4F4449B","title":"昌四小区(边门)","lon":"121.51316","lat":"31.17697","category":"47","category_name":"住宅区","address":"南码头路1696弄"},{"poiid":"B2094757D168A4F44299","title":"云一小区","lon":"121.513","lat":"31.1783","category":"252","category_name":"楼宇机构","address":"上海市浦东新区昌里路"},{"poiid":"B2094757D66CA1F4499F","title":"留夫黑鸭(昌里路二店)","lon":"121.51162","lat":"31.17673","category":"247","category_name":"餐饮美食","address":"上海浦东新区昌里路332号(近长清路)  "},{"poiid":"B2094655D26DA4F94892","title":"凡仔汉堡 邹平路店","lon":"121.512975","lat":"31.175792","category":"68","category_name":"快餐厅","address":"浦东新区邹平路92号(近南码头路)"},{"poiid":"B2094750D76EABF4409D","title":"谢记重庆麻辣烫(昌里东路店)","lon":"121.515","lat":"31.1792","category":"68","category_name":"快餐厅","address":"浦东新区昌里东路564号(近南码头路)"},{"poiid":"B2094757D065ABFE4393","title":"乔家栅(齐河店)","lon":"121.51265428","lat":"31.178264443","category":"500","category_name":"未知分类","address":"上海昌里东路411弄1号"}]