[{"poiid":"B2094654DA6FA5F8429A","title":"宏伊国际广场","lon":"121.491","lat":"31.2427","category":"46","category_name":"楼宇","address":"张杨路560号,张杨路620号"},{"poiid":"B2094757D66DA7F4469B","title":"外滩","lon":"121.490535738","lat":"31.2383514732","category":"240","category_name":"国家级景点","address":"上海市中心区黄浦江畔"},{"poiid":"B2094654DB6BABFD469C","title":"上海和平饭店","lon":"121.48945","lat":"31.23901","category":"213","category_name":"五星级宾馆","address":"黄浦区南京东路20号和平饭店北楼夹层(近中山东一路)"},{"poiid":"B209475CD564A7F84292","title":"上海滩新天地店","lon":"121.47463","lat":"31.22164","category":"119","category_name":"商场","address":"\"太仓路181弄新天地北里15号\r\n\""},{"poiid":"B209475CD564A7F84392","title":"上海滩浦东香格里拉店","lon":"121.50058","lat":"31.23634","category":"119","category_name":"商场","address":"浦东富成路33号香格里拉酒店内大堂层"},{"poiid":"B2094757D06EAAFB419B","title":"罗斯福会所 The House of Roosevelt","lon":"121.49012383","lat":"31.240403643","category":"94","category_name":"西餐厅","address":"黄浦区中山东一路27号罗斯福8楼"},{"poiid":"B2094654DA6FAAF84098","title":"外滩中心","lon":"121.494","lat":"31.238","category":"46","category_name":"楼宇","address":"上海黄浦区延安东路222号"},{"poiid":"B2094654DB65A2FF469A","title":"外白渡桥","lon":"121.49018","lat":"31.24281","category":"250","category_name":"公园户外","address":"上海黄浦区大名路(苏州河上)"},{"poiid":"B2094757D064A5FD4593","title":"外灘","lon":"121.49375073","lat":"31.240939528","category":"500","category_name":"未知分类","address":"上海市黄浦区南苏州路"},{"poiid":"B2094750D26FA4F94393","title":"MUSE","lon":"121.489089","lat":"31.240596","category":"260","category_name":"其他","address":"黄浦区北京东路99号益丰外滩源5楼(近圆明园路)"},{"poiid":"B2094757D06FA1FD439B","title":"COSTA COFFEE(新外滩店)","lon":"121.490879","lat":"31.240587","category":"65","category_name":"咖啡厅","address":"黄浦区中山东一路388号(北京东路口)"},{"poiid":"B2094757D06FA7F5479A","title":"海鸥饭店","lon":"121.49201","lat":"31.24348","category":"217","category_name":"旅馆招待所","address":"上海市虹口区黄浦路60号(外滩地区,近北苏州路)"},{"poiid":"B2094750DA65A3F5489E","title":"御宝轩","lon":"121.489006","lat":"31.24068","category":"72","category_name":"广东菜","address":"黄浦区北京东路99号(近圆明园路)"},{"poiid":"B2094757D06FA1FC439D","title":"Bar Rouge","lon":"121.49011","lat":"31.2386","category":"260","category_name":"其他","address":"黄浦区中山东一路18号外滩18号7楼(近南京东路)"},{"poiid":"B2094757D06FA5FC439A","title":"Mr &amp; Mrs Bund","lon":"121.4901","lat":"31.23816","category":"94","category_name":"西餐厅","address":"上海黄浦区中山东一路18号外滩18号6楼(近南京东路)"},{"poiid":"B2094750D464A6F94792","title":"星巴克","lon":"121.490264","lat":"31.240295","category":"247","category_name":"餐饮美食","address":"黄浦区中山东一路363号(近北京东路)"},{"poiid":"B2094757D06FA2F5489C","title":"中国银行(上海市分行营业部)","lon":"121.489781","lat":"31.239521","category":"150","category_name":"银行","address":"上海市黄浦区中山东一路23号"},{"poiid":"B2094654DB6AA0FF409B","title":"海鸥滨江观景餐厅","lon":"121.49178","lat":"31.24379","category":"91","category_name":"台湾菜","address":"虹口区黄浦路60号海鸥饭店外防汛墙上(近苏州路)"},{"poiid":"B2094757D06BABFB449A","title":"Shook！上海","lon":"121.49010773","lat":"31.238661479","category":"94","category_name":"西餐厅","address":"黄浦区南京东路23号5-6楼(外滩19号)"},{"poiid":"B2094757D069A2FA419B","title":"哈根达斯(外滩店)","lon":"121.49029","lat":"31.23784","category":"113","category_name":"冷饮店","address":"黄浦区中山东一路365号(近九江路)"},{"poiid":"B2094757D468A4FC4598","title":"艾利爵士餐厅 Sir Elly's Restaurant & Bar","lon":"121.490123054","lat":"31.240919793","category":"97","category_name":"法式菜品餐厅","address":"黄浦区中山东一路32号半岛酒店13楼(近北京东路)"},{"poiid":"B2094757D16CA4FE469A","title":"罗斯福9楼露天酒吧","lon":"121.49195883","lat":"31.237938814","category":"172","category_name":"酒吧","address":"上海外滩27号"},{"poiid":"B2094750D06EAAFB419A","title":"Muse on The Bund","lon":"121.489181","lat":"31.240453","category":"248","category_name":"生活娱乐","address":"黄浦区北京东路99号益丰外滩源5F"},{"poiid":"B2094757D16AA6FE4393","title":"海鸥坊","lon":"121.493078738","lat":"31.2429645715","category":"500","category_name":"未知分类","address":"上海陆家嘴滨江大道"},{"poiid":"B2094757DB6FA2FF419C","title":"避風塘","lon":"121.4943869958333","lat":"31.23857748583332","category":"500","category_name":"未知分类","address":"正大廣場"},{"poiid":"B2094757D06FA2FD4298","title":"上海陈毅广场","lon":"121.490514434","lat":"31.2389924275","category":"250","category_name":"公园户外","address":"黄浦区中山东一路外滩(近南京东路)"},{"poiid":"B2094757D06FA3F9419B","title":"外滩70号","lon":"121.491915686","lat":"31.2439247339","category":"47","category_name":"住宅区","address":"虹口区黄浦路70号(海鸥饭店旁)"},{"poiid":"B2094655D26BA4FD489D","title":"中行大楼","lon":"121.48978","lat":"31.23953","category":"46","category_name":"楼宇","address":"重庆北部新区金渝大道89号(北部新区管委会对面)"},{"poiid":"B2094655D265A0F5459F","title":"斯沃琪和平饭店艺术中心","lon":"121.48965","lat":"31.23871","category":"183","category_name":"展览馆","address":"黄浦区南京东路23号(近中山东一路)"},{"poiid":"B2094752DA6DA0F8499D","title":"星期五餐厅Friday","lon":"121.493575","lat":"31.238085","category":"247","category_name":"餐饮美食","address":"上海浦东陆家嘴富城路16号"},{"poiid":"B2094757DA6AAAF54598","title":"Matto","lon":"121.4938641230534","lat":"31.23920718760844","category":"247","category_name":"餐饮美食","address":"浦东正大广场1楼"},{"poiid":"B2094655D26EAAF4479C","title":"仙踪林(滨江店)","lon":"121.4957","lat":"31.23923","category":"247","category_name":"餐饮美食","address":"浦东新区陆家嘴西路2967号北滨江大道A座(丰和路陆家嘴西路)"},{"poiid":"B2094654DA6FA5FA4499","title":"解放日报大厦","lon":"121.491","lat":"31.2418","category":"46","category_name":"楼宇","address":"铁西兴华南街与十马路交汇处"},{"poiid":"B2094655D26DA3FF489A","title":"Bund18","lon":"121.48978","lat":"31.23842","category":"119","category_name":"商场","address":"中山东一路18"},{"poiid":"B2094757D068A4FB4692","title":"外滩观光隧道","lon":"121.49087","lat":"31.23984","category":"260","category_name":"其他","address":"黄浦区外滩中山东一路300号(外滩与陆家嘴间)"},{"poiid":"B2094751D268A4FC4798","title":"罗斯福八楼色戒餐厅酒吧","lon":"121.489883","lat":"31.240287","category":"247","category_name":"餐饮美食","address":"黄浦区中山东一路27号"},{"poiid":"B2094757D76AA1F8469A","title":"半岛茶座","lon":"121.490114054","lat":"31.240935793","category":"99","category_name":"泰国／越南菜品餐厅","address":"黄浦区中山东一路32号半岛酒店2楼(近北京东路)"},{"poiid":"B2094757D069A3F8409A","title":"中央大厦","lon":"121.49451437013","lat":"31.24349460374","category":"46","category_name":"楼宇","address":"上海市四川中路321号"},{"poiid":"B2094757D068A5F54292","title":"人民英雄纪念塔","lon":"121.49044","lat":"31.24202","category":"260","category_name":"其他","address":"黄浦区中山东一路500号黄浦公园(近黄浦公园)"},{"poiid":"B2094757D16CA3FE469A","title":"外滩18号十八空间Space18","lon":"121.490429722","lat":"31.240429529","category":"184","category_name":"美术馆","address":"中山东一路18号外滩18号(近南京东路)"},{"poiid":"B2094654DA6FA4F8429B","title":"中国工商银行上海市分行营业部","lon":"121.48982","lat":"31.23983","category":"150","category_name":"银行","address":"中山东一路24"},{"poiid":"B209475DD664A2F4499C","title":"paris rouge","lon":"121.492179","lat":"31.240259","category":"247","category_name":"餐饮美食","address":"上海市 圆明园路133号1楼"},{"poiid":"B2094757D06BA3FD4499","title":"俄罗斯驻上海总领事馆","lon":"121.49113","lat":"31.24361","category":"179","category_name":"音乐厅","address":"虹口区黄浦路20号(黄浦路金山路)"},{"poiid":"B2094753D26EA7FB439D","title":"信不信由你博物馆","lon":"121.493258","lat":"31.240333","category":"500","category_name":"未知分类","address":"上海市 上海市浦东新区滨江大道2789号外滩观光隧道B2楼"},{"poiid":"B2094757D569A6FC409C","title":"许留山","lon":"121.491199","lat":"31.24170709","category":"95","category_name":"日本料理","address":"中山东一路外滩451"},{"poiid":"B2094751D56AA2FD419E","title":"广州焦叶","lon":"121.4931247","lat":"31.2409539","category":"500","category_name":"未知分类","address":"正大广场"},{"poiid":"B2094752D36DABFB4299","title":"Capo at Rockbund","lon":"121.491364","lat":"31.24234","category":"500","category_name":"未知分类","address":"益豐外灘源5樓"},{"poiid":"B2094752D364A4FE4298","title":"家有好面(南京东路店)","lon":"121.49277","lat":"31.2376","category":"68","category_name":"快餐厅","address":"黄浦区南京东路720号第一食品3楼(近贵州路)"},{"poiid":"B2094654DA6FABFD449E","title":"黄浦公园","lon":"121.49082","lat":"31.24142","category":"196","category_name":"公园","address":"中山东一路外滩500号"},{"poiid":"B2094757D16DA2FB419B","title":"浦西外滩滨江大道","lon":"121.490415","lat":"31.239759","category":"500","category_name":"未知分类","address":"上海浦东滨江大道江对岸"},{"poiid":"B2094757D069A6FE4593","title":"Lounge 18","lon":"121.48999","lat":"31.23888","category":"184","category_name":"美术馆","address":"黄浦区中山东一路18号外滩18号4楼(近南京东路)"},{"poiid":"B2094655D264A2FA419D","title":"Chanel(半岛精品店)","lon":"121.49023","lat":"31.23997","category":"122","category_name":"个人用品/化妆品店","address":"中山东一路32号半岛酒店内"},{"poiid":"B2094750D76FA5FB439A","title":"罗斯福酒窖餐厅","lon":"121.49","lat":"31.2402","category":"94","category_name":"西餐厅","address":"黄浦区中山东一路27号罗斯福公馆2楼(近北京东路)"},{"poiid":"B2094655D264A2FF489F","title":"佳成大厦","lon":"121.49242753967","lat":"31.241712946161","category":"46","category_name":"楼宇","address":"上海市闵行区莲花南路1500弄"},{"poiid":"B2094654DA6FABFB409B","title":"福州大楼","lon":"121.494","lat":"31.2407","category":"46","category_name":"楼宇","address":"上海黄浦区江西中路170号(福州路口)"},{"poiid":"B2094752DB6AA7FF419B","title":"东方明珠","lon":"121.492796","lat":"31.238949","category":"500","category_name":"未知分类","address":"上海市 外滩东方明珠"},{"poiid":"B2094750D268A5F8469C","title":"厉家菜 Family Li Imperial Cuisine","lon":"121.49054295217","lat":"31.242170183861","category":"247","category_name":"餐饮美食","address":"黄浦区中山东一路500号黄浦公园1楼(北京东路口)"},{"poiid":"B2094655D269ABFD4098","title":"外滩十八号创意中心","lon":"121.48974","lat":"31.2384","category":"247","category_name":"餐饮美食","address":"黄浦区中山东一路18号4楼(近南京东路)"},{"poiid":"B2094753D36CA0FC4393","title":"罗斯福色戒餐厅","lon":"121.489966","lat":"31.2404","category":"98","category_name":"意式菜品餐厅","address":"中山东一路27号8F"},{"poiid":"B2094757D468A4F5499D","title":"赛百味 外滩店 Subway","lon":"121.490076","lat":"31.242607","category":"76","category_name":"上海菜","address":"黄浦区中山东一路365号(近北京东路)"},{"poiid":"B2094752D665A6F9469B","title":"To the sea","lon":"121.490937","lat":"31.239861","category":"500","category_name":"未知分类","address":"外滩滨江大道"},{"poiid":"B2094655D26DA3FF4793","title":"和平大厦","lon":"121.48948","lat":"31.23905","category":"46","category_name":"楼宇","address":"昌平区回龙观镇国际信息产业基地高新二街"},{"poiid":"B2094752DA6CAAFD429F","title":"T.G.I.FRiDAY浦东滨江店","lon":"121.493807","lat":"31.237982","category":"247","category_name":"餐饮美食","address":"富城路16号"},{"poiid":"B2094757D56DA4FE4099","title":"正大广场，汤姆熊","lon":"121.49213055","lat":"31.239655951","category":"500","category_name":"未知分类","address":"陆家嘴西路,富城路"},{"poiid":"B2094750D16BA6FA439D","title":"外白渡大桥","lon":"121.491432","lat":"31.238191","category":"500","category_name":"未知分类","address":null},{"poiid":"B2094654DA6FA4F84192","title":"外贸大楼(中山东一路)","lon":"121.48997","lat":"31.2404","category":"46","category_name":"楼宇","address":"上海市黄浦区中山东一路27号"},{"poiid":"B2094757D56DAAFD4593","title":"正大小南国","lon":"121.493159","lat":"31.237652","category":"247","category_name":"餐饮美食","address":"陆家嘴"},{"poiid":"B2094757D165A2FB4193","title":"吳記老鍋底","lon":"121.49265289","lat":"31.241493225","category":"247","category_name":"餐饮美食","address":"上海天潼路"},{"poiid":"B209475DD76FAAF4429A","title":"Paris Rouge","lon":"121.492507","lat":"31.239643","category":"247","category_name":"餐饮美食","address":"上海市 外滩圆明园路133号"},{"poiid":"B209475CDB64ABF94999","title":"Lyceum Cafe","lon":"121.492355","lat":"31.241441","category":"500","category_name":"未知分类","address":"上海市 上海市圆明园路185号"},{"poiid":"B2094757D16DA6F9479B","title":"十六浦码头浦江游船","lon":"121.49041273","lat":"31.238635479","category":"247","category_name":"餐饮美食","address":"上海中山东二路501号"},{"poiid":"B2094751D36BAAF9459A","title":"外滩万国建筑博览","lon":"121.489649","lat":"31.239181","category":"241","category_name":"省级景点","address":"位于上海市中心区的黄浦江畔"},{"poiid":"B2094751DA6DAAFD499B","title":"Cathay Room","lon":"121.489936","lat":"31.239029","category":"247","category_name":"餐饮美食","address":"黄浦区南京东路20号费尔蒙和平饭店9楼(近中山东一路)"},{"poiid":"B2094750D76DA3FF469A","title":"摘星廊","lon":"121.49","lat":"31.2405","category":"269","category_name":"烧烤","address":"中山东一路27号罗斯福9楼(近中山东一路)"},{"poiid":"B2094750D269A3FA4792","title":"上海港国际客运码头","lon":"121.494224","lat":"31.243591","category":"250","category_name":"公园户外","address":"东大名路500号"},{"poiid":"B2094752D46AA3FB4199","title":"外滩十八号","lon":"121.490014","lat":"31.238674","category":"119","category_name":"商场","address":"黄浦区中山东一路18号"},{"poiid":"B2094655D26DA5FA479A","title":"英国领事馆及领事官邸","lon":"121.4897","lat":"31.2421","category":"250","category_name":"公园户外","address":"中山东一路33号"},{"poiid":"B2094750DB6DA0F9409A","title":"上海东方明珠267米旋转餐厅","lon":"121.4954625","lat":"31.2414666","category":"247","category_name":"餐饮美食","address":null},{"poiid":"B2094757D06FABFE409D","title":"滩外楼","lon":"121.49025","lat":"31.23845","category":"72","category_name":"广东菜","address":"黄浦区中山东一路18号外滩18号5楼(近南京东路)"},{"poiid":"B2094757D169A1FD4793","title":"外滩历史纪念馆","lon":"121.49145865","lat":"31.242288281","category":"182","category_name":"博物馆","address":"黄浦区中山东一路500号(近黄浦公园)"},{"poiid":"B2094654DA6FABFB4399","title":"泗泾小区","lon":"121.494","lat":"31.2399","category":"47","category_name":"住宅区","address":"江西中路135弄1-13号"},{"poiid":"B2094757D66DA2FE4393","title":"飞利浦游轮","lon":"121.49259217","lat":"31.238654113","category":"247","category_name":"餐饮美食","address":"上海黄浦江"},{"poiid":"B2094757D065ABFE449C","title":"外滩19号","lon":"121.48978273","lat":"31.238735481","category":"47","category_name":"住宅区","address":"上海市黄浦区中山东一路"},{"poiid":"B2094753DA64A2F84193","title":"ShanghaiRose","lon":"121.493148","lat":"31.241323","category":"500","category_name":"未知分类","address":"上海市 上海市黄浦区南苏州路76号"},{"poiid":"B2094757D16CABFA489C","title":"中国邮政储蓄银行上海分行","lon":"121.490394738","lat":"31.2388944848","category":"150","category_name":"银行","address":"黄浦区九江路36号(近中山东一路)"},{"poiid":"B2094751D26EA5FD4698","title":"海鸥舫","lon":"121.4918","lat":"31.24236","category":"247","category_name":"餐饮美食","address":null},{"poiid":"B2094757D065ABFD4898","title":"工商银行外滩支行Xzh","lon":"121.49039273","lat":"31.24056352","category":"150","category_name":"银行","address":"上海市黄浦区中山东一路24号"},{"poiid":"B2094753D36CA0FD409B","title":"罗斯福色戒酒吧","lon":"121.489966","lat":"31.2404","category":"172","category_name":"酒吧","address":"中山东一路27号9F"},{"poiid":"B2094752D76FAAFD4398","title":"御宝轩","lon":"121.491017","lat":"31.242911","category":"247","category_name":"餐饮美食","address":"益丰外滩苑一号"},{"poiid":"B2094655D26BA0F4419C","title":"格林油船大楼","lon":"121.48978","lat":"31.24077","category":"46","category_name":"楼宇","address":"浦东新区金湘路225弄"},{"poiid":"B209475CD26DAAFC4092","title":"上海半岛酒店","lon":"121.492683","lat":"31.243392","category":"500","category_name":"未知分类","address":"上海市 中山东一路"},{"poiid":"B2094750D16AA7FC439C","title":"外滩18号","lon":"121.494163","lat":"31.240756","category":"248","category_name":"生活娱乐","address":null},{"poiid":"B2094750DA6EA5F94592","title":"罗斯福","lon":"121.492683","lat":"31.243391","category":"247","category_name":"餐饮美食","address":"中山东一路27号"},{"poiid":"B2094751DA6CA0FC459D","title":"上海东方明珠空中旋转餐厅","lon":"121.494226","lat":"31.241329","category":"500","category_name":"未知分类","address":null},{"poiid":"B2094752DA6AAAFA409B","title":"喜多屋国际海鲜料理","lon":"121.493687","lat":"31.238456","category":"247","category_name":"餐饮美食","address":"上海市 正大国际广场7楼"},{"poiid":"B2094757D06AA1FD409C","title":"外滩六号 Sun with AQUA","lon":"121.4897995","lat":"31.2384490967","category":"500","category_name":"未知分类","address":"上海外滩6号2楼"},{"poiid":"B2094655D36DA7F8449F","title":"中山东一路北京东路","lon":"121.4901","lat":"31.23968","category":"38","category_name":"公交车站","address":""},{"poiid":"B2094753D76FA6FA419E","title":"壱藏日本料理","lon":"121.489738","lat":"31.24242","category":"500","category_name":"未知分类","address":"上海市 北京东路99号益丰外滩源三楼"},{"poiid":"B2094757D06AA6FC489F","title":"外滩27号8楼平台","lon":"121.490315738","lat":"31.2421645545","category":"260","category_name":"其他","address":"上海市黄浦区中山东一路北京东路8楼"},{"poiid":"B2094753D064A6F8499C","title":"罗森(新外滩店)","lon":"121.49056","lat":"31.24017","category":"117","category_name":"便民商店/便利店","address":"黄浦区中山东一路361号(近外滩)"},{"poiid":"B209475CD46DA4FF479C","title":"微热山丘","lon":"121.492843","lat":"31.239107","category":"500","category_name":"未知分类","address":"上海市 圆明园路133号"},{"poiid":"B2094753DA65A1F44198","title":"上海外滩，东方明珠","lon":"121.490089","lat":"31.240007","category":"500","category_name":"未知分类","address":"上海市 上海"},{"poiid":"B209475CD064ABFB4992","title":"Mr & Mrs Bund","lon":"121.48990489706","lat":"31.23881413494","category":"97","category_name":"法式菜品餐厅","address":"中山东一路18号外滩18号6楼近南京东路"},{"poiid":"B2094655D36DA7F84493","title":"中山东一路南京东路","lon":"121.49026","lat":"31.23961","category":"38","category_name":"公交车站","address":""},{"poiid":"B2094655D264A0FD419D","title":"扬子大楼","lon":"121.48994","lat":"31.24005","category":"46","category_name":"楼宇","address":"中山东一路26号"},{"poiid":"B2094655D36CA6F44992","title":"滇池路中山东一路","lon":"121.4901","lat":"31.23976","category":"38","category_name":"公交车站","address":""},{"poiid":"B2094757D065A6FE439F","title":"Emporio Armani(北京东路店)","lon":"121.49053","lat":"31.24041","category":"141","category_name":"服装鞋帽皮具店","address":"上海黄浦区北京东路(近中山东一路半岛酒店，尚未开业)  "},{"poiid":"B2094757D06FABF8469B","title":"泓叶汤馆(正大店)","lon":"121.49072091","lat":"31.243580064","category":"72","category_name":"广东菜","address":"浦东新区陆家嘴西路168号正大广场6楼46B号铺(近东方明珠)"},{"poiid":"B209475CD265A6FA4193","title":"罗斯福色戒餐厅酒吧,,Sky,Restaurant","lon":"121.490227","lat":"31.240718","category":"172","category_name":"酒吧","address":"中山东一路27号罗斯福8楼近北京东路"},{"poiid":"B2094751D265AAF94593","title":"龙凤厅","lon":"121.48961","lat":"31.23895","category":"76","category_name":"上海菜","address":"黄浦区南京东路20号和平饭店北楼8楼(近中山东一路)"},{"poiid":"B209475CD66EABFF4692","title":"星巴克新外滩店","lon":"121.490303","lat":"31.240274","category":"500","category_name":"未知分类","address":"上海市 黄浦区"},{"poiid":"B2094757D16AA0F84398","title":"亲水泽","lon":"121.49407773","lat":"31.241235534","category":"249","category_name":"购物服务","address":"上海滨江大道2852号"},{"poiid":"B2094752DA6FABF8479B","title":"Cha Story 茶香书香","lon":"121.493504","lat":"31.237442","category":"500","category_name":"未知分类","address":"上海市 陆家嘴滨江大道"},{"poiid":"B2094655D264ABFC4098","title":"纺织大楼","lon":"121.48982","lat":"31.23984","category":"46","category_name":"楼宇","address":"中山东一路24号"},{"poiid":"B2094757D66CA2FD429F","title":"风雅日本料理","lon":"121.490466738","lat":"31.2400375091","category":"500","category_name":"未知分类","address":"上海市陆家嘴西路2967号北滨江B座"},{"poiid":"B2094654DA6FA4FA4999","title":"上投大厦","lon":"121.494","lat":"31.2429","category":"46","category_name":"楼宇","address":"九江路111号"},{"poiid":"B2094655D26EA0FB4199","title":"外滩城市雕塑群","lon":"121.4906","lat":"31.23952","category":"250","category_name":"公园户外","address":"黄浦区外滩"},{"poiid":"B2094757D169A4FD489C","title":"Miami Bene","lon":"121.491023","lat":"31.243234","category":"500","category_name":"未知分类","address":"黄浦区南京东路300号名人购物中心1楼"},{"poiid":"B2094757D66BA1F4489B","title":"玲珑酒廊","lon":"121.490128054","lat":"31.240951793","category":"260","category_name":"其他","address":"黄浦区中山东一路32号半岛酒店B1楼(近北京东路)"},{"poiid":"B2094750D46BABFF449F","title":"历家菜","lon":"121.490425","lat":"31.242284","category":"247","category_name":"餐饮美食","address":"中山东一路500号"},{"poiid":"B2094757D069A2FE4992","title":"致珑餐厅","lon":"121.49064901","lat":"31.23869978","category":"76","category_name":"上海菜","address":"黄浦区中山东一路465号(近外白渡桥)"},{"poiid":"B2094750DA64A7FE419C","title":"东方明珠浦江游轮","lon":"121.495529","lat":"31.240255","category":"250","category_name":"公园户外","address":null},{"poiid":"B2094753D668A2FF4398","title":"拉斐尔外滩27号","lon":"121.489971","lat":"31.240426","category":"248","category_name":"生活娱乐","address":"中山东一路27号"},{"poiid":"B2094654DA6FABFD4298","title":"中国光大银行上海分行(南苏州路)","lon":"121.49006","lat":"31.24087","category":"150","category_name":"银行","address":"中山东一路29乙"},{"poiid":"B2094752DA65AAFC499D","title":"东方明珠267米旋转餐厅","lon":"121.493846","lat":"31.238391","category":"500","category_name":"未知分类","address":"上海市 上海市"},{"poiid":"B2094654DB65A1FC4598","title":"外贸大楼展销厅","lon":"121.48964","lat":"31.24061","category":"46","category_name":"楼宇","address":""},{"poiid":"B2094757D168A2F9499C","title":"劳力士旗舰店","lon":"121.49002373","lat":"31.240395516","category":"500","category_name":"未知分类","address":"上海市黄浦区中山东一路27号"},{"poiid":"B2094655D265A0F84893","title":"新康大楼","lon":"121.493","lat":"31.2432","category":"46","category_name":"楼宇","address":"加枫路28号"},{"poiid":"B2094752D768A0FD449D","title":"上海外滩半岛酒店","lon":"121.491608","lat":"31.238684","category":"500","category_name":"未知分类","address":null},{"poiid":"B2094753D66AA6FF449E","title":"壱蔵","lon":"121.489067","lat":"31.240562","category":"500","category_name":"未知分类","address":"上海市 北京东路99号益丰.外滩源3楼"},{"poiid":"B2094752D169A0F5469C","title":"富春","lon":"121.494623","lat":"31.239486","category":"247","category_name":"餐饮美食","address":"正大广场B2"},{"poiid":"B2094757D164A6FA4099","title":"半岛水疗中心","lon":"121.49036","lat":"31.24028","category":"500","category_name":"未知分类","address":"黄浦区中山东一路32号半岛酒店内(近北京东路)"},{"poiid":"B2094757D06AA2F4419E","title":"滇池路74号","lon":"121.48958037","lat":"31.239429896","category":"500","category_name":"未知分类","address":"上海滇池路74号"},{"poiid":"B2094757D16CAAFF4098","title":"Sky Restaurant","lon":"121.48996973","lat":"31.240628521","category":"500","category_name":"未知分类","address":"上海市黄浦区中山东一路27号8楼"},{"poiid":"B209475CDA65ABFB459A","title":"南京路步行街","lon":"121.489891","lat":"31.240064","category":"500","category_name":"未知分类","address":"南京路步行街"},{"poiid":"B2094654DA6FABFD4299","title":"东方汇理银行旧址","lon":"121.49006","lat":"31.24106","category":"250","category_name":"公园户外","address":"黄浦区中山东一路29乙(九江路中山东一路)"},{"poiid":"B2094757D569A3F8419C","title":"RBT GARDEN","lon":"121.4956661","lat":"31.23924194","category":"247","category_name":"餐饮美食","address":"陆家嘴西路2967号滨江大道北滨江A座"},{"poiid":"B2094655D264A7FF4292","title":"陈毅塑像","lon":"121.49052","lat":"31.239","category":"250","category_name":"公园户外","address":"中山东一路外滩"},{"poiid":"B2094757D16EA4F4479E","title":"外灘隧道周家嘴路出口","lon":"121.490602","lat":"31.239508","category":"500","category_name":"未知分类","address":"上海外灘隧道"},{"poiid":"B2094655D265A3FE409A","title":"世福汇","lon":"121.491","lat":"31.2383","category":"47","category_name":"住宅区","address":"世福汇位于黄浦九江路619号"},{"poiid":"B2094655D26DA3FA4792","title":"怡和洋行","lon":"121.48999","lat":"31.24041","category":"250","category_name":"公园户外","address":"中山东一路27"},{"poiid":"B2094753D165A1FC4398","title":"俏江南（正大店）","lon":"121.493758","lat":"31.238362","category":"500","category_name":"未知分类","address":"上海市 浦东新区陆家嘴西路168号"},{"poiid":"B2094655D26DA2F4449C","title":"沙逊大厦","lon":"121.48973","lat":"31.23917","category":"46","category_name":"楼宇","address":""},{"poiid":"B2094654DA6FABFD449D","title":"万国博览建筑群","lon":"121.48977","lat":"31.23982","category":"250","category_name":"公园户外","address":"中山东一路"},{"poiid":"B209475CD66BA4F84699","title":"香奈儿上海半岛精品店","lon":"121.489906","lat":"31.24077","category":"255","category_name":"专卖店","address":"上海市 中山东一路32号"},{"poiid":"B209475CD464A3FB489C","title":"上海东方明珠","lon":"121.490661","lat":"31.238573","category":"500","category_name":"未知分类","address":"上海市 上海浦东"},{"poiid":"B2094757D469A0F8479F","title":"爵士酒吧","lon":"121.489966","lat":"31.238852","category":"172","category_name":"酒吧","address":"南京东路20号和平饭店北楼1楼近中山东一路"},{"poiid":"B2094757D16EA6FC499F","title":"Piaget伯爵半島酒店專賣店","lon":"121.49019373","lat":"31.241474539","category":"131","category_name":"珠宝首饰工艺品","address":"黄浦区中山东一路32号半岛酒店L1B号店铺(近北京东路)"},{"poiid":"B2094757DA64A5FE489E","title":"十里洋场会所","lon":"121.4920203","lat":"31.24352735","category":"248","category_name":"生活娱乐","address":"黄浦路106号"},{"poiid":"B2094655D26AA7FD4192","title":"海鸥饭店宴会厅","lon":"121.49178","lat":"31.24379","category":"247","category_name":"餐饮美食","address":"虹口区黄浦路60号海鸥饭店12楼(近苏州路)查看地图"},{"poiid":"B2094654DB6AA3FE419D","title":"和平饭店北楼","lon":"121.48934","lat":"31.2393","category":"247","category_name":"餐饮美食","address":"黄浦区南京东路20号"},{"poiid":"B2094757D064A6F9479C","title":"民生银行(虹口支行)","lon":"121.491847","lat":"31.244044","category":"46","category_name":"楼宇","address":"虹口区黄浦路53路(黄浦路扬子江路)"},{"poiid":"B2094751DA6DA2FA479F","title":"莫尔顿牛排","lon":"121.4913004","lat":"31.2383503","category":"500","category_name":"未知分类","address":"国金大厦"},{"poiid":"B2094757D568A4F94499","title":"英国领事领旧址","lon":"121.4897069","lat":"31.24210694","category":"250","category_name":"公园户外","address":"中山东一路33号"},{"poiid":"B2094757D168A3F84592","title":"上海联合船代","lon":"121.490431738","lat":"31.2418665481","category":"500","category_name":"未知分类","address":"上海东大名路916号"},{"poiid":"B2094752DB6DAAF4469B","title":"上海国金","lon":"121.492931","lat":"31.238141","category":"500","category_name":"未知分类","address":"上海市 上海陆家嘴"},{"poiid":"B2094750DA6EA5FD449E","title":"上海市外滩18号","lon":"121.4906","lat":"31.238296","category":"500","category_name":"未知分类","address":null},{"poiid":"B2094757D06AA1F8419D","title":"Nokia南京东路专卖店","lon":"121.489775","lat":"31.23952","category":"138","category_name":"家电电子卖场","address":"上海南京东路"},{"poiid":"B2094753D668A7F84593","title":"猫头鹰餐厅","lon":"121.493576","lat":"31.238206","category":"500","category_name":"未知分类","address":"上海市 陆家嘴环路166号"},{"poiid":"B2094757D16DA5FF499B","title":"半岛酒店员工餐厅江畔","lon":"121.489945571","lat":"31.2401233665","category":"217","category_name":"旅馆招待所","address":"上海半岛酒店b1"},{"poiid":"B2094753D768A3FC499B","title":"半岛酒店","lon":"121.491363","lat":"31.243402","category":"500","category_name":"未知分类","address":"上海市 中山东一路32号"},{"poiid":"B2094655D269ABF94592","title":"杰尼亚外滩店","lon":"121.48974","lat":"31.2384","category":"247","category_name":"餐饮美食","address":"黄浦区中山东一路18号外滩18号1楼(近南京东路)"},{"poiid":"B2094654DB6BABFC449A","title":"商务楼黄浦路","lon":"121.49147","lat":"31.24373","category":"46","category_name":"楼宇","address":""},{"poiid":"B2094757D16AA1FA4299","title":"中山東一路18路Cartier","lon":"121.49043873","lat":"31.239386495","category":"131","category_name":"珠宝首饰工艺品","address":"上海市黄浦区四川中路"},{"poiid":"B2094757D16DA6FE4893","title":"陇龙幼儿园","lon":"121.490213938","lat":"31.2386117787","category":"57","category_name":"幼儿园","address":"上海梅陇十一村96号"},{"poiid":"B2094757D06BA4FF499F","title":"中山东一路滇池路车站37.55.921.868","lon":"121.490107","lat":"31.239763","category":"500","category_name":"未知分类","address":null},{"poiid":"B2094757D06AA7F4479C","title":"The Swatch Art Peace Hotel","lon":"121.49018859","lat":"31.238483429","category":"260","category_name":"其他","address":"上海南京东路"},{"poiid":"B2094750D464A3FC479F","title":"M1","lon":"121.489089","lat":"31.240432","category":"500","category_name":"未知分类","address":null},{"poiid":"B2094750DA69A6FB4498","title":"Muse on the bond","lon":"121.492675","lat":"31.243389","category":"500","category_name":"未知分类","address":null},{"poiid":"B2094753DB6CAAFE4998","title":"曼哈顿（外滩）酒店","lon":"121.489852","lat":"31.241962","category":"500","category_name":"未知分类","address":"上海市 上海虹口区北苏州路"},{"poiid":"B2094757D66EA0FF439B","title":"Courtyard bistro","lon":"121.489791738","lat":"31.2403568159","category":"500","category_name":"未知分类","address":"上海中山东一路27号罗斯福1楼"},{"poiid":"B2094655D26EA4F9489B","title":"和平汇中饭店","lon":"121.4886755","lat":"31.238689","category":"247","category_name":"餐饮美食","address":"黄浦区南京东路23号(近中山东一路)"},{"poiid":"B2094752D26EA7F54298","title":"国购广场","lon":"121.495726","lat":"31.240677","category":"249","category_name":"购物服务","address":"合肥市蜀山区三里庵"},{"poiid":"B2094753DA64A2F4459C","title":"MUSE1","lon":"121.49192","lat":"31.243387","category":"500","category_name":"未知分类","address":"上海市 外滩"},{"poiid":"B2094757D16FA5F8419A","title":"copper@the bund","lon":"121.489620038","lat":"31.2393323941","category":"500","category_name":"未知分类","address":"上海中山东一路391号"},{"poiid":"B2094750D76FA4FE4199","title":"Neuhaus","lon":"121.49","lat":"31.2384","category":"260","category_name":"其他","address":"黄浦区中山东一路18号外滩18号1楼(近南京东路)"},{"poiid":"B2094655D26CAAFB4899","title":"黄浦公园(南门)","lon":"121.49065","lat":"31.24071","category":"656","category_name":"大门","address":""},{"poiid":"B2094655D26CAAFA429E","title":"光明便利No.576","lon":"121.49218","lat":"31.24409","category":"117","category_name":"便民商店/便利店","address":"黄浦路80"},{"poiid":"B2094654DB6BABFD459B","title":"花旗银行(中国)(中山东一路)","lon":"121.48972","lat":"31.23909","category":"150","category_name":"银行","address":"中山东一路19"},{"poiid":"B2094757D064A4F54493","title":"斯达家","lon":"121.49455318","lat":"31.242743231","category":"500","category_name":"未知分类","address":"上海枣阳路406号"},{"poiid":"B2094757D165ABFF409E","title":"上海政法学院操场","lon":"121.490297538","lat":"31.2385581776","category":"500","category_name":"未知分类","address":"上海外青松公路7989号"},{"poiid":"B2094757D16CABFA429C","title":"花旗银行外滩支行贵宾理财中心","lon":"121.489716","lat":"31.239098","category":"150","category_name":"银行","address":"上海中山东一路19号"},{"poiid":"B2094654DB64A5FE439F","title":"BarRouge","lon":"121.48979","lat":"31.23884","category":"248","category_name":"生活娱乐","address":"黄浦区中山东一路18号外滩18号7楼"},{"poiid":"B2094757D16FAAFC419E","title":"移动北京路营业厅","lon":"121.48955535","lat":"31.239723205","category":"500","category_name":"未知分类","address":"上海河南中路616号"},{"poiid":"B2094753D26FA2FC469A","title":"張生記","lon":"121.493559","lat":"31.237706","category":"500","category_name":"未知分类","address":"上海市 正大廣場"},{"poiid":"B2094757D164ABFD409A","title":"VERTU(外滩旗舰店)","lon":"121.49024371","lat":"31.238256529","category":"138","category_name":"家电电子卖场","address":"黄浦区中山东一路18号外滩18号1楼(近南京东路)"},{"poiid":"B2094752D269ABFD489B","title":"上海市人民英雄纪念塔","lon":"121.489087","lat":"31.240656","category":"500","category_name":"未知分类","address":"上海市黄浦区北京东路外滩"},{"poiid":"B2094757D164AAF94298","title":"Mont Blanc 世贸百联","lon":"121.490188599","lat":"31.238483429","category":"500","category_name":"未知分类","address":"上海南京东路"},{"poiid":"B2094752D06EA1FF489F","title":"上海大剧院","lon":"121.495607","lat":"31.240869","category":"500","category_name":"未知分类","address":null},{"poiid":"B2094757D164ABFD419A","title":"中国银行(南京东路支行)","lon":"121.49001","lat":"31.23866","category":"150","category_name":"银行","address":"黄浦区南京东路20号和平饭店内(近中山东一路)"},{"poiid":"B2094752D364AAF44699","title":"工行上海市分行","lon":"121.492294","lat":"31.243164","category":"500","category_name":"未知分类","address":"中山东一路24号"},{"poiid":"B2094757D065A7F4439D","title":"格子里","lon":"121.49028633","lat":"31.238551477","category":"500","category_name":"未知分类","address":"上海外滩"},{"poiid":"B2094757D064A5F8449A","title":"威德钻石·D色大本营","lon":"121.48964","lat":"31.23868","category":"131","category_name":"珠宝首饰工艺品","address":"上海黄浦区南京东路61号1209室"},{"poiid":"B2094654DA6FA4F4499E","title":"中国银行上海市南京东路支行","lon":"121.48954","lat":"31.23903","category":"150","category_name":"银行","address":"黄浦区六合路39号(近东方商厦)"},{"poiid":"B2094757D66DA0FC429B","title":"上海市地方海事局外白渡桥海事所","lon":"121.490185","lat":"31.242819","category":"500","category_name":"未知分类","address":"上海外白渡桥"},{"poiid":"B2094750D268A7FF489A","title":"Muse 1","lon":"121.489021","lat":"31.240533","category":"248","category_name":"生活娱乐","address":"圆明园路50号"},{"poiid":"B2094757D169A4FD4598","title":"外滩2号","lon":"121.4902825","lat":"31.2379243","category":"252","category_name":"楼宇机构","address":"上海中山东一路2号"},{"poiid":"B2094757D064A2F9489D","title":"闵行大楼","lon":"121.49109309","lat":"31.243511223","category":"252","category_name":"楼宇机构","address":"上海闵行路201号"},{"poiid":"B2094655D26DA1F8459D","title":"黄浦公园(西门)","lon":"121.49045","lat":"31.2419","category":"656","category_name":"大门","address":""},{"poiid":"B2094757D169A7F84099","title":"闵行路大名路口","lon":"121.49109173","lat":"31.243817589","category":"500","category_name":"未知分类","address":"上海闵行路大名路口"},{"poiid":"B2094751DA6CABF8489B","title":"曼哈顿(外滩)商务酒店","lon":"121.48941","lat":"31.242126","category":"251","category_name":"出行住宿","address":"上海滇池路81-85号"},{"poiid":"B2094757D568AAF8489F","title":"KING S CLUB","lon":"121.4918889","lat":"31.24391694","category":"248","category_name":"生活娱乐","address":"黄浦路70号"}]