[{"poiid":"B2094654DB6AA6FF4699","title":"上海豫园万丽酒店","lon":"121.48799","lat":"31.22754","category":"213","category_name":"五星级宾馆","address":"上海黄浦区河南南路159号(近福佑路)"},{"poiid":"B2094757D66FA6FA459E","title":"城隍庙豫园老街","lon":"121.487217235","lat":"31.2276862092","category":"260","category_name":"其他","address":"上海市黄浦区福佑路"},{"poiid":"B2094757D065AAF84892","title":"上海老飯店","lon":"121.490577698","lat":"31.2276554108","category":"75","category_name":"浙江菜","address":"黄浦区福佑路242号"},{"poiid":"B2094753D76FAAFA449C","title":"上海滩国泰旗舰店","lon":"121.466011","lat":"31.216125","category":"249","category_name":"购物服务","address":"淮海中路868号"},{"poiid":"B209475CD564A7F84292","title":"上海滩新天地店","lon":"121.47463","lat":"31.22164","category":"119","category_name":"商场","address":"\"太仓路181弄新天地北里15号\r\n\""},{"poiid":"B209475CD564A7F84392","title":"上海滩浦东香格里拉店","lon":"121.50058","lat":"31.23634","category":"119","category_name":"商场","address":"浦东富成路33号香格里拉酒店内大堂层"},{"poiid":"B2094757D06FA6F4449A","title":"城隍庙第一购物中心","lon":"121.490396152","lat":"31.229039814","category":"119","category_name":"商场","address":"黄浦区丽水路88号城隍珠宝内(近城隍庙)"},{"poiid":"B2094757D66FA6FA4898","title":"豫园地铁站","lon":"121.48740085","lat":"31.22813753","category":"36","category_name":"地铁站","address":"上海轨道交通 十号线 轨交豫园站 10"},{"poiid":"B2094757D06FA6FF4498","title":"老北京前门烤鸭","lon":"121.4867704","lat":"31.2308891","category":"260","category_name":"其他","address":"黄浦区河南南路1号星腾大厦(延安东路口)"},{"poiid":"B2094757D06FA6FE4298","title":"海上阿叔(黄浦店)","lon":"121.48804","lat":"31.23132","category":"76","category_name":"上海菜","address":"黄浦区延安东路222号外滩中心B1楼(近江西中路)"},{"poiid":"B2094654DB65AAF4439B","title":"麦当劳(豫园店)","lon":"121.49037","lat":"31.22825","category":"68","category_name":"快餐厅","address":"黄浦区丽水路88号城隍珠宝内(近城隍庙)"},{"poiid":"B2094750D364A7F44998","title":"上海南京路步行街","lon":"121.488845","lat":"31.22718","category":"249","category_name":"购物服务","address":"黄浦区步行街"},{"poiid":"B2094757D06FA4FE499B","title":"亚一金店(城隍庙店)","lon":"121.49034347","lat":"31.2277079844","category":"131","category_name":"珠宝首饰工艺品","address":"黄浦区福佑路288号(福佑路旧校场路)查看地图"},{"poiid":"B2094757D164AAF8419B","title":"南翔饅頭店-長兴樓","lon":"121.49004573","lat":"31.22789725","category":"500","category_name":"未知分类","address":"上海城隍廟"},{"poiid":"B2094757D069A0F84693","title":"豫园站","lon":"121.48705573","lat":"31.228868271","category":"500","category_name":"未知分类","address":"上海地铁十号线"},{"poiid":"B2094757D068A3FD459D","title":"永银大厦","lon":"121.487","lat":"31.2303","category":"46","category_name":"楼宇","address":"卫清西路139_149号等"},{"poiid":"B2094654DA6EA5F54992","title":"福佑门小商品市场","lon":"121.48796","lat":"31.22811","category":"120","category_name":"小商品市场","address":"黄浦区福佑路427号(近河南南路)"},{"poiid":"B2094757D06FABFA469E","title":"中汇大厦","lon":"121.48686831","lat":"31.230220304","category":"46","category_name":"楼宇","address":"丰台学城海鹰路1号,3号"},{"poiid":"B2094655D26AA4FA479B","title":"万丽轩豫园万丽店","lon":"121.48799","lat":"31.22753","category":"72","category_name":"广东菜","address":"黄浦区河南南路159号豫园万丽大酒店4楼(河南南路吴家弄)"},{"poiid":"B2094757D16CA0FC4398","title":"海上旧梦西餐厅","lon":"121.486337638","lat":"31.2285204637","category":"94","category_name":"西餐厅","address":"黄浦区金陵东路229号新上海城市广场2楼(河南南路口)"},{"poiid":"B2094757D069A7FF4599","title":"安藤家","lon":"121.48767843","lat":"31.230165898","category":"95","category_name":"日本料理","address":"金陵东路229号范仕达生活广场2楼(近河南南路)"},{"poiid":"B2094655D26EA1FA4293","title":"避风塘福水缘茶楼","lon":"121.48905","lat":"31.22852","category":"66","category_name":"茶艺馆","address":"福佑路333号2层"},{"poiid":"B2094654DB6BA4F9439A","title":"星腾大厦","lon":"121.48728","lat":"31.23068","category":"46","category_name":"楼宇","address":"长宁路1158号贝多芬广场618室"},{"poiid":"B2094757D66EA2F44492","title":"10号线","lon":"121.487296738","lat":"31.2293972823","category":"500","category_name":"未知分类","address":"上海车上"},{"poiid":"B2094757D068A2FD4192","title":"荣腾渔乡 金陵店","lon":"121.48633527655","lat":"31.229725756023","category":"71","category_name":"四川菜","address":"黄浦区金陵东路275号(近河南南路)"},{"poiid":"B2094757D168ABFE449A","title":"统统湘味 河南南路店","lon":"121.487209","lat":"31.22902","category":"77","category_name":"湖南菜","address":"黄浦区河南南路33号2楼"},{"poiid":"B2094654DA6EA4FC4399","title":"沈香阁","lon":"121.48999","lat":"31.22723","category":"244","category_name":"寺庙道观","address":"上海黄浦区沉香阁路29号(近福佑路)"},{"poiid":"B2094757D464AAF5479B","title":"吴越人家 豫园店","lon":"121.49135","lat":"31.22776","category":"68","category_name":"快餐厅","address":"黄浦区福佑路234号豫园2楼(近KFC)"},{"poiid":"B2094750D76FAAFF4198","title":"豫园万丽咖啡厅","lon":"121.488","lat":"31.2276","category":"268","category_name":"自助","address":"黄浦区河南南路159号豫园万丽大酒店4楼(近福佑路)"},{"poiid":"B2094750D16AA2FC439E","title":"轨道交通10号线豫园路站","lon":"121.4874028969","lat":"31.228092111481","category":"36","category_name":"地铁站","address":"轨道交通10号线豫园路站"},{"poiid":"B2094757D568A4FC459D","title":"豫园鄂尔多斯广场","lon":"121.48942546","lat":"31.22837212","category":"119","category_name":"商场","address":"福佑路333"},{"poiid":"B2094753D76AAAF9429C","title":"鹿港小镇（宏伊店）","lon":"121.489372","lat":"31.231023","category":"500","category_name":"未知分类","address":"上海市 山东路"},{"poiid":"B2094654DA6EA5F54899","title":"福佑门商厦(南门)","lon":"121.48817","lat":"31.22796","category":"119","category_name":"商场","address":""},{"poiid":"B2094757D16CA5F84192","title":"福都商厦","lon":"121.49040773","lat":"31.229416282","category":"119","category_name":"商场","address":"黄浦区丽水路(近福佑路)"},{"poiid":"B2094751DA6CA0FC469C","title":"东京食尚","lon":"121.488815","lat":"31.227142","category":"247","category_name":"餐饮美食","address":"香港广场B1"},{"poiid":"B2094753D668A1F54892","title":"吴淞码头","lon":"121.488739","lat":"31.229355","category":"500","category_name":"未知分类","address":"上海市 淞宝路255号"},{"poiid":"B2094752D16FA4FB4698","title":"上海浦东机场","lon":"121.486963","lat":"31.227528","category":"627","category_name":"一般地点标志","address":null},{"poiid":"B2094751D364A2FE489E","title":"沉香阁","lon":"121.490036","lat":"31.227","category":"607","category_name":"一般景点","address":"黄浦区沉香阁路29号(近福佑路)"},{"poiid":"B2094757D16EA2FE499D","title":"一番屋","lon":"121.48942403","lat":"31.228229857","category":"500","category_name":"未知分类","address":"上海九江路399号"},{"poiid":"B2094757D069A7FF4398","title":"城隍珠宝(福佑路店)","lon":"121.49038","lat":"31.22773","category":"131","category_name":"珠宝首饰工艺品","address":"黄浦区丽水路88号城隍珠宝内(近城隍庙)查看地图"},{"poiid":"B2094757D465A5FF4793","title":"小绍兴 丽水路店","lon":"121.490792054","lat":"31.229288793","category":"68","category_name":"快餐厅","address":"黄浦区丽水路1号悦园商厦6楼六纯香美食港内(丽水路四川南路)"},{"poiid":"B2094757D069A4FD4292","title":"紫锦城珠宝交易中心","lon":"121.490552","lat":"31.228394","category":"131","category_name":"珠宝首饰工艺品","address":"黄浦区丽水路81号2-6楼(上海老饭店对面)"},{"poiid":"B2094654DA6EA4FC419F","title":"豫园小商品","lon":"121.48878","lat":"31.22757","category":"120","category_name":"小商品市场","address":"福佑路368识别"},{"poiid":"B2094655D268A6F4489C","title":"同德里(人民路)","lon":"121.48803","lat":"31.22966","category":"47","category_name":"住宅区","address":"紫金路33弄1-12号"},{"poiid":"B2094757DB6FA0F84298","title":"曼哈顿(金陵)商务酒店","lon":"121.48712844971692","lat":"31.227845662219366","category":"215","category_name":"三星级宾馆","address":"黄浦区河南南路58号"},{"poiid":"B2094757D06BA4FC479A","title":"仙芋奇圆","lon":"121.488421738","lat":"31.2310923185","category":"67","category_name":"甜品店","address":"黄浦区金陵东路68号工商联大厦裙楼1楼B-2铺(近江西南路)"},{"poiid":"B2094757D168A6F5489C","title":"真德桂林米粉","lon":"121.48936973","lat":"31.22743324","category":"247","category_name":"餐饮美食","address":"黄浦区汉口路345号(山东中路和山西南路间)"},{"poiid":"B2094753DB68A3F9469D","title":"上海一九叁三（老场坊）BOBO","lon":"121.48954","lat":"31.227466","category":"247","category_name":"餐饮美食","address":"上海市 上海虹口区溧阳路611号1933老场坊1-305室"},{"poiid":"B2094654DA6EA4FC429B","title":"豫园小商品(东门)","lon":"121.48908","lat":"31.2276","category":"120","category_name":"小商品市场","address":"侯家路18识别"},{"poiid":"B2094655D268A6F4489F","title":"同德里(西门)","lon":"121.48773","lat":"31.22962","category":"47","category_name":"住宅区","address":"紫金路33弄1-12号"},{"poiid":"B2094757D16CA6FC4792","title":"枫泾古镇","lon":"121.48912273","lat":"31.227335238","category":"500","category_name":"未知分类","address":"上海金山"},{"poiid":"B2094654DA6EA5F5479D","title":"福佑门市场(福佑门商厦东)","lon":"121.48851","lat":"31.228","category":"123","category_name":"家具建材市场","address":""},{"poiid":"B2094654DA6EA5FB499E","title":"良友金伴便利No.282","lon":"121.48885","lat":"31.23011","category":"117","category_name":"便民商店/便利店","address":"江西南路80"},{"poiid":"B2094757D064A0F54293","title":"河南中路延安东路站","lon":"121.487587838","lat":"31.2275773436","category":"38","category_name":"公交车站","address":"上海河南中路延安东路"},{"poiid":"B2094654DA6EA5FB4298","title":"天主堂(四川南路)","lon":"121.49021","lat":"31.23067","category":"245","category_name":"教堂","address":"四川南路36"},{"poiid":"B2094654DA6EA4FF469B","title":"福源商厦(北门)","lon":"121.48981","lat":"31.22765","category":"119","category_name":"商场","address":"福佑路338"},{"poiid":"B2094750DB6FA2FB4892","title":"爱康体检中心","lon":"121.486701","lat":"31.229871","category":"249","category_name":"购物服务","address":"江西南路29号2楼"},{"poiid":"B2094751DA6AAAF84592","title":"宜山路地铁站","lon":"121.488866","lat":"31.227196","category":"36","category_name":"地铁站","address":"宜山路"},{"poiid":"B2094753D76CA3FB4393","title":"新天地","lon":"121.486091","lat":"31.229488","category":"500","category_name":"未知分类","address":"上海市 上海"},{"poiid":"B2094757D568A0F5489D","title":"城隍庙香酥鸡摊","lon":"121.4906767","lat":"31.22967639","category":"68","category_name":"快餐厅","address":"黄浦区四川南路80弄(近人民路)"},{"poiid":"B2094655D264A7F84399","title":"清真寺(北门)","lon":"121.48842","lat":"31.22778","category":"680","category_name":"楼宇机构","address":"福佑路378"},{"poiid":"B2094655D36CA1F44499","title":"老北门(人民路河南南路)","lon":"121.48654","lat":"31.22862","category":"38","category_name":"公交车站","address":""},{"poiid":"B2094757D16CA1FB479E","title":"全家便利(国康店)","lon":"121.48925311","lat":"31.229301655","category":"249","category_name":"购物服务","address":"上海国际设计中心1楼"},{"poiid":"B2094757D66DA5FB499E","title":"江氏兄弟桥香园过桥米线","lon":"121.490438738","lat":"31.2277732477","category":"247","category_name":"餐饮美食","address":"上海市方浜中路235号"},{"poiid":"B2094654DA6EA5F9489F","title":"吉如小区","lon":"121.4884","lat":"31.230122","category":"47","category_name":"住宅区","address":"金陵东路183弄2-10号"},{"poiid":"B2094757D168A4F8489D","title":"臭豆腐油墩子山芋饼摊","lon":"121.48653","lat":"31.22966","category":"68","category_name":"快餐厅","address":"黄浦区金陵东路(盛泽路口)"},{"poiid":"B2094757D065A3F94098","title":"老北门","lon":"121.489349365","lat":"31.2296676636","category":"500","category_name":"未知分类","address":"上海人民路江西南路"},{"poiid":"B2094757D069A4FF479E","title":"上海浦东保时捷中心","lon":"121.48821252","lat":"31.227043831","category":"158","category_name":"汽车销售","address":"上海浦东新区东方路1215－1217号陆家嘴软件园11号楼b楼一至二层"},{"poiid":"B2094654DB65A0FD459D","title":"可的(人民路)","lon":"121.48668","lat":"31.229","category":"117","category_name":"便民商店/便利店","address":"黄浦区人民路626号(金门路人民路)"},{"poiid":"B2094753D66DA6F9459A","title":"上海曼哈顿金陵酒店","lon":"121.486852","lat":"31.22962","category":"216","category_name":"经济型连锁酒店","address":"河南南路58号"},{"poiid":"B2094654DA6EA5F5479A","title":"上海水晶街","lon":"121.48936","lat":"31.22802","category":"131","category_name":"珠宝首饰工艺品","address":"黄浦区福佑路333号福源商厦对面(近丽水路)"},{"poiid":"B2094654DA6EA5FB489A","title":"吉安里","lon":"121.48925","lat":"31.23004","category":"47","category_name":"住宅区","address":"江西南路55弄1-10号"},{"poiid":"B2094654DA6EA5F4419F","title":"凌隆企业纺织品","lon":"121.48756","lat":"31.22957","category":"123","category_name":"家具建材市场","address":"紫金路68号-101"},{"poiid":"B2094757D16AA2F8459D","title":"福佑路","lon":"121.48997563","lat":"31.227406339","category":"500","category_name":"未知分类","address":"上海豫园"},{"poiid":"B2094752D465A3F8489C","title":"上海交通大学","lon":"121.487316","lat":"31.228294","category":"253","category_name":"校园生活","address":null},{"poiid":"B2094757D568A6FD449D","title":"奥爱妮十字绣(旗舰店)","lon":"121.48802545","lat":"31.22795898","category":"255","category_name":"专卖店","address":"中国上海市黄浦区福佑路"},{"poiid":"B2094752D264ABFE499B","title":"藏珑泰厨","lon":"121.488815","lat":"31.227142","category":"247","category_name":"餐饮美食","address":"南京西路818广场"},{"poiid":"B2094750D26DAAF9409B","title":"海上旧梦","lon":"121.487508","lat":"31.2302854","category":"98","category_name":"意式菜品餐厅","address":"金陵东路229号新上海城市广场2楼近河南南路路"},{"poiid":"B2094757D468ABF84093","title":"避风塘 侯家路店","lon":"121.489356054","lat":"31.226734793","category":"113","category_name":"冷饮店","address":"黄浦区侯家路143号(近紫华路)"},{"poiid":"B2094654DA6EA5F54192","title":"鄂尔多斯休闲广场","lon":"121.48939","lat":"31.22835","category":"248","category_name":"生活娱乐","address":"福佑路333"},{"poiid":"B2094757D66CABFE4498","title":"德金书店","lon":"121.48926632","lat":"31.228051953","category":"249","category_name":"购物服务","address":"黄浦区福州路513弄1-3号(近浙江中路)"},{"poiid":"B2094757D069A0FA4792","title":"北京银行上海分行","lon":"121.48679898","lat":"31.230629158","category":"150","category_name":"银行","address":"河南南路16号中汇大厦1,5-6层"},{"poiid":"B2094655D26EA4F44493","title":"石将宝石行","lon":"121.48939","lat":"31.22835","category":"248","category_name":"生活娱乐","address":"黄浦区福佑路333号水晶街一楼T21"},{"poiid":"B2094655D26EA7F84892","title":"吴家弄小吃","lon":"121.48898","lat":"31.22713","category":"68","category_name":"快餐厅","address":"吴家弄8号"},{"poiid":"B2094654DA6EA4FC4192","title":"小叶玩具","lon":"121.48905","lat":"31.22777","category":"255","category_name":"专卖店","address":"福佑路368-10识别"},{"poiid":"B2094757D16CA6FA489F","title":"蓝手琴行","lon":"121.48770904","lat":"31.230255127","category":"249","category_name":"购物服务","address":"黄浦区金陵东路227号1楼(近紫金路)"},{"poiid":"B2094757D165A5F94899","title":"满园春","lon":"121.49069033","lat":"31.227389439","category":"76","category_name":"上海菜","address":"黄浦区文昌路10号城隍庙内(近旧校场路)"},{"poiid":"B2094751DB65ABFC409F","title":"海上第一茶楼","lon":"121.48662","lat":"31.22766","category":"247","category_name":"餐饮美食","address":"黄浦区城隍庙湖心亭(近城隍庙九曲桥)"},{"poiid":"B2094654DA6EA5F4409F","title":"上海黄浦区阳光进修学校","lon":"121.48761","lat":"31.23009","category":"53","category_name":"成人教育","address":"紫金路9"},{"poiid":"B2094757D16CA2FA4899","title":"Metro Line 4","lon":"121.48984145","lat":"31.228917552","category":"500","category_name":"未知分类","address":"上海Underworld"},{"poiid":"B2094757D16AA0FD459E","title":"若瑟堂","lon":"121.489193138","lat":"31.2305206463","category":"245","category_name":"教堂","address":"上海四川南路36号"},{"poiid":"B209475DD26BAAFE429B","title":"上海外滩","lon":"121.489105","lat":"31.230306","category":"500","category_name":"未知分类","address":"上海市 上海外滩"},{"poiid":"B2094757D06FAAFC449B","title":"漕宝路光大会展中心","lon":"121.48997115","lat":"31.22882015","category":"260","category_name":"其他","address":"上海漕宝路光大会展中心"},{"poiid":"B2094750DA6DA7FF4892","title":"均鲜","lon":"121.490104","lat":"31.229932","category":"68","category_name":"快餐厅","address":"黄浦区金陵东路68号(近江西南路)"},{"poiid":"B2094757D06BA1FE459B","title":"老凤祥珠宝首饰有限公司","lon":"121.489151","lat":"31.22732","category":"500","category_name":"未知分类","address":"上海黄浦区侯家路26号"},{"poiid":"B2094757D064A0FA419D","title":"地下隧道","lon":"121.48991941","lat":"31.228905981","category":"500","category_name":"未知分类","address":"上海地下"},{"poiid":"B2094655D26FA7F9489A","title":"吉如小区(南门)","lon":"121.48831","lat":"31.23048","category":"47","category_name":"住宅区","address":"金陵东路183弄2-10号"},{"poiid":"B2094757D069A6FE4092","title":"7-ELEVEN(金河店)","lon":"121.486786","lat":"31.229855","category":"117","category_name":"便民商店/便利店","address":"上海黄浦区河南南路38号"},{"poiid":"B2094655D26CA4FB449D","title":"新盛昌","lon":"121.48902","lat":"31.23044","category":"47","category_name":"住宅区","address":"江西南路39"},{"poiid":"B2094757D06BA2FB489D","title":"中国工商银行(河南南路支行)","lon":"121.486866","lat":"31.229536","category":"150","category_name":"银行","address":"上海河南南路68号"},{"poiid":"B2094757D16FA6F94993","title":"延安東路河南南路","lon":"121.486452638","lat":"31.2289527729","category":"500","category_name":"未知分类","address":"上海延安東路河南南路口"},{"poiid":"B2094655D268A1FD409E","title":"裕庆坊(东门)","lon":"121.48668","lat":"31.22937","category":"47","category_name":"住宅区","address":"金门路14弄1-11号"},{"poiid":"B2094757D168A5F9419D","title":"侯家路26号","lon":"121.489051538","lat":"31.2275749435","category":"500","category_name":"未知分类","address":"上海侯家路26号"},{"poiid":"B2094757D065A1F5429A","title":"作孽","lon":"121.48706845","lat":"31.229023869","category":"500","category_name":"未知分类","address":"上海车站"},{"poiid":"B2094655D26AA4FA479A","title":"万丽豫吧","lon":"121.48793","lat":"31.22469","category":"260","category_name":"其他","address":"黄浦区河南南路159号豫园万丽大酒店4楼(近福佑路)"},{"poiid":"B2094654DA6EA5F5469C","title":"周大福(福佑路)","lon":"121.48973","lat":"31.22801","category":"131","category_name":"珠宝首饰工艺品","address":""},{"poiid":"B2094655D26AA4F44993","title":"乐丰玩具商行","lon":"121.49027","lat":"31.22772","category":"247","category_name":"餐饮美食","address":"黄浦区福佑路338号福源商厦1楼18室(近丽水路)"},{"poiid":"B2094757D569A2FB439C","title":"英皇明星城","lon":"121.48788981","lat":"31.22709717","category":"47","category_name":"住宅区","address":"河南南路175"},{"poiid":"B2094757D168A6FA4992","title":"同济大学黄浦校区","lon":"121.48653073","lat":"31.230321302","category":"500","category_name":"未知分类","address":"上海市黄浦区盛泽路"},{"poiid":"B2094757D66CA7F8489E","title":"26路新北门站","lon":"121.48987383","lat":"31.229705188","category":"500","category_name":"未知分类","address":"上海人民路四川南路"},{"poiid":"B2094757D069A0FC499C","title":"东华美钻(丽水路店)","lon":"121.49108","lat":"31.22793","category":"131","category_name":"珠宝首饰工艺品","address":"黄浦区丽水路81号1楼(近福佑路)查看地图"},{"poiid":"B2094655D26CA7F4409D","title":"东新里","lon":"121.48629","lat":"31.22905","category":"47","category_name":"住宅区","address":"山东南路111弄8-43号"},{"poiid":"B2094655D26AA0F8469D","title":"国旅运通","lon":"121.48651","lat":"31.23046","category":"247","category_name":"餐饮美食","address":"黄浦区河南南路16号中汇大厦7楼(近金陵东路)"},{"poiid":"B2094757D66DAAF84998","title":"上海世贸汽车路虎展厅","lon":"121.486993738","lat":"31.2275672433","category":"500","category_name":"未知分类","address":"上海人民路600号"},{"poiid":"B2094751D464A7FB459A","title":"SUPERMAN TOY","lon":"121.486547","lat":"31.228568","category":"249","category_name":"购物服务","address":"旧校场路69号"},{"poiid":"B2094753D46AA7FD4593","title":"春风松月楼","lon":"121.489997","lat":"31.226995","category":"247","category_name":"餐饮美食","address":"上海市 城隍庙"},{"poiid":"B2094757D66EA1FC479C","title":"上海大飯堂(光大店)","lon":"121.489200738","lat":"31.2267752265","category":"247","category_name":"餐饮美食","address":"上海徐匯區康健路"},{"poiid":"B2094654DA6EA5FB459F","title":"晋安里","lon":"121.48924","lat":"31.2306","category":"47","category_name":"住宅区","address":"金陵东路135弄1-5号"},{"poiid":"B2094751D56BA6FB4799","title":"Iphone上海南京东路体验店","lon":"121.488815","lat":"31.227142","category":"500","category_name":"未知分类","address":null},{"poiid":"B2094752D265A6FC449E","title":"斯利美甜品店","lon":"121.488815","lat":"31.227142","category":"500","category_name":"未知分类","address":null},{"poiid":"B209475CD164A0FC459C","title":"柳家Yoogane","lon":"121.487731","lat":"31.230386","category":"500","category_name":"未知分类","address":"上海市 西江湾路388号凯德龙之梦B05-07A"},{"poiid":"B2094752DA65A5FA4099","title":"城隍庙","lon":"121.48654","lat":"31.228599","category":"500","category_name":"未知分类","address":"上海市 城隍庙"},{"poiid":"B209475CD66CA4FE4893","title":"串趣成都串串香","lon":"121.488548","lat":"31.226491","category":"247","category_name":"餐饮美食","address":"上海市 上海黄浦区浙江南路48号"},{"poiid":"B2094753D76EA2FE4999","title":"曙光医院","lon":"121.486045","lat":"31.229448","category":"162","category_name":"医院","address":"上海市 淮海路普安路"},{"poiid":"B2094654DA6EA5F8499A","title":"学尔森教育黄浦外滩分校","lon":"121.48927868717192","lat":"31.231262245506297","category":"52","category_name":"高等院校","address":"黄浦区延安东路59号(江西南路交叉口)工商联大厦辅楼4F"},{"poiid":"B2094654DA6EA4FC429D","title":"上海老凤祥珠宝首饰有限公司","lon":"121.48918","lat":"31.22723","category":"131","category_name":"珠宝首饰工艺品","address":"侯家路26"},{"poiid":"B2094757D56CA4FC4098","title":"香啡缤 城隍庙店 Coffee Bean&Tea Leaf","lon":"121.490730054","lat":"31.227603793","category":"247","category_name":"餐饮美食","address":"旧校场路125号豫园商贸国际购物中心112B近福佑路"},{"poiid":"B2094757D06BA6FB449F","title":"旧仓街白衣街","lon":"121.487594738","lat":"31.2273555388","category":"500","category_name":"未知分类","address":"上海旧仓街白衣街"},{"poiid":"B2094750D364A5F94599","title":"DHC中国官方微博","lon":"121.4872","lat":"31.23057","category":"641","category_name":"化妆卫浴用品类公司","address":"河南南路1号"},{"poiid":"B2094757D66EA2FA469B","title":"工商银行城隍庙支行","lon":"121.48686981","lat":"31.229536056","category":"500","category_name":"未知分类","address":"上海河南南路42号"},{"poiid":"B2094655D26FA7FA449D","title":"晋安里(北门)","lon":"121.48918","lat":"31.23079","category":"47","category_name":"住宅区","address":"金陵东路135弄1-5号"},{"poiid":"B2094655D26CABFC449D","title":"老庙黄金银楼(福佑路)","lon":"121.49071","lat":"31.22772","category":"131","category_name":"珠宝首饰工艺品","address":""},{"poiid":"B2094655D26EA4FA429C","title":"克莉丝汀饼屋(金陵店)","lon":"121.48999","lat":"31.23104","category":"112","category_name":"糕饼店","address":"黄浦区金陵东路105号"},{"poiid":"B2094751DB6CA5FA459F","title":"城隍庙","lon":"121.4893","lat":"31.23133","category":"500","category_name":"未知分类","address":null},{"poiid":"B2094654DA6EA5F5419A","title":"东华美钻(丽水路)","lon":"121.49074","lat":"31.22845","category":"131","category_name":"珠宝首饰工艺品","address":"丽水路61、71"},{"poiid":"B2094753D764A0FF409D","title":"上海外滩华尔道夫酒店","lon":"121.486045","lat":"31.229524","category":"500","category_name":"未知分类","address":"上海市 中山东一路2号"},{"poiid":"B2094654DA6EA5FB449E","title":"祥兴里","lon":"121.48999","lat":"31.23055","category":"47","category_name":"住宅区","address":"金陵东路119弄1-7号"},{"poiid":"B2094654DA6EA5F54198","title":"紫锦城东华美钻金饰广场","lon":"121.49082","lat":"31.22825","category":"131","category_name":"珠宝首饰工艺品","address":"丽水路81"},{"poiid":"B2094750D669A5FF479C","title":"上海威斯汀酒店","lon":"121.489982","lat":"31.229564","category":"251","category_name":"出行住宿","address":null},{"poiid":"B2094757D16EA0F54198","title":"隧道三线老北门站","lon":"121.48643953","lat":"31.228945972","category":"500","category_name":"未知分类","address":"上海老北门公交站"},{"poiid":"B2094654DA6EA6FC469A","title":"英国中兰开夏大学","lon":"121.48651","lat":"31.23046","category":"671","category_name":"高校中心点","address":"河南南路16号中汇大厦3层"},{"poiid":"B2094655D26CA4FB449F","title":"吉安里(南门)","lon":"121.48923","lat":"31.22973","category":"656","category_name":"大门","address":"江西南路75弄1-10号"},{"poiid":"B2094752D068A0FF429E","title":"港丽茶餐厅","lon":"121.48886","lat":"31.227194","category":"500","category_name":"未知分类","address":null},{"poiid":"B2094757D66CA3FC499F","title":"11路老北门站","lon":"121.486412","lat":"31.228788","category":"500","category_name":"未知分类","address":"上海人民路河南南路"},{"poiid":"B2094757D569A2FB4293","title":"豫园商厦","lon":"121.4903319","lat":"31.22767889","category":"249","category_name":"购物服务","address":"黄浦区福佑路288号(近旧校场路)"},{"poiid":"B2094655D265AAF5409C","title":"明德里(东一门)","lon":"121.48586","lat":"31.22896","category":"47","category_name":"住宅区","address":"山东南路106弄1-3号"},{"poiid":"B2094654DA6EA6F9439E","title":"视觉造型","lon":"121.48589","lat":"31.22914","category":"148","category_name":"美容美发店","address":"闵行区七莘路3655号嘉贸广场2楼"},{"poiid":"B2094757D165A3FF4099","title":"四川南路香酥鸡","lon":"121.490683","lat":"31.229918","category":"500","category_name":"未知分类","address":"上海四川南路人民路"},{"poiid":"B209475CD66CA5F4429A","title":"上海威斯丁大酒店","lon":"121.488365","lat":"31.226692","category":"500","category_name":"未知分类","address":"上海市 上海市黄浦区河南中路88号"},{"poiid":"B2094757D56CA1FD4898","title":"琦泰茶铺 丽水路一店","lon":"121.49053","lat":"31.2283","category":"260","category_name":"其他","address":"黄浦区丽水路81号城隍庙第一购物中心F-1琦泰展览馆(旧校场路丽水路)"},{"poiid":"B2094757D16DA7FD4598","title":"Yotime Cafe","lon":"121.486949738","lat":"31.2302423003","category":"260","category_name":"其他","address":"黄浦区金陵东路229号1楼(近河南南路)"},{"poiid":"B2094655D26AA7F54498","title":"ALAN时尚会所","lon":"121.48923","lat":"31.23136","category":"247","category_name":"餐饮美食","address":"黄浦区延安东路55号工商联大厦3116室(近江西中路)"},{"poiid":"B2094654DA6EA4FC449A","title":"福满堂喜庆文化广场","lon":"121.48958","lat":"31.22735","category":"248","category_name":"生活娱乐","address":"侯家路59号福源商厦3-4层"},{"poiid":"B2094757D06AA7FA4998","title":"黄浦公安分局","lon":"121.48662","lat":"31.230202","category":"500","category_name":"未知分类","address":"上海金陵东路河南南路"},{"poiid":"B2094655D26FA7F4499C","title":"祥兴里(北门)","lon":"121.48971","lat":"31.23096","category":"47","category_name":"住宅区","address":"金陵东路119弄1-7号"},{"poiid":"B2094757D66EA7FE4892","title":"上海爱乐儿童合唱团","lon":"121.48876873","lat":"31.230876313","category":"500","category_name":"未知分类","address":"上海黄浦区工商联大厦"},{"poiid":"B2094654DA6EA5F9479A","title":"上海蝶翠诗化妆品进出口有限公司","lon":"121.4872","lat":"31.23057","category":"263","category_name":"公司","address":"河南南路1号星腾大厦11-12层"},{"poiid":"B2094757D16AA1FD449B","title":"11路新北门站","lon":"121.487334","lat":"31.230823","category":"500","category_name":"未知分类","address":"上海人民路旧校场路"},{"poiid":"B209475CD668AAFE4393","title":"JZ Latino","lon":"121.488304","lat":"31.231323","category":"500","category_name":"未知分类","address":"上海市 河南南路159号"},{"poiid":"B2094655D26CA7F44192","title":"北京银行上海分行营业部(河南南路)","lon":"121.48652","lat":"31.23046","category":"150","category_name":"银行","address":"河南南路16号中汇大厦"},{"poiid":"B2094654DB65A0FD459F","title":"国旅运通航空服务有限公司","lon":"121.48652","lat":"31.23046","category":"263","category_name":"公司","address":"河南南路16号中汇大厦7层、8层802"},{"poiid":"B2094654DA6EA5F9459D","title":"美国Gn上海栖城建筑规划设计有限公司","lon":"121.48719","lat":"31.23056","category":"263","category_name":"公司","address":"河南南路1号星腾大厦603"},{"poiid":"B2094654DA6EA5F94592","title":"上海敬海货运有限公司","lon":"121.48719","lat":"31.23057","category":"248","category_name":"生活娱乐","address":"河南南路1号星腾大厦501"},{"poiid":"B2094757D16DA2F9449B","title":"哞宅","lon":"121.48598773","lat":"31.22932628","category":"500","category_name":"未知分类","address":null},{"poiid":"B2094757D065A6F4499B","title":"中国农业发展银行上海市分行营业部","lon":"121.489367738","lat":"31.2311363194","category":"500","category_name":"未知分类","address":"上海市黄浦区金陵东路58号(近溪口路)"},{"poiid":"B2094757D165A6FF489B","title":"福爱珠宝","lon":"121.490894738","lat":"31.2278946503","category":"249","category_name":"购物服务","address":"上海黄浦区丽水路88号紫锦城5楼"},{"poiid":"B2094757D16EA1FD4999","title":"145路金陵东路外滩站","lon":"121.48936273","lat":"31.23119432","category":"500","category_name":"未知分类","address":"上海金陵东路中山东一路"},{"poiid":"B2094757DA6EA4FD459C","title":"Mokkos","lon":"121.489105","lat":"31.2310849999998","category":"248","category_name":"生活娱乐","address":"黄浦区金陵东路68号工商联大厦1楼"},{"poiid":"B2094654DA6EA5F9409F","title":"上海黄浦拍卖行有限公司","lon":"121.48893","lat":"31.23121","category":"249","category_name":"购物服务","address":"延安东路55号上海工商联大厦5层"},{"poiid":"B2094654DB64ABFB439F","title":"张铁军翡翠","lon":"121.49079","lat":"31.22735","category":"131","category_name":"珠宝首饰工艺品","address":"黄浦区旧校场路11号(沉香阁路旧校场路)"},{"poiid":"B2094654DA6EA5F9479B","title":"天平汽车保险股份有限公司上海营业总部","lon":"121.48719","lat":"31.23057","category":"219","category_name":"其他","address":"黄浦区河南南路1号星腾大厦10层"},{"poiid":"B2094654DB64A6FC4399","title":"上海江崎格力高食品有限公司","lon":"121.48651","lat":"31.23047","category":"263","category_name":"公司","address":"河南南路16号中汇大厦2层203A-207B"},{"poiid":"B2094752D368ABFF4699","title":"天主教圣若瑟洋泾浜堂","lon":"121.486532","lat":"31.229185","category":"627","category_name":"一般地点标志","address":"四川南路36号"},{"poiid":"B2094654DA6EA5FB4499","title":"外滩社区文化中心","lon":"121.48983","lat":"31.231","category":"248","category_name":"生活娱乐","address":"金陵东路113"},{"poiid":"B2094757D06AA6FB409F","title":"中波轮船股份有限公司","lon":"121.48934373","lat":"31.23117632","category":"263","category_name":"公司","address":"上海市黄浦区延安东路55号26楼-34楼"},{"poiid":"B2094654DA6EA5F84993","title":"上海合纵东濠国际物流有限公司","lon":"121.48893","lat":"31.23119","category":"248","category_name":"生活娱乐","address":"延安东路55号上海工商联大厦802"},{"poiid":"B2094654DB64A6FD4892","title":"上海工商联大厦(西门)","lon":"121.48862","lat":"31.23141","category":"656","category_name":"大门","address":"延安东路55"}]