[{"poiid":"B2094757D06FA1FA489A","title":"上海玻璃博物馆","lon":"121.46929904","lat":"31.345047099","category":"182","category_name":"博物馆","address":"宝山区长江西路685号(近钢四路)"},{"poiid":"B2094757D068A1F8439B","title":"上海宝诚中环店","lon":"121.4615131","lat":"31.339974877","category":"500","category_name":"未知分类","address":"上海市宝山区长江西路999号"},{"poiid":"B2094757D06FA0FE4392","title":"呼玛二村","lon":"121.455","lat":"31.348","category":"47","category_name":"住宅区","address":"上海呼玛二村"},{"poiid":"B2094655D36DA7F4499D","title":"泗塘新村","lon":"121.465","lat":"31.3372","category":"38","category_name":"公交车站","address":"上海宝山区长江西路"},{"poiid":"B2094654D469ABF9409F","title":"泗塘五村","lon":"121.466","lat":"31.3389","category":"47","category_name":"住宅区","address":"上海虎林路"},{"poiid":"B2094654D469AAFC409E","title":"淞南十村","lon":"121.47403","lat":"31.334885","category":"47","category_name":"住宅区","address":"上海市宝山区新二路"},{"poiid":"B2094757D06FA0FB449B","title":"通河二村","lon":"121.45710475911","lat":"31.341000419025","category":"47","category_name":"住宅区","address":"长江西路1568号"},{"poiid":"B2094757D068A5FE469D","title":"江杨北路水产批发市场","lon":"121.45541","lat":"31.35853","category":"249","category_name":"购物服务","address":"上海宝山区江杨北路(近泰和路)"},{"poiid":"B2094654D469ABF9469F","title":"泗塘四村小区","lon":"121.46002","lat":"31.3368","category":"47","category_name":"住宅区","address":""},{"poiid":"B2094654D46AA0FD4392","title":"泗塘一村小区","lon":"121.45582","lat":"31.33941","category":"47","category_name":"住宅区","address":"泗塘新村"},{"poiid":"B2094757D068A2F8479F","title":"富浩花苑","lon":"121.453779174","lat":"31.3445242076","category":"47","category_name":"住宅区","address":"上海市宝山区虎林路800弄"},{"poiid":"B2094757D069AAFE419D","title":"永达福特4S店","lon":"121.46133","lat":"31.339723","category":"500","category_name":"未知分类","address":"宝山区长江西路977号(近江杨南路)"},{"poiid":"B2094757D069A6FD499E","title":"上海东昌英菲尼迪旗舰店","lon":"121.474134803","lat":"31.3437922572","category":"500","category_name":"未知分类","address":"宝山区长江西路600号"},{"poiid":"B2094757D06AA7FB459D","title":"宝钢不锈钢事业部","lon":"121.469065722","lat":"31.3482048173","category":"46","category_name":"楼宇","address":"上海不知"},{"poiid":"B2094757D068A1FB4799","title":"嘉骏香山苑","lon":"121.471118","lat":"31.336197","category":"47","category_name":"住宅区","address":"上海市静安区新闸路1518号"},{"poiid":"B2094654D56DA1FE489E","title":"泗塘七村","lon":"121.467","lat":"31.3364","category":"47","category_name":"住宅区","address":"虎林路58号"},{"poiid":"B2094757D069A4F94399","title":"喜阁亭(长江西路店)","lon":"121.45782","lat":"31.33712","category":"76","category_name":"上海菜","address":"宝山区长江西路1230号(近虎林路)"},{"poiid":"B2094655D36CA5F9439F","title":"长江西路江杨南路","lon":"121.46631","lat":"31.34127","category":"38","category_name":"公交车站","address":""},{"poiid":"B2094654D469AAFC409B","title":"宝山钢铁股份有限公司冷轧薄板厂","lon":"121.46224","lat":"31.34715","category":"263","category_name":"公司","address":"江杨南路2288"},{"poiid":"B2094757D06FA6F94092","title":"85度C(虎林店)","lon":"121.458866","lat":"31.335496","category":"112","category_name":"糕饼店","address":"宝山区虎林路313号(近长江西路)"},{"poiid":"B2094757D06FA0F9479F","title":"泗塘一村","lon":"121.46240339826","lat":"31.345710773169","category":"500","category_name":"未知分类","address":"上海宝山区长江西路爱辉路"},{"poiid":"B2094757DB6BA4F4499E","title":"相爷食府","lon":"121.4746065","lat":"31.3375408","category":"76","category_name":"上海菜","address":"宝山区通南路111号(近新二路)"},{"poiid":"B2094757D16DA3FC409F","title":"江杨农产品批发市场","lon":"121.456358831","lat":"31.3570273","category":"500","category_name":"未知分类","address":"上海市宝山区江杨北路【铁谊路】"},{"poiid":"B2094757D66DA4FD429B","title":"上海申通二部","lon":"121.4719001","lat":"31.346243008","category":"500","category_name":"未知分类","address":"上海上钢一长"},{"poiid":"B2094757D06AA7FB459A","title":"冷轧薄板厂生活楼","lon":"121.4622189","lat":"31.3485832","category":"500","category_name":"未知分类","address":"上海宝山区江杨南路呼兰路"},{"poiid":"B2094654D46AA2F4479D","title":"宝山钢铁股份有限公司不锈钢分公司六号门","lon":"121.46246","lat":"31.3491","category":"263","category_name":"公司","address":""},{"poiid":"B2094757D06FA4FF4099","title":"冷軋薄板廠","lon":"121.462248","lat":"31.347147","category":"263","category_name":"公司","address":"上海江楊南路呼蘭路"},{"poiid":"B2094757D065A5F94093","title":"MG 4S店","lon":"121.4653621","lat":"31.338357843","category":"249","category_name":"购物服务","address":"上海市宝山区长江西路963号"},{"poiid":"B2094757D065A6FB409B","title":"上海二十一机动车安全检测站","lon":"121.460246","lat":"31.338679","category":"500","category_name":"未知分类","address":"上海长江西路1038号"},{"poiid":"B2094757D06FABFE439F","title":"冷轧薄板厂酸洗车间","lon":"121.46160701","lat":"31.345430512","category":"500","category_name":"未知分类","address":"上海冷轧薄板厂酸洗车间"},{"poiid":"B2094757D068AAFE469D","title":"泗塘二村","lon":"121.46104238731","lat":"31.339332167225","category":"47","category_name":"住宅区","address":"上海宝山区长江西路爱晖路"},{"poiid":"B2094757D069ABFB4792","title":"宝景苑","lon":"121.47723","lat":"31.338472","category":"252","category_name":"楼宇机构","address":"上海宝山区通南路55弄"},{"poiid":"B2094757D16DA6FC489D","title":"一汽大众宝山店","lon":"121.464641103","lat":"31.3374038234","category":"500","category_name":"未知分类","address":"上海江扬南路"},{"poiid":"B2094655D36CA2FB449F","title":"三转炉","lon":"121.47314","lat":"31.34368","category":"38","category_name":"公交车站","address":""},{"poiid":"B2094757D16FA6FB4392","title":"玉品轩私房菜","lon":"121.454689353","lat":"31.3407964444","category":"76","category_name":"上海菜","address":"宝山区虎林路611号(近呼玛路)"},{"poiid":"B2094654D46AA2F4459B","title":"上海轻玻都市型工业园区","lon":"121.47255","lat":"31.34364","category":"45","category_name":"产业园区","address":"长江西路685号"},{"poiid":"B2094757D66AABFD429E","title":"品宴轩","lon":"121.481266054","lat":"31.343886793","category":"72","category_name":"广东菜","address":"宝山区长江南路717号(近淞发路)"},{"poiid":"B2094757D069A0FE4292","title":"国际节能环保园","lon":"121.48101","lat":"31.34614","category":"179","category_name":"音乐厅","address":"上海宝山区长江西路101号(近钢三路)  "},{"poiid":"B2094654D46AA2F4489A","title":"淞港码头","lon":"121.46559","lat":"31.35684","category":"34","category_name":"港口码头","address":""},{"poiid":"B2094757D068A7F8439B","title":"泗塘三村","lon":"121.461","lat":"31.3399","category":"252","category_name":"楼宇机构","address":"上海长江西路泗塘三村"},{"poiid":"B2094655D26BA0FF489C","title":"江杨北路桥","lon":"121.45996","lat":"31.35437","category":"250","category_name":"公园户外","address":""},{"poiid":"B2094654D46AA2F44898","title":"阿斯特兰(青岛)仓储有限公司上海分公司","lon":"121.46016","lat":"31.35257","category":"263","category_name":"公司","address":"江杨南路2590号"},{"poiid":"B2094655D264A0FF4093","title":"万业紫辰苑","lon":"121.45894","lat":"31.35661","category":"47","category_name":"住宅区","address":"江杨北路1568弄1号"},{"poiid":"B2094757D169A2FD4599","title":"制氢站","lon":"121.46485523","lat":"31.354951957","category":"500","category_name":"未知分类","address":"上海蕴藻南路"},{"poiid":"B2094655D36CA7FF419C","title":"虎林路","lon":"121.45411","lat":"31.34433","category":"38","category_name":"公交车站","address":""},{"poiid":"B2094750D664A0F84193","title":"玻璃博物馆咖啡厅","lon":"121.473","lat":"31.3437","category":"260","category_name":"其他","address":"宝山区长江西路685号玻璃博物馆2楼(近钢四路)"},{"poiid":"B2094654D46AA2F4479F","title":"上海压缩机有限公司(长江西路)","lon":"121.47039","lat":"31.34288","category":"263","category_name":"公司","address":"长江西路815号"},{"poiid":"B2094757D16DA5F94299","title":"三湘海尚","lon":"121.4767795","lat":"31.340800894","category":"47","category_name":"住宅区","address":"上海长江南路888号"},{"poiid":"B2094757D06BA0FF489A","title":"丰泽大酒店","lon":"121.458836","lat":"31.338762","category":"76","category_name":"上海菜","address":"近郊金山区卫清西路168弄99号百联金山购物中心内(近松卫南路)"},{"poiid":"B2094757D068A1F9409C","title":"锦通苑","lon":"121.47403","lat":"31.336796","category":"252","category_name":"楼宇机构","address":"上海市宝山区新二路1398弄36号"},{"poiid":"B2094757D06FA1FA489A","title":"上海玻璃博物馆","lon":"121.46929904","lat":"31.345047099","category":"182","category_name":"博物馆","address":"宝山区长江西路685号(近钢四路)"},{"poiid":"B2094757D068A1F8439B","title":"上海宝诚中环店","lon":"121.4615131","lat":"31.339974877","category":"500","category_name":"未知分类","address":"上海市宝山区长江西路999号"},{"poiid":"B2094757D06FA0FE4392","title":"呼玛二村","lon":"121.455","lat":"31.348","category":"47","category_name":"住宅区","address":"上海呼玛二村"},{"poiid":"B2094655D36DA7F4499D","title":"泗塘新村","lon":"121.465","lat":"31.3372","category":"38","category_name":"公交车站","address":"上海宝山区长江西路"},{"poiid":"B2094654D469ABF9409F","title":"泗塘五村","lon":"121.466","lat":"31.3389","category":"47","category_name":"住宅区","address":"上海虎林路"},{"poiid":"B2094654D469AAFC409E","title":"淞南十村","lon":"121.47403","lat":"31.334885","category":"47","category_name":"住宅区","address":"上海市宝山区新二路"},{"poiid":"B2094757D06FA0FB449B","title":"通河二村","lon":"121.45710475911","lat":"31.341000419025","category":"47","category_name":"住宅区","address":"长江西路1568号"},{"poiid":"B2094757D068A5FE469D","title":"江杨北路水产批发市场","lon":"121.45541","lat":"31.35853","category":"249","category_name":"购物服务","address":"上海宝山区江杨北路(近泰和路)"},{"poiid":"B2094654D469ABF9469F","title":"泗塘四村小区","lon":"121.46002","lat":"31.3368","category":"47","category_name":"住宅区","address":""},{"poiid":"B2094654D46AA0FD4392","title":"泗塘一村小区","lon":"121.45582","lat":"31.33941","category":"47","category_name":"住宅区","address":"泗塘新村"},{"poiid":"B2094757D068A2F8479F","title":"富浩花苑","lon":"121.453779174","lat":"31.3445242076","category":"47","category_name":"住宅区","address":"上海市宝山区虎林路800弄"},{"poiid":"B2094757D069AAFE419D","title":"永达福特4S店","lon":"121.46133","lat":"31.339723","category":"500","category_name":"未知分类","address":"宝山区长江西路977号(近江杨南路)"},{"poiid":"B2094757D069A6FD499E","title":"上海东昌英菲尼迪旗舰店","lon":"121.474134803","lat":"31.3437922572","category":"500","category_name":"未知分类","address":"宝山区长江西路600号"},{"poiid":"B2094757D06AA7FB459D","title":"宝钢不锈钢事业部","lon":"121.469065722","lat":"31.3482048173","category":"46","category_name":"楼宇","address":"上海不知"},{"poiid":"B2094757D068A1FB4799","title":"嘉骏香山苑","lon":"121.471118","lat":"31.336197","category":"47","category_name":"住宅区","address":"上海市静安区新闸路1518号"},{"poiid":"B2094654D56DA1FE489E","title":"泗塘七村","lon":"121.467","lat":"31.3364","category":"47","category_name":"住宅区","address":"虎林路58号"},{"poiid":"B2094757D069A4F94399","title":"喜阁亭(长江西路店)","lon":"121.45782","lat":"31.33712","category":"76","category_name":"上海菜","address":"宝山区长江西路1230号(近虎林路)"},{"poiid":"B2094655D36CA5F9439F","title":"长江西路江杨南路","lon":"121.46631","lat":"31.34127","category":"38","category_name":"公交车站","address":""},{"poiid":"B2094654D469AAFC409B","title":"宝山钢铁股份有限公司冷轧薄板厂","lon":"121.46224","lat":"31.34715","category":"263","category_name":"公司","address":"江杨南路2288"},{"poiid":"B2094757D06FA6F94092","title":"85度C(虎林店)","lon":"121.458866","lat":"31.335496","category":"112","category_name":"糕饼店","address":"宝山区虎林路313号(近长江西路)"},{"poiid":"B2094757D06FA0F9479F","title":"泗塘一村","lon":"121.46240339826","lat":"31.345710773169","category":"500","category_name":"未知分类","address":"上海宝山区长江西路爱辉路"},{"poiid":"B2094757DB6BA4F4499E","title":"相爷食府","lon":"121.4746065","lat":"31.3375408","category":"76","category_name":"上海菜","address":"宝山区通南路111号(近新二路)"},{"poiid":"B2094757D16DA3FC409F","title":"江杨农产品批发市场","lon":"121.456358831","lat":"31.3570273","category":"500","category_name":"未知分类","address":"上海市宝山区江杨北路【铁谊路】"},{"poiid":"B2094757D66DA4FD429B","title":"上海申通二部","lon":"121.4719001","lat":"31.346243008","category":"500","category_name":"未知分类","address":"上海上钢一长"},{"poiid":"B2094757D06AA7FB459A","title":"冷轧薄板厂生活楼","lon":"121.4622189","lat":"31.3485832","category":"500","category_name":"未知分类","address":"上海宝山区江杨南路呼兰路"},{"poiid":"B2094654D46AA2F4479D","title":"宝山钢铁股份有限公司不锈钢分公司六号门","lon":"121.46246","lat":"31.3491","category":"263","category_name":"公司","address":""},{"poiid":"B2094757D06FA4FF4099","title":"冷軋薄板廠","lon":"121.462248","lat":"31.347147","category":"263","category_name":"公司","address":"上海江楊南路呼蘭路"},{"poiid":"B2094757D065A5F94093","title":"MG 4S店","lon":"121.4653621","lat":"31.338357843","category":"249","category_name":"购物服务","address":"上海市宝山区长江西路963号"},{"poiid":"B2094757D065A6FB409B","title":"上海二十一机动车安全检测站","lon":"121.460246","lat":"31.338679","category":"500","category_name":"未知分类","address":"上海长江西路1038号"},{"poiid":"B2094757D06FABFE439F","title":"冷轧薄板厂酸洗车间","lon":"121.46160701","lat":"31.345430512","category":"500","category_name":"未知分类","address":"上海冷轧薄板厂酸洗车间"},{"poiid":"B2094757D068AAFE469D","title":"泗塘二村","lon":"121.46104238731","lat":"31.339332167225","category":"47","category_name":"住宅区","address":"上海宝山区长江西路爱晖路"},{"poiid":"B2094757D069ABFB4792","title":"宝景苑","lon":"121.47723","lat":"31.338472","category":"252","category_name":"楼宇机构","address":"上海宝山区通南路55弄"},{"poiid":"B2094757D16DA6FC489D","title":"一汽大众宝山店","lon":"121.464641103","lat":"31.3374038234","category":"500","category_name":"未知分类","address":"上海江扬南路"},{"poiid":"B2094655D36CA2FB449F","title":"三转炉","lon":"121.47314","lat":"31.34368","category":"38","category_name":"公交车站","address":""},{"poiid":"B2094757D16FA6FB4392","title":"玉品轩私房菜","lon":"121.454689353","lat":"31.3407964444","category":"76","category_name":"上海菜","address":"宝山区虎林路611号(近呼玛路)"},{"poiid":"B2094654D46AA2F4459B","title":"上海轻玻都市型工业园区","lon":"121.47255","lat":"31.34364","category":"45","category_name":"产业园区","address":"长江西路685号"},{"poiid":"B2094757D66AABFD429E","title":"品宴轩","lon":"121.481266054","lat":"31.343886793","category":"72","category_name":"广东菜","address":"宝山区长江南路717号(近淞发路)"},{"poiid":"B2094757D069A0FE4292","title":"国际节能环保园","lon":"121.48101","lat":"31.34614","category":"179","category_name":"音乐厅","address":"上海宝山区长江西路101号(近钢三路)  "},{"poiid":"B2094654D46AA2F4489A","title":"淞港码头","lon":"121.46559","lat":"31.35684","category":"34","category_name":"港口码头","address":""},{"poiid":"B2094757D068A7F8439B","title":"泗塘三村","lon":"121.461","lat":"31.3399","category":"252","category_name":"楼宇机构","address":"上海长江西路泗塘三村"},{"poiid":"B2094655D26BA0FF489C","title":"江杨北路桥","lon":"121.45996","lat":"31.35437","category":"250","category_name":"公园户外","address":""},{"poiid":"B2094654D46AA2F44898","title":"阿斯特兰(青岛)仓储有限公司上海分公司","lon":"121.46016","lat":"31.35257","category":"263","category_name":"公司","address":"江杨南路2590号"},{"poiid":"B2094655D264A0FF4093","title":"万业紫辰苑","lon":"121.45894","lat":"31.35661","category":"47","category_name":"住宅区","address":"江杨北路1568弄1号"},{"poiid":"B2094757D169A2FD4599","title":"制氢站","lon":"121.46485523","lat":"31.354951957","category":"500","category_name":"未知分类","address":"上海蕴藻南路"},{"poiid":"B2094655D36CA7FF419C","title":"虎林路","lon":"121.45411","lat":"31.34433","category":"38","category_name":"公交车站","address":""},{"poiid":"B2094750D664A0F84193","title":"玻璃博物馆咖啡厅","lon":"121.473","lat":"31.3437","category":"260","category_name":"其他","address":"宝山区长江西路685号玻璃博物馆2楼(近钢四路)"},{"poiid":"B2094654D46AA2F4479F","title":"上海压缩机有限公司(长江西路)","lon":"121.47039","lat":"31.34288","category":"263","category_name":"公司","address":"长江西路815号"},{"poiid":"B2094757D16DA5F94299","title":"三湘海尚","lon":"121.4767795","lat":"31.340800894","category":"47","category_name":"住宅区","address":"上海长江南路888号"},{"poiid":"B2094757D06BA0FF489A","title":"丰泽大酒店","lon":"121.458836","lat":"31.338762","category":"76","category_name":"上海菜","address":"近郊金山区卫清西路168弄99号百联金山购物中心内(近松卫南路)"},{"poiid":"B2094757D068A1F9409C","title":"锦通苑","lon":"121.47403","lat":"31.336796","category":"252","category_name":"楼宇机构","address":"上海市宝山区新二路1398弄36号"},{"poiid":"B2094757D06FA1FA489A","title":"上海玻璃博物馆","lon":"121.46929904","lat":"31.345047099","category":"182","category_name":"博物馆","address":"宝山区长江西路685号(近钢四路)"},{"poiid":"B2094757D068A1F8439B","title":"上海宝诚中环店","lon":"121.4615131","lat":"31.339974877","category":"500","category_name":"未知分类","address":"上海市宝山区长江西路999号"},{"poiid":"B2094757D06FA0FE4392","title":"呼玛二村","lon":"121.455","lat":"31.348","category":"47","category_name":"住宅区","address":"上海呼玛二村"},{"poiid":"B2094655D36DA7F4499D","title":"泗塘新村","lon":"121.465","lat":"31.3372","category":"38","category_name":"公交车站","address":"上海宝山区长江西路"},{"poiid":"B2094654D469ABF9409F","title":"泗塘五村","lon":"121.466","lat":"31.3389","category":"47","category_name":"住宅区","address":"上海虎林路"},{"poiid":"B2094654D469AAFC409E","title":"淞南十村","lon":"121.47403","lat":"31.334885","category":"47","category_name":"住宅区","address":"上海市宝山区新二路"},{"poiid":"B2094757D06FA0FB449B","title":"通河二村","lon":"121.45710475911","lat":"31.341000419025","category":"47","category_name":"住宅区","address":"长江西路1568号"},{"poiid":"B2094757D068A5FE469D","title":"江杨北路水产批发市场","lon":"121.45541","lat":"31.35853","category":"249","category_name":"购物服务","address":"上海宝山区江杨北路(近泰和路)"},{"poiid":"B2094654D469ABF9469F","title":"泗塘四村小区","lon":"121.46002","lat":"31.3368","category":"47","category_name":"住宅区","address":""},{"poiid":"B2094654D46AA0FD4392","title":"泗塘一村小区","lon":"121.45582","lat":"31.33941","category":"47","category_name":"住宅区","address":"泗塘新村"},{"poiid":"B2094757D068A2F8479F","title":"富浩花苑","lon":"121.453779174","lat":"31.3445242076","category":"47","category_name":"住宅区","address":"上海市宝山区虎林路800弄"},{"poiid":"B2094757D069AAFE419D","title":"永达福特4S店","lon":"121.46133","lat":"31.339723","category":"500","category_name":"未知分类","address":"宝山区长江西路977号(近江杨南路)"},{"poiid":"B2094757D069A6FD499E","title":"上海东昌英菲尼迪旗舰店","lon":"121.474134803","lat":"31.3437922572","category":"500","category_name":"未知分类","address":"宝山区长江西路600号"},{"poiid":"B2094757D06AA7FB459D","title":"宝钢不锈钢事业部","lon":"121.469065722","lat":"31.3482048173","category":"46","category_name":"楼宇","address":"上海不知"},{"poiid":"B2094757D068A1FB4799","title":"嘉骏香山苑","lon":"121.471118","lat":"31.336197","category":"47","category_name":"住宅区","address":"上海市静安区新闸路1518号"},{"poiid":"B2094654D56DA1FE489E","title":"泗塘七村","lon":"121.467","lat":"31.3364","category":"47","category_name":"住宅区","address":"虎林路58号"},{"poiid":"B2094757D069A4F94399","title":"喜阁亭(长江西路店)","lon":"121.45782","lat":"31.33712","category":"76","category_name":"上海菜","address":"宝山区长江西路1230号(近虎林路)"},{"poiid":"B2094655D36CA5F9439F","title":"长江西路江杨南路","lon":"121.46631","lat":"31.34127","category":"38","category_name":"公交车站","address":""},{"poiid":"B2094654D469AAFC409B","title":"宝山钢铁股份有限公司冷轧薄板厂","lon":"121.46224","lat":"31.34715","category":"263","category_name":"公司","address":"江杨南路2288"},{"poiid":"B2094757D06FA6F94092","title":"85度C(虎林店)","lon":"121.458866","lat":"31.335496","category":"112","category_name":"糕饼店","address":"宝山区虎林路313号(近长江西路)"},{"poiid":"B2094757D06FA0F9479F","title":"泗塘一村","lon":"121.46240339826","lat":"31.345710773169","category":"500","category_name":"未知分类","address":"上海宝山区长江西路爱辉路"},{"poiid":"B2094757DB6BA4F4499E","title":"相爷食府","lon":"121.4746065","lat":"31.3375408","category":"76","category_name":"上海菜","address":"宝山区通南路111号(近新二路)"},{"poiid":"B2094757D16DA3FC409F","title":"江杨农产品批发市场","lon":"121.456358831","lat":"31.3570273","category":"500","category_name":"未知分类","address":"上海市宝山区江杨北路【铁谊路】"},{"poiid":"B2094757D66DA4FD429B","title":"上海申通二部","lon":"121.4719001","lat":"31.346243008","category":"500","category_name":"未知分类","address":"上海上钢一长"},{"poiid":"B2094757D06AA7FB459A","title":"冷轧薄板厂生活楼","lon":"121.4622189","lat":"31.3485832","category":"500","category_name":"未知分类","address":"上海宝山区江杨南路呼兰路"},{"poiid":"B2094654D46AA2F4479D","title":"宝山钢铁股份有限公司不锈钢分公司六号门","lon":"121.46246","lat":"31.3491","category":"263","category_name":"公司","address":""},{"poiid":"B2094757D06FA4FF4099","title":"冷軋薄板廠","lon":"121.462248","lat":"31.347147","category":"263","category_name":"公司","address":"上海江楊南路呼蘭路"},{"poiid":"B2094757D065A5F94093","title":"MG 4S店","lon":"121.4653621","lat":"31.338357843","category":"249","category_name":"购物服务","address":"上海市宝山区长江西路963号"},{"poiid":"B2094757D065A6FB409B","title":"上海二十一机动车安全检测站","lon":"121.460246","lat":"31.338679","category":"500","category_name":"未知分类","address":"上海长江西路1038号"},{"poiid":"B2094757D06FABFE439F","title":"冷轧薄板厂酸洗车间","lon":"121.46160701","lat":"31.345430512","category":"500","category_name":"未知分类","address":"上海冷轧薄板厂酸洗车间"},{"poiid":"B2094757D068AAFE469D","title":"泗塘二村","lon":"121.46104238731","lat":"31.339332167225","category":"47","category_name":"住宅区","address":"上海宝山区长江西路爱晖路"},{"poiid":"B2094757D069ABFB4792","title":"宝景苑","lon":"121.47723","lat":"31.338472","category":"252","category_name":"楼宇机构","address":"上海宝山区通南路55弄"},{"poiid":"B2094757D16DA6FC489D","title":"一汽大众宝山店","lon":"121.464641103","lat":"31.3374038234","category":"500","category_name":"未知分类","address":"上海江扬南路"},{"poiid":"B2094655D36CA2FB449F","title":"三转炉","lon":"121.47314","lat":"31.34368","category":"38","category_name":"公交车站","address":""},{"poiid":"B2094757D16FA6FB4392","title":"玉品轩私房菜","lon":"121.454689353","lat":"31.3407964444","category":"76","category_name":"上海菜","address":"宝山区虎林路611号(近呼玛路)"},{"poiid":"B2094654D46AA2F4459B","title":"上海轻玻都市型工业园区","lon":"121.47255","lat":"31.34364","category":"45","category_name":"产业园区","address":"长江西路685号"},{"poiid":"B2094757D66AABFD429E","title":"品宴轩","lon":"121.481266054","lat":"31.343886793","category":"72","category_name":"广东菜","address":"宝山区长江南路717号(近淞发路)"},{"poiid":"B2094757D069A0FE4292","title":"国际节能环保园","lon":"121.48101","lat":"31.34614","category":"179","category_name":"音乐厅","address":"上海宝山区长江西路101号(近钢三路)  "},{"poiid":"B2094654D46AA2F4489A","title":"淞港码头","lon":"121.46559","lat":"31.35684","category":"34","category_name":"港口码头","address":""},{"poiid":"B2094757D068A7F8439B","title":"泗塘三村","lon":"121.461","lat":"31.3399","category":"252","category_name":"楼宇机构","address":"上海长江西路泗塘三村"},{"poiid":"B2094655D26BA0FF489C","title":"江杨北路桥","lon":"121.45996","lat":"31.35437","category":"250","category_name":"公园户外","address":""},{"poiid":"B2094654D46AA2F44898","title":"阿斯特兰(青岛)仓储有限公司上海分公司","lon":"121.46016","lat":"31.35257","category":"263","category_name":"公司","address":"江杨南路2590号"},{"poiid":"B2094655D264A0FF4093","title":"万业紫辰苑","lon":"121.45894","lat":"31.35661","category":"47","category_name":"住宅区","address":"江杨北路1568弄1号"},{"poiid":"B2094757D169A2FD4599","title":"制氢站","lon":"121.46485523","lat":"31.354951957","category":"500","category_name":"未知分类","address":"上海蕴藻南路"},{"poiid":"B2094655D36CA7FF419C","title":"虎林路","lon":"121.45411","lat":"31.34433","category":"38","category_name":"公交车站","address":""},{"poiid":"B2094750D664A0F84193","title":"玻璃博物馆咖啡厅","lon":"121.473","lat":"31.3437","category":"260","category_name":"其他","address":"宝山区长江西路685号玻璃博物馆2楼(近钢四路)"},{"poiid":"B2094654D46AA2F4479F","title":"上海压缩机有限公司(长江西路)","lon":"121.47039","lat":"31.34288","category":"263","category_name":"公司","address":"长江西路815号"},{"poiid":"B2094757D16DA5F94299","title":"三湘海尚","lon":"121.4767795","lat":"31.340800894","category":"47","category_name":"住宅区","address":"上海长江南路888号"},{"poiid":"B2094757D06BA0FF489A","title":"丰泽大酒店","lon":"121.458836","lat":"31.338762","category":"76","category_name":"上海菜","address":"近郊金山区卫清西路168弄99号百联金山购物中心内(近松卫南路)"},{"poiid":"B2094757D068A1F9409C","title":"锦通苑","lon":"121.47403","lat":"31.336796","category":"252","category_name":"楼宇机构","address":"上海市宝山区新二路1398弄36号"},{"poiid":"B2094757D06FA1FA489A","title":"上海玻璃博物馆","lon":"121.46929904","lat":"31.345047099","category":"182","category_name":"博物馆","address":"宝山区长江西路685号(近钢四路)"},{"poiid":"B2094757D068A1F8439B","title":"上海宝诚中环店","lon":"121.4615131","lat":"31.339974877","category":"500","category_name":"未知分类","address":"上海市宝山区长江西路999号"},{"poiid":"B2094757D06FA0FE4392","title":"呼玛二村","lon":"121.455","lat":"31.348","category":"47","category_name":"住宅区","address":"上海呼玛二村"},{"poiid":"B2094655D36DA7F4499D","title":"泗塘新村","lon":"121.465","lat":"31.3372","category":"38","category_name":"公交车站","address":"上海宝山区长江西路"},{"poiid":"B2094654D469ABF9409F","title":"泗塘五村","lon":"121.466","lat":"31.3389","category":"47","category_name":"住宅区","address":"上海虎林路"},{"poiid":"B2094654D469AAFC409E","title":"淞南十村","lon":"121.47403","lat":"31.334885","category":"47","category_name":"住宅区","address":"上海市宝山区新二路"},{"poiid":"B2094757D06FA0FB449B","title":"通河二村","lon":"121.45710475911","lat":"31.341000419025","category":"47","category_name":"住宅区","address":"长江西路1568号"},{"poiid":"B2094757D068A5FE469D","title":"江杨北路水产批发市场","lon":"121.45541","lat":"31.35853","category":"249","category_name":"购物服务","address":"上海宝山区江杨北路(近泰和路)"},{"poiid":"B2094654D469ABF9469F","title":"泗塘四村小区","lon":"121.46002","lat":"31.3368","category":"47","category_name":"住宅区","address":""},{"poiid":"B2094654D46AA0FD4392","title":"泗塘一村小区","lon":"121.45582","lat":"31.33941","category":"47","category_name":"住宅区","address":"泗塘新村"},{"poiid":"B2094757D068A2F8479F","title":"富浩花苑","lon":"121.453779174","lat":"31.3445242076","category":"47","category_name":"住宅区","address":"上海市宝山区虎林路800弄"},{"poiid":"B2094757D069AAFE419D","title":"永达福特4S店","lon":"121.46133","lat":"31.339723","category":"500","category_name":"未知分类","address":"宝山区长江西路977号(近江杨南路)"},{"poiid":"B2094757D069A6FD499E","title":"上海东昌英菲尼迪旗舰店","lon":"121.474134803","lat":"31.3437922572","category":"500","category_name":"未知分类","address":"宝山区长江西路600号"},{"poiid":"B2094757D06AA7FB459D","title":"宝钢不锈钢事业部","lon":"121.469065722","lat":"31.3482048173","category":"46","category_name":"楼宇","address":"上海不知"},{"poiid":"B2094757D068A1FB4799","title":"嘉骏香山苑","lon":"121.471118","lat":"31.336197","category":"47","category_name":"住宅区","address":"上海市静安区新闸路1518号"},{"poiid":"B2094654D56DA1FE489E","title":"泗塘七村","lon":"121.467","lat":"31.3364","category":"47","category_name":"住宅区","address":"虎林路58号"},{"poiid":"B2094757D069A4F94399","title":"喜阁亭(长江西路店)","lon":"121.45782","lat":"31.33712","category":"76","category_name":"上海菜","address":"宝山区长江西路1230号(近虎林路)"},{"poiid":"B2094655D36CA5F9439F","title":"长江西路江杨南路","lon":"121.46631","lat":"31.34127","category":"38","category_name":"公交车站","address":""},{"poiid":"B2094654D469AAFC409B","title":"宝山钢铁股份有限公司冷轧薄板厂","lon":"121.46224","lat":"31.34715","category":"263","category_name":"公司","address":"江杨南路2288"},{"poiid":"B2094757D06FA6F94092","title":"85度C(虎林店)","lon":"121.458866","lat":"31.335496","category":"112","category_name":"糕饼店","address":"宝山区虎林路313号(近长江西路)"},{"poiid":"B2094757D06FA0F9479F","title":"泗塘一村","lon":"121.46240339826","lat":"31.345710773169","category":"500","category_name":"未知分类","address":"上海宝山区长江西路爱辉路"},{"poiid":"B2094757DB6BA4F4499E","title":"相爷食府","lon":"121.4746065","lat":"31.3375408","category":"76","category_name":"上海菜","address":"宝山区通南路111号(近新二路)"},{"poiid":"B2094757D16DA3FC409F","title":"江杨农产品批发市场","lon":"121.456358831","lat":"31.3570273","category":"500","category_name":"未知分类","address":"上海市宝山区江杨北路【铁谊路】"},{"poiid":"B2094757D66DA4FD429B","title":"上海申通二部","lon":"121.4719001","lat":"31.346243008","category":"500","category_name":"未知分类","address":"上海上钢一长"},{"poiid":"B2094757D06AA7FB459A","title":"冷轧薄板厂生活楼","lon":"121.4622189","lat":"31.3485832","category":"500","category_name":"未知分类","address":"上海宝山区江杨南路呼兰路"},{"poiid":"B2094654D46AA2F4479D","title":"宝山钢铁股份有限公司不锈钢分公司六号门","lon":"121.46246","lat":"31.3491","category":"263","category_name":"公司","address":""},{"poiid":"B2094757D06FA4FF4099","title":"冷軋薄板廠","lon":"121.462248","lat":"31.347147","category":"263","category_name":"公司","address":"上海江楊南路呼蘭路"},{"poiid":"B2094757D065A5F94093","title":"MG 4S店","lon":"121.4653621","lat":"31.338357843","category":"249","category_name":"购物服务","address":"上海市宝山区长江西路963号"},{"poiid":"B2094757D065A6FB409B","title":"上海二十一机动车安全检测站","lon":"121.460246","lat":"31.338679","category":"500","category_name":"未知分类","address":"上海长江西路1038号"},{"poiid":"B2094757D06FABFE439F","title":"冷轧薄板厂酸洗车间","lon":"121.46160701","lat":"31.345430512","category":"500","category_name":"未知分类","address":"上海冷轧薄板厂酸洗车间"},{"poiid":"B2094757D068AAFE469D","title":"泗塘二村","lon":"121.46104238731","lat":"31.339332167225","category":"47","category_name":"住宅区","address":"上海宝山区长江西路爱晖路"},{"poiid":"B2094757D069ABFB4792","title":"宝景苑","lon":"121.47723","lat":"31.338472","category":"252","category_name":"楼宇机构","address":"上海宝山区通南路55弄"},{"poiid":"B2094757D16DA6FC489D","title":"一汽大众宝山店","lon":"121.464641103","lat":"31.3374038234","category":"500","category_name":"未知分类","address":"上海江扬南路"},{"poiid":"B2094655D36CA2FB449F","title":"三转炉","lon":"121.47314","lat":"31.34368","category":"38","category_name":"公交车站","address":""},{"poiid":"B2094757D16FA6FB4392","title":"玉品轩私房菜","lon":"121.454689353","lat":"31.3407964444","category":"76","category_name":"上海菜","address":"宝山区虎林路611号(近呼玛路)"},{"poiid":"B2094654D46AA2F4459B","title":"上海轻玻都市型工业园区","lon":"121.47255","lat":"31.34364","category":"45","category_name":"产业园区","address":"长江西路685号"},{"poiid":"B2094757D66AABFD429E","title":"品宴轩","lon":"121.481266054","lat":"31.343886793","category":"72","category_name":"广东菜","address":"宝山区长江南路717号(近淞发路)"},{"poiid":"B2094757D069A0FE4292","title":"国际节能环保园","lon":"121.48101","lat":"31.34614","category":"179","category_name":"音乐厅","address":"上海宝山区长江西路101号(近钢三路)  "},{"poiid":"B2094654D46AA2F4489A","title":"淞港码头","lon":"121.46559","lat":"31.35684","category":"34","category_name":"港口码头","address":""},{"poiid":"B2094757D068A7F8439B","title":"泗塘三村","lon":"121.461","lat":"31.3399","category":"252","category_name":"楼宇机构","address":"上海长江西路泗塘三村"},{"poiid":"B2094655D26BA0FF489C","title":"江杨北路桥","lon":"121.45996","lat":"31.35437","category":"250","category_name":"公园户外","address":""},{"poiid":"B2094654D46AA2F44898","title":"阿斯特兰(青岛)仓储有限公司上海分公司","lon":"121.46016","lat":"31.35257","category":"263","category_name":"公司","address":"江杨南路2590号"},{"poiid":"B2094655D264A0FF4093","title":"万业紫辰苑","lon":"121.45894","lat":"31.35661","category":"47","category_name":"住宅区","address":"江杨北路1568弄1号"},{"poiid":"B2094757D169A2FD4599","title":"制氢站","lon":"121.46485523","lat":"31.354951957","category":"500","category_name":"未知分类","address":"上海蕴藻南路"},{"poiid":"B2094655D36CA7FF419C","title":"虎林路","lon":"121.45411","lat":"31.34433","category":"38","category_name":"公交车站","address":""},{"poiid":"B2094750D664A0F84193","title":"玻璃博物馆咖啡厅","lon":"121.473","lat":"31.3437","category":"260","category_name":"其他","address":"宝山区长江西路685号玻璃博物馆2楼(近钢四路)"},{"poiid":"B2094654D46AA2F4479F","title":"上海压缩机有限公司(长江西路)","lon":"121.47039","lat":"31.34288","category":"263","category_name":"公司","address":"长江西路815号"},{"poiid":"B2094757D16DA5F94299","title":"三湘海尚","lon":"121.4767795","lat":"31.340800894","category":"47","category_name":"住宅区","address":"上海长江南路888号"},{"poiid":"B2094757D06BA0FF489A","title":"丰泽大酒店","lon":"121.458836","lat":"31.338762","category":"76","category_name":"上海菜","address":"近郊金山区卫清西路168弄99号百联金山购物中心内(近松卫南路)"},{"poiid":"B2094757D068A1F9409C","title":"锦通苑","lon":"121.47403","lat":"31.336796","category":"252","category_name":"楼宇机构","address":"上海市宝山区新二路1398弄36号"}]