[{"poiid":"B2094654D56CA7F94399","title":"甜爱咖啡馆","lon":"121.48408","lat":"31.26783","category":"260","category_name":"其他","address":"虹口区甜爱路129号(甜爱路甜爱支路)"},{"poiid":"B2094757D06EAAF94498","title":"鲁迅公园","lon":"121.4845661077095","lat":"31.270973847972332","category":"196","category_name":"公园","address":"上海虹口区四川北路2288号"},{"poiid":"B2094654DB69A4F8449A","title":"星巴克(甜爱路店)","lon":"121.482833","lat":"31.267952","category":"65","category_name":"咖啡厅","address":"虹口区四川北路2258号(近鲁迅公园)"},{"poiid":"B2094655D26FA4FE4198","title":"鲁迅公园(南一门)","lon":"121.48264","lat":"31.26851","category":"656","category_name":"大门","address":"四川北路2288"},{"poiid":"B2094757D06FA6FC489F","title":"鲁迅纪念馆","lon":"121.4836595","lat":"31.269515801","category":"179","category_name":"音乐厅","address":"虹口区甜爱路200号(近四川北路)"},{"poiid":"B2094757D068A5FB4292","title":"甜爱支路","lon":"121.483617","lat":"31.268032","category":"260","category_name":"其他","address":"上海甜爱支路"},{"poiid":"B2094757D06FA2FF4892","title":"绿野仙踪","lon":"121.482361983","lat":"31.2685864405","category":"260","category_name":"其他","address":"虹口区四川北路2298号(近鲁迅公园)"},{"poiid":"B2094757D169A1FF479B","title":"鲁迅公园湖中央","lon":"121.4821434","lat":"31.268464681","category":"196","category_name":"公园","address":"上海鲁迅公园"},{"poiid":"B2094753DA69A7F84299","title":"表叔茶餐厅（虹口龙之梦店）","lon":"121.482292","lat":"31.268997","category":"500","category_name":"未知分类","address":"上海市 上海市虹口区西江湾路388号凯德龙之梦B1层19号铺"},{"poiid":"B2094655D26AA0F4469C","title":"虹口足球场壁球馆","lon":"121.48194","lat":"31.26912","category":"247","category_name":"餐饮美食","address":"虹口区东江湾路444号虹口足球场21号看台5楼(近四川路)"},{"poiid":"B2094757D66CA1FF459C","title":"奶香年糕团","lon":"121.484476103","lat":"31.2704344225","category":"247","category_name":"餐饮美食","address":"上海虹口区四川北路"},{"poiid":"B2094752D66CA1FB449F","title":"Costa鲁迅公园店","lon":"121.482819","lat":"31.269187","category":"247","category_name":"餐饮美食","address":"上海市虹口区四川北路鲁迅公园边门"},{"poiid":"B2094654DB6AA6FE459F","title":"麦当劳(虹口公园店)","lon":"121.48333","lat":"31.26839","category":"68","category_name":"快餐厅","address":"虹口区甜爱支路22-50号"},{"poiid":"B2094757D068A2F5479C","title":"南馨园酒店","lon":"121.48543489","lat":"31.268350135","category":"72","category_name":"广东菜","address":"虹口区山阴路277号(近鲁迅公园)"},{"poiid":"B209475CD56CA2FD469D","title":"四川香天下火锅（虹口店）","lon":"121.482283","lat":"31.268065","category":"247","category_name":"餐饮美食","address":"四川北路2211号天鹅宾馆3楼"},{"poiid":"B2094655D26AA0FF489D","title":"恒毅室内攀岩馆","lon":"121.48194","lat":"31.26912","category":"247","category_name":"餐饮美食","address":"虹口区东江湾路444号虹口足球场21看台上楼(近四川路)"},{"poiid":"B2094757D56DAAFD459A","title":"品宴轩大酒店","lon":"121.48306","lat":"31.26831","category":"76","category_name":"上海菜","address":"虹口区甜爱支路50号(近鲁迅公园)"},{"poiid":"B2094757D068A4FC429D","title":"天鹅宾馆","lon":"121.481954491","lat":"31.2682752047","category":"215","category_name":"三星级宾馆","address":"虹口区四川北路2211号(近鲁迅公园)"},{"poiid":"B2094750D66CA4FF489A","title":"虹口足球场龙之梦","lon":"121.483535","lat":"31.270164","category":"249","category_name":"购物服务","address":null},{"poiid":"B2094757D06FA7FE489E","title":"九牛一品(四川北路店)","lon":"121.482284228","lat":"31.2684988232","category":"68","category_name":"快餐厅","address":"虹口区四川北路2318号(近鲁迅公园)"},{"poiid":"B2094757D06AA7F8469C","title":"甜爱路早饭摊","lon":"121.48474","lat":"31.26911","category":"68","category_name":"快餐厅","address":"虹口区甜爱路(近鲁迅公园)"},{"poiid":"B2094654D56CA7F94293","title":"山阴面馆","lon":"121.48473","lat":"31.26768","category":"68","category_name":"快餐厅","address":"虹口区山阴路208弄51号(近甜爱支路)"},{"poiid":"B2094757D06AA5FF439A","title":"内环高架广中路口","lon":"121.484258823","lat":"31.2706812277","category":"500","category_name":"未知分类","address":"上海内环高架广中路口"},{"poiid":"B2094753D565A2F5439D","title":"串趣-成都串串香","lon":"121.484336","lat":"31.267522","category":"247","category_name":"餐饮美食","address":"上海市 虹口区东江湾路444号虹口足球场106室"},{"poiid":"B2094757D06FA5FF4399","title":"快乐柠檬(虹口店)","lon":"121.48266577","lat":"31.268470385","category":"113","category_name":"冷饮店","address":"虹口区四川北路2298号(近鲁迅公园)"},{"poiid":"B2094655D26CA2FB499E","title":"天通庵路657弄小区","lon":"121.484","lat":"31.2695","category":"47","category_name":"住宅区","address":"天通庵路657弄1-15号"},{"poiid":"B2094753DA64A4FB429F","title":"金逸影城Imax厅","lon":"121.4831","lat":"31.269571","category":"178","category_name":"电影院","address":"上海市 虹口龙之梦"},{"poiid":"B2094753D26EABFE469D","title":"甜爱Lounge","lon":"121.48408768764","lat":"31.267845320399","category":"247","category_name":"餐饮美食","address":"上海市虹口区甜爱路129号"},{"poiid":"B2094753D064A6F5429D","title":"麦当劳(鲁迅公园店)","lon":"121.48222","lat":"31.26833","category":"68","category_name":"快餐厅","address":"虹口区四川北路2398号(近鲁迅公园)"},{"poiid":"B2094655D26FAAF84392","title":"积善里(东门)","lon":"121.48502","lat":"31.26906","category":"47","category_name":"住宅区","address":"山阴路340弄1-31号"},{"poiid":"B2094757D06FA7F94992","title":"彩虹献血屋","lon":"121.482173995","lat":"31.2686655496","category":"162","category_name":"医院","address":"虹口区四川北路2388号(近西江湾路)"},{"poiid":"B2094655D26AA7FB449D","title":"虹口少体校羽毛球馆","lon":"121.48194","lat":"31.26912","category":"247","category_name":"餐饮美食","address":"虹口区东江湾路444号虹口足球场8号看台对面6楼(近四川路)"},{"poiid":"B2094655D265AAFD489E","title":"名角女士护肤美体养生馆","lon":"121.48535","lat":"31.2695","category":"148","category_name":"美容美发店","address":"山阴路355"},{"poiid":"B2094757D168A3FB489E","title":"大韩品","lon":"121.484614103","lat":"31.2700964154","category":"500","category_name":"未知分类","address":"上海市虹口区祥德路55号"},{"poiid":"B2094757D16BA0FD409D","title":"重庆谢记麻辣烫","lon":"121.482","lat":"31.2651","category":"68","category_name":"快餐厅","address":"虹口区山阴路228号"},{"poiid":"B2094753D769A6F9409E","title":"上海虹口足球场","lon":"121.483428","lat":"31.26906","category":"500","category_name":"未知分类","address":"上海市 虹口区 西江湾路"},{"poiid":"B2094654DB65A6F4409A","title":"上海市鲁迅艺术进修学校","lon":"121.48397","lat":"31.2696","category":"53","category_name":"成人教育","address":"甜爱路200"},{"poiid":"B2094757D56CABFA489E","title":"凯司令西点房 甜爱支路店","lon":"121.483639","lat":"31.267872","category":"67","category_name":"甜品店","address":"虹口区甜爱支路5号(近四川北路)"},{"poiid":"B2094454D365A3FB499A","title":"泰谷泰国休闲餐厅","lon":"121.482215","lat":"31.268922","category":"247","category_name":"餐饮美食","address":"上海市 虹口龙之梦B1"},{"poiid":"B2094753D468A3FD419C","title":"西贝西北菜","lon":"121.483261","lat":"31.26892","category":"500","category_name":"未知分类","address":"上海市 虹口凯德龙之梦购物中心"},{"poiid":"B2094757D569A2FB479B","title":"甜爱南货店","lon":"121.4841864","lat":"31.26867833","category":"111","category_name":"休闲餐饮场所","address":"虹口区甜爱路162号(近鲁迅公园边门)"},{"poiid":"B2094750D268A0FB479C","title":"虹口caster","lon":"121.483726","lat":"31.270462","category":"500","category_name":"未知分类","address":null},{"poiid":"B2094753D46BA2F94593","title":"虹口游泳池","lon":"121.483955","lat":"31.270753","category":"220","category_name":"运动场所","address":"上海市 上海市东江湾路500号"},{"poiid":"B2094655D26CA0F8449F","title":"山阴路343弄小区(西门)","lon":"121.48532","lat":"31.26929","category":"47","category_name":"住宅区","address":"山阴路343弄1-28号"},{"poiid":"B2094757D16CABFE499E","title":"中国移动虹口公园营业厅","lon":"121.4833571","lat":"31.268198375","category":"46","category_name":"楼宇","address":"上海市虹口区甜爱支路11号"},{"poiid":"B2094655D26EA1FC439B","title":"山阴路343弄小区","lon":"121.48567","lat":"31.2693","category":"47","category_name":"住宅区","address":"山阴路343弄1-28号"},{"poiid":"B2094655D26FA0FD419B","title":"鲁迅公园(东门)","lon":"121.48455","lat":"31.27093","category":"656","category_name":"大门","address":"甜爱路280"},{"poiid":"B2094757D06BA5FF489D","title":"唐朝涮火锅","lon":"121.487508054","lat":"31.271439793","category":"86","category_name":"火锅店","address":"虹口区祥德路140号(近欧阳路)"},{"poiid":"B2094757D069A6F94893","title":"机场四线鲁迅公园终点站","lon":"121.4818278","lat":"31.268149554","category":"38","category_name":"公交车站","address":"上海四川北路(近黄渡路)"},{"poiid":"B2094757D065A2F54699","title":"嘉宏紫薇苑","lon":"121.485278","lat":"31.271793","category":"47","category_name":"住宅区","address":"上海同心路28弄"},{"poiid":"B2094654D56CA7F94399","title":"甜爱咖啡馆","lon":"121.48408","lat":"31.26783","category":"260","category_name":"其他","address":"虹口区甜爱路129号(甜爱路甜爱支路)"},{"poiid":"B2094757D06EAAF94498","title":"鲁迅公园","lon":"121.4845661077095","lat":"31.270973847972332","category":"196","category_name":"公园","address":"上海虹口区四川北路2288号"},{"poiid":"B2094654DB69A4F8449A","title":"星巴克(甜爱路店)","lon":"121.482833","lat":"31.267952","category":"65","category_name":"咖啡厅","address":"虹口区四川北路2258号(近鲁迅公园)"},{"poiid":"B2094655D26FA4FE4198","title":"鲁迅公园(南一门)","lon":"121.48264","lat":"31.26851","category":"656","category_name":"大门","address":"四川北路2288"},{"poiid":"B2094757D06FA6FC489F","title":"鲁迅纪念馆","lon":"121.4836595","lat":"31.269515801","category":"179","category_name":"音乐厅","address":"虹口区甜爱路200号(近四川北路)"},{"poiid":"B2094757D068A5FB4292","title":"甜爱支路","lon":"121.483617","lat":"31.268032","category":"260","category_name":"其他","address":"上海甜爱支路"},{"poiid":"B2094757D06FA2FF4892","title":"绿野仙踪","lon":"121.482361983","lat":"31.2685864405","category":"260","category_name":"其他","address":"虹口区四川北路2298号(近鲁迅公园)"},{"poiid":"B2094757D169A1FF479B","title":"鲁迅公园湖中央","lon":"121.4821434","lat":"31.268464681","category":"196","category_name":"公园","address":"上海鲁迅公园"},{"poiid":"B2094753DA69A7F84299","title":"表叔茶餐厅（虹口龙之梦店）","lon":"121.482292","lat":"31.268997","category":"500","category_name":"未知分类","address":"上海市 上海市虹口区西江湾路388号凯德龙之梦B1层19号铺"},{"poiid":"B2094655D26AA0F4469C","title":"虹口足球场壁球馆","lon":"121.48194","lat":"31.26912","category":"247","category_name":"餐饮美食","address":"虹口区东江湾路444号虹口足球场21号看台5楼(近四川路)"},{"poiid":"B2094757D66CA1FF459C","title":"奶香年糕团","lon":"121.484476103","lat":"31.2704344225","category":"247","category_name":"餐饮美食","address":"上海虹口区四川北路"},{"poiid":"B2094752D66CA1FB449F","title":"Costa鲁迅公园店","lon":"121.482819","lat":"31.269187","category":"247","category_name":"餐饮美食","address":"上海市虹口区四川北路鲁迅公园边门"},{"poiid":"B2094654DB6AA6FE459F","title":"麦当劳(虹口公园店)","lon":"121.48333","lat":"31.26839","category":"68","category_name":"快餐厅","address":"虹口区甜爱支路22-50号"},{"poiid":"B2094757D068A2F5479C","title":"南馨园酒店","lon":"121.48543489","lat":"31.268350135","category":"72","category_name":"广东菜","address":"虹口区山阴路277号(近鲁迅公园)"},{"poiid":"B209475CD56CA2FD469D","title":"四川香天下火锅（虹口店）","lon":"121.482283","lat":"31.268065","category":"247","category_name":"餐饮美食","address":"四川北路2211号天鹅宾馆3楼"},{"poiid":"B2094655D26AA0FF489D","title":"恒毅室内攀岩馆","lon":"121.48194","lat":"31.26912","category":"247","category_name":"餐饮美食","address":"虹口区东江湾路444号虹口足球场21看台上楼(近四川路)"},{"poiid":"B2094757D56DAAFD459A","title":"品宴轩大酒店","lon":"121.48306","lat":"31.26831","category":"76","category_name":"上海菜","address":"虹口区甜爱支路50号(近鲁迅公园)"},{"poiid":"B2094757D068A4FC429D","title":"天鹅宾馆","lon":"121.481954491","lat":"31.2682752047","category":"215","category_name":"三星级宾馆","address":"虹口区四川北路2211号(近鲁迅公园)"},{"poiid":"B2094750D66CA4FF489A","title":"虹口足球场龙之梦","lon":"121.483535","lat":"31.270164","category":"249","category_name":"购物服务","address":null},{"poiid":"B2094757D06FA7FE489E","title":"九牛一品(四川北路店)","lon":"121.482284228","lat":"31.2684988232","category":"68","category_name":"快餐厅","address":"虹口区四川北路2318号(近鲁迅公园)"},{"poiid":"B2094757D06AA7F8469C","title":"甜爱路早饭摊","lon":"121.48474","lat":"31.26911","category":"68","category_name":"快餐厅","address":"虹口区甜爱路(近鲁迅公园)"},{"poiid":"B2094654D56CA7F94293","title":"山阴面馆","lon":"121.48473","lat":"31.26768","category":"68","category_name":"快餐厅","address":"虹口区山阴路208弄51号(近甜爱支路)"},{"poiid":"B2094757D06AA5FF439A","title":"内环高架广中路口","lon":"121.484258823","lat":"31.2706812277","category":"500","category_name":"未知分类","address":"上海内环高架广中路口"},{"poiid":"B2094753D565A2F5439D","title":"串趣-成都串串香","lon":"121.484336","lat":"31.267522","category":"247","category_name":"餐饮美食","address":"上海市 虹口区东江湾路444号虹口足球场106室"},{"poiid":"B2094757D06FA5FF4399","title":"快乐柠檬(虹口店)","lon":"121.48266577","lat":"31.268470385","category":"113","category_name":"冷饮店","address":"虹口区四川北路2298号(近鲁迅公园)"},{"poiid":"B2094655D26CA2FB499E","title":"天通庵路657弄小区","lon":"121.484","lat":"31.2695","category":"47","category_name":"住宅区","address":"天通庵路657弄1-15号"},{"poiid":"B2094753DA64A4FB429F","title":"金逸影城Imax厅","lon":"121.4831","lat":"31.269571","category":"178","category_name":"电影院","address":"上海市 虹口龙之梦"},{"poiid":"B2094753D26EABFE469D","title":"甜爱Lounge","lon":"121.48408768764","lat":"31.267845320399","category":"247","category_name":"餐饮美食","address":"上海市虹口区甜爱路129号"},{"poiid":"B2094753D064A6F5429D","title":"麦当劳(鲁迅公园店)","lon":"121.48222","lat":"31.26833","category":"68","category_name":"快餐厅","address":"虹口区四川北路2398号(近鲁迅公园)"},{"poiid":"B2094655D26FAAF84392","title":"积善里(东门)","lon":"121.48502","lat":"31.26906","category":"47","category_name":"住宅区","address":"山阴路340弄1-31号"},{"poiid":"B2094757D06FA7F94992","title":"彩虹献血屋","lon":"121.482173995","lat":"31.2686655496","category":"162","category_name":"医院","address":"虹口区四川北路2388号(近西江湾路)"},{"poiid":"B2094655D26AA7FB449D","title":"虹口少体校羽毛球馆","lon":"121.48194","lat":"31.26912","category":"247","category_name":"餐饮美食","address":"虹口区东江湾路444号虹口足球场8号看台对面6楼(近四川路)"},{"poiid":"B2094655D265AAFD489E","title":"名角女士护肤美体养生馆","lon":"121.48535","lat":"31.2695","category":"148","category_name":"美容美发店","address":"山阴路355"},{"poiid":"B2094757D168A3FB489E","title":"大韩品","lon":"121.484614103","lat":"31.2700964154","category":"500","category_name":"未知分类","address":"上海市虹口区祥德路55号"},{"poiid":"B2094757D16BA0FD409D","title":"重庆谢记麻辣烫","lon":"121.482","lat":"31.2651","category":"68","category_name":"快餐厅","address":"虹口区山阴路228号"},{"poiid":"B2094753D769A6F9409E","title":"上海虹口足球场","lon":"121.483428","lat":"31.26906","category":"500","category_name":"未知分类","address":"上海市 虹口区 西江湾路"},{"poiid":"B2094654DB65A6F4409A","title":"上海市鲁迅艺术进修学校","lon":"121.48397","lat":"31.2696","category":"53","category_name":"成人教育","address":"甜爱路200"},{"poiid":"B2094757D56CABFA489E","title":"凯司令西点房 甜爱支路店","lon":"121.483639","lat":"31.267872","category":"67","category_name":"甜品店","address":"虹口区甜爱支路5号(近四川北路)"},{"poiid":"B2094454D365A3FB499A","title":"泰谷泰国休闲餐厅","lon":"121.482215","lat":"31.268922","category":"247","category_name":"餐饮美食","address":"上海市 虹口龙之梦B1"},{"poiid":"B2094753D468A3FD419C","title":"西贝西北菜","lon":"121.483261","lat":"31.26892","category":"500","category_name":"未知分类","address":"上海市 虹口凯德龙之梦购物中心"},{"poiid":"B2094757D569A2FB479B","title":"甜爱南货店","lon":"121.4841864","lat":"31.26867833","category":"111","category_name":"休闲餐饮场所","address":"虹口区甜爱路162号(近鲁迅公园边门)"},{"poiid":"B2094750D268A0FB479C","title":"虹口caster","lon":"121.483726","lat":"31.270462","category":"500","category_name":"未知分类","address":null},{"poiid":"B2094753D46BA2F94593","title":"虹口游泳池","lon":"121.483955","lat":"31.270753","category":"220","category_name":"运动场所","address":"上海市 上海市东江湾路500号"},{"poiid":"B2094655D26CA0F8449F","title":"山阴路343弄小区(西门)","lon":"121.48532","lat":"31.26929","category":"47","category_name":"住宅区","address":"山阴路343弄1-28号"},{"poiid":"B2094757D16CABFE499E","title":"中国移动虹口公园营业厅","lon":"121.4833571","lat":"31.268198375","category":"46","category_name":"楼宇","address":"上海市虹口区甜爱支路11号"},{"poiid":"B2094655D26EA1FC439B","title":"山阴路343弄小区","lon":"121.48567","lat":"31.2693","category":"47","category_name":"住宅区","address":"山阴路343弄1-28号"},{"poiid":"B2094655D26FA0FD419B","title":"鲁迅公园(东门)","lon":"121.48455","lat":"31.27093","category":"656","category_name":"大门","address":"甜爱路280"},{"poiid":"B2094757D06BA5FF489D","title":"唐朝涮火锅","lon":"121.487508054","lat":"31.271439793","category":"86","category_name":"火锅店","address":"虹口区祥德路140号(近欧阳路)"},{"poiid":"B2094757D069A6F94893","title":"机场四线鲁迅公园终点站","lon":"121.4818278","lat":"31.268149554","category":"38","category_name":"公交车站","address":"上海四川北路(近黄渡路)"},{"poiid":"B2094757D065A2F54699","title":"嘉宏紫薇苑","lon":"121.485278","lat":"31.271793","category":"47","category_name":"住宅区","address":"上海同心路28弄"},{"poiid":"B2094654D56CA7F94399","title":"甜爱咖啡馆","lon":"121.48408","lat":"31.26783","category":"260","category_name":"其他","address":"虹口区甜爱路129号(甜爱路甜爱支路)"},{"poiid":"B2094757D06EAAF94498","title":"鲁迅公园","lon":"121.4845661077095","lat":"31.270973847972332","category":"196","category_name":"公园","address":"上海虹口区四川北路2288号"},{"poiid":"B2094654DB69A4F8449A","title":"星巴克(甜爱路店)","lon":"121.482833","lat":"31.267952","category":"65","category_name":"咖啡厅","address":"虹口区四川北路2258号(近鲁迅公园)"},{"poiid":"B2094655D26FA4FE4198","title":"鲁迅公园(南一门)","lon":"121.48264","lat":"31.26851","category":"656","category_name":"大门","address":"四川北路2288"},{"poiid":"B2094757D06FA6FC489F","title":"鲁迅纪念馆","lon":"121.4836595","lat":"31.269515801","category":"179","category_name":"音乐厅","address":"虹口区甜爱路200号(近四川北路)"},{"poiid":"B2094757D068A5FB4292","title":"甜爱支路","lon":"121.483617","lat":"31.268032","category":"260","category_name":"其他","address":"上海甜爱支路"},{"poiid":"B2094757D06FA2FF4892","title":"绿野仙踪","lon":"121.482361983","lat":"31.2685864405","category":"260","category_name":"其他","address":"虹口区四川北路2298号(近鲁迅公园)"},{"poiid":"B2094757D169A1FF479B","title":"鲁迅公园湖中央","lon":"121.4821434","lat":"31.268464681","category":"196","category_name":"公园","address":"上海鲁迅公园"},{"poiid":"B2094753DA69A7F84299","title":"表叔茶餐厅（虹口龙之梦店）","lon":"121.482292","lat":"31.268997","category":"500","category_name":"未知分类","address":"上海市 上海市虹口区西江湾路388号凯德龙之梦B1层19号铺"},{"poiid":"B2094655D26AA0F4469C","title":"虹口足球场壁球馆","lon":"121.48194","lat":"31.26912","category":"247","category_name":"餐饮美食","address":"虹口区东江湾路444号虹口足球场21号看台5楼(近四川路)"},{"poiid":"B2094757D66CA1FF459C","title":"奶香年糕团","lon":"121.484476103","lat":"31.2704344225","category":"247","category_name":"餐饮美食","address":"上海虹口区四川北路"},{"poiid":"B2094752D66CA1FB449F","title":"Costa鲁迅公园店","lon":"121.482819","lat":"31.269187","category":"247","category_name":"餐饮美食","address":"上海市虹口区四川北路鲁迅公园边门"},{"poiid":"B2094654DB6AA6FE459F","title":"麦当劳(虹口公园店)","lon":"121.48333","lat":"31.26839","category":"68","category_name":"快餐厅","address":"虹口区甜爱支路22-50号"},{"poiid":"B2094757D068A2F5479C","title":"南馨园酒店","lon":"121.48543489","lat":"31.268350135","category":"72","category_name":"广东菜","address":"虹口区山阴路277号(近鲁迅公园)"},{"poiid":"B209475CD56CA2FD469D","title":"四川香天下火锅（虹口店）","lon":"121.482283","lat":"31.268065","category":"247","category_name":"餐饮美食","address":"四川北路2211号天鹅宾馆3楼"},{"poiid":"B2094655D26AA0FF489D","title":"恒毅室内攀岩馆","lon":"121.48194","lat":"31.26912","category":"247","category_name":"餐饮美食","address":"虹口区东江湾路444号虹口足球场21看台上楼(近四川路)"},{"poiid":"B2094757D56DAAFD459A","title":"品宴轩大酒店","lon":"121.48306","lat":"31.26831","category":"76","category_name":"上海菜","address":"虹口区甜爱支路50号(近鲁迅公园)"},{"poiid":"B2094757D068A4FC429D","title":"天鹅宾馆","lon":"121.481954491","lat":"31.2682752047","category":"215","category_name":"三星级宾馆","address":"虹口区四川北路2211号(近鲁迅公园)"},{"poiid":"B2094750D66CA4FF489A","title":"虹口足球场龙之梦","lon":"121.483535","lat":"31.270164","category":"249","category_name":"购物服务","address":null},{"poiid":"B2094757D06FA7FE489E","title":"九牛一品(四川北路店)","lon":"121.482284228","lat":"31.2684988232","category":"68","category_name":"快餐厅","address":"虹口区四川北路2318号(近鲁迅公园)"},{"poiid":"B2094757D06AA7F8469C","title":"甜爱路早饭摊","lon":"121.48474","lat":"31.26911","category":"68","category_name":"快餐厅","address":"虹口区甜爱路(近鲁迅公园)"},{"poiid":"B2094654D56CA7F94293","title":"山阴面馆","lon":"121.48473","lat":"31.26768","category":"68","category_name":"快餐厅","address":"虹口区山阴路208弄51号(近甜爱支路)"},{"poiid":"B2094757D06AA5FF439A","title":"内环高架广中路口","lon":"121.484258823","lat":"31.2706812277","category":"500","category_name":"未知分类","address":"上海内环高架广中路口"},{"poiid":"B2094753D565A2F5439D","title":"串趣-成都串串香","lon":"121.484336","lat":"31.267522","category":"247","category_name":"餐饮美食","address":"上海市 虹口区东江湾路444号虹口足球场106室"},{"poiid":"B2094757D06FA5FF4399","title":"快乐柠檬(虹口店)","lon":"121.48266577","lat":"31.268470385","category":"113","category_name":"冷饮店","address":"虹口区四川北路2298号(近鲁迅公园)"},{"poiid":"B2094655D26CA2FB499E","title":"天通庵路657弄小区","lon":"121.484","lat":"31.2695","category":"47","category_name":"住宅区","address":"天通庵路657弄1-15号"},{"poiid":"B2094753DA64A4FB429F","title":"金逸影城Imax厅","lon":"121.4831","lat":"31.269571","category":"178","category_name":"电影院","address":"上海市 虹口龙之梦"},{"poiid":"B2094753D26EABFE469D","title":"甜爱Lounge","lon":"121.48408768764","lat":"31.267845320399","category":"247","category_name":"餐饮美食","address":"上海市虹口区甜爱路129号"},{"poiid":"B2094753D064A6F5429D","title":"麦当劳(鲁迅公园店)","lon":"121.48222","lat":"31.26833","category":"68","category_name":"快餐厅","address":"虹口区四川北路2398号(近鲁迅公园)"},{"poiid":"B2094655D26FAAF84392","title":"积善里(东门)","lon":"121.48502","lat":"31.26906","category":"47","category_name":"住宅区","address":"山阴路340弄1-31号"},{"poiid":"B2094757D06FA7F94992","title":"彩虹献血屋","lon":"121.482173995","lat":"31.2686655496","category":"162","category_name":"医院","address":"虹口区四川北路2388号(近西江湾路)"},{"poiid":"B2094655D26AA7FB449D","title":"虹口少体校羽毛球馆","lon":"121.48194","lat":"31.26912","category":"247","category_name":"餐饮美食","address":"虹口区东江湾路444号虹口足球场8号看台对面6楼(近四川路)"},{"poiid":"B2094655D265AAFD489E","title":"名角女士护肤美体养生馆","lon":"121.48535","lat":"31.2695","category":"148","category_name":"美容美发店","address":"山阴路355"},{"poiid":"B2094757D168A3FB489E","title":"大韩品","lon":"121.484614103","lat":"31.2700964154","category":"500","category_name":"未知分类","address":"上海市虹口区祥德路55号"},{"poiid":"B2094757D16BA0FD409D","title":"重庆谢记麻辣烫","lon":"121.482","lat":"31.2651","category":"68","category_name":"快餐厅","address":"虹口区山阴路228号"},{"poiid":"B2094753D769A6F9409E","title":"上海虹口足球场","lon":"121.483428","lat":"31.26906","category":"500","category_name":"未知分类","address":"上海市 虹口区 西江湾路"},{"poiid":"B2094654DB65A6F4409A","title":"上海市鲁迅艺术进修学校","lon":"121.48397","lat":"31.2696","category":"53","category_name":"成人教育","address":"甜爱路200"},{"poiid":"B2094757D56CABFA489E","title":"凯司令西点房 甜爱支路店","lon":"121.483639","lat":"31.267872","category":"67","category_name":"甜品店","address":"虹口区甜爱支路5号(近四川北路)"},{"poiid":"B2094454D365A3FB499A","title":"泰谷泰国休闲餐厅","lon":"121.482215","lat":"31.268922","category":"247","category_name":"餐饮美食","address":"上海市 虹口龙之梦B1"},{"poiid":"B2094753D468A3FD419C","title":"西贝西北菜","lon":"121.483261","lat":"31.26892","category":"500","category_name":"未知分类","address":"上海市 虹口凯德龙之梦购物中心"},{"poiid":"B2094757D569A2FB479B","title":"甜爱南货店","lon":"121.4841864","lat":"31.26867833","category":"111","category_name":"休闲餐饮场所","address":"虹口区甜爱路162号(近鲁迅公园边门)"},{"poiid":"B2094750D268A0FB479C","title":"虹口caster","lon":"121.483726","lat":"31.270462","category":"500","category_name":"未知分类","address":null},{"poiid":"B2094753D46BA2F94593","title":"虹口游泳池","lon":"121.483955","lat":"31.270753","category":"220","category_name":"运动场所","address":"上海市 上海市东江湾路500号"},{"poiid":"B2094655D26CA0F8449F","title":"山阴路343弄小区(西门)","lon":"121.48532","lat":"31.26929","category":"47","category_name":"住宅区","address":"山阴路343弄1-28号"},{"poiid":"B2094757D16CABFE499E","title":"中国移动虹口公园营业厅","lon":"121.4833571","lat":"31.268198375","category":"46","category_name":"楼宇","address":"上海市虹口区甜爱支路11号"},{"poiid":"B2094655D26EA1FC439B","title":"山阴路343弄小区","lon":"121.48567","lat":"31.2693","category":"47","category_name":"住宅区","address":"山阴路343弄1-28号"},{"poiid":"B2094655D26FA0FD419B","title":"鲁迅公园(东门)","lon":"121.48455","lat":"31.27093","category":"656","category_name":"大门","address":"甜爱路280"},{"poiid":"B2094757D06BA5FF489D","title":"唐朝涮火锅","lon":"121.487508054","lat":"31.271439793","category":"86","category_name":"火锅店","address":"虹口区祥德路140号(近欧阳路)"},{"poiid":"B2094757D069A6F94893","title":"机场四线鲁迅公园终点站","lon":"121.4818278","lat":"31.268149554","category":"38","category_name":"公交车站","address":"上海四川北路(近黄渡路)"},{"poiid":"B2094757D065A2F54699","title":"嘉宏紫薇苑","lon":"121.485278","lat":"31.271793","category":"47","category_name":"住宅区","address":"上海同心路28弄"},{"poiid":"B2094654D56CA7F94399","title":"甜爱咖啡馆","lon":"121.48408","lat":"31.26783","category":"260","category_name":"其他","address":"虹口区甜爱路129号(甜爱路甜爱支路)"},{"poiid":"B2094757D06EAAF94498","title":"鲁迅公园","lon":"121.4845661077095","lat":"31.270973847972332","category":"196","category_name":"公园","address":"上海虹口区四川北路2288号"},{"poiid":"B2094654DB69A4F8449A","title":"星巴克(甜爱路店)","lon":"121.482833","lat":"31.267952","category":"65","category_name":"咖啡厅","address":"虹口区四川北路2258号(近鲁迅公园)"},{"poiid":"B2094655D26FA4FE4198","title":"鲁迅公园(南一门)","lon":"121.48264","lat":"31.26851","category":"656","category_name":"大门","address":"四川北路2288"},{"poiid":"B2094757D06FA6FC489F","title":"鲁迅纪念馆","lon":"121.4836595","lat":"31.269515801","category":"179","category_name":"音乐厅","address":"虹口区甜爱路200号(近四川北路)"},{"poiid":"B2094757D068A5FB4292","title":"甜爱支路","lon":"121.483617","lat":"31.268032","category":"260","category_name":"其他","address":"上海甜爱支路"},{"poiid":"B2094757D06FA2FF4892","title":"绿野仙踪","lon":"121.482361983","lat":"31.2685864405","category":"260","category_name":"其他","address":"虹口区四川北路2298号(近鲁迅公园)"},{"poiid":"B2094757D169A1FF479B","title":"鲁迅公园湖中央","lon":"121.4821434","lat":"31.268464681","category":"196","category_name":"公园","address":"上海鲁迅公园"},{"poiid":"B2094753DA69A7F84299","title":"表叔茶餐厅（虹口龙之梦店）","lon":"121.482292","lat":"31.268997","category":"500","category_name":"未知分类","address":"上海市 上海市虹口区西江湾路388号凯德龙之梦B1层19号铺"},{"poiid":"B2094655D26AA0F4469C","title":"虹口足球场壁球馆","lon":"121.48194","lat":"31.26912","category":"247","category_name":"餐饮美食","address":"虹口区东江湾路444号虹口足球场21号看台5楼(近四川路)"},{"poiid":"B2094757D66CA1FF459C","title":"奶香年糕团","lon":"121.484476103","lat":"31.2704344225","category":"247","category_name":"餐饮美食","address":"上海虹口区四川北路"},{"poiid":"B2094752D66CA1FB449F","title":"Costa鲁迅公园店","lon":"121.482819","lat":"31.269187","category":"247","category_name":"餐饮美食","address":"上海市虹口区四川北路鲁迅公园边门"},{"poiid":"B2094654DB6AA6FE459F","title":"麦当劳(虹口公园店)","lon":"121.48333","lat":"31.26839","category":"68","category_name":"快餐厅","address":"虹口区甜爱支路22-50号"},{"poiid":"B2094757D068A2F5479C","title":"南馨园酒店","lon":"121.48543489","lat":"31.268350135","category":"72","category_name":"广东菜","address":"虹口区山阴路277号(近鲁迅公园)"},{"poiid":"B209475CD56CA2FD469D","title":"四川香天下火锅（虹口店）","lon":"121.482283","lat":"31.268065","category":"247","category_name":"餐饮美食","address":"四川北路2211号天鹅宾馆3楼"},{"poiid":"B2094655D26AA0FF489D","title":"恒毅室内攀岩馆","lon":"121.48194","lat":"31.26912","category":"247","category_name":"餐饮美食","address":"虹口区东江湾路444号虹口足球场21看台上楼(近四川路)"},{"poiid":"B2094757D56DAAFD459A","title":"品宴轩大酒店","lon":"121.48306","lat":"31.26831","category":"76","category_name":"上海菜","address":"虹口区甜爱支路50号(近鲁迅公园)"},{"poiid":"B2094757D068A4FC429D","title":"天鹅宾馆","lon":"121.481954491","lat":"31.2682752047","category":"215","category_name":"三星级宾馆","address":"虹口区四川北路2211号(近鲁迅公园)"},{"poiid":"B2094750D66CA4FF489A","title":"虹口足球场龙之梦","lon":"121.483535","lat":"31.270164","category":"249","category_name":"购物服务","address":null},{"poiid":"B2094757D06FA7FE489E","title":"九牛一品(四川北路店)","lon":"121.482284228","lat":"31.2684988232","category":"68","category_name":"快餐厅","address":"虹口区四川北路2318号(近鲁迅公园)"},{"poiid":"B2094757D06AA7F8469C","title":"甜爱路早饭摊","lon":"121.48474","lat":"31.26911","category":"68","category_name":"快餐厅","address":"虹口区甜爱路(近鲁迅公园)"},{"poiid":"B2094654D56CA7F94293","title":"山阴面馆","lon":"121.48473","lat":"31.26768","category":"68","category_name":"快餐厅","address":"虹口区山阴路208弄51号(近甜爱支路)"},{"poiid":"B2094757D06AA5FF439A","title":"内环高架广中路口","lon":"121.484258823","lat":"31.2706812277","category":"500","category_name":"未知分类","address":"上海内环高架广中路口"},{"poiid":"B2094753D565A2F5439D","title":"串趣-成都串串香","lon":"121.484336","lat":"31.267522","category":"247","category_name":"餐饮美食","address":"上海市 虹口区东江湾路444号虹口足球场106室"},{"poiid":"B2094757D06FA5FF4399","title":"快乐柠檬(虹口店)","lon":"121.48266577","lat":"31.268470385","category":"113","category_name":"冷饮店","address":"虹口区四川北路2298号(近鲁迅公园)"},{"poiid":"B2094655D26CA2FB499E","title":"天通庵路657弄小区","lon":"121.484","lat":"31.2695","category":"47","category_name":"住宅区","address":"天通庵路657弄1-15号"},{"poiid":"B2094753DA64A4FB429F","title":"金逸影城Imax厅","lon":"121.4831","lat":"31.269571","category":"178","category_name":"电影院","address":"上海市 虹口龙之梦"},{"poiid":"B2094753D26EABFE469D","title":"甜爱Lounge","lon":"121.48408768764","lat":"31.267845320399","category":"247","category_name":"餐饮美食","address":"上海市虹口区甜爱路129号"},{"poiid":"B2094753D064A6F5429D","title":"麦当劳(鲁迅公园店)","lon":"121.48222","lat":"31.26833","category":"68","category_name":"快餐厅","address":"虹口区四川北路2398号(近鲁迅公园)"},{"poiid":"B2094655D26FAAF84392","title":"积善里(东门)","lon":"121.48502","lat":"31.26906","category":"47","category_name":"住宅区","address":"山阴路340弄1-31号"},{"poiid":"B2094757D06FA7F94992","title":"彩虹献血屋","lon":"121.482173995","lat":"31.2686655496","category":"162","category_name":"医院","address":"虹口区四川北路2388号(近西江湾路)"},{"poiid":"B2094655D26AA7FB449D","title":"虹口少体校羽毛球馆","lon":"121.48194","lat":"31.26912","category":"247","category_name":"餐饮美食","address":"虹口区东江湾路444号虹口足球场8号看台对面6楼(近四川路)"},{"poiid":"B2094655D265AAFD489E","title":"名角女士护肤美体养生馆","lon":"121.48535","lat":"31.2695","category":"148","category_name":"美容美发店","address":"山阴路355"},{"poiid":"B2094757D168A3FB489E","title":"大韩品","lon":"121.484614103","lat":"31.2700964154","category":"500","category_name":"未知分类","address":"上海市虹口区祥德路55号"},{"poiid":"B2094757D16BA0FD409D","title":"重庆谢记麻辣烫","lon":"121.482","lat":"31.2651","category":"68","category_name":"快餐厅","address":"虹口区山阴路228号"},{"poiid":"B2094753D769A6F9409E","title":"上海虹口足球场","lon":"121.483428","lat":"31.26906","category":"500","category_name":"未知分类","address":"上海市 虹口区 西江湾路"},{"poiid":"B2094654DB65A6F4409A","title":"上海市鲁迅艺术进修学校","lon":"121.48397","lat":"31.2696","category":"53","category_name":"成人教育","address":"甜爱路200"},{"poiid":"B2094757D56CABFA489E","title":"凯司令西点房 甜爱支路店","lon":"121.483639","lat":"31.267872","category":"67","category_name":"甜品店","address":"虹口区甜爱支路5号(近四川北路)"},{"poiid":"B2094454D365A3FB499A","title":"泰谷泰国休闲餐厅","lon":"121.482215","lat":"31.268922","category":"247","category_name":"餐饮美食","address":"上海市 虹口龙之梦B1"},{"poiid":"B2094753D468A3FD419C","title":"西贝西北菜","lon":"121.483261","lat":"31.26892","category":"500","category_name":"未知分类","address":"上海市 虹口凯德龙之梦购物中心"},{"poiid":"B2094757D569A2FB479B","title":"甜爱南货店","lon":"121.4841864","lat":"31.26867833","category":"111","category_name":"休闲餐饮场所","address":"虹口区甜爱路162号(近鲁迅公园边门)"},{"poiid":"B2094750D268A0FB479C","title":"虹口caster","lon":"121.483726","lat":"31.270462","category":"500","category_name":"未知分类","address":null},{"poiid":"B2094753D46BA2F94593","title":"虹口游泳池","lon":"121.483955","lat":"31.270753","category":"220","category_name":"运动场所","address":"上海市 上海市东江湾路500号"},{"poiid":"B2094655D26CA0F8449F","title":"山阴路343弄小区(西门)","lon":"121.48532","lat":"31.26929","category":"47","category_name":"住宅区","address":"山阴路343弄1-28号"},{"poiid":"B2094757D16CABFE499E","title":"中国移动虹口公园营业厅","lon":"121.4833571","lat":"31.268198375","category":"46","category_name":"楼宇","address":"上海市虹口区甜爱支路11号"},{"poiid":"B2094655D26EA1FC439B","title":"山阴路343弄小区","lon":"121.48567","lat":"31.2693","category":"47","category_name":"住宅区","address":"山阴路343弄1-28号"},{"poiid":"B2094655D26FA0FD419B","title":"鲁迅公园(东门)","lon":"121.48455","lat":"31.27093","category":"656","category_name":"大门","address":"甜爱路280"},{"poiid":"B2094757D06BA5FF489D","title":"唐朝涮火锅","lon":"121.487508054","lat":"31.271439793","category":"86","category_name":"火锅店","address":"虹口区祥德路140号(近欧阳路)"},{"poiid":"B2094757D069A6F94893","title":"机场四线鲁迅公园终点站","lon":"121.4818278","lat":"31.268149554","category":"38","category_name":"公交车站","address":"上海四川北路(近黄渡路)"},{"poiid":"B2094757D065A2F54699","title":"嘉宏紫薇苑","lon":"121.485278","lat":"31.271793","category":"47","category_name":"住宅区","address":"上海同心路28弄"}]