[{"poiid":"B2094757D06FA3F94393","title":"曲阳医院","lon":"121.49115895","lat":"31.278473023","category":"162","category_name":"医院","address":"虹口区玉田路333号(近曲阳路)"},{"poiid":"B2094757D06EAAF8449E","title":"曲阳路地铁站","lon":"121.49069713","lat":"31.276512768","category":"36","category_name":"地铁站","address":"上海轨道交通 八号线 轨交曲阳路站 8"},{"poiid":"B2094752D364A5F9489F","title":"居食屋和民(虹口凯德龙之梦店)","lon":"121.491485","lat":"31.277919","category":"95","category_name":"日本料理","address":"虹口区西江湾路388号虹口凯德龙之梦6楼(近花园路)"},{"poiid":"B2094757D068A7FE4998","title":"西北狼烧烤","lon":"121.488008103","lat":"31.2755975304","category":"247","category_name":"餐饮美食","address":"上海虹口足球场旁"},{"poiid":"B2094757D06FA1FF4698","title":"玉田路曲阳路","lon":"121.49210357","lat":"31.279180526","category":"500","category_name":"未知分类","address":"上海玉田路曲阳路"},{"poiid":"B2094757D06FA5FC4692","title":"大连西路曲阳路","lon":"121.488515","lat":"31.27648","category":"500","category_name":"未知分类","address":"上海100。959。70。937。751。310。79。848。"},{"poiid":"B2094655D26EA7FF4298","title":"梅园村酒家(虹口店)","lon":"121.48823","lat":"31.2764","category":"76","category_name":"上海菜","address":"虹口区大连西路255号(近曲阳路)"},{"poiid":"B2094757D06FA6FF4493","title":"北郊高级中学","lon":"121.48976","lat":"31.2753","category":"55","category_name":"中学","address":"虹口区曲阳路497号(近大连西路)"},{"poiid":"B2094757D06FA2F5499E","title":"玉田新村","lon":"121.494806","lat":"31.277934","category":"47","category_name":"住宅区","address":"上海虹口区大连西路96号,玉田路311弄"},{"poiid":"B2094757D064A1F4449A","title":"cat eyes 猫咪咖啡屋","lon":"121.49189","lat":"31.27938","category":"260","category_name":"其他","address":"杨浦区国顺路66弄怡福苑1号楼18楼1804室(近黄兴路)"},{"poiid":"B2094757D06FA3FB469C","title":"欧阳花苑","lon":"121.49108","lat":"31.272671","category":"47","category_name":"住宅区","address":"上海虹口区曲阳路385弄"},{"poiid":"B2094654DB6AAAF84398","title":"大连新村小区","lon":"121.49335","lat":"31.27489","category":"47","category_name":"住宅区","address":"大连西路201弄7-54号、215弄1-17号、221弄1-8"},{"poiid":"B2094757D06FA7F4459B","title":"伶达港骨头皇火锅(曲阳店)","lon":"121.49248","lat":"31.27901","category":"86","category_name":"火锅店","address":"虹口区玉田路278号(近曲阳路)"},{"poiid":"B2094655D36DA6FE4292","title":"曲阳路","lon":"121.49071","lat":"31.27652","category":"38","category_name":"公交车站","address":""},{"poiid":"B2094757D06FA4F94392","title":"康美健身中心(曲阳店)","lon":"121.49111","lat":"31.27934","category":"221","category_name":"健身中心","address":"上海虹口区曲阳路560号家乐福4楼(近玉田路)"},{"poiid":"B2094752DA6CA6FC419F","title":"虹口足球场","lon":"121.490775","lat":"31.276519","category":"250","category_name":"公园户外","address":null},{"poiid":"B2094655D36CA2F94098","title":"曲阳路祥德路","lon":"121.49199","lat":"31.2722","category":"38","category_name":"公交车站","address":""},{"poiid":"B2094654D56CA0FC4799","title":"大西小区","lon":"121.49454","lat":"31.275146","category":"47","category_name":"住宅区","address":"大连西路195弄1-12号,165弄1-29号"},{"poiid":"B2094757D068A2F5429B","title":"振鼎鸡(玉田路店)","lon":"121.49364","lat":"31.27837","category":"68","category_name":"快餐厅","address":"虹口区玉田路260号(近曲阳路)"},{"poiid":"B2094655D26CA0F4429B","title":"甜爱别墅","lon":"121.49215058598","lat":"31.277001639697","category":"47","category_name":"住宅区","address":"祥德路96弄35-41号"},{"poiid":"B2094654D56CA1FA419F","title":"曲阳大楼","lon":"121.49091","lat":"31.277754","category":"47","category_name":"住宅区","address":"铁西区铁西兴华街与南十中路交处(兴华南街48号)"},{"poiid":"B2094655D26FA0F94892","title":"庐迅大厦","lon":"121.493","lat":"31.2794","category":"46","category_name":"楼宇","address":"庐迅大厦位于虹口欧阳路568号"},{"poiid":"B2094654DB6AAAF84399","title":"祥东小区","lon":"121.49424","lat":"31.27349","category":"47","category_name":"住宅区","address":"天宝西路242弄1-41号、4弄1-13号、268号"},{"poiid":"B2094757D16DA1FC439D","title":"欧阳路派出所","lon":"121.4920234","lat":"31.274508287","category":"609","category_name":"警察局","address":"上海天宝西路277号"},{"poiid":"B2094757D06BA4FC4593","title":"象山海鲜","lon":"121.488563533","lat":"31.2736898305","category":"500","category_name":"未知分类","address":"虹口区山阴路175号(近四川北路)"},{"poiid":"B2094654DB6AAAF8459C","title":"上岛咖啡(曲阳店)","lon":"121.49298","lat":"31.27155","category":"260","category_name":"其他","address":"虹口区曲阳路118弄28号3楼(近祥德路)"},{"poiid":"B2094654D56CA0FC459C","title":"上海市工商行政管理局虹口分局检查支队","lon":"121.4919","lat":"31.27465","category":"250","category_name":"公园户外","address":"天宝西路279"},{"poiid":"B2094655D26AA0FA419E","title":"地铁曲阳路站","lon":"121.49071","lat":"31.27652","category":"36","category_name":"地铁站","address":""},{"poiid":"B2094752D46CA5FD419D","title":"物心 | K11","lon":"121.49259","lat":"31.274964","category":"249","category_name":"购物服务","address":"上海市黄浦区淮海中路300号K11购物艺术中心308"},{"poiid":"B2094757D568ABFD419A","title":"上海市虹口区大连新村幼儿园","lon":"121.493103","lat":"31.275526","category":"57","category_name":"幼儿园","address":"虹口区大连西路201弄36号甲(近曲阳路)"},{"poiid":"B2094655D26CA1F44593","title":"大三小区","lon":"121.491105","lat":"31.27539","category":"47","category_name":"住宅区","address":"大连西路221弄"},{"poiid":"B2094753D569A2FF499C","title":"candy master 糖果大师","lon":"121.492334","lat":"31.274752","category":"500","category_name":"未知分类","address":"虹口区四川北路1363号壹丰广场B2楼18号铺"},{"poiid":"B2094654D56CA0FC459F","title":"嘉兴工商所","lon":"121.49191","lat":"31.27465","category":"250","category_name":"公园户外","address":"天宝西路279"},{"poiid":"B2094654D56CA0FD4298","title":"好德便利No.690","lon":"121.4911","lat":"31.27437","category":"117","category_name":"便民商店/便利店","address":"曲阳路452"},{"poiid":"B2094757D06AA7F54992","title":"老顺昌苏州汤包馆","lon":"121.494729136","lat":"31.2780579315","category":"68","category_name":"快餐厅","address":"虹口区玉田路226号"},{"poiid":"B2094757D168A5FC429A","title":"曉♥窩","lon":"121.4924409","lat":"31.275263723","category":"500","category_name":"未知分类","address":null},{"poiid":"B2094654D56CA0FD419C","title":"大连新村第二小区","lon":"121.49257","lat":"31.27394","category":"47","category_name":"住宅区","address":"天宝西路252弄1-19号"},{"poiid":"B2094757D16CA3F5499C","title":"上外生活区","lon":"121.49185943","lat":"31.277566909","category":"500","category_name":"未知分类","address":"上海东体育会路411号"},{"poiid":"B2094655D26EA5FC489B","title":"艾耀国创刊号报纸博物馆","lon":"121.49335","lat":"31.27489","category":"182","category_name":"博物馆","address":"虹口区大连西路201弄50号405室"},{"poiid":"B2094655D26AA6F8469C","title":"BoardCraft桌游名人店","lon":"121.49121","lat":"31.27419","category":"247","category_name":"餐饮美食","address":"虹口区曲阳路440号东渡名人大厦2104室(近大连西路)"},{"poiid":"B2094757D068A2F5479E","title":"全家便利曲阳医院店","lon":"121.49152686","lat":"31.276936898","category":"117","category_name":"便民商店/便利店","address":"上海虹口区玉田路333号"},{"poiid":"B2094757D16FA1FD4798","title":"937路大连西路东体育会路站","lon":"121.4905451","lat":"31.2765491","category":"38","category_name":"公交车站","address":"上海大连西路(上外门口)"},{"poiid":"B2094655D26CA0F44092","title":"天宝西路248弄小区","lon":"121.4932","lat":"31.27391","category":"47","category_name":"住宅区","address":"天宝西路248弄"},{"poiid":"B2094655D26BA4FA439D","title":"曲阳住宅楼","lon":"121.49179","lat":"31.27357","category":"47","category_name":"住宅区","address":"曲阳住宅楼位于虹口曲阳路428弄"},{"poiid":"B2094654D56CA0F84998","title":"子衡瑜珈","lon":"121.49117","lat":"31.27425","category":"221","category_name":"健身中心","address":"虹口区曲阳路440号22楼(近天宝西路)"},{"poiid":"B2094654D56CA0FD429C","title":"虹连大楼","lon":"121.49413","lat":"31.276159","category":"47","category_name":"住宅区","address":"上海大连西路201弄1号"},{"poiid":"B2094655D26CA1F8469B","title":"优抚园","lon":"121.49429","lat":"31.274937","category":"47","category_name":"住宅区","address":"天宝西路241弄1-31号"},{"poiid":"B2094655D26DAAFB4498","title":"曲阳路428弄小区","lon":"121.49179","lat":"31.27357","category":"47","category_name":"住宅区","address":"曲阳路428弄1-8号"},{"poiid":"B2094757D06BA2F8449E","title":"北郊小区","lon":"121.49004","lat":"31.274565","category":"47","category_name":"住宅区","address":"上海虹口区曲阳路487弄"},{"poiid":"B2094757D069A3FA429A","title":"悦华小区","lon":"121.490817","lat":"31.2741978","category":"47","category_name":"住宅区","address":"上海虹口区曲阳路428弄"},{"poiid":"B2094757D06FA3F94393","title":"曲阳医院","lon":"121.49115895","lat":"31.278473023","category":"162","category_name":"医院","address":"虹口区玉田路333号(近曲阳路)"},{"poiid":"B2094757D06EAAF8449E","title":"曲阳路地铁站","lon":"121.49069713","lat":"31.276512768","category":"36","category_name":"地铁站","address":"上海轨道交通 八号线 轨交曲阳路站 8"},{"poiid":"B2094752D364A5F9489F","title":"居食屋和民(虹口凯德龙之梦店)","lon":"121.491485","lat":"31.277919","category":"95","category_name":"日本料理","address":"虹口区西江湾路388号虹口凯德龙之梦6楼(近花园路)"},{"poiid":"B2094757D068A7FE4998","title":"西北狼烧烤","lon":"121.488008103","lat":"31.2755975304","category":"247","category_name":"餐饮美食","address":"上海虹口足球场旁"},{"poiid":"B2094757D06FA1FF4698","title":"玉田路曲阳路","lon":"121.49210357","lat":"31.279180526","category":"500","category_name":"未知分类","address":"上海玉田路曲阳路"},{"poiid":"B2094757D06FA5FC4692","title":"大连西路曲阳路","lon":"121.488515","lat":"31.27648","category":"500","category_name":"未知分类","address":"上海100。959。70。937。751。310。79。848。"},{"poiid":"B2094655D26EA7FF4298","title":"梅园村酒家(虹口店)","lon":"121.48823","lat":"31.2764","category":"76","category_name":"上海菜","address":"虹口区大连西路255号(近曲阳路)"},{"poiid":"B2094757D06FA6FF4493","title":"北郊高级中学","lon":"121.48976","lat":"31.2753","category":"55","category_name":"中学","address":"虹口区曲阳路497号(近大连西路)"},{"poiid":"B2094757D06FA2F5499E","title":"玉田新村","lon":"121.494806","lat":"31.277934","category":"47","category_name":"住宅区","address":"上海虹口区大连西路96号,玉田路311弄"},{"poiid":"B2094757D064A1F4449A","title":"cat eyes 猫咪咖啡屋","lon":"121.49189","lat":"31.27938","category":"260","category_name":"其他","address":"杨浦区国顺路66弄怡福苑1号楼18楼1804室(近黄兴路)"},{"poiid":"B2094757D06FA3FB469C","title":"欧阳花苑","lon":"121.49108","lat":"31.272671","category":"47","category_name":"住宅区","address":"上海虹口区曲阳路385弄"},{"poiid":"B2094654DB6AAAF84398","title":"大连新村小区","lon":"121.49335","lat":"31.27489","category":"47","category_name":"住宅区","address":"大连西路201弄7-54号、215弄1-17号、221弄1-8"},{"poiid":"B2094757D06FA7F4459B","title":"伶达港骨头皇火锅(曲阳店)","lon":"121.49248","lat":"31.27901","category":"86","category_name":"火锅店","address":"虹口区玉田路278号(近曲阳路)"},{"poiid":"B2094655D36DA6FE4292","title":"曲阳路","lon":"121.49071","lat":"31.27652","category":"38","category_name":"公交车站","address":""},{"poiid":"B2094757D06FA4F94392","title":"康美健身中心(曲阳店)","lon":"121.49111","lat":"31.27934","category":"221","category_name":"健身中心","address":"上海虹口区曲阳路560号家乐福4楼(近玉田路)"},{"poiid":"B2094752DA6CA6FC419F","title":"虹口足球场","lon":"121.490775","lat":"31.276519","category":"250","category_name":"公园户外","address":null},{"poiid":"B2094655D36CA2F94098","title":"曲阳路祥德路","lon":"121.49199","lat":"31.2722","category":"38","category_name":"公交车站","address":""},{"poiid":"B2094654D56CA0FC4799","title":"大西小区","lon":"121.49454","lat":"31.275146","category":"47","category_name":"住宅区","address":"大连西路195弄1-12号,165弄1-29号"},{"poiid":"B2094757D068A2F5429B","title":"振鼎鸡(玉田路店)","lon":"121.49364","lat":"31.27837","category":"68","category_name":"快餐厅","address":"虹口区玉田路260号(近曲阳路)"},{"poiid":"B2094655D26CA0F4429B","title":"甜爱别墅","lon":"121.49215058598","lat":"31.277001639697","category":"47","category_name":"住宅区","address":"祥德路96弄35-41号"},{"poiid":"B2094654D56CA1FA419F","title":"曲阳大楼","lon":"121.49091","lat":"31.277754","category":"47","category_name":"住宅区","address":"铁西区铁西兴华街与南十中路交处(兴华南街48号)"},{"poiid":"B2094655D26FA0F94892","title":"庐迅大厦","lon":"121.493","lat":"31.2794","category":"46","category_name":"楼宇","address":"庐迅大厦位于虹口欧阳路568号"},{"poiid":"B2094654DB6AAAF84399","title":"祥东小区","lon":"121.49424","lat":"31.27349","category":"47","category_name":"住宅区","address":"天宝西路242弄1-41号、4弄1-13号、268号"},{"poiid":"B2094757D16DA1FC439D","title":"欧阳路派出所","lon":"121.4920234","lat":"31.274508287","category":"609","category_name":"警察局","address":"上海天宝西路277号"},{"poiid":"B2094757D06BA4FC4593","title":"象山海鲜","lon":"121.488563533","lat":"31.2736898305","category":"500","category_name":"未知分类","address":"虹口区山阴路175号(近四川北路)"},{"poiid":"B2094654DB6AAAF8459C","title":"上岛咖啡(曲阳店)","lon":"121.49298","lat":"31.27155","category":"260","category_name":"其他","address":"虹口区曲阳路118弄28号3楼(近祥德路)"},{"poiid":"B2094654D56CA0FC459C","title":"上海市工商行政管理局虹口分局检查支队","lon":"121.4919","lat":"31.27465","category":"250","category_name":"公园户外","address":"天宝西路279"},{"poiid":"B2094655D26AA0FA419E","title":"地铁曲阳路站","lon":"121.49071","lat":"31.27652","category":"36","category_name":"地铁站","address":""},{"poiid":"B2094752D46CA5FD419D","title":"物心 | K11","lon":"121.49259","lat":"31.274964","category":"249","category_name":"购物服务","address":"上海市黄浦区淮海中路300号K11购物艺术中心308"},{"poiid":"B2094757D568ABFD419A","title":"上海市虹口区大连新村幼儿园","lon":"121.493103","lat":"31.275526","category":"57","category_name":"幼儿园","address":"虹口区大连西路201弄36号甲(近曲阳路)"},{"poiid":"B2094655D26CA1F44593","title":"大三小区","lon":"121.491105","lat":"31.27539","category":"47","category_name":"住宅区","address":"大连西路221弄"},{"poiid":"B2094753D569A2FF499C","title":"candy master 糖果大师","lon":"121.492334","lat":"31.274752","category":"500","category_name":"未知分类","address":"虹口区四川北路1363号壹丰广场B2楼18号铺"},{"poiid":"B2094654D56CA0FC459F","title":"嘉兴工商所","lon":"121.49191","lat":"31.27465","category":"250","category_name":"公园户外","address":"天宝西路279"},{"poiid":"B2094654D56CA0FD4298","title":"好德便利No.690","lon":"121.4911","lat":"31.27437","category":"117","category_name":"便民商店/便利店","address":"曲阳路452"},{"poiid":"B2094757D06AA7F54992","title":"老顺昌苏州汤包馆","lon":"121.494729136","lat":"31.2780579315","category":"68","category_name":"快餐厅","address":"虹口区玉田路226号"},{"poiid":"B2094757D168A5FC429A","title":"曉♥窩","lon":"121.4924409","lat":"31.275263723","category":"500","category_name":"未知分类","address":null},{"poiid":"B2094654D56CA0FD419C","title":"大连新村第二小区","lon":"121.49257","lat":"31.27394","category":"47","category_name":"住宅区","address":"天宝西路252弄1-19号"},{"poiid":"B2094757D16CA3F5499C","title":"上外生活区","lon":"121.49185943","lat":"31.277566909","category":"500","category_name":"未知分类","address":"上海东体育会路411号"},{"poiid":"B2094655D26EA5FC489B","title":"艾耀国创刊号报纸博物馆","lon":"121.49335","lat":"31.27489","category":"182","category_name":"博物馆","address":"虹口区大连西路201弄50号405室"},{"poiid":"B2094655D26AA6F8469C","title":"BoardCraft桌游名人店","lon":"121.49121","lat":"31.27419","category":"247","category_name":"餐饮美食","address":"虹口区曲阳路440号东渡名人大厦2104室(近大连西路)"},{"poiid":"B2094757D068A2F5479E","title":"全家便利曲阳医院店","lon":"121.49152686","lat":"31.276936898","category":"117","category_name":"便民商店/便利店","address":"上海虹口区玉田路333号"},{"poiid":"B2094757D16FA1FD4798","title":"937路大连西路东体育会路站","lon":"121.4905451","lat":"31.2765491","category":"38","category_name":"公交车站","address":"上海大连西路(上外门口)"},{"poiid":"B2094655D26CA0F44092","title":"天宝西路248弄小区","lon":"121.4932","lat":"31.27391","category":"47","category_name":"住宅区","address":"天宝西路248弄"},{"poiid":"B2094655D26BA4FA439D","title":"曲阳住宅楼","lon":"121.49179","lat":"31.27357","category":"47","category_name":"住宅区","address":"曲阳住宅楼位于虹口曲阳路428弄"},{"poiid":"B2094654D56CA0F84998","title":"子衡瑜珈","lon":"121.49117","lat":"31.27425","category":"221","category_name":"健身中心","address":"虹口区曲阳路440号22楼(近天宝西路)"},{"poiid":"B2094654D56CA0FD429C","title":"虹连大楼","lon":"121.49413","lat":"31.276159","category":"47","category_name":"住宅区","address":"上海大连西路201弄1号"},{"poiid":"B2094655D26CA1F8469B","title":"优抚园","lon":"121.49429","lat":"31.274937","category":"47","category_name":"住宅区","address":"天宝西路241弄1-31号"},{"poiid":"B2094655D26DAAFB4498","title":"曲阳路428弄小区","lon":"121.49179","lat":"31.27357","category":"47","category_name":"住宅区","address":"曲阳路428弄1-8号"},{"poiid":"B2094757D06BA2F8449E","title":"北郊小区","lon":"121.49004","lat":"31.274565","category":"47","category_name":"住宅区","address":"上海虹口区曲阳路487弄"},{"poiid":"B2094757D069A3FA429A","title":"悦华小区","lon":"121.490817","lat":"31.2741978","category":"47","category_name":"住宅区","address":"上海虹口区曲阳路428弄"},{"poiid":"B2094757D06FA3F94393","title":"曲阳医院","lon":"121.49115895","lat":"31.278473023","category":"162","category_name":"医院","address":"虹口区玉田路333号(近曲阳路)"},{"poiid":"B2094757D06EAAF8449E","title":"曲阳路地铁站","lon":"121.49069713","lat":"31.276512768","category":"36","category_name":"地铁站","address":"上海轨道交通 八号线 轨交曲阳路站 8"},{"poiid":"B2094752D364A5F9489F","title":"居食屋和民(虹口凯德龙之梦店)","lon":"121.491485","lat":"31.277919","category":"95","category_name":"日本料理","address":"虹口区西江湾路388号虹口凯德龙之梦6楼(近花园路)"},{"poiid":"B2094757D068A7FE4998","title":"西北狼烧烤","lon":"121.488008103","lat":"31.2755975304","category":"247","category_name":"餐饮美食","address":"上海虹口足球场旁"},{"poiid":"B2094757D06FA1FF4698","title":"玉田路曲阳路","lon":"121.49210357","lat":"31.279180526","category":"500","category_name":"未知分类","address":"上海玉田路曲阳路"},{"poiid":"B2094757D06FA5FC4692","title":"大连西路曲阳路","lon":"121.488515","lat":"31.27648","category":"500","category_name":"未知分类","address":"上海100。959。70。937。751。310。79。848。"},{"poiid":"B2094655D26EA7FF4298","title":"梅园村酒家(虹口店)","lon":"121.48823","lat":"31.2764","category":"76","category_name":"上海菜","address":"虹口区大连西路255号(近曲阳路)"},{"poiid":"B2094757D06FA6FF4493","title":"北郊高级中学","lon":"121.48976","lat":"31.2753","category":"55","category_name":"中学","address":"虹口区曲阳路497号(近大连西路)"},{"poiid":"B2094757D06FA2F5499E","title":"玉田新村","lon":"121.494806","lat":"31.277934","category":"47","category_name":"住宅区","address":"上海虹口区大连西路96号,玉田路311弄"},{"poiid":"B2094757D064A1F4449A","title":"cat eyes 猫咪咖啡屋","lon":"121.49189","lat":"31.27938","category":"260","category_name":"其他","address":"杨浦区国顺路66弄怡福苑1号楼18楼1804室(近黄兴路)"},{"poiid":"B2094757D06FA3FB469C","title":"欧阳花苑","lon":"121.49108","lat":"31.272671","category":"47","category_name":"住宅区","address":"上海虹口区曲阳路385弄"},{"poiid":"B2094654DB6AAAF84398","title":"大连新村小区","lon":"121.49335","lat":"31.27489","category":"47","category_name":"住宅区","address":"大连西路201弄7-54号、215弄1-17号、221弄1-8"},{"poiid":"B2094757D06FA7F4459B","title":"伶达港骨头皇火锅(曲阳店)","lon":"121.49248","lat":"31.27901","category":"86","category_name":"火锅店","address":"虹口区玉田路278号(近曲阳路)"},{"poiid":"B2094655D36DA6FE4292","title":"曲阳路","lon":"121.49071","lat":"31.27652","category":"38","category_name":"公交车站","address":""},{"poiid":"B2094757D06FA4F94392","title":"康美健身中心(曲阳店)","lon":"121.49111","lat":"31.27934","category":"221","category_name":"健身中心","address":"上海虹口区曲阳路560号家乐福4楼(近玉田路)"},{"poiid":"B2094752DA6CA6FC419F","title":"虹口足球场","lon":"121.490775","lat":"31.276519","category":"250","category_name":"公园户外","address":null},{"poiid":"B2094655D36CA2F94098","title":"曲阳路祥德路","lon":"121.49199","lat":"31.2722","category":"38","category_name":"公交车站","address":""},{"poiid":"B2094654D56CA0FC4799","title":"大西小区","lon":"121.49454","lat":"31.275146","category":"47","category_name":"住宅区","address":"大连西路195弄1-12号,165弄1-29号"},{"poiid":"B2094757D068A2F5429B","title":"振鼎鸡(玉田路店)","lon":"121.49364","lat":"31.27837","category":"68","category_name":"快餐厅","address":"虹口区玉田路260号(近曲阳路)"},{"poiid":"B2094655D26CA0F4429B","title":"甜爱别墅","lon":"121.49215058598","lat":"31.277001639697","category":"47","category_name":"住宅区","address":"祥德路96弄35-41号"},{"poiid":"B2094654D56CA1FA419F","title":"曲阳大楼","lon":"121.49091","lat":"31.277754","category":"47","category_name":"住宅区","address":"铁西区铁西兴华街与南十中路交处(兴华南街48号)"},{"poiid":"B2094655D26FA0F94892","title":"庐迅大厦","lon":"121.493","lat":"31.2794","category":"46","category_name":"楼宇","address":"庐迅大厦位于虹口欧阳路568号"},{"poiid":"B2094654DB6AAAF84399","title":"祥东小区","lon":"121.49424","lat":"31.27349","category":"47","category_name":"住宅区","address":"天宝西路242弄1-41号、4弄1-13号、268号"},{"poiid":"B2094757D16DA1FC439D","title":"欧阳路派出所","lon":"121.4920234","lat":"31.274508287","category":"609","category_name":"警察局","address":"上海天宝西路277号"},{"poiid":"B2094757D06BA4FC4593","title":"象山海鲜","lon":"121.488563533","lat":"31.2736898305","category":"500","category_name":"未知分类","address":"虹口区山阴路175号(近四川北路)"},{"poiid":"B2094654DB6AAAF8459C","title":"上岛咖啡(曲阳店)","lon":"121.49298","lat":"31.27155","category":"260","category_name":"其他","address":"虹口区曲阳路118弄28号3楼(近祥德路)"},{"poiid":"B2094654D56CA0FC459C","title":"上海市工商行政管理局虹口分局检查支队","lon":"121.4919","lat":"31.27465","category":"250","category_name":"公园户外","address":"天宝西路279"},{"poiid":"B2094655D26AA0FA419E","title":"地铁曲阳路站","lon":"121.49071","lat":"31.27652","category":"36","category_name":"地铁站","address":""},{"poiid":"B2094752D46CA5FD419D","title":"物心 | K11","lon":"121.49259","lat":"31.274964","category":"249","category_name":"购物服务","address":"上海市黄浦区淮海中路300号K11购物艺术中心308"},{"poiid":"B2094757D568ABFD419A","title":"上海市虹口区大连新村幼儿园","lon":"121.493103","lat":"31.275526","category":"57","category_name":"幼儿园","address":"虹口区大连西路201弄36号甲(近曲阳路)"},{"poiid":"B2094655D26CA1F44593","title":"大三小区","lon":"121.491105","lat":"31.27539","category":"47","category_name":"住宅区","address":"大连西路221弄"},{"poiid":"B2094753D569A2FF499C","title":"candy master 糖果大师","lon":"121.492334","lat":"31.274752","category":"500","category_name":"未知分类","address":"虹口区四川北路1363号壹丰广场B2楼18号铺"},{"poiid":"B2094654D56CA0FC459F","title":"嘉兴工商所","lon":"121.49191","lat":"31.27465","category":"250","category_name":"公园户外","address":"天宝西路279"},{"poiid":"B2094654D56CA0FD4298","title":"好德便利No.690","lon":"121.4911","lat":"31.27437","category":"117","category_name":"便民商店/便利店","address":"曲阳路452"},{"poiid":"B2094757D06AA7F54992","title":"老顺昌苏州汤包馆","lon":"121.494729136","lat":"31.2780579315","category":"68","category_name":"快餐厅","address":"虹口区玉田路226号"},{"poiid":"B2094757D168A5FC429A","title":"曉♥窩","lon":"121.4924409","lat":"31.275263723","category":"500","category_name":"未知分类","address":null},{"poiid":"B2094654D56CA0FD419C","title":"大连新村第二小区","lon":"121.49257","lat":"31.27394","category":"47","category_name":"住宅区","address":"天宝西路252弄1-19号"},{"poiid":"B2094757D16CA3F5499C","title":"上外生活区","lon":"121.49185943","lat":"31.277566909","category":"500","category_name":"未知分类","address":"上海东体育会路411号"},{"poiid":"B2094655D26EA5FC489B","title":"艾耀国创刊号报纸博物馆","lon":"121.49335","lat":"31.27489","category":"182","category_name":"博物馆","address":"虹口区大连西路201弄50号405室"},{"poiid":"B2094655D26AA6F8469C","title":"BoardCraft桌游名人店","lon":"121.49121","lat":"31.27419","category":"247","category_name":"餐饮美食","address":"虹口区曲阳路440号东渡名人大厦2104室(近大连西路)"},{"poiid":"B2094757D068A2F5479E","title":"全家便利曲阳医院店","lon":"121.49152686","lat":"31.276936898","category":"117","category_name":"便民商店/便利店","address":"上海虹口区玉田路333号"},{"poiid":"B2094757D16FA1FD4798","title":"937路大连西路东体育会路站","lon":"121.4905451","lat":"31.2765491","category":"38","category_name":"公交车站","address":"上海大连西路(上外门口)"},{"poiid":"B2094655D26CA0F44092","title":"天宝西路248弄小区","lon":"121.4932","lat":"31.27391","category":"47","category_name":"住宅区","address":"天宝西路248弄"},{"poiid":"B2094655D26BA4FA439D","title":"曲阳住宅楼","lon":"121.49179","lat":"31.27357","category":"47","category_name":"住宅区","address":"曲阳住宅楼位于虹口曲阳路428弄"},{"poiid":"B2094654D56CA0F84998","title":"子衡瑜珈","lon":"121.49117","lat":"31.27425","category":"221","category_name":"健身中心","address":"虹口区曲阳路440号22楼(近天宝西路)"},{"poiid":"B2094654D56CA0FD429C","title":"虹连大楼","lon":"121.49413","lat":"31.276159","category":"47","category_name":"住宅区","address":"上海大连西路201弄1号"},{"poiid":"B2094655D26CA1F8469B","title":"优抚园","lon":"121.49429","lat":"31.274937","category":"47","category_name":"住宅区","address":"天宝西路241弄1-31号"},{"poiid":"B2094655D26DAAFB4498","title":"曲阳路428弄小区","lon":"121.49179","lat":"31.27357","category":"47","category_name":"住宅区","address":"曲阳路428弄1-8号"},{"poiid":"B2094757D06BA2F8449E","title":"北郊小区","lon":"121.49004","lat":"31.274565","category":"47","category_name":"住宅区","address":"上海虹口区曲阳路487弄"},{"poiid":"B2094757D069A3FA429A","title":"悦华小区","lon":"121.490817","lat":"31.2741978","category":"47","category_name":"住宅区","address":"上海虹口区曲阳路428弄"},{"poiid":"B2094757D06FA3F94393","title":"曲阳医院","lon":"121.49115895","lat":"31.278473023","category":"162","category_name":"医院","address":"虹口区玉田路333号(近曲阳路)"},{"poiid":"B2094757D06EAAF8449E","title":"曲阳路地铁站","lon":"121.49069713","lat":"31.276512768","category":"36","category_name":"地铁站","address":"上海轨道交通 八号线 轨交曲阳路站 8"},{"poiid":"B2094752D364A5F9489F","title":"居食屋和民(虹口凯德龙之梦店)","lon":"121.491485","lat":"31.277919","category":"95","category_name":"日本料理","address":"虹口区西江湾路388号虹口凯德龙之梦6楼(近花园路)"},{"poiid":"B2094757D068A7FE4998","title":"西北狼烧烤","lon":"121.488008103","lat":"31.2755975304","category":"247","category_name":"餐饮美食","address":"上海虹口足球场旁"},{"poiid":"B2094757D06FA1FF4698","title":"玉田路曲阳路","lon":"121.49210357","lat":"31.279180526","category":"500","category_name":"未知分类","address":"上海玉田路曲阳路"},{"poiid":"B2094757D06FA5FC4692","title":"大连西路曲阳路","lon":"121.488515","lat":"31.27648","category":"500","category_name":"未知分类","address":"上海100。959。70。937。751。310。79。848。"},{"poiid":"B2094655D26EA7FF4298","title":"梅园村酒家(虹口店)","lon":"121.48823","lat":"31.2764","category":"76","category_name":"上海菜","address":"虹口区大连西路255号(近曲阳路)"},{"poiid":"B2094757D06FA6FF4493","title":"北郊高级中学","lon":"121.48976","lat":"31.2753","category":"55","category_name":"中学","address":"虹口区曲阳路497号(近大连西路)"},{"poiid":"B2094757D06FA2F5499E","title":"玉田新村","lon":"121.494806","lat":"31.277934","category":"47","category_name":"住宅区","address":"上海虹口区大连西路96号,玉田路311弄"},{"poiid":"B2094757D064A1F4449A","title":"cat eyes 猫咪咖啡屋","lon":"121.49189","lat":"31.27938","category":"260","category_name":"其他","address":"杨浦区国顺路66弄怡福苑1号楼18楼1804室(近黄兴路)"},{"poiid":"B2094757D06FA3FB469C","title":"欧阳花苑","lon":"121.49108","lat":"31.272671","category":"47","category_name":"住宅区","address":"上海虹口区曲阳路385弄"},{"poiid":"B2094654DB6AAAF84398","title":"大连新村小区","lon":"121.49335","lat":"31.27489","category":"47","category_name":"住宅区","address":"大连西路201弄7-54号、215弄1-17号、221弄1-8"},{"poiid":"B2094757D06FA7F4459B","title":"伶达港骨头皇火锅(曲阳店)","lon":"121.49248","lat":"31.27901","category":"86","category_name":"火锅店","address":"虹口区玉田路278号(近曲阳路)"},{"poiid":"B2094655D36DA6FE4292","title":"曲阳路","lon":"121.49071","lat":"31.27652","category":"38","category_name":"公交车站","address":""},{"poiid":"B2094757D06FA4F94392","title":"康美健身中心(曲阳店)","lon":"121.49111","lat":"31.27934","category":"221","category_name":"健身中心","address":"上海虹口区曲阳路560号家乐福4楼(近玉田路)"},{"poiid":"B2094752DA6CA6FC419F","title":"虹口足球场","lon":"121.490775","lat":"31.276519","category":"250","category_name":"公园户外","address":null},{"poiid":"B2094655D36CA2F94098","title":"曲阳路祥德路","lon":"121.49199","lat":"31.2722","category":"38","category_name":"公交车站","address":""},{"poiid":"B2094654D56CA0FC4799","title":"大西小区","lon":"121.49454","lat":"31.275146","category":"47","category_name":"住宅区","address":"大连西路195弄1-12号,165弄1-29号"},{"poiid":"B2094757D068A2F5429B","title":"振鼎鸡(玉田路店)","lon":"121.49364","lat":"31.27837","category":"68","category_name":"快餐厅","address":"虹口区玉田路260号(近曲阳路)"},{"poiid":"B2094655D26CA0F4429B","title":"甜爱别墅","lon":"121.49215058598","lat":"31.277001639697","category":"47","category_name":"住宅区","address":"祥德路96弄35-41号"},{"poiid":"B2094654D56CA1FA419F","title":"曲阳大楼","lon":"121.49091","lat":"31.277754","category":"47","category_name":"住宅区","address":"铁西区铁西兴华街与南十中路交处(兴华南街48号)"},{"poiid":"B2094655D26FA0F94892","title":"庐迅大厦","lon":"121.493","lat":"31.2794","category":"46","category_name":"楼宇","address":"庐迅大厦位于虹口欧阳路568号"},{"poiid":"B2094654DB6AAAF84399","title":"祥东小区","lon":"121.49424","lat":"31.27349","category":"47","category_name":"住宅区","address":"天宝西路242弄1-41号、4弄1-13号、268号"},{"poiid":"B2094757D16DA1FC439D","title":"欧阳路派出所","lon":"121.4920234","lat":"31.274508287","category":"609","category_name":"警察局","address":"上海天宝西路277号"},{"poiid":"B2094757D06BA4FC4593","title":"象山海鲜","lon":"121.488563533","lat":"31.2736898305","category":"500","category_name":"未知分类","address":"虹口区山阴路175号(近四川北路)"},{"poiid":"B2094654DB6AAAF8459C","title":"上岛咖啡(曲阳店)","lon":"121.49298","lat":"31.27155","category":"260","category_name":"其他","address":"虹口区曲阳路118弄28号3楼(近祥德路)"},{"poiid":"B2094654D56CA0FC459C","title":"上海市工商行政管理局虹口分局检查支队","lon":"121.4919","lat":"31.27465","category":"250","category_name":"公园户外","address":"天宝西路279"},{"poiid":"B2094655D26AA0FA419E","title":"地铁曲阳路站","lon":"121.49071","lat":"31.27652","category":"36","category_name":"地铁站","address":""},{"poiid":"B2094752D46CA5FD419D","title":"物心 | K11","lon":"121.49259","lat":"31.274964","category":"249","category_name":"购物服务","address":"上海市黄浦区淮海中路300号K11购物艺术中心308"},{"poiid":"B2094757D568ABFD419A","title":"上海市虹口区大连新村幼儿园","lon":"121.493103","lat":"31.275526","category":"57","category_name":"幼儿园","address":"虹口区大连西路201弄36号甲(近曲阳路)"},{"poiid":"B2094655D26CA1F44593","title":"大三小区","lon":"121.491105","lat":"31.27539","category":"47","category_name":"住宅区","address":"大连西路221弄"},{"poiid":"B2094753D569A2FF499C","title":"candy master 糖果大师","lon":"121.492334","lat":"31.274752","category":"500","category_name":"未知分类","address":"虹口区四川北路1363号壹丰广场B2楼18号铺"},{"poiid":"B2094654D56CA0FC459F","title":"嘉兴工商所","lon":"121.49191","lat":"31.27465","category":"250","category_name":"公园户外","address":"天宝西路279"},{"poiid":"B2094654D56CA0FD4298","title":"好德便利No.690","lon":"121.4911","lat":"31.27437","category":"117","category_name":"便民商店/便利店","address":"曲阳路452"},{"poiid":"B2094757D06AA7F54992","title":"老顺昌苏州汤包馆","lon":"121.494729136","lat":"31.2780579315","category":"68","category_name":"快餐厅","address":"虹口区玉田路226号"},{"poiid":"B2094757D168A5FC429A","title":"曉♥窩","lon":"121.4924409","lat":"31.275263723","category":"500","category_name":"未知分类","address":null},{"poiid":"B2094654D56CA0FD419C","title":"大连新村第二小区","lon":"121.49257","lat":"31.27394","category":"47","category_name":"住宅区","address":"天宝西路252弄1-19号"},{"poiid":"B2094757D16CA3F5499C","title":"上外生活区","lon":"121.49185943","lat":"31.277566909","category":"500","category_name":"未知分类","address":"上海东体育会路411号"},{"poiid":"B2094655D26EA5FC489B","title":"艾耀国创刊号报纸博物馆","lon":"121.49335","lat":"31.27489","category":"182","category_name":"博物馆","address":"虹口区大连西路201弄50号405室"},{"poiid":"B2094655D26AA6F8469C","title":"BoardCraft桌游名人店","lon":"121.49121","lat":"31.27419","category":"247","category_name":"餐饮美食","address":"虹口区曲阳路440号东渡名人大厦2104室(近大连西路)"},{"poiid":"B2094757D068A2F5479E","title":"全家便利曲阳医院店","lon":"121.49152686","lat":"31.276936898","category":"117","category_name":"便民商店/便利店","address":"上海虹口区玉田路333号"},{"poiid":"B2094757D16FA1FD4798","title":"937路大连西路东体育会路站","lon":"121.4905451","lat":"31.2765491","category":"38","category_name":"公交车站","address":"上海大连西路(上外门口)"},{"poiid":"B2094655D26CA0F44092","title":"天宝西路248弄小区","lon":"121.4932","lat":"31.27391","category":"47","category_name":"住宅区","address":"天宝西路248弄"},{"poiid":"B2094655D26BA4FA439D","title":"曲阳住宅楼","lon":"121.49179","lat":"31.27357","category":"47","category_name":"住宅区","address":"曲阳住宅楼位于虹口曲阳路428弄"},{"poiid":"B2094654D56CA0F84998","title":"子衡瑜珈","lon":"121.49117","lat":"31.27425","category":"221","category_name":"健身中心","address":"虹口区曲阳路440号22楼(近天宝西路)"},{"poiid":"B2094654D56CA0FD429C","title":"虹连大楼","lon":"121.49413","lat":"31.276159","category":"47","category_name":"住宅区","address":"上海大连西路201弄1号"},{"poiid":"B2094655D26CA1F8469B","title":"优抚园","lon":"121.49429","lat":"31.274937","category":"47","category_name":"住宅区","address":"天宝西路241弄1-31号"},{"poiid":"B2094655D26DAAFB4498","title":"曲阳路428弄小区","lon":"121.49179","lat":"31.27357","category":"47","category_name":"住宅区","address":"曲阳路428弄1-8号"},{"poiid":"B2094757D06BA2F8449E","title":"北郊小区","lon":"121.49004","lat":"31.274565","category":"47","category_name":"住宅区","address":"上海虹口区曲阳路487弄"},{"poiid":"B2094757D069A3FA429A","title":"悦华小区","lon":"121.490817","lat":"31.2741978","category":"47","category_name":"住宅区","address":"上海虹口区曲阳路428弄"}]