[{"poiid":"B2094757D06FA3FF499F","title":"上海宝隆美爵酒店","lon":"121.487385437","lat":"31.2974015049","category":"214","category_name":"四星级宾馆","address":"上海市虹口区逸仙路180号(近纪念路)"},{"poiid":"B2094757D66BA3FC4999","title":"半岛酒楼 逸仙店","lon":"121.487890054","lat":"31.300092793","category":"76","category_name":"上海菜","address":"虹口区逸仙路519号(近仁德路)"},{"poiid":"B2094655D26AABF8419A","title":"上海粤海酒店","lon":"121.48631","lat":"31.29971","category":"250","category_name":"公园户外","address":"上海市虹口区逸仙路328号(近纪念路)"},{"poiid":"B2094757D16FAAF44999","title":"宝丰联大酒店","lon":"121.4874201","lat":"31.298263004","category":"217","category_name":"旅馆招待所","address":"虹口区纪念路301号(近逸仙路)"},{"poiid":"B2094654DB6AA2FE4692","title":"汉通海鲜大酒店江湾店","lon":"121.48622","lat":"31.30105","category":"75","category_name":"浙江菜","address":"虹口区逸仙路428号(近万安路)"},{"poiid":"B2094655D36DA0FA479F","title":"逸仙路江湾镇","lon":"121.48562","lat":"31.30351","category":"38","category_name":"公交车站","address":""},{"poiid":"B2094757D06FA6F94893","title":"粤海酒店","lon":"121.48697","lat":"31.29924","category":"217","category_name":"旅馆招待所","address":"上海虹口区逸仙路328号(近纪念路)  "},{"poiid":"B2094655D36CA0F94092","title":"江湾","lon":"121.48587","lat":"31.30269","category":"38","category_name":"公交车站","address":""},{"poiid":"B2094655D26AA7FD4299","title":"宝丰联大酒店宴会厅","lon":"121.48698","lat":"31.29806","category":"247","category_name":"餐饮美食","address":"虹口区逸仙路270号宝丰联宾馆内(近纪念路)"},{"poiid":"B2094654D56CAAF5449F","title":"新海城(逸仙路)","lon":"121.48503","lat":"31.3012","category":"47","category_name":"住宅区","address":"虹口区逸仙路逸仙路458弄1-8号"},{"poiid":"B2094655D26AA1F5429B","title":"宝隆美爵酒店宴会厅","lon":"121.48783","lat":"31.29635","category":"247","category_name":"餐饮美食","address":"虹口区逸仙路180号宝隆美爵酒店内(近纪念路)查看地图"},{"poiid":"B2094757D064ABF9459D","title":"金炀","lon":"121.48600989","lat":"31.300042551","category":"72","category_name":"广东菜","address":"虹口区逸仙路278号(近纪念路)"},{"poiid":"B2094654D56CA4F54793","title":"上海三观堂","lon":"121.48357","lat":"31.3022","category":"244","category_name":"寺庙道观","address":"虹口区万安路359号"},{"poiid":"B2094757D465ABFC459D","title":"九香牛蛙店 万安路店","lon":"121.485720054","lat":"31.302010793","category":"71","category_name":"四川菜","address":"虹口区万安路294号(近逸仙路)"},{"poiid":"B2094757D464A5FF419D","title":"上海石库门 虹口店","lon":"121.486957054","lat":"31.298882793","category":"76","category_name":"上海菜","address":"虹口区逸仙路328号粤海酒店3楼(近纪念路)"},{"poiid":"B2094757D06AA5F94692","title":"莉莲蛋挞 逸仙店 Lillian Cake Shop","lon":"121.488396054","lat":"31.297414793","category":"67","category_name":"甜品店","address":"虹口区逸仙路271号三湘世纪花城(近纪念路)"},{"poiid":"B2094757D068A5FD4692","title":"江灣鎮交通樞紐","lon":"121.4871929","lat":"31.3003416","category":"500","category_name":"未知分类","address":"上海逸仙路江灣鎮公交車站"},{"poiid":"B2094757D069A3F9409D","title":"四海游龙(逸仙路店)","lon":"121.48642","lat":"31.30287","category":"68","category_name":"快餐厅","address":"上海虹口区逸仙路805号(近仁德路)"},{"poiid":"B2094757D065A3F5499D","title":"明和苑","lon":"121.48788","lat":"31.301453","category":"252","category_name":"楼宇机构","address":"上海市杨浦区逸仙路599弄"},{"poiid":"B2094655D36CA0FB429A","title":"纪念路","lon":"121.48745","lat":"31.29901","category":"38","category_name":"公交车站","address":""},{"poiid":"B2094757D66EA1F54792","title":"中外运-敦豪国际航空快件有限公司","lon":"121.487237003","lat":"31.299824137","category":"500","category_name":"未知分类","address":"上海市虹口区纪念路303号"},{"poiid":"B2094654D56CAAF54199","title":"逸虹景苑","lon":"121.48636","lat":"31.29859","category":"47","category_name":"住宅区","address":"上海市虹口区逸仙路288弄"},{"poiid":"B2094655D26AAAFC429A","title":"宝隆天地餐厅","lon":"121.487804054","lat":"31.297400793","category":"268","category_name":"自助","address":"虹口区逸仙路180号宝隆美爵酒店1楼(近纪念路)"},{"poiid":"B2094757D16EA1F5459A","title":"久久公寓","lon":"121.48569","lat":"31.300575","category":"47","category_name":"住宅区","address":"上海市虹口区逸仙路423弄"},{"poiid":"B2094655D26AABFB4898","title":"三湘会所网球场","lon":"121.48745","lat":"31.3003","category":"226","category_name":"网球场","address":"虹口区逸仙路519号半岛酒楼5楼(近仁德路)"},{"poiid":"B2094757D065AAF5439C","title":"鸡排超人江湾店","lon":"121.486288503","lat":"31.3023280893","category":"68","category_name":"快餐厅","address":"虹口区逸仙路494号(万安路口)"},{"poiid":"B2094655D26EA4FA4392","title":"欧岛咖啡西餐厅","lon":"121.48631","lat":"31.29971","category":"65","category_name":"咖啡厅","address":"虹口区逸仙路328号粤海大酒店1楼"},{"poiid":"B2094655D26EA3FB469E","title":"上海宝隆美爵酒店(北门)","lon":"121.48726","lat":"31.29731","category":"214","category_name":"四星级宾馆","address":"上海市虹口区逸仙路180号（近纪念路）"},{"poiid":"B2094654D56CABF44393","title":"新海商务大厦","lon":"121.48706","lat":"31.30198","category":"46","category_name":"楼宇","address":"逸仙路661"},{"poiid":"B2094654D56CABF44292","title":"永琪美容美发(逸仙路)","lon":"121.48813","lat":"31.29879","category":"148","category_name":"美容美发店","address":"虹口区逸仙路273-279号(近纪念路)"},{"poiid":"B2094654D56CAAF5419F","title":"快客No.6857","lon":"121.48692","lat":"31.29911","category":"117","category_name":"便民商店/便利店","address":"逸仙路318"},{"poiid":"B2094654D56CAAF54393","title":"快客No.6647","lon":"121.48625","lat":"31.30099","category":"117","category_name":"便民商店/便利店","address":"江湾镇"},{"poiid":"B2094655D269AAFA469F","title":"凯司令西点房 纪念路店","lon":"121.486461","lat":"31.296824","category":"67","category_name":"甜品店","address":"宝山区纪念路"},{"poiid":"B2094655D26FA7FC4298","title":"三湘世纪花城西区","lon":"121.4885125","lat":"31.2993575","category":"47","category_name":"住宅区","address":""},{"poiid":"B2094757D46AA7FD479D","title":"盈兴小厨","lon":"121.486733","lat":"31.297433","category":"77","category_name":"湖南菜","address":"虹口区纪念路325号(纪念路逸仙路)"},{"poiid":"B209475CD46DA5FE4392","title":"老克乐炸猪排","lon":"121.48574","lat":"31.301305","category":"247","category_name":"餐饮美食","address":"上海市 上海市虹口区新市北路1437号"},{"poiid":"B2094757D16DA1F84392","title":"文化花园明珠苑","lon":"121.48898","lat":"31.30175","category":"47","category_name":"住宅区","address":"上海逸仙路655弄(万安路)"},{"poiid":"B2094757D065A1FA4393","title":"欣逸家园","lon":"121.48481","lat":"31.29685","category":"47","category_name":"住宅区","address":"上海虹口区纪念路555弄"},{"poiid":"B2094757D06AABFF459C","title":"全家便利(万安店)","lon":"121.48593","lat":"31.30213","category":"117","category_name":"便民商店/便利店","address":"上海虹口区万安路243号1楼(近逸仙路)"},{"poiid":"B2094654D56CAAF5429D","title":"上海勘测设计研究院","lon":"121.48652","lat":"31.30032","category":"191","category_name":"科研机构","address":"逸仙路388号"},{"poiid":"B2094757D164A6FD439B","title":"118逸仙路纪念路","lon":"121.4879121","lat":"31.299740035","category":"500","category_name":"未知分类","address":"上海逸仙路纪念路"},{"poiid":"B2094750D665A0FE4598","title":"水晶皇宫酒店","lon":"121.487","lat":"31.2969","category":"76","category_name":"上海菜","address":"虹口区纪念路400号(近逸仙路)"},{"poiid":"B2094757D165A7FF4592","title":"江湾消防队班车地","lon":"121.4877541","lat":"31.299410028","category":"500","category_name":"未知分类","address":"上海市虹口区万安路"},{"poiid":"B2094757D169A1F4439E","title":"四季沙龙","lon":"121.488189","lat":"31.300925","category":"148","category_name":"美容美发店","address":"上海虹口区车站南路39号"},{"poiid":"B2094757D068A1FD4992","title":"兴业银行上海大柏树支行","lon":"121.487067","lat":"31.30199","category":"500","category_name":"未知分类","address":"上海逸仙路661号"},{"poiid":"B2094654D56CABF44399","title":"中国银行上海市逸仙路支行","lon":"121.48789","lat":"31.29924","category":"150","category_name":"银行","address":"逸仙路315号"},{"poiid":"B2094757D064A6F9419B","title":"宝莲城","lon":"121.48819201","lat":"31.301927953","category":"46","category_name":"楼宇","address":"上海双城路803弄"},{"poiid":"B2094757D16EA2F54499","title":"中国银行","lon":"121.487884","lat":"31.299235","category":"150","category_name":"银行","address":"上海市杨浦区逸仙路315号"},{"poiid":"B2094654DB6AAAF4409A","title":"喜士多便利连锁","lon":"121.48831","lat":"31.29849","category":"117","category_name":"便民商店/便利店","address":"逸仙路251"},{"poiid":"B2094757D16BA0F4489B","title":"江桥","lon":"121.4883021","lat":"31.300129043","category":"500","category_name":"未知分类","address":"上海金沙江西路"},{"poiid":"B2094757D06FA3FF499F","title":"上海宝隆美爵酒店","lon":"121.487385437","lat":"31.2974015049","category":"214","category_name":"四星级宾馆","address":"上海市虹口区逸仙路180号(近纪念路)"},{"poiid":"B2094757D66BA3FC4999","title":"半岛酒楼 逸仙店","lon":"121.487890054","lat":"31.300092793","category":"76","category_name":"上海菜","address":"虹口区逸仙路519号(近仁德路)"},{"poiid":"B2094655D26AABF8419A","title":"上海粤海酒店","lon":"121.48631","lat":"31.29971","category":"250","category_name":"公园户外","address":"上海市虹口区逸仙路328号(近纪念路)"},{"poiid":"B2094757D16FAAF44999","title":"宝丰联大酒店","lon":"121.4874201","lat":"31.298263004","category":"217","category_name":"旅馆招待所","address":"虹口区纪念路301号(近逸仙路)"},{"poiid":"B2094654DB6AA2FE4692","title":"汉通海鲜大酒店江湾店","lon":"121.48622","lat":"31.30105","category":"75","category_name":"浙江菜","address":"虹口区逸仙路428号(近万安路)"},{"poiid":"B2094655D36DA0FA479F","title":"逸仙路江湾镇","lon":"121.48562","lat":"31.30351","category":"38","category_name":"公交车站","address":""},{"poiid":"B2094757D06FA6F94893","title":"粤海酒店","lon":"121.48697","lat":"31.29924","category":"217","category_name":"旅馆招待所","address":"上海虹口区逸仙路328号(近纪念路)  "},{"poiid":"B2094655D36CA0F94092","title":"江湾","lon":"121.48587","lat":"31.30269","category":"38","category_name":"公交车站","address":""},{"poiid":"B2094655D26AA7FD4299","title":"宝丰联大酒店宴会厅","lon":"121.48698","lat":"31.29806","category":"247","category_name":"餐饮美食","address":"虹口区逸仙路270号宝丰联宾馆内(近纪念路)"},{"poiid":"B2094654D56CAAF5449F","title":"新海城(逸仙路)","lon":"121.48503","lat":"31.3012","category":"47","category_name":"住宅区","address":"虹口区逸仙路逸仙路458弄1-8号"},{"poiid":"B2094655D26AA1F5429B","title":"宝隆美爵酒店宴会厅","lon":"121.48783","lat":"31.29635","category":"247","category_name":"餐饮美食","address":"虹口区逸仙路180号宝隆美爵酒店内(近纪念路)查看地图"},{"poiid":"B2094757D064ABF9459D","title":"金炀","lon":"121.48600989","lat":"31.300042551","category":"72","category_name":"广东菜","address":"虹口区逸仙路278号(近纪念路)"},{"poiid":"B2094654D56CA4F54793","title":"上海三观堂","lon":"121.48357","lat":"31.3022","category":"244","category_name":"寺庙道观","address":"虹口区万安路359号"},{"poiid":"B2094757D465ABFC459D","title":"九香牛蛙店 万安路店","lon":"121.485720054","lat":"31.302010793","category":"71","category_name":"四川菜","address":"虹口区万安路294号(近逸仙路)"},{"poiid":"B2094757D464A5FF419D","title":"上海石库门 虹口店","lon":"121.486957054","lat":"31.298882793","category":"76","category_name":"上海菜","address":"虹口区逸仙路328号粤海酒店3楼(近纪念路)"},{"poiid":"B2094757D06AA5F94692","title":"莉莲蛋挞 逸仙店 Lillian Cake Shop","lon":"121.488396054","lat":"31.297414793","category":"67","category_name":"甜品店","address":"虹口区逸仙路271号三湘世纪花城(近纪念路)"},{"poiid":"B2094757D068A5FD4692","title":"江灣鎮交通樞紐","lon":"121.4871929","lat":"31.3003416","category":"500","category_name":"未知分类","address":"上海逸仙路江灣鎮公交車站"},{"poiid":"B2094757D069A3F9409D","title":"四海游龙(逸仙路店)","lon":"121.48642","lat":"31.30287","category":"68","category_name":"快餐厅","address":"上海虹口区逸仙路805号(近仁德路)"},{"poiid":"B2094757D065A3F5499D","title":"明和苑","lon":"121.48788","lat":"31.301453","category":"252","category_name":"楼宇机构","address":"上海市杨浦区逸仙路599弄"},{"poiid":"B2094655D36CA0FB429A","title":"纪念路","lon":"121.48745","lat":"31.29901","category":"38","category_name":"公交车站","address":""},{"poiid":"B2094757D66EA1F54792","title":"中外运-敦豪国际航空快件有限公司","lon":"121.487237003","lat":"31.299824137","category":"500","category_name":"未知分类","address":"上海市虹口区纪念路303号"},{"poiid":"B2094654D56CAAF54199","title":"逸虹景苑","lon":"121.48636","lat":"31.29859","category":"47","category_name":"住宅区","address":"上海市虹口区逸仙路288弄"},{"poiid":"B2094655D26AAAFC429A","title":"宝隆天地餐厅","lon":"121.487804054","lat":"31.297400793","category":"268","category_name":"自助","address":"虹口区逸仙路180号宝隆美爵酒店1楼(近纪念路)"},{"poiid":"B2094757D16EA1F5459A","title":"久久公寓","lon":"121.48569","lat":"31.300575","category":"47","category_name":"住宅区","address":"上海市虹口区逸仙路423弄"},{"poiid":"B2094655D26AABFB4898","title":"三湘会所网球场","lon":"121.48745","lat":"31.3003","category":"226","category_name":"网球场","address":"虹口区逸仙路519号半岛酒楼5楼(近仁德路)"},{"poiid":"B2094757D065AAF5439C","title":"鸡排超人江湾店","lon":"121.486288503","lat":"31.3023280893","category":"68","category_name":"快餐厅","address":"虹口区逸仙路494号(万安路口)"},{"poiid":"B2094655D26EA4FA4392","title":"欧岛咖啡西餐厅","lon":"121.48631","lat":"31.29971","category":"65","category_name":"咖啡厅","address":"虹口区逸仙路328号粤海大酒店1楼"},{"poiid":"B2094655D26EA3FB469E","title":"上海宝隆美爵酒店(北门)","lon":"121.48726","lat":"31.29731","category":"214","category_name":"四星级宾馆","address":"上海市虹口区逸仙路180号（近纪念路）"},{"poiid":"B2094654D56CABF44393","title":"新海商务大厦","lon":"121.48706","lat":"31.30198","category":"46","category_name":"楼宇","address":"逸仙路661"},{"poiid":"B2094654D56CABF44292","title":"永琪美容美发(逸仙路)","lon":"121.48813","lat":"31.29879","category":"148","category_name":"美容美发店","address":"虹口区逸仙路273-279号(近纪念路)"},{"poiid":"B2094654D56CAAF5419F","title":"快客No.6857","lon":"121.48692","lat":"31.29911","category":"117","category_name":"便民商店/便利店","address":"逸仙路318"},{"poiid":"B2094654D56CAAF54393","title":"快客No.6647","lon":"121.48625","lat":"31.30099","category":"117","category_name":"便民商店/便利店","address":"江湾镇"},{"poiid":"B2094655D269AAFA469F","title":"凯司令西点房 纪念路店","lon":"121.486461","lat":"31.296824","category":"67","category_name":"甜品店","address":"宝山区纪念路"},{"poiid":"B2094655D26FA7FC4298","title":"三湘世纪花城西区","lon":"121.4885125","lat":"31.2993575","category":"47","category_name":"住宅区","address":""},{"poiid":"B2094757D46AA7FD479D","title":"盈兴小厨","lon":"121.486733","lat":"31.297433","category":"77","category_name":"湖南菜","address":"虹口区纪念路325号(纪念路逸仙路)"},{"poiid":"B209475CD46DA5FE4392","title":"老克乐炸猪排","lon":"121.48574","lat":"31.301305","category":"247","category_name":"餐饮美食","address":"上海市 上海市虹口区新市北路1437号"},{"poiid":"B2094757D16DA1F84392","title":"文化花园明珠苑","lon":"121.48898","lat":"31.30175","category":"47","category_name":"住宅区","address":"上海逸仙路655弄(万安路)"},{"poiid":"B2094757D065A1FA4393","title":"欣逸家园","lon":"121.48481","lat":"31.29685","category":"47","category_name":"住宅区","address":"上海虹口区纪念路555弄"},{"poiid":"B2094757D06AABFF459C","title":"全家便利(万安店)","lon":"121.48593","lat":"31.30213","category":"117","category_name":"便民商店/便利店","address":"上海虹口区万安路243号1楼(近逸仙路)"},{"poiid":"B2094654D56CAAF5429D","title":"上海勘测设计研究院","lon":"121.48652","lat":"31.30032","category":"191","category_name":"科研机构","address":"逸仙路388号"},{"poiid":"B2094757D164A6FD439B","title":"118逸仙路纪念路","lon":"121.4879121","lat":"31.299740035","category":"500","category_name":"未知分类","address":"上海逸仙路纪念路"},{"poiid":"B2094750D665A0FE4598","title":"水晶皇宫酒店","lon":"121.487","lat":"31.2969","category":"76","category_name":"上海菜","address":"虹口区纪念路400号(近逸仙路)"},{"poiid":"B2094757D165A7FF4592","title":"江湾消防队班车地","lon":"121.4877541","lat":"31.299410028","category":"500","category_name":"未知分类","address":"上海市虹口区万安路"},{"poiid":"B2094757D169A1F4439E","title":"四季沙龙","lon":"121.488189","lat":"31.300925","category":"148","category_name":"美容美发店","address":"上海虹口区车站南路39号"},{"poiid":"B2094757D068A1FD4992","title":"兴业银行上海大柏树支行","lon":"121.487067","lat":"31.30199","category":"500","category_name":"未知分类","address":"上海逸仙路661号"},{"poiid":"B2094654D56CABF44399","title":"中国银行上海市逸仙路支行","lon":"121.48789","lat":"31.29924","category":"150","category_name":"银行","address":"逸仙路315号"},{"poiid":"B2094757D064A6F9419B","title":"宝莲城","lon":"121.48819201","lat":"31.301927953","category":"46","category_name":"楼宇","address":"上海双城路803弄"},{"poiid":"B2094757D16EA2F54499","title":"中国银行","lon":"121.487884","lat":"31.299235","category":"150","category_name":"银行","address":"上海市杨浦区逸仙路315号"},{"poiid":"B2094654DB6AAAF4409A","title":"喜士多便利连锁","lon":"121.48831","lat":"31.29849","category":"117","category_name":"便民商店/便利店","address":"逸仙路251"},{"poiid":"B2094757D16BA0F4489B","title":"江桥","lon":"121.4883021","lat":"31.300129043","category":"500","category_name":"未知分类","address":"上海金沙江西路"},{"poiid":"B2094757D06FA3FF499F","title":"上海宝隆美爵酒店","lon":"121.487385437","lat":"31.2974015049","category":"214","category_name":"四星级宾馆","address":"上海市虹口区逸仙路180号(近纪念路)"},{"poiid":"B2094757D66BA3FC4999","title":"半岛酒楼 逸仙店","lon":"121.487890054","lat":"31.300092793","category":"76","category_name":"上海菜","address":"虹口区逸仙路519号(近仁德路)"},{"poiid":"B2094655D26AABF8419A","title":"上海粤海酒店","lon":"121.48631","lat":"31.29971","category":"250","category_name":"公园户外","address":"上海市虹口区逸仙路328号(近纪念路)"},{"poiid":"B2094757D16FAAF44999","title":"宝丰联大酒店","lon":"121.4874201","lat":"31.298263004","category":"217","category_name":"旅馆招待所","address":"虹口区纪念路301号(近逸仙路)"},{"poiid":"B2094654DB6AA2FE4692","title":"汉通海鲜大酒店江湾店","lon":"121.48622","lat":"31.30105","category":"75","category_name":"浙江菜","address":"虹口区逸仙路428号(近万安路)"},{"poiid":"B2094655D36DA0FA479F","title":"逸仙路江湾镇","lon":"121.48562","lat":"31.30351","category":"38","category_name":"公交车站","address":""},{"poiid":"B2094757D06FA6F94893","title":"粤海酒店","lon":"121.48697","lat":"31.29924","category":"217","category_name":"旅馆招待所","address":"上海虹口区逸仙路328号(近纪念路)  "},{"poiid":"B2094655D36CA0F94092","title":"江湾","lon":"121.48587","lat":"31.30269","category":"38","category_name":"公交车站","address":""},{"poiid":"B2094655D26AA7FD4299","title":"宝丰联大酒店宴会厅","lon":"121.48698","lat":"31.29806","category":"247","category_name":"餐饮美食","address":"虹口区逸仙路270号宝丰联宾馆内(近纪念路)"},{"poiid":"B2094654D56CAAF5449F","title":"新海城(逸仙路)","lon":"121.48503","lat":"31.3012","category":"47","category_name":"住宅区","address":"虹口区逸仙路逸仙路458弄1-8号"},{"poiid":"B2094655D26AA1F5429B","title":"宝隆美爵酒店宴会厅","lon":"121.48783","lat":"31.29635","category":"247","category_name":"餐饮美食","address":"虹口区逸仙路180号宝隆美爵酒店内(近纪念路)查看地图"},{"poiid":"B2094757D064ABF9459D","title":"金炀","lon":"121.48600989","lat":"31.300042551","category":"72","category_name":"广东菜","address":"虹口区逸仙路278号(近纪念路)"},{"poiid":"B2094654D56CA4F54793","title":"上海三观堂","lon":"121.48357","lat":"31.3022","category":"244","category_name":"寺庙道观","address":"虹口区万安路359号"},{"poiid":"B2094757D465ABFC459D","title":"九香牛蛙店 万安路店","lon":"121.485720054","lat":"31.302010793","category":"71","category_name":"四川菜","address":"虹口区万安路294号(近逸仙路)"},{"poiid":"B2094757D464A5FF419D","title":"上海石库门 虹口店","lon":"121.486957054","lat":"31.298882793","category":"76","category_name":"上海菜","address":"虹口区逸仙路328号粤海酒店3楼(近纪念路)"},{"poiid":"B2094757D06AA5F94692","title":"莉莲蛋挞 逸仙店 Lillian Cake Shop","lon":"121.488396054","lat":"31.297414793","category":"67","category_name":"甜品店","address":"虹口区逸仙路271号三湘世纪花城(近纪念路)"},{"poiid":"B2094757D068A5FD4692","title":"江灣鎮交通樞紐","lon":"121.4871929","lat":"31.3003416","category":"500","category_name":"未知分类","address":"上海逸仙路江灣鎮公交車站"},{"poiid":"B2094757D069A3F9409D","title":"四海游龙(逸仙路店)","lon":"121.48642","lat":"31.30287","category":"68","category_name":"快餐厅","address":"上海虹口区逸仙路805号(近仁德路)"},{"poiid":"B2094757D065A3F5499D","title":"明和苑","lon":"121.48788","lat":"31.301453","category":"252","category_name":"楼宇机构","address":"上海市杨浦区逸仙路599弄"},{"poiid":"B2094655D36CA0FB429A","title":"纪念路","lon":"121.48745","lat":"31.29901","category":"38","category_name":"公交车站","address":""},{"poiid":"B2094757D66EA1F54792","title":"中外运-敦豪国际航空快件有限公司","lon":"121.487237003","lat":"31.299824137","category":"500","category_name":"未知分类","address":"上海市虹口区纪念路303号"},{"poiid":"B2094654D56CAAF54199","title":"逸虹景苑","lon":"121.48636","lat":"31.29859","category":"47","category_name":"住宅区","address":"上海市虹口区逸仙路288弄"},{"poiid":"B2094655D26AAAFC429A","title":"宝隆天地餐厅","lon":"121.487804054","lat":"31.297400793","category":"268","category_name":"自助","address":"虹口区逸仙路180号宝隆美爵酒店1楼(近纪念路)"},{"poiid":"B2094757D16EA1F5459A","title":"久久公寓","lon":"121.48569","lat":"31.300575","category":"47","category_name":"住宅区","address":"上海市虹口区逸仙路423弄"},{"poiid":"B2094655D26AABFB4898","title":"三湘会所网球场","lon":"121.48745","lat":"31.3003","category":"226","category_name":"网球场","address":"虹口区逸仙路519号半岛酒楼5楼(近仁德路)"},{"poiid":"B2094757D065AAF5439C","title":"鸡排超人江湾店","lon":"121.486288503","lat":"31.3023280893","category":"68","category_name":"快餐厅","address":"虹口区逸仙路494号(万安路口)"},{"poiid":"B2094655D26EA4FA4392","title":"欧岛咖啡西餐厅","lon":"121.48631","lat":"31.29971","category":"65","category_name":"咖啡厅","address":"虹口区逸仙路328号粤海大酒店1楼"},{"poiid":"B2094655D26EA3FB469E","title":"上海宝隆美爵酒店(北门)","lon":"121.48726","lat":"31.29731","category":"214","category_name":"四星级宾馆","address":"上海市虹口区逸仙路180号（近纪念路）"},{"poiid":"B2094654D56CABF44393","title":"新海商务大厦","lon":"121.48706","lat":"31.30198","category":"46","category_name":"楼宇","address":"逸仙路661"},{"poiid":"B2094654D56CABF44292","title":"永琪美容美发(逸仙路)","lon":"121.48813","lat":"31.29879","category":"148","category_name":"美容美发店","address":"虹口区逸仙路273-279号(近纪念路)"},{"poiid":"B2094654D56CAAF5419F","title":"快客No.6857","lon":"121.48692","lat":"31.29911","category":"117","category_name":"便民商店/便利店","address":"逸仙路318"},{"poiid":"B2094654D56CAAF54393","title":"快客No.6647","lon":"121.48625","lat":"31.30099","category":"117","category_name":"便民商店/便利店","address":"江湾镇"},{"poiid":"B2094655D269AAFA469F","title":"凯司令西点房 纪念路店","lon":"121.486461","lat":"31.296824","category":"67","category_name":"甜品店","address":"宝山区纪念路"},{"poiid":"B2094655D26FA7FC4298","title":"三湘世纪花城西区","lon":"121.4885125","lat":"31.2993575","category":"47","category_name":"住宅区","address":""},{"poiid":"B2094757D46AA7FD479D","title":"盈兴小厨","lon":"121.486733","lat":"31.297433","category":"77","category_name":"湖南菜","address":"虹口区纪念路325号(纪念路逸仙路)"},{"poiid":"B209475CD46DA5FE4392","title":"老克乐炸猪排","lon":"121.48574","lat":"31.301305","category":"247","category_name":"餐饮美食","address":"上海市 上海市虹口区新市北路1437号"},{"poiid":"B2094757D16DA1F84392","title":"文化花园明珠苑","lon":"121.48898","lat":"31.30175","category":"47","category_name":"住宅区","address":"上海逸仙路655弄(万安路)"},{"poiid":"B2094757D065A1FA4393","title":"欣逸家园","lon":"121.48481","lat":"31.29685","category":"47","category_name":"住宅区","address":"上海虹口区纪念路555弄"},{"poiid":"B2094757D06AABFF459C","title":"全家便利(万安店)","lon":"121.48593","lat":"31.30213","category":"117","category_name":"便民商店/便利店","address":"上海虹口区万安路243号1楼(近逸仙路)"},{"poiid":"B2094654D56CAAF5429D","title":"上海勘测设计研究院","lon":"121.48652","lat":"31.30032","category":"191","category_name":"科研机构","address":"逸仙路388号"},{"poiid":"B2094757D164A6FD439B","title":"118逸仙路纪念路","lon":"121.4879121","lat":"31.299740035","category":"500","category_name":"未知分类","address":"上海逸仙路纪念路"},{"poiid":"B2094750D665A0FE4598","title":"水晶皇宫酒店","lon":"121.487","lat":"31.2969","category":"76","category_name":"上海菜","address":"虹口区纪念路400号(近逸仙路)"},{"poiid":"B2094757D165A7FF4592","title":"江湾消防队班车地","lon":"121.4877541","lat":"31.299410028","category":"500","category_name":"未知分类","address":"上海市虹口区万安路"},{"poiid":"B2094757D169A1F4439E","title":"四季沙龙","lon":"121.488189","lat":"31.300925","category":"148","category_name":"美容美发店","address":"上海虹口区车站南路39号"},{"poiid":"B2094757D068A1FD4992","title":"兴业银行上海大柏树支行","lon":"121.487067","lat":"31.30199","category":"500","category_name":"未知分类","address":"上海逸仙路661号"},{"poiid":"B2094654D56CABF44399","title":"中国银行上海市逸仙路支行","lon":"121.48789","lat":"31.29924","category":"150","category_name":"银行","address":"逸仙路315号"},{"poiid":"B2094757D064A6F9419B","title":"宝莲城","lon":"121.48819201","lat":"31.301927953","category":"46","category_name":"楼宇","address":"上海双城路803弄"},{"poiid":"B2094757D16EA2F54499","title":"中国银行","lon":"121.487884","lat":"31.299235","category":"150","category_name":"银行","address":"上海市杨浦区逸仙路315号"},{"poiid":"B2094654DB6AAAF4409A","title":"喜士多便利连锁","lon":"121.48831","lat":"31.29849","category":"117","category_name":"便民商店/便利店","address":"逸仙路251"},{"poiid":"B2094757D16BA0F4489B","title":"江桥","lon":"121.4883021","lat":"31.300129043","category":"500","category_name":"未知分类","address":"上海金沙江西路"},{"poiid":"B2094757D06FA3FF499F","title":"上海宝隆美爵酒店","lon":"121.487385437","lat":"31.2974015049","category":"214","category_name":"四星级宾馆","address":"上海市虹口区逸仙路180号(近纪念路)"},{"poiid":"B2094757D66BA3FC4999","title":"半岛酒楼 逸仙店","lon":"121.487890054","lat":"31.300092793","category":"76","category_name":"上海菜","address":"虹口区逸仙路519号(近仁德路)"},{"poiid":"B2094655D26AABF8419A","title":"上海粤海酒店","lon":"121.48631","lat":"31.29971","category":"250","category_name":"公园户外","address":"上海市虹口区逸仙路328号(近纪念路)"},{"poiid":"B2094757D16FAAF44999","title":"宝丰联大酒店","lon":"121.4874201","lat":"31.298263004","category":"217","category_name":"旅馆招待所","address":"虹口区纪念路301号(近逸仙路)"},{"poiid":"B2094654DB6AA2FE4692","title":"汉通海鲜大酒店江湾店","lon":"121.48622","lat":"31.30105","category":"75","category_name":"浙江菜","address":"虹口区逸仙路428号(近万安路)"},{"poiid":"B2094655D36DA0FA479F","title":"逸仙路江湾镇","lon":"121.48562","lat":"31.30351","category":"38","category_name":"公交车站","address":""},{"poiid":"B2094757D06FA6F94893","title":"粤海酒店","lon":"121.48697","lat":"31.29924","category":"217","category_name":"旅馆招待所","address":"上海虹口区逸仙路328号(近纪念路)  "},{"poiid":"B2094655D36CA0F94092","title":"江湾","lon":"121.48587","lat":"31.30269","category":"38","category_name":"公交车站","address":""},{"poiid":"B2094655D26AA7FD4299","title":"宝丰联大酒店宴会厅","lon":"121.48698","lat":"31.29806","category":"247","category_name":"餐饮美食","address":"虹口区逸仙路270号宝丰联宾馆内(近纪念路)"},{"poiid":"B2094654D56CAAF5449F","title":"新海城(逸仙路)","lon":"121.48503","lat":"31.3012","category":"47","category_name":"住宅区","address":"虹口区逸仙路逸仙路458弄1-8号"},{"poiid":"B2094655D26AA1F5429B","title":"宝隆美爵酒店宴会厅","lon":"121.48783","lat":"31.29635","category":"247","category_name":"餐饮美食","address":"虹口区逸仙路180号宝隆美爵酒店内(近纪念路)查看地图"},{"poiid":"B2094757D064ABF9459D","title":"金炀","lon":"121.48600989","lat":"31.300042551","category":"72","category_name":"广东菜","address":"虹口区逸仙路278号(近纪念路)"},{"poiid":"B2094654D56CA4F54793","title":"上海三观堂","lon":"121.48357","lat":"31.3022","category":"244","category_name":"寺庙道观","address":"虹口区万安路359号"},{"poiid":"B2094757D465ABFC459D","title":"九香牛蛙店 万安路店","lon":"121.485720054","lat":"31.302010793","category":"71","category_name":"四川菜","address":"虹口区万安路294号(近逸仙路)"},{"poiid":"B2094757D464A5FF419D","title":"上海石库门 虹口店","lon":"121.486957054","lat":"31.298882793","category":"76","category_name":"上海菜","address":"虹口区逸仙路328号粤海酒店3楼(近纪念路)"},{"poiid":"B2094757D06AA5F94692","title":"莉莲蛋挞 逸仙店 Lillian Cake Shop","lon":"121.488396054","lat":"31.297414793","category":"67","category_name":"甜品店","address":"虹口区逸仙路271号三湘世纪花城(近纪念路)"},{"poiid":"B2094757D068A5FD4692","title":"江灣鎮交通樞紐","lon":"121.4871929","lat":"31.3003416","category":"500","category_name":"未知分类","address":"上海逸仙路江灣鎮公交車站"},{"poiid":"B2094757D069A3F9409D","title":"四海游龙(逸仙路店)","lon":"121.48642","lat":"31.30287","category":"68","category_name":"快餐厅","address":"上海虹口区逸仙路805号(近仁德路)"},{"poiid":"B2094757D065A3F5499D","title":"明和苑","lon":"121.48788","lat":"31.301453","category":"252","category_name":"楼宇机构","address":"上海市杨浦区逸仙路599弄"},{"poiid":"B2094655D36CA0FB429A","title":"纪念路","lon":"121.48745","lat":"31.29901","category":"38","category_name":"公交车站","address":""},{"poiid":"B2094757D66EA1F54792","title":"中外运-敦豪国际航空快件有限公司","lon":"121.487237003","lat":"31.299824137","category":"500","category_name":"未知分类","address":"上海市虹口区纪念路303号"},{"poiid":"B2094654D56CAAF54199","title":"逸虹景苑","lon":"121.48636","lat":"31.29859","category":"47","category_name":"住宅区","address":"上海市虹口区逸仙路288弄"},{"poiid":"B2094655D26AAAFC429A","title":"宝隆天地餐厅","lon":"121.487804054","lat":"31.297400793","category":"268","category_name":"自助","address":"虹口区逸仙路180号宝隆美爵酒店1楼(近纪念路)"},{"poiid":"B2094757D16EA1F5459A","title":"久久公寓","lon":"121.48569","lat":"31.300575","category":"47","category_name":"住宅区","address":"上海市虹口区逸仙路423弄"},{"poiid":"B2094655D26AABFB4898","title":"三湘会所网球场","lon":"121.48745","lat":"31.3003","category":"226","category_name":"网球场","address":"虹口区逸仙路519号半岛酒楼5楼(近仁德路)"},{"poiid":"B2094757D065AAF5439C","title":"鸡排超人江湾店","lon":"121.486288503","lat":"31.3023280893","category":"68","category_name":"快餐厅","address":"虹口区逸仙路494号(万安路口)"},{"poiid":"B2094655D26EA4FA4392","title":"欧岛咖啡西餐厅","lon":"121.48631","lat":"31.29971","category":"65","category_name":"咖啡厅","address":"虹口区逸仙路328号粤海大酒店1楼"},{"poiid":"B2094655D26EA3FB469E","title":"上海宝隆美爵酒店(北门)","lon":"121.48726","lat":"31.29731","category":"214","category_name":"四星级宾馆","address":"上海市虹口区逸仙路180号（近纪念路）"},{"poiid":"B2094654D56CABF44393","title":"新海商务大厦","lon":"121.48706","lat":"31.30198","category":"46","category_name":"楼宇","address":"逸仙路661"},{"poiid":"B2094654D56CABF44292","title":"永琪美容美发(逸仙路)","lon":"121.48813","lat":"31.29879","category":"148","category_name":"美容美发店","address":"虹口区逸仙路273-279号(近纪念路)"},{"poiid":"B2094654D56CAAF5419F","title":"快客No.6857","lon":"121.48692","lat":"31.29911","category":"117","category_name":"便民商店/便利店","address":"逸仙路318"},{"poiid":"B2094654D56CAAF54393","title":"快客No.6647","lon":"121.48625","lat":"31.30099","category":"117","category_name":"便民商店/便利店","address":"江湾镇"},{"poiid":"B2094655D269AAFA469F","title":"凯司令西点房 纪念路店","lon":"121.486461","lat":"31.296824","category":"67","category_name":"甜品店","address":"宝山区纪念路"},{"poiid":"B2094655D26FA7FC4298","title":"三湘世纪花城西区","lon":"121.4885125","lat":"31.2993575","category":"47","category_name":"住宅区","address":""},{"poiid":"B2094757D46AA7FD479D","title":"盈兴小厨","lon":"121.486733","lat":"31.297433","category":"77","category_name":"湖南菜","address":"虹口区纪念路325号(纪念路逸仙路)"},{"poiid":"B209475CD46DA5FE4392","title":"老克乐炸猪排","lon":"121.48574","lat":"31.301305","category":"247","category_name":"餐饮美食","address":"上海市 上海市虹口区新市北路1437号"},{"poiid":"B2094757D16DA1F84392","title":"文化花园明珠苑","lon":"121.48898","lat":"31.30175","category":"47","category_name":"住宅区","address":"上海逸仙路655弄(万安路)"},{"poiid":"B2094757D065A1FA4393","title":"欣逸家园","lon":"121.48481","lat":"31.29685","category":"47","category_name":"住宅区","address":"上海虹口区纪念路555弄"},{"poiid":"B2094757D06AABFF459C","title":"全家便利(万安店)","lon":"121.48593","lat":"31.30213","category":"117","category_name":"便民商店/便利店","address":"上海虹口区万安路243号1楼(近逸仙路)"},{"poiid":"B2094654D56CAAF5429D","title":"上海勘测设计研究院","lon":"121.48652","lat":"31.30032","category":"191","category_name":"科研机构","address":"逸仙路388号"},{"poiid":"B2094757D164A6FD439B","title":"118逸仙路纪念路","lon":"121.4879121","lat":"31.299740035","category":"500","category_name":"未知分类","address":"上海逸仙路纪念路"},{"poiid":"B2094750D665A0FE4598","title":"水晶皇宫酒店","lon":"121.487","lat":"31.2969","category":"76","category_name":"上海菜","address":"虹口区纪念路400号(近逸仙路)"},{"poiid":"B2094757D165A7FF4592","title":"江湾消防队班车地","lon":"121.4877541","lat":"31.299410028","category":"500","category_name":"未知分类","address":"上海市虹口区万安路"},{"poiid":"B2094757D169A1F4439E","title":"四季沙龙","lon":"121.488189","lat":"31.300925","category":"148","category_name":"美容美发店","address":"上海虹口区车站南路39号"},{"poiid":"B2094757D068A1FD4992","title":"兴业银行上海大柏树支行","lon":"121.487067","lat":"31.30199","category":"500","category_name":"未知分类","address":"上海逸仙路661号"},{"poiid":"B2094654D56CABF44399","title":"中国银行上海市逸仙路支行","lon":"121.48789","lat":"31.29924","category":"150","category_name":"银行","address":"逸仙路315号"},{"poiid":"B2094757D064A6F9419B","title":"宝莲城","lon":"121.48819201","lat":"31.301927953","category":"46","category_name":"楼宇","address":"上海双城路803弄"},{"poiid":"B2094757D16EA2F54499","title":"中国银行","lon":"121.487884","lat":"31.299235","category":"150","category_name":"银行","address":"上海市杨浦区逸仙路315号"},{"poiid":"B2094654DB6AAAF4409A","title":"喜士多便利连锁","lon":"121.48831","lat":"31.29849","category":"117","category_name":"便民商店/便利店","address":"逸仙路251"},{"poiid":"B2094757D16BA0F4489B","title":"江桥","lon":"121.4883021","lat":"31.300129043","category":"500","category_name":"未知分类","address":"上海金沙江西路"}]