[{"poiid":"B2094655D36CA6FF4498","title":"复旦大学","lon":"121.50346","lat":"31.29645","category":"671","category_name":"高校中心点","address":"上海市邯郸路220号"},{"poiid":"B2094757D169A6F4489C","title":"复旦大学第六教学楼","lon":"121.5039741","lat":"31.295171939","category":"52","category_name":"高等院校","address":"上海国年路275弄"},{"poiid":"B2094757D06FA7F8429A","title":"复旦大学管理学院","lon":"121.505914","lat":"31.296528","category":"671","category_name":"高校中心点","address":"上海,上海市,上海市国顺路670号李达三楼4楼"},{"poiid":"B2094757D06FA3FD4999","title":"复旦大学文科图书馆","lon":"121.50421142","lat":"31.295690536","category":"253","category_name":"校园生活","address":"杨浦区国年路300号(邯郸路口)"},{"poiid":"B2094757D06EAAFF489E","title":"复旦大学第三教学楼","lon":"121.50422758","lat":"31.298090461","category":"253","category_name":"校园生活","address":"上海邯郸路220号(近正门,主席像东侧)"},{"poiid":"B2094757D06EAAFC4098","title":"复旦大学第五教学楼","lon":"121.50448362","lat":"31.295495389","category":"253","category_name":"校园生活","address":"上海杨浦区国年路275弄"},{"poiid":"B2094757D06FA2FE489F","title":"复旦大学南区一条街(华联复旦校园生活中心)","lon":"121.50448803","lat":"31.293992851","category":"119","category_name":"商场","address":"上海杨浦区国权路580弄(近复旦大学正大体育馆)"},{"poiid":"B2094757D068A1FD489C","title":"复旦大学美国研究中心","lon":"121.50336624","lat":"31.295570813","category":"500","category_name":"未知分类","address":"杨浦区国权路680号(近邯郸路)"},{"poiid":"B2094757D068A0FD459F","title":"复旦大学经济学院","lon":"121.50376379","lat":"31.294903323","category":"52","category_name":"高等院校","address":"杨浦区国权路600号"},{"poiid":"B2094757D06FA0FC439F","title":"复旦大学管理学院史带楼","lon":"121.50656449","lat":"31.296786133","category":"253","category_name":"校园生活","address":"上海杨浦区国顺路670号"},{"poiid":"B2094757D06FA2F44792","title":"复旦大学第二教学楼","lon":"121.50433516","lat":"31.297652091","category":"253","category_name":"校园生活","address":"上海杨浦区邯郸路220号(近大门,主席像东侧)"},{"poiid":"B2094757DB6BABF9449A","title":"汤姆熊（万达广场 五角场店）","lon":"121.503","lat":"31.2971","category":"128","category_name":"儿童用品店","address":"上海杨浦区邯郸路600号 万达广场(五角场店)地下一层"},{"poiid":"B2094757D06FA1FB4292","title":"复旦大学理科图书馆","lon":"121.50269335","lat":"31.297219542","category":"253","category_name":"校园生活","address":"上海杨浦区邯郸路220号复旦大学邯郸校区"},{"poiid":"B2094654D56DA3F94793","title":"复旦大学(南门)","lon":"121.50382","lat":"31.29675","category":"52","category_name":"高等院校","address":"邯郸路220"},{"poiid":"B2094757D06FA6FE479E","title":"上海新东方学校(复旦旗舰教育广场)","lon":"121.50305","lat":"31.29409","category":"260","category_name":"其他","address":"杨浦区国权路561号(近邯郸路)"},{"poiid":"B2094655D26CA1FF4193","title":"上海复旦皇冠假日酒店(东门)","lon":"121.50261","lat":"31.29538","category":"656","category_name":"大门","address":"上海市杨浦区邯郸路199号"},{"poiid":"B2094654D56EAAFA4793","title":"复旦大学图书馆","lon":"121.50512","lat":"31.29618","category":"181","category_name":"图书馆","address":"国年路300"},{"poiid":"B2094757D068A0FC4999","title":"复旦大学文科楼","lon":"121.5045001","lat":"31.296353964","category":"253","category_name":"校园生活","address":"上海复旦大学"},{"poiid":"B2094757D06FA6FA429A","title":"阿康烧烤(复旦店)","lon":"121.50555","lat":"31.294","category":"68","category_name":"快餐厅","address":"杨浦区国权路518号复旦步行街(国年路口)"},{"poiid":"B2094757D068A4FD4698","title":"复旦管理学院李达三楼","lon":"121.505901","lat":"31.296404","category":"253","category_name":"校园生活","address":"上海市杨浦区国顺路670号"},{"poiid":"B2094757D068A3FB459C","title":"Salabim意式餐厅(国权路店)","lon":"121.506","lat":"31.29413","category":"94","category_name":"西餐厅","address":"杨浦区国权路580弄复旦大学南区复旦步行街48号(近国年路)"},{"poiid":"B2094655D26AA1F5429F","title":"复旦皇冠假日酒店宴会厅","lon":"121.50186","lat":"31.29514","category":"247","category_name":"餐饮美食","address":"杨浦区邯郸路199号复旦皇冠假日酒店2楼(近国权路)查看地图"},{"poiid":"B2094757D06FA4F9459B","title":"兰州一拉","lon":"121.50379436003","lat":"31.2942283374","category":"68","category_name":"快餐厅","address":"杨浦区国权路近复旦步行街(近政肃路)"},{"poiid":"B2094757DB6BABFE499F","title":"巴黎春天百货（万达广场 五角场店）","lon":"121.503","lat":"31.2971","category":"148","category_name":"美容美发店","address":"上海杨浦区邯郸路600号,万达广场(五角场店)二层"},{"poiid":"B2094757D069A2FB479A","title":"三星麻辣烫","lon":"121.506446","lat":"31.29444","category":"68","category_name":"快餐厅","address":"杨浦区政肃路60号(近国年路)"},{"poiid":"B2094757D068AAFE4192","title":"复旦大学邯郸校区3108教室","lon":"121.50434559","lat":"31.298085878","category":"253","category_name":"校园生活","address":"上海邯郸路220号复旦大学第三教学楼一楼"},{"poiid":"B2094757D06FA4FB449F","title":"复旦大学叶耀珍楼(学生活动中心)","lon":"121.50555926","lat":"31.297484913","category":"249","category_name":"购物服务","address":"上海杨浦区邯郸路220号复旦大学内(近本部排球场)"},{"poiid":"B2094655D26CA0FE4999","title":"复旦大学(南二门)","lon":"121.50232","lat":"31.2963","category":"52","category_name":"高等院校","address":""},{"poiid":"B2094757D068A1F8479B","title":"复旦大学(邯郸校区)毛主席像","lon":"121.5035895","lat":"31.297574167","category":"253","category_name":"校园生活","address":"上海杨浦区邯郸路220号复旦大学邯郸校区"},{"poiid":"B2094757D66FA3FC459C","title":"寶壽司","lon":"121.505466603","lat":"31.296479167","category":"95","category_name":"日本料理","address":"上海复旦大學店"},{"poiid":"B2094757D664A1F8499D","title":"复旦皇冠假日酒店中餐厅","lon":"121.5020467222","lat":"31.295672845874","category":"268","category_name":"自助","address":"邯郸路199号复旦皇冠假日酒店内近国权路"},{"poiid":"B2094757D569A6F8479A","title":"复旦大学外国语言文学学院","lon":"121.504287","lat":"31.295793","category":"52","category_name":"高等院校","address":"中国上海市杨浦区国年路"},{"poiid":"B2094655D26CA7F44592","title":"可浓 国年路店","lon":"121.504844054","lat":"31.296052793","category":"113","category_name":"冷饮店","address":"杨浦区国年路280号6室(近复旦步行街)"},{"poiid":"B2094757D06EAAFA499B","title":"复旦大学第六教学楼6201教室","lon":"121.50440316","lat":"31.294913233","category":"253","category_name":"校园生活","address":"上海杨浦区国年路275弄"},{"poiid":"B2094655D26FA2FB4599","title":"复旦大学(南一门)","lon":"121.50529","lat":"31.29715","category":"52","category_name":"高等院校","address":""},{"poiid":"B2094757D06AA0FD469D","title":"复旦南区黑暗料理","lon":"121.504471103","lat":"31.2957969527","category":"500","category_name":"未知分类","address":"杨浦区国定路440号(近复旦大学)"},{"poiid":"B2094757D065ABFF4892","title":"粥吧(复旦大学店)","lon":"121.505217","lat":"31.2956","category":"68","category_name":"快餐厅","address":"杨浦区国年路280号"},{"poiid":"B2094655D36CA7FA4898","title":"邯郸路","lon":"121.50315","lat":"31.29479","category":"38","category_name":"公交车站","address":""},{"poiid":"B209475CDB64AAFC469C","title":"炭韩国烧烤","lon":"121.505447","lat":"31.298027","category":"247","category_name":"餐饮美食","address":"上海市 政民路482号"},{"poiid":"B2094757D16CA6F5459D","title":"复旦大学公交站","lon":"121.504051","lat":"31.296365427","category":"38","category_name":"公交车站","address":"上海杨浦区邯郸路(近国顺路)"},{"poiid":"B2094655D26DA4FB4999","title":"外国语言文学学院(北门)","lon":"121.50408","lat":"31.29617","category":"52","category_name":"高等院校","address":""},{"poiid":"B2094757D16BA1FD489B","title":"复旦大学文科图书馆二楼","lon":"121.5052461","lat":"31.295953956","category":"500","category_name":"未知分类","address":null},{"poiid":"B2094757D168A1FF4092","title":"960路复旦大学站","lon":"121.504067706","lat":"31.2963771542","category":"38","category_name":"公交车站","address":"上海邯郸路(近复旦大学正门)"},{"poiid":"B2094757D16BA5FF439B","title":"966路复旦大学站","lon":"121.50462188","lat":"31.295841486","category":"38","category_name":"公交车站","address":"上海邯郸路(近复旦大学正门)"},{"poiid":"B2094654D56EAAFA489B","title":"复旦大学网络教育学院(国年路)","lon":"121.50479","lat":"31.29564","category":"52","category_name":"高等院校","address":"邯郸路220号"},{"poiid":"B2094757D168A2F5469C","title":"复旦大学第六教学楼6404","lon":"121.5058835","lat":"31.296495667","category":"500","category_name":"未知分类","address":null},{"poiid":"B2094757D065AAFE489E","title":"复旦大学国际关系与公共事务学院","lon":"121.50408935","lat":"31.295904159","category":"500","category_name":"未知分类","address":"上海邯郸路220号复旦大学文科楼6楼"},{"poiid":"B2094752D468A0FA489A","title":"同濟大學","lon":"121.505366","lat":"31.296885","category":"671","category_name":"高校中心点","address":null},{"poiid":"B2094757DB6BABFE459E","title":"上海第一食品（万达广场 五角场店）","lon":"121.503","lat":"31.2971","category":"249","category_name":"购物服务","address":"上海杨浦区邯郸路600号 万达广场(五角场店)二层"},{"poiid":"B2094655D26EA0FC4499","title":"上岛咖啡 国权路 UBC Coffee","lon":"121.50372717163","lat":"31.293469105007","category":"260","category_name":"其他","address":"杨浦区国权路525号(近政肃路)"},{"poiid":"B2094655D36CA6FF4498","title":"复旦大学","lon":"121.50346","lat":"31.29645","category":"671","category_name":"高校中心点","address":"上海市邯郸路220号"},{"poiid":"B2094757D169A6F4489C","title":"复旦大学第六教学楼","lon":"121.5039741","lat":"31.295171939","category":"52","category_name":"高等院校","address":"上海国年路275弄"},{"poiid":"B2094757D06FA7F8429A","title":"复旦大学管理学院","lon":"121.505914","lat":"31.296528","category":"671","category_name":"高校中心点","address":"上海,上海市,上海市国顺路670号李达三楼4楼"},{"poiid":"B2094757D06FA3FD4999","title":"复旦大学文科图书馆","lon":"121.50421142","lat":"31.295690536","category":"253","category_name":"校园生活","address":"杨浦区国年路300号(邯郸路口)"},{"poiid":"B2094757D06EAAFF489E","title":"复旦大学第三教学楼","lon":"121.50422758","lat":"31.298090461","category":"253","category_name":"校园生活","address":"上海邯郸路220号(近正门,主席像东侧)"},{"poiid":"B2094757D06EAAFC4098","title":"复旦大学第五教学楼","lon":"121.50448362","lat":"31.295495389","category":"253","category_name":"校园生活","address":"上海杨浦区国年路275弄"},{"poiid":"B2094757D06FA2FE489F","title":"复旦大学南区一条街(华联复旦校园生活中心)","lon":"121.50448803","lat":"31.293992851","category":"119","category_name":"商场","address":"上海杨浦区国权路580弄(近复旦大学正大体育馆)"},{"poiid":"B2094757D068A1FD489C","title":"复旦大学美国研究中心","lon":"121.50336624","lat":"31.295570813","category":"500","category_name":"未知分类","address":"杨浦区国权路680号(近邯郸路)"},{"poiid":"B2094757D068A0FD459F","title":"复旦大学经济学院","lon":"121.50376379","lat":"31.294903323","category":"52","category_name":"高等院校","address":"杨浦区国权路600号"},{"poiid":"B2094757D06FA0FC439F","title":"复旦大学管理学院史带楼","lon":"121.50656449","lat":"31.296786133","category":"253","category_name":"校园生活","address":"上海杨浦区国顺路670号"},{"poiid":"B2094757D06FA2F44792","title":"复旦大学第二教学楼","lon":"121.50433516","lat":"31.297652091","category":"253","category_name":"校园生活","address":"上海杨浦区邯郸路220号(近大门,主席像东侧)"},{"poiid":"B2094757DB6BABF9449A","title":"汤姆熊（万达广场 五角场店）","lon":"121.503","lat":"31.2971","category":"128","category_name":"儿童用品店","address":"上海杨浦区邯郸路600号 万达广场(五角场店)地下一层"},{"poiid":"B2094757D06FA1FB4292","title":"复旦大学理科图书馆","lon":"121.50269335","lat":"31.297219542","category":"253","category_name":"校园生活","address":"上海杨浦区邯郸路220号复旦大学邯郸校区"},{"poiid":"B2094654D56DA3F94793","title":"复旦大学(南门)","lon":"121.50382","lat":"31.29675","category":"52","category_name":"高等院校","address":"邯郸路220"},{"poiid":"B2094757D06FA6FE479E","title":"上海新东方学校(复旦旗舰教育广场)","lon":"121.50305","lat":"31.29409","category":"260","category_name":"其他","address":"杨浦区国权路561号(近邯郸路)"},{"poiid":"B2094655D26CA1FF4193","title":"上海复旦皇冠假日酒店(东门)","lon":"121.50261","lat":"31.29538","category":"656","category_name":"大门","address":"上海市杨浦区邯郸路199号"},{"poiid":"B2094654D56EAAFA4793","title":"复旦大学图书馆","lon":"121.50512","lat":"31.29618","category":"181","category_name":"图书馆","address":"国年路300"},{"poiid":"B2094757D068A0FC4999","title":"复旦大学文科楼","lon":"121.5045001","lat":"31.296353964","category":"253","category_name":"校园生活","address":"上海复旦大学"},{"poiid":"B2094757D06FA6FA429A","title":"阿康烧烤(复旦店)","lon":"121.50555","lat":"31.294","category":"68","category_name":"快餐厅","address":"杨浦区国权路518号复旦步行街(国年路口)"},{"poiid":"B2094757D068A4FD4698","title":"复旦管理学院李达三楼","lon":"121.505901","lat":"31.296404","category":"253","category_name":"校园生活","address":"上海市杨浦区国顺路670号"},{"poiid":"B2094757D068A3FB459C","title":"Salabim意式餐厅(国权路店)","lon":"121.506","lat":"31.29413","category":"94","category_name":"西餐厅","address":"杨浦区国权路580弄复旦大学南区复旦步行街48号(近国年路)"},{"poiid":"B2094655D26AA1F5429F","title":"复旦皇冠假日酒店宴会厅","lon":"121.50186","lat":"31.29514","category":"247","category_name":"餐饮美食","address":"杨浦区邯郸路199号复旦皇冠假日酒店2楼(近国权路)查看地图"},{"poiid":"B2094757D06FA4F9459B","title":"兰州一拉","lon":"121.50379436003","lat":"31.2942283374","category":"68","category_name":"快餐厅","address":"杨浦区国权路近复旦步行街(近政肃路)"},{"poiid":"B2094757DB6BABFE499F","title":"巴黎春天百货（万达广场 五角场店）","lon":"121.503","lat":"31.2971","category":"148","category_name":"美容美发店","address":"上海杨浦区邯郸路600号,万达广场(五角场店)二层"},{"poiid":"B2094757D069A2FB479A","title":"三星麻辣烫","lon":"121.506446","lat":"31.29444","category":"68","category_name":"快餐厅","address":"杨浦区政肃路60号(近国年路)"},{"poiid":"B2094757D068AAFE4192","title":"复旦大学邯郸校区3108教室","lon":"121.50434559","lat":"31.298085878","category":"253","category_name":"校园生活","address":"上海邯郸路220号复旦大学第三教学楼一楼"},{"poiid":"B2094757D06FA4FB449F","title":"复旦大学叶耀珍楼(学生活动中心)","lon":"121.50555926","lat":"31.297484913","category":"249","category_name":"购物服务","address":"上海杨浦区邯郸路220号复旦大学内(近本部排球场)"},{"poiid":"B2094655D26CA0FE4999","title":"复旦大学(南二门)","lon":"121.50232","lat":"31.2963","category":"52","category_name":"高等院校","address":""},{"poiid":"B2094757D068A1F8479B","title":"复旦大学(邯郸校区)毛主席像","lon":"121.5035895","lat":"31.297574167","category":"253","category_name":"校园生活","address":"上海杨浦区邯郸路220号复旦大学邯郸校区"},{"poiid":"B2094757D66FA3FC459C","title":"寶壽司","lon":"121.505466603","lat":"31.296479167","category":"95","category_name":"日本料理","address":"上海复旦大學店"},{"poiid":"B2094757D664A1F8499D","title":"复旦皇冠假日酒店中餐厅","lon":"121.5020467222","lat":"31.295672845874","category":"268","category_name":"自助","address":"邯郸路199号复旦皇冠假日酒店内近国权路"},{"poiid":"B2094757D569A6F8479A","title":"复旦大学外国语言文学学院","lon":"121.504287","lat":"31.295793","category":"52","category_name":"高等院校","address":"中国上海市杨浦区国年路"},{"poiid":"B2094655D26CA7F44592","title":"可浓 国年路店","lon":"121.504844054","lat":"31.296052793","category":"113","category_name":"冷饮店","address":"杨浦区国年路280号6室(近复旦步行街)"},{"poiid":"B2094757D06EAAFA499B","title":"复旦大学第六教学楼6201教室","lon":"121.50440316","lat":"31.294913233","category":"253","category_name":"校园生活","address":"上海杨浦区国年路275弄"},{"poiid":"B2094655D26FA2FB4599","title":"复旦大学(南一门)","lon":"121.50529","lat":"31.29715","category":"52","category_name":"高等院校","address":""},{"poiid":"B2094757D06AA0FD469D","title":"复旦南区黑暗料理","lon":"121.504471103","lat":"31.2957969527","category":"500","category_name":"未知分类","address":"杨浦区国定路440号(近复旦大学)"},{"poiid":"B2094757D065ABFF4892","title":"粥吧(复旦大学店)","lon":"121.505217","lat":"31.2956","category":"68","category_name":"快餐厅","address":"杨浦区国年路280号"},{"poiid":"B2094655D36CA7FA4898","title":"邯郸路","lon":"121.50315","lat":"31.29479","category":"38","category_name":"公交车站","address":""},{"poiid":"B209475CDB64AAFC469C","title":"炭韩国烧烤","lon":"121.505447","lat":"31.298027","category":"247","category_name":"餐饮美食","address":"上海市 政民路482号"},{"poiid":"B2094757D16CA6F5459D","title":"复旦大学公交站","lon":"121.504051","lat":"31.296365427","category":"38","category_name":"公交车站","address":"上海杨浦区邯郸路(近国顺路)"},{"poiid":"B2094655D26DA4FB4999","title":"外国语言文学学院(北门)","lon":"121.50408","lat":"31.29617","category":"52","category_name":"高等院校","address":""},{"poiid":"B2094757D16BA1FD489B","title":"复旦大学文科图书馆二楼","lon":"121.5052461","lat":"31.295953956","category":"500","category_name":"未知分类","address":null},{"poiid":"B2094757D168A1FF4092","title":"960路复旦大学站","lon":"121.504067706","lat":"31.2963771542","category":"38","category_name":"公交车站","address":"上海邯郸路(近复旦大学正门)"},{"poiid":"B2094757D16BA5FF439B","title":"966路复旦大学站","lon":"121.50462188","lat":"31.295841486","category":"38","category_name":"公交车站","address":"上海邯郸路(近复旦大学正门)"},{"poiid":"B2094654D56EAAFA489B","title":"复旦大学网络教育学院(国年路)","lon":"121.50479","lat":"31.29564","category":"52","category_name":"高等院校","address":"邯郸路220号"},{"poiid":"B2094757D168A2F5469C","title":"复旦大学第六教学楼6404","lon":"121.5058835","lat":"31.296495667","category":"500","category_name":"未知分类","address":null},{"poiid":"B2094757D065AAFE489E","title":"复旦大学国际关系与公共事务学院","lon":"121.50408935","lat":"31.295904159","category":"500","category_name":"未知分类","address":"上海邯郸路220号复旦大学文科楼6楼"},{"poiid":"B2094752D468A0FA489A","title":"同濟大學","lon":"121.505366","lat":"31.296885","category":"671","category_name":"高校中心点","address":null},{"poiid":"B2094757DB6BABFE459E","title":"上海第一食品（万达广场 五角场店）","lon":"121.503","lat":"31.2971","category":"249","category_name":"购物服务","address":"上海杨浦区邯郸路600号 万达广场(五角场店)二层"},{"poiid":"B2094655D26EA0FC4499","title":"上岛咖啡 国权路 UBC Coffee","lon":"121.50372717163","lat":"31.293469105007","category":"260","category_name":"其他","address":"杨浦区国权路525号(近政肃路)"},{"poiid":"B2094655D36CA6FF4498","title":"复旦大学","lon":"121.50346","lat":"31.29645","category":"671","category_name":"高校中心点","address":"上海市邯郸路220号"},{"poiid":"B2094757D169A6F4489C","title":"复旦大学第六教学楼","lon":"121.5039741","lat":"31.295171939","category":"52","category_name":"高等院校","address":"上海国年路275弄"},{"poiid":"B2094757D06FA7F8429A","title":"复旦大学管理学院","lon":"121.505914","lat":"31.296528","category":"671","category_name":"高校中心点","address":"上海,上海市,上海市国顺路670号李达三楼4楼"},{"poiid":"B2094757D06FA3FD4999","title":"复旦大学文科图书馆","lon":"121.50421142","lat":"31.295690536","category":"253","category_name":"校园生活","address":"杨浦区国年路300号(邯郸路口)"},{"poiid":"B2094757D06EAAFF489E","title":"复旦大学第三教学楼","lon":"121.50422758","lat":"31.298090461","category":"253","category_name":"校园生活","address":"上海邯郸路220号(近正门,主席像东侧)"},{"poiid":"B2094757D06EAAFC4098","title":"复旦大学第五教学楼","lon":"121.50448362","lat":"31.295495389","category":"253","category_name":"校园生活","address":"上海杨浦区国年路275弄"},{"poiid":"B2094757D06FA2FE489F","title":"复旦大学南区一条街(华联复旦校园生活中心)","lon":"121.50448803","lat":"31.293992851","category":"119","category_name":"商场","address":"上海杨浦区国权路580弄(近复旦大学正大体育馆)"},{"poiid":"B2094757D068A1FD489C","title":"复旦大学美国研究中心","lon":"121.50336624","lat":"31.295570813","category":"500","category_name":"未知分类","address":"杨浦区国权路680号(近邯郸路)"},{"poiid":"B2094757D068A0FD459F","title":"复旦大学经济学院","lon":"121.50376379","lat":"31.294903323","category":"52","category_name":"高等院校","address":"杨浦区国权路600号"},{"poiid":"B2094757D06FA0FC439F","title":"复旦大学管理学院史带楼","lon":"121.50656449","lat":"31.296786133","category":"253","category_name":"校园生活","address":"上海杨浦区国顺路670号"},{"poiid":"B2094757D06FA2F44792","title":"复旦大学第二教学楼","lon":"121.50433516","lat":"31.297652091","category":"253","category_name":"校园生活","address":"上海杨浦区邯郸路220号(近大门,主席像东侧)"},{"poiid":"B2094757DB6BABF9449A","title":"汤姆熊（万达广场 五角场店）","lon":"121.503","lat":"31.2971","category":"128","category_name":"儿童用品店","address":"上海杨浦区邯郸路600号 万达广场(五角场店)地下一层"},{"poiid":"B2094757D06FA1FB4292","title":"复旦大学理科图书馆","lon":"121.50269335","lat":"31.297219542","category":"253","category_name":"校园生活","address":"上海杨浦区邯郸路220号复旦大学邯郸校区"},{"poiid":"B2094654D56DA3F94793","title":"复旦大学(南门)","lon":"121.50382","lat":"31.29675","category":"52","category_name":"高等院校","address":"邯郸路220"},{"poiid":"B2094757D06FA6FE479E","title":"上海新东方学校(复旦旗舰教育广场)","lon":"121.50305","lat":"31.29409","category":"260","category_name":"其他","address":"杨浦区国权路561号(近邯郸路)"},{"poiid":"B2094655D26CA1FF4193","title":"上海复旦皇冠假日酒店(东门)","lon":"121.50261","lat":"31.29538","category":"656","category_name":"大门","address":"上海市杨浦区邯郸路199号"},{"poiid":"B2094654D56EAAFA4793","title":"复旦大学图书馆","lon":"121.50512","lat":"31.29618","category":"181","category_name":"图书馆","address":"国年路300"},{"poiid":"B2094757D068A0FC4999","title":"复旦大学文科楼","lon":"121.5045001","lat":"31.296353964","category":"253","category_name":"校园生活","address":"上海复旦大学"},{"poiid":"B2094757D06FA6FA429A","title":"阿康烧烤(复旦店)","lon":"121.50555","lat":"31.294","category":"68","category_name":"快餐厅","address":"杨浦区国权路518号复旦步行街(国年路口)"},{"poiid":"B2094757D068A4FD4698","title":"复旦管理学院李达三楼","lon":"121.505901","lat":"31.296404","category":"253","category_name":"校园生活","address":"上海市杨浦区国顺路670号"},{"poiid":"B2094757D068A3FB459C","title":"Salabim意式餐厅(国权路店)","lon":"121.506","lat":"31.29413","category":"94","category_name":"西餐厅","address":"杨浦区国权路580弄复旦大学南区复旦步行街48号(近国年路)"},{"poiid":"B2094655D26AA1F5429F","title":"复旦皇冠假日酒店宴会厅","lon":"121.50186","lat":"31.29514","category":"247","category_name":"餐饮美食","address":"杨浦区邯郸路199号复旦皇冠假日酒店2楼(近国权路)查看地图"},{"poiid":"B2094757D06FA4F9459B","title":"兰州一拉","lon":"121.50379436003","lat":"31.2942283374","category":"68","category_name":"快餐厅","address":"杨浦区国权路近复旦步行街(近政肃路)"},{"poiid":"B2094757DB6BABFE499F","title":"巴黎春天百货（万达广场 五角场店）","lon":"121.503","lat":"31.2971","category":"148","category_name":"美容美发店","address":"上海杨浦区邯郸路600号,万达广场(五角场店)二层"},{"poiid":"B2094757D069A2FB479A","title":"三星麻辣烫","lon":"121.506446","lat":"31.29444","category":"68","category_name":"快餐厅","address":"杨浦区政肃路60号(近国年路)"},{"poiid":"B2094757D068AAFE4192","title":"复旦大学邯郸校区3108教室","lon":"121.50434559","lat":"31.298085878","category":"253","category_name":"校园生活","address":"上海邯郸路220号复旦大学第三教学楼一楼"},{"poiid":"B2094757D06FA4FB449F","title":"复旦大学叶耀珍楼(学生活动中心)","lon":"121.50555926","lat":"31.297484913","category":"249","category_name":"购物服务","address":"上海杨浦区邯郸路220号复旦大学内(近本部排球场)"},{"poiid":"B2094655D26CA0FE4999","title":"复旦大学(南二门)","lon":"121.50232","lat":"31.2963","category":"52","category_name":"高等院校","address":""},{"poiid":"B2094757D068A1F8479B","title":"复旦大学(邯郸校区)毛主席像","lon":"121.5035895","lat":"31.297574167","category":"253","category_name":"校园生活","address":"上海杨浦区邯郸路220号复旦大学邯郸校区"},{"poiid":"B2094757D66FA3FC459C","title":"寶壽司","lon":"121.505466603","lat":"31.296479167","category":"95","category_name":"日本料理","address":"上海复旦大學店"},{"poiid":"B2094757D664A1F8499D","title":"复旦皇冠假日酒店中餐厅","lon":"121.5020467222","lat":"31.295672845874","category":"268","category_name":"自助","address":"邯郸路199号复旦皇冠假日酒店内近国权路"},{"poiid":"B2094757D569A6F8479A","title":"复旦大学外国语言文学学院","lon":"121.504287","lat":"31.295793","category":"52","category_name":"高等院校","address":"中国上海市杨浦区国年路"},{"poiid":"B2094655D26CA7F44592","title":"可浓 国年路店","lon":"121.504844054","lat":"31.296052793","category":"113","category_name":"冷饮店","address":"杨浦区国年路280号6室(近复旦步行街)"},{"poiid":"B2094757D06EAAFA499B","title":"复旦大学第六教学楼6201教室","lon":"121.50440316","lat":"31.294913233","category":"253","category_name":"校园生活","address":"上海杨浦区国年路275弄"},{"poiid":"B2094655D26FA2FB4599","title":"复旦大学(南一门)","lon":"121.50529","lat":"31.29715","category":"52","category_name":"高等院校","address":""},{"poiid":"B2094757D06AA0FD469D","title":"复旦南区黑暗料理","lon":"121.504471103","lat":"31.2957969527","category":"500","category_name":"未知分类","address":"杨浦区国定路440号(近复旦大学)"},{"poiid":"B2094757D065ABFF4892","title":"粥吧(复旦大学店)","lon":"121.505217","lat":"31.2956","category":"68","category_name":"快餐厅","address":"杨浦区国年路280号"},{"poiid":"B2094655D36CA7FA4898","title":"邯郸路","lon":"121.50315","lat":"31.29479","category":"38","category_name":"公交车站","address":""},{"poiid":"B209475CDB64AAFC469C","title":"炭韩国烧烤","lon":"121.505447","lat":"31.298027","category":"247","category_name":"餐饮美食","address":"上海市 政民路482号"},{"poiid":"B2094757D16CA6F5459D","title":"复旦大学公交站","lon":"121.504051","lat":"31.296365427","category":"38","category_name":"公交车站","address":"上海杨浦区邯郸路(近国顺路)"},{"poiid":"B2094655D26DA4FB4999","title":"外国语言文学学院(北门)","lon":"121.50408","lat":"31.29617","category":"52","category_name":"高等院校","address":""},{"poiid":"B2094757D16BA1FD489B","title":"复旦大学文科图书馆二楼","lon":"121.5052461","lat":"31.295953956","category":"500","category_name":"未知分类","address":null},{"poiid":"B2094757D168A1FF4092","title":"960路复旦大学站","lon":"121.504067706","lat":"31.2963771542","category":"38","category_name":"公交车站","address":"上海邯郸路(近复旦大学正门)"},{"poiid":"B2094757D16BA5FF439B","title":"966路复旦大学站","lon":"121.50462188","lat":"31.295841486","category":"38","category_name":"公交车站","address":"上海邯郸路(近复旦大学正门)"},{"poiid":"B2094654D56EAAFA489B","title":"复旦大学网络教育学院(国年路)","lon":"121.50479","lat":"31.29564","category":"52","category_name":"高等院校","address":"邯郸路220号"},{"poiid":"B2094757D168A2F5469C","title":"复旦大学第六教学楼6404","lon":"121.5058835","lat":"31.296495667","category":"500","category_name":"未知分类","address":null},{"poiid":"B2094757D065AAFE489E","title":"复旦大学国际关系与公共事务学院","lon":"121.50408935","lat":"31.295904159","category":"500","category_name":"未知分类","address":"上海邯郸路220号复旦大学文科楼6楼"},{"poiid":"B2094752D468A0FA489A","title":"同濟大學","lon":"121.505366","lat":"31.296885","category":"671","category_name":"高校中心点","address":null},{"poiid":"B2094757DB6BABFE459E","title":"上海第一食品（万达广场 五角场店）","lon":"121.503","lat":"31.2971","category":"249","category_name":"购物服务","address":"上海杨浦区邯郸路600号 万达广场(五角场店)二层"},{"poiid":"B2094655D26EA0FC4499","title":"上岛咖啡 国权路 UBC Coffee","lon":"121.50372717163","lat":"31.293469105007","category":"260","category_name":"其他","address":"杨浦区国权路525号(近政肃路)"},{"poiid":"B2094655D36CA6FF4498","title":"复旦大学","lon":"121.50346","lat":"31.29645","category":"671","category_name":"高校中心点","address":"上海市邯郸路220号"},{"poiid":"B2094757D169A6F4489C","title":"复旦大学第六教学楼","lon":"121.5039741","lat":"31.295171939","category":"52","category_name":"高等院校","address":"上海国年路275弄"},{"poiid":"B2094757D06FA7F8429A","title":"复旦大学管理学院","lon":"121.505914","lat":"31.296528","category":"671","category_name":"高校中心点","address":"上海,上海市,上海市国顺路670号李达三楼4楼"},{"poiid":"B2094757D06FA3FD4999","title":"复旦大学文科图书馆","lon":"121.50421142","lat":"31.295690536","category":"253","category_name":"校园生活","address":"杨浦区国年路300号(邯郸路口)"},{"poiid":"B2094757D06EAAFF489E","title":"复旦大学第三教学楼","lon":"121.50422758","lat":"31.298090461","category":"253","category_name":"校园生活","address":"上海邯郸路220号(近正门,主席像东侧)"},{"poiid":"B2094757D06EAAFC4098","title":"复旦大学第五教学楼","lon":"121.50448362","lat":"31.295495389","category":"253","category_name":"校园生活","address":"上海杨浦区国年路275弄"},{"poiid":"B2094757D06FA2FE489F","title":"复旦大学南区一条街(华联复旦校园生活中心)","lon":"121.50448803","lat":"31.293992851","category":"119","category_name":"商场","address":"上海杨浦区国权路580弄(近复旦大学正大体育馆)"},{"poiid":"B2094757D068A1FD489C","title":"复旦大学美国研究中心","lon":"121.50336624","lat":"31.295570813","category":"500","category_name":"未知分类","address":"杨浦区国权路680号(近邯郸路)"},{"poiid":"B2094757D068A0FD459F","title":"复旦大学经济学院","lon":"121.50376379","lat":"31.294903323","category":"52","category_name":"高等院校","address":"杨浦区国权路600号"},{"poiid":"B2094757D06FA0FC439F","title":"复旦大学管理学院史带楼","lon":"121.50656449","lat":"31.296786133","category":"253","category_name":"校园生活","address":"上海杨浦区国顺路670号"},{"poiid":"B2094757D06FA2F44792","title":"复旦大学第二教学楼","lon":"121.50433516","lat":"31.297652091","category":"253","category_name":"校园生活","address":"上海杨浦区邯郸路220号(近大门,主席像东侧)"},{"poiid":"B2094757DB6BABF9449A","title":"汤姆熊（万达广场 五角场店）","lon":"121.503","lat":"31.2971","category":"128","category_name":"儿童用品店","address":"上海杨浦区邯郸路600号 万达广场(五角场店)地下一层"},{"poiid":"B2094757D06FA1FB4292","title":"复旦大学理科图书馆","lon":"121.50269335","lat":"31.297219542","category":"253","category_name":"校园生活","address":"上海杨浦区邯郸路220号复旦大学邯郸校区"},{"poiid":"B2094654D56DA3F94793","title":"复旦大学(南门)","lon":"121.50382","lat":"31.29675","category":"52","category_name":"高等院校","address":"邯郸路220"},{"poiid":"B2094757D06FA6FE479E","title":"上海新东方学校(复旦旗舰教育广场)","lon":"121.50305","lat":"31.29409","category":"260","category_name":"其他","address":"杨浦区国权路561号(近邯郸路)"},{"poiid":"B2094655D26CA1FF4193","title":"上海复旦皇冠假日酒店(东门)","lon":"121.50261","lat":"31.29538","category":"656","category_name":"大门","address":"上海市杨浦区邯郸路199号"},{"poiid":"B2094654D56EAAFA4793","title":"复旦大学图书馆","lon":"121.50512","lat":"31.29618","category":"181","category_name":"图书馆","address":"国年路300"},{"poiid":"B2094757D068A0FC4999","title":"复旦大学文科楼","lon":"121.5045001","lat":"31.296353964","category":"253","category_name":"校园生活","address":"上海复旦大学"},{"poiid":"B2094757D06FA6FA429A","title":"阿康烧烤(复旦店)","lon":"121.50555","lat":"31.294","category":"68","category_name":"快餐厅","address":"杨浦区国权路518号复旦步行街(国年路口)"},{"poiid":"B2094757D068A4FD4698","title":"复旦管理学院李达三楼","lon":"121.505901","lat":"31.296404","category":"253","category_name":"校园生活","address":"上海市杨浦区国顺路670号"},{"poiid":"B2094757D068A3FB459C","title":"Salabim意式餐厅(国权路店)","lon":"121.506","lat":"31.29413","category":"94","category_name":"西餐厅","address":"杨浦区国权路580弄复旦大学南区复旦步行街48号(近国年路)"},{"poiid":"B2094655D26AA1F5429F","title":"复旦皇冠假日酒店宴会厅","lon":"121.50186","lat":"31.29514","category":"247","category_name":"餐饮美食","address":"杨浦区邯郸路199号复旦皇冠假日酒店2楼(近国权路)查看地图"},{"poiid":"B2094757D06FA4F9459B","title":"兰州一拉","lon":"121.50379436003","lat":"31.2942283374","category":"68","category_name":"快餐厅","address":"杨浦区国权路近复旦步行街(近政肃路)"},{"poiid":"B2094757DB6BABFE499F","title":"巴黎春天百货（万达广场 五角场店）","lon":"121.503","lat":"31.2971","category":"148","category_name":"美容美发店","address":"上海杨浦区邯郸路600号,万达广场(五角场店)二层"},{"poiid":"B2094757D069A2FB479A","title":"三星麻辣烫","lon":"121.506446","lat":"31.29444","category":"68","category_name":"快餐厅","address":"杨浦区政肃路60号(近国年路)"},{"poiid":"B2094757D068AAFE4192","title":"复旦大学邯郸校区3108教室","lon":"121.50434559","lat":"31.298085878","category":"253","category_name":"校园生活","address":"上海邯郸路220号复旦大学第三教学楼一楼"},{"poiid":"B2094757D06FA4FB449F","title":"复旦大学叶耀珍楼(学生活动中心)","lon":"121.50555926","lat":"31.297484913","category":"249","category_name":"购物服务","address":"上海杨浦区邯郸路220号复旦大学内(近本部排球场)"},{"poiid":"B2094655D26CA0FE4999","title":"复旦大学(南二门)","lon":"121.50232","lat":"31.2963","category":"52","category_name":"高等院校","address":""},{"poiid":"B2094757D068A1F8479B","title":"复旦大学(邯郸校区)毛主席像","lon":"121.5035895","lat":"31.297574167","category":"253","category_name":"校园生活","address":"上海杨浦区邯郸路220号复旦大学邯郸校区"},{"poiid":"B2094757D66FA3FC459C","title":"寶壽司","lon":"121.505466603","lat":"31.296479167","category":"95","category_name":"日本料理","address":"上海复旦大學店"},{"poiid":"B2094757D664A1F8499D","title":"复旦皇冠假日酒店中餐厅","lon":"121.5020467222","lat":"31.295672845874","category":"268","category_name":"自助","address":"邯郸路199号复旦皇冠假日酒店内近国权路"},{"poiid":"B2094757D569A6F8479A","title":"复旦大学外国语言文学学院","lon":"121.504287","lat":"31.295793","category":"52","category_name":"高等院校","address":"中国上海市杨浦区国年路"},{"poiid":"B2094655D26CA7F44592","title":"可浓 国年路店","lon":"121.504844054","lat":"31.296052793","category":"113","category_name":"冷饮店","address":"杨浦区国年路280号6室(近复旦步行街)"},{"poiid":"B2094757D06EAAFA499B","title":"复旦大学第六教学楼6201教室","lon":"121.50440316","lat":"31.294913233","category":"253","category_name":"校园生活","address":"上海杨浦区国年路275弄"},{"poiid":"B2094655D26FA2FB4599","title":"复旦大学(南一门)","lon":"121.50529","lat":"31.29715","category":"52","category_name":"高等院校","address":""},{"poiid":"B2094757D06AA0FD469D","title":"复旦南区黑暗料理","lon":"121.504471103","lat":"31.2957969527","category":"500","category_name":"未知分类","address":"杨浦区国定路440号(近复旦大学)"},{"poiid":"B2094757D065ABFF4892","title":"粥吧(复旦大学店)","lon":"121.505217","lat":"31.2956","category":"68","category_name":"快餐厅","address":"杨浦区国年路280号"},{"poiid":"B2094655D36CA7FA4898","title":"邯郸路","lon":"121.50315","lat":"31.29479","category":"38","category_name":"公交车站","address":""},{"poiid":"B209475CDB64AAFC469C","title":"炭韩国烧烤","lon":"121.505447","lat":"31.298027","category":"247","category_name":"餐饮美食","address":"上海市 政民路482号"},{"poiid":"B2094757D16CA6F5459D","title":"复旦大学公交站","lon":"121.504051","lat":"31.296365427","category":"38","category_name":"公交车站","address":"上海杨浦区邯郸路(近国顺路)"},{"poiid":"B2094655D26DA4FB4999","title":"外国语言文学学院(北门)","lon":"121.50408","lat":"31.29617","category":"52","category_name":"高等院校","address":""},{"poiid":"B2094757D16BA1FD489B","title":"复旦大学文科图书馆二楼","lon":"121.5052461","lat":"31.295953956","category":"500","category_name":"未知分类","address":null},{"poiid":"B2094757D168A1FF4092","title":"960路复旦大学站","lon":"121.504067706","lat":"31.2963771542","category":"38","category_name":"公交车站","address":"上海邯郸路(近复旦大学正门)"},{"poiid":"B2094757D16BA5FF439B","title":"966路复旦大学站","lon":"121.50462188","lat":"31.295841486","category":"38","category_name":"公交车站","address":"上海邯郸路(近复旦大学正门)"},{"poiid":"B2094654D56EAAFA489B","title":"复旦大学网络教育学院(国年路)","lon":"121.50479","lat":"31.29564","category":"52","category_name":"高等院校","address":"邯郸路220号"},{"poiid":"B2094757D168A2F5469C","title":"复旦大学第六教学楼6404","lon":"121.5058835","lat":"31.296495667","category":"500","category_name":"未知分类","address":null},{"poiid":"B2094757D065AAFE489E","title":"复旦大学国际关系与公共事务学院","lon":"121.50408935","lat":"31.295904159","category":"500","category_name":"未知分类","address":"上海邯郸路220号复旦大学文科楼6楼"},{"poiid":"B2094752D468A0FA489A","title":"同濟大學","lon":"121.505366","lat":"31.296885","category":"671","category_name":"高校中心点","address":null},{"poiid":"B2094757DB6BABFE459E","title":"上海第一食品（万达广场 五角场店）","lon":"121.503","lat":"31.2971","category":"249","category_name":"购物服务","address":"上海杨浦区邯郸路600号 万达广场(五角场店)二层"},{"poiid":"B2094655D26EA0FC4499","title":"上岛咖啡 国权路 UBC Coffee","lon":"121.50372717163","lat":"31.293469105007","category":"260","category_name":"其他","address":"杨浦区国权路525号(近政肃路)"}]