[{"poiid":"B2094750D76FA1FB4598","title":"Maancoffee","lon":"121.378","lat":"31.1696","category":"269","category_name":"烧烤","address":"金汇南路265号(近吴中路)"},{"poiid":"B2094654D569A6F54699","title":"纽斯桑拿会所","lon":"121.37805","lat":"31.17055","category":"149","category_name":"洗浴推拿场所","address":"闵行区金汇南路258弄1号(近虹泉路)"},{"poiid":"B2094757D06FA7F9449E","title":"正一品(金汇南路店)","lon":"121.37754","lat":"31.16957","category":"96","category_name":"韩国料理","address":"闵行区金汇南路225号(近虹泉路)"},{"poiid":"B2094757D06AA1FE479D","title":"老土房","lon":"121.38028","lat":"31.16586","category":"96","category_name":"韩国料理","address":"闵行区龙茗路2918号(近宜山路)"},{"poiid":"B2094757D06FA5F5419B","title":"井亭大厦","lon":"121.375015043","lat":"31.17043044","category":"46","category_name":"楼宇","address":"上海闵行区虹泉路1000号(近金汇路)"},{"poiid":"B2094753DA6AA5F8459D","title":"Mangosix","lon":"121.37738","lat":"31.171905","category":"500","category_name":"未知分类","address":"上海市 上海市闵行区金汇南路158号"},{"poiid":"B2094757D064A5F44698","title":"多乐房土豆排骨汤","lon":"121.375566586","lat":"31.1692222386","category":"247","category_name":"餐饮美食","address":"上海市吴中路"},{"poiid":"B2094654DA65A3FB4498","title":"诺宝中心","lon":"121.379","lat":"31.1637","category":"71","category_name":"四川菜","address":"闵行区漕宝路1688号诺宝中心大酒店2楼(漕宝路星东路)"},{"poiid":"B2094752D66AA6F44698","title":"THE CAFE KACAO coffee restaurant","lon":"121.376162","lat":"31.170411","category":"247","category_name":"餐饮美食","address":"虹泉路金汇南路"},{"poiid":"B2094757D068A1FE469E","title":"1004mart","lon":"121.37706582","lat":"31.170519156","category":"118","category_name":"超级市场","address":"上海虹泉路"},{"poiid":"B2094757D66AAAF8469F","title":"麻浦屋 虹泉路店","lon":"121.373747054","lat":"31.169760793","category":"96","category_name":"韩国料理","address":"闵行区虹泉路1051弄209号2楼(近金汇路)"},{"poiid":"B2094753DA64A4FA409F","title":"mango six","lon":"121.377265","lat":"31.171844","category":"500","category_name":"未知分类","address":"上海市 金汇南路158号"},{"poiid":"B2094757D068A2F8429A","title":"New Star Korean Spa","lon":"121.378049","lat":"31.170555","category":"500","category_name":"未知分类","address":"上海金汇南路258弄1号"},{"poiid":"B2094753DA6BA1F8449C","title":"mango six","lon":"121.377006","lat":"31.170703","category":"500","category_name":"未知分类","address":"上海市 金汇南路158号"},{"poiid":"B2094753D768A5FA489B","title":"Caffe Bene","lon":"121.373741","lat":"31.169282","category":"500","category_name":"未知分类","address":"上海市 闵行区虹泉路1051弄43号"},{"poiid":"B2094757D06AA0F4419C","title":"纽斯桑拿会所一楼韩国料理","lon":"121.377328586","lat":"31.1717252875","category":"500","category_name":"未知分类","address":"上海虹泉路"},{"poiid":"B2094757D06FAAFD4792","title":"韩国1004超级市场","lon":"121.3810184","lat":"31.170175057","category":"118","category_name":"超级市场","address":"上海闵行区金汇路193号(近吴中路)"},{"poiid":"B2094757D168A2F8489C","title":"맛집바우바우 巴屋巴屋韩国料理","lon":"121.37475858","lat":"31.168861231","category":"247","category_name":"餐饮美食","address":"闵行区虹泉路1051-17-1(近虹莘路)"},{"poiid":"B2094751D369A7FA469E","title":"土豆猪骨汤椰坛韩式专营店","lon":"121.375","lat":"31.16994","category":"96","category_name":"韩国料理","address":"闵行区虹泉路1078号井亭天地3楼01B号(近金汇南路)"},{"poiid":"B209475CD06FABFA4792","title":"咖咖奥咖啡厅","lon":"121.37611","lat":"31.17052","category":"65","category_name":"咖啡厅","address":"虹泉路888号(近吉祥酒店)"},{"poiid":"B2094655D36CA1FF469F","title":"龙茗路宜山路","lon":"121.38011","lat":"31.16547","category":"38","category_name":"公交车站","address":""},{"poiid":"B2094757D06BA5FF449B","title":"乡村土城","lon":"121.37683639523","lat":"31.17224651896","category":"96","category_name":"韩国料理","address":"闵行区金汇南路193号(近虹泉路)"},{"poiid":"B2094757D16FAAFD4398","title":"Krispy Kreme Doughnuts 卡卡圈坊","lon":"121.374831586","lat":"31.170065255","category":"67","category_name":"甜品店","address":"闵行区虹泉路1078号(近金汇南路)"},{"poiid":"B2094752D269A2F84292","title":"碳韩国烧烤","lon":"121.373905","lat":"31.16951","category":"247","category_name":"餐饮美食","address":"虹泉路1101弄7号"},{"poiid":"B2094654D569A5FC4592","title":"巴黎贝甜(虹泉路)","lon":"121.37406","lat":"31.16944","category":"67","category_name":"甜品店","address":"闵行区虹泉路1051号9号(近金汇路)"},{"poiid":"B2094751D36CA2F4429C","title":"Bulloman","lon":"121.37456","lat":"31.16981","category":"96","category_name":"韩国料理","address":"闵行区虹泉路1051弄风度国际内(近金汇南路)"},{"poiid":"B2094750D664A0FA4798","title":"多素拌韩国料理1","lon":"121.374","lat":"31.1701","category":"96","category_name":"韩国料理","address":"闵行区虹泉路1078号井亭天地1楼15室"},{"poiid":"B2094654D564A1FC429B","title":"小草屋(龙茗路)","lon":"121.38012","lat":"31.16598","category":"96","category_name":"韩国料理","address":"闵行区龙茗路2916号(近宜山路)"},{"poiid":"B2094757D068A0FB439C","title":"协和双语学校","lon":"121.375215","lat":"31.169771","category":"253","category_name":"校园生活","address":"闵行区虹泉路999号协和双语学校内"},{"poiid":"B2094757D16FA3FF459C","title":"井亭天地","lon":"121.37461058","lat":"31.171094275","category":"500","category_name":"未知分类","address":"上海市闵行区虹泉路"},{"poiid":"B2094655D36CA7F84293","title":"虹泉路金汇南路","lon":"121.37712","lat":"31.17062","category":"38","category_name":"公交车站","address":""},{"poiid":"B209475DD668A6FB479F","title":"chois coffee","lon":"121.379333","lat":"31.168289","category":"247","category_name":"餐饮美食","address":"上海市 虹泉路"},{"poiid":"B2094757D66AA0FD429D","title":"甘味屋 金汇南路店","lon":"121.376691054","lat":"31.171942793","category":"96","category_name":"韩国料理","address":"闵行区金汇南路193号(虹泉路口)"},{"poiid":"B209475CD36FA2FD439D","title":"马布城  MARINEBLUES TOWN","lon":"121.37437","lat":"31.16904","category":"172","category_name":"酒吧","address":"虹泉路1051弄35号(近虹莘路)"},{"poiid":"B2094753D764AAFB469B","title":"caffebene","lon":"121.373985","lat":"31.169582","category":"500","category_name":"未知分类","address":"上海市 虹泉路1051弄43号"},{"poiid":"B2094757D064A2FD4893","title":"龍茗路燒烤","lon":"121.38003658","lat":"31.165627168","category":"247","category_name":"餐饮美食","address":"上海市龍茗路宜山路路口"},{"poiid":"B2094654DB64A1FC409C","title":"大上海国际花园东门","lon":"121.38025","lat":"31.16481","category":"47","category_name":"住宅区","address":"七宝镇"},{"poiid":"B2094654D569A5FC449C","title":"风度国际生活广场","lon":"121.37363","lat":"31.16901","category":"201","category_name":"城市广场","address":"虹桥镇"},{"poiid":"B2094654D569A6F5469F","title":"明泉·锦绣江南耕读园","lon":"121.37686","lat":"31.16885","category":"47","category_name":"住宅区","address":"金汇南路301弄"},{"poiid":"B209475CDA6FA0F8489D","title":"酷必香酥鸡","lon":"121.377113","lat":"31.170558","category":"247","category_name":"餐饮美食","address":"上海市 虹泉路193号(近金汇南路)"},{"poiid":"B2094757D16CABFA449F","title":"粥故事","lon":"121.37553758","lat":"31.169060235","category":"68","category_name":"快餐厅","address":"闵行区虹泉路1078号1楼1-12A单元(近虹莘路)"},{"poiid":"B2094654D569A6F84199","title":"金虹桥井亭苑","lon":"121.37816444521","lat":"31.172806628371","category":"47","category_name":"住宅区","address":"虹莘路3799弄"},{"poiid":"B2094757D469A0FC4199","title":"Mama's","lon":"121.375522","lat":"31.170492","category":"96","category_name":"韩国料理","address":"闵行区虹泉路1000号井亭大厦1楼家乐丽雅超市内(近金汇南路)"},{"poiid":"B2094757D16EA7F54998","title":"川香麻辣烫","lon":"121.38179291","lat":"31.166378849","category":"68","category_name":"快餐厅","address":"闵行区宜山路(近龙茗路)"},{"poiid":"B2094757D16CABFE499B","title":"新港烧味甜品店","lon":"121.37983658","lat":"31.16574417","category":"247","category_name":"餐饮美食","address":"上海市闵行区龙茗路靠近宜山路"},{"poiid":"B209475DD468AAFB4098","title":"崔家木炭烤肉","lon":"121.373924","lat":"31.169084","category":"247","category_name":"餐饮美食","address":"上海市 虹泉路1078号东2楼（近虹莘路）"},{"poiid":"B2094757D66EA3FF449E","title":"正一品韩国烧烤","lon":"121.377539586","lat":"31.1699992537","category":"247","category_name":"餐饮美食","address":"上海金汇南路"},{"poiid":"B209475DD769A7FC489B","title":"MANGO SIX","lon":"121.377174","lat":"31.171863","category":"247","category_name":"餐饮美食","address":"上海市 金汇南路158号"},{"poiid":"B2094750D768A2F9449B","title":"全州河家","lon":"121.376","lat":"31.1705","category":"96","category_name":"韩国料理","address":"闵行区虹泉路1000号井亭大厦A栋108室(近金汇路)"},{"poiid":"B2094454D26FA6F54993","title":"MANGO SIX","lon":"121.377304","lat":"31.17171","category":"247","category_name":"餐饮美食","address":"上海市 金汇南路158号"},{"poiid":"B2094750D76FA1FB4598","title":"Maancoffee","lon":"121.378","lat":"31.1696","category":"269","category_name":"烧烤","address":"金汇南路265号(近吴中路)"},{"poiid":"B2094654D569A6F54699","title":"纽斯桑拿会所","lon":"121.37805","lat":"31.17055","category":"149","category_name":"洗浴推拿场所","address":"闵行区金汇南路258弄1号(近虹泉路)"},{"poiid":"B2094757D06FA7F9449E","title":"正一品(金汇南路店)","lon":"121.37754","lat":"31.16957","category":"96","category_name":"韩国料理","address":"闵行区金汇南路225号(近虹泉路)"},{"poiid":"B2094757D06AA1FE479D","title":"老土房","lon":"121.38028","lat":"31.16586","category":"96","category_name":"韩国料理","address":"闵行区龙茗路2918号(近宜山路)"},{"poiid":"B2094757D06FA5F5419B","title":"井亭大厦","lon":"121.375015043","lat":"31.17043044","category":"46","category_name":"楼宇","address":"上海闵行区虹泉路1000号(近金汇路)"},{"poiid":"B2094753DA6AA5F8459D","title":"Mangosix","lon":"121.37738","lat":"31.171905","category":"500","category_name":"未知分类","address":"上海市 上海市闵行区金汇南路158号"},{"poiid":"B2094757D064A5F44698","title":"多乐房土豆排骨汤","lon":"121.375566586","lat":"31.1692222386","category":"247","category_name":"餐饮美食","address":"上海市吴中路"},{"poiid":"B2094654DA65A3FB4498","title":"诺宝中心","lon":"121.379","lat":"31.1637","category":"71","category_name":"四川菜","address":"闵行区漕宝路1688号诺宝中心大酒店2楼(漕宝路星东路)"},{"poiid":"B2094752D66AA6F44698","title":"THE CAFE KACAO coffee restaurant","lon":"121.376162","lat":"31.170411","category":"247","category_name":"餐饮美食","address":"虹泉路金汇南路"},{"poiid":"B2094757D068A1FE469E","title":"1004mart","lon":"121.37706582","lat":"31.170519156","category":"118","category_name":"超级市场","address":"上海虹泉路"},{"poiid":"B2094757D66AAAF8469F","title":"麻浦屋 虹泉路店","lon":"121.373747054","lat":"31.169760793","category":"96","category_name":"韩国料理","address":"闵行区虹泉路1051弄209号2楼(近金汇路)"},{"poiid":"B2094753DA64A4FA409F","title":"mango six","lon":"121.377265","lat":"31.171844","category":"500","category_name":"未知分类","address":"上海市 金汇南路158号"},{"poiid":"B2094757D068A2F8429A","title":"New Star Korean Spa","lon":"121.378049","lat":"31.170555","category":"500","category_name":"未知分类","address":"上海金汇南路258弄1号"},{"poiid":"B2094753DA6BA1F8449C","title":"mango six","lon":"121.377006","lat":"31.170703","category":"500","category_name":"未知分类","address":"上海市 金汇南路158号"},{"poiid":"B2094753D768A5FA489B","title":"Caffe Bene","lon":"121.373741","lat":"31.169282","category":"500","category_name":"未知分类","address":"上海市 闵行区虹泉路1051弄43号"},{"poiid":"B2094757D06AA0F4419C","title":"纽斯桑拿会所一楼韩国料理","lon":"121.377328586","lat":"31.1717252875","category":"500","category_name":"未知分类","address":"上海虹泉路"},{"poiid":"B2094757D06FAAFD4792","title":"韩国1004超级市场","lon":"121.3810184","lat":"31.170175057","category":"118","category_name":"超级市场","address":"上海闵行区金汇路193号(近吴中路)"},{"poiid":"B2094757D168A2F8489C","title":"맛집바우바우 巴屋巴屋韩国料理","lon":"121.37475858","lat":"31.168861231","category":"247","category_name":"餐饮美食","address":"闵行区虹泉路1051-17-1(近虹莘路)"},{"poiid":"B2094751D369A7FA469E","title":"土豆猪骨汤椰坛韩式专营店","lon":"121.375","lat":"31.16994","category":"96","category_name":"韩国料理","address":"闵行区虹泉路1078号井亭天地3楼01B号(近金汇南路)"},{"poiid":"B209475CD06FABFA4792","title":"咖咖奥咖啡厅","lon":"121.37611","lat":"31.17052","category":"65","category_name":"咖啡厅","address":"虹泉路888号(近吉祥酒店)"},{"poiid":"B2094655D36CA1FF469F","title":"龙茗路宜山路","lon":"121.38011","lat":"31.16547","category":"38","category_name":"公交车站","address":""},{"poiid":"B2094757D06BA5FF449B","title":"乡村土城","lon":"121.37683639523","lat":"31.17224651896","category":"96","category_name":"韩国料理","address":"闵行区金汇南路193号(近虹泉路)"},{"poiid":"B2094757D16FAAFD4398","title":"Krispy Kreme Doughnuts 卡卡圈坊","lon":"121.374831586","lat":"31.170065255","category":"67","category_name":"甜品店","address":"闵行区虹泉路1078号(近金汇南路)"},{"poiid":"B2094752D269A2F84292","title":"碳韩国烧烤","lon":"121.373905","lat":"31.16951","category":"247","category_name":"餐饮美食","address":"虹泉路1101弄7号"},{"poiid":"B2094654D569A5FC4592","title":"巴黎贝甜(虹泉路)","lon":"121.37406","lat":"31.16944","category":"67","category_name":"甜品店","address":"闵行区虹泉路1051号9号(近金汇路)"},{"poiid":"B2094751D36CA2F4429C","title":"Bulloman","lon":"121.37456","lat":"31.16981","category":"96","category_name":"韩国料理","address":"闵行区虹泉路1051弄风度国际内(近金汇南路)"},{"poiid":"B2094750D664A0FA4798","title":"多素拌韩国料理1","lon":"121.374","lat":"31.1701","category":"96","category_name":"韩国料理","address":"闵行区虹泉路1078号井亭天地1楼15室"},{"poiid":"B2094654D564A1FC429B","title":"小草屋(龙茗路)","lon":"121.38012","lat":"31.16598","category":"96","category_name":"韩国料理","address":"闵行区龙茗路2916号(近宜山路)"},{"poiid":"B2094757D068A0FB439C","title":"协和双语学校","lon":"121.375215","lat":"31.169771","category":"253","category_name":"校园生活","address":"闵行区虹泉路999号协和双语学校内"},{"poiid":"B2094757D16FA3FF459C","title":"井亭天地","lon":"121.37461058","lat":"31.171094275","category":"500","category_name":"未知分类","address":"上海市闵行区虹泉路"},{"poiid":"B2094655D36CA7F84293","title":"虹泉路金汇南路","lon":"121.37712","lat":"31.17062","category":"38","category_name":"公交车站","address":""},{"poiid":"B209475DD668A6FB479F","title":"chois coffee","lon":"121.379333","lat":"31.168289","category":"247","category_name":"餐饮美食","address":"上海市 虹泉路"},{"poiid":"B2094757D66AA0FD429D","title":"甘味屋 金汇南路店","lon":"121.376691054","lat":"31.171942793","category":"96","category_name":"韩国料理","address":"闵行区金汇南路193号(虹泉路口)"},{"poiid":"B209475CD36FA2FD439D","title":"马布城  MARINEBLUES TOWN","lon":"121.37437","lat":"31.16904","category":"172","category_name":"酒吧","address":"虹泉路1051弄35号(近虹莘路)"},{"poiid":"B2094753D764AAFB469B","title":"caffebene","lon":"121.373985","lat":"31.169582","category":"500","category_name":"未知分类","address":"上海市 虹泉路1051弄43号"},{"poiid":"B2094757D064A2FD4893","title":"龍茗路燒烤","lon":"121.38003658","lat":"31.165627168","category":"247","category_name":"餐饮美食","address":"上海市龍茗路宜山路路口"},{"poiid":"B2094654DB64A1FC409C","title":"大上海国际花园东门","lon":"121.38025","lat":"31.16481","category":"47","category_name":"住宅区","address":"七宝镇"},{"poiid":"B2094654D569A5FC449C","title":"风度国际生活广场","lon":"121.37363","lat":"31.16901","category":"201","category_name":"城市广场","address":"虹桥镇"},{"poiid":"B2094654D569A6F5469F","title":"明泉·锦绣江南耕读园","lon":"121.37686","lat":"31.16885","category":"47","category_name":"住宅区","address":"金汇南路301弄"},{"poiid":"B209475CDA6FA0F8489D","title":"酷必香酥鸡","lon":"121.377113","lat":"31.170558","category":"247","category_name":"餐饮美食","address":"上海市 虹泉路193号(近金汇南路)"},{"poiid":"B2094757D16CABFA449F","title":"粥故事","lon":"121.37553758","lat":"31.169060235","category":"68","category_name":"快餐厅","address":"闵行区虹泉路1078号1楼1-12A单元(近虹莘路)"},{"poiid":"B2094654D569A6F84199","title":"金虹桥井亭苑","lon":"121.37816444521","lat":"31.172806628371","category":"47","category_name":"住宅区","address":"虹莘路3799弄"},{"poiid":"B2094757D469A0FC4199","title":"Mama's","lon":"121.375522","lat":"31.170492","category":"96","category_name":"韩国料理","address":"闵行区虹泉路1000号井亭大厦1楼家乐丽雅超市内(近金汇南路)"},{"poiid":"B2094757D16EA7F54998","title":"川香麻辣烫","lon":"121.38179291","lat":"31.166378849","category":"68","category_name":"快餐厅","address":"闵行区宜山路(近龙茗路)"},{"poiid":"B2094757D16CABFE499B","title":"新港烧味甜品店","lon":"121.37983658","lat":"31.16574417","category":"247","category_name":"餐饮美食","address":"上海市闵行区龙茗路靠近宜山路"},{"poiid":"B209475DD468AAFB4098","title":"崔家木炭烤肉","lon":"121.373924","lat":"31.169084","category":"247","category_name":"餐饮美食","address":"上海市 虹泉路1078号东2楼（近虹莘路）"},{"poiid":"B2094757D66EA3FF449E","title":"正一品韩国烧烤","lon":"121.377539586","lat":"31.1699992537","category":"247","category_name":"餐饮美食","address":"上海金汇南路"},{"poiid":"B209475DD769A7FC489B","title":"MANGO SIX","lon":"121.377174","lat":"31.171863","category":"247","category_name":"餐饮美食","address":"上海市 金汇南路158号"},{"poiid":"B2094750D768A2F9449B","title":"全州河家","lon":"121.376","lat":"31.1705","category":"96","category_name":"韩国料理","address":"闵行区虹泉路1000号井亭大厦A栋108室(近金汇路)"},{"poiid":"B2094454D26FA6F54993","title":"MANGO SIX","lon":"121.377304","lat":"31.17171","category":"247","category_name":"餐饮美食","address":"上海市 金汇南路158号"},{"poiid":"B2094750D76FA1FB4598","title":"Maancoffee","lon":"121.378","lat":"31.1696","category":"269","category_name":"烧烤","address":"金汇南路265号(近吴中路)"},{"poiid":"B2094654D569A6F54699","title":"纽斯桑拿会所","lon":"121.37805","lat":"31.17055","category":"149","category_name":"洗浴推拿场所","address":"闵行区金汇南路258弄1号(近虹泉路)"},{"poiid":"B2094757D06FA7F9449E","title":"正一品(金汇南路店)","lon":"121.37754","lat":"31.16957","category":"96","category_name":"韩国料理","address":"闵行区金汇南路225号(近虹泉路)"},{"poiid":"B2094757D06AA1FE479D","title":"老土房","lon":"121.38028","lat":"31.16586","category":"96","category_name":"韩国料理","address":"闵行区龙茗路2918号(近宜山路)"},{"poiid":"B2094757D06FA5F5419B","title":"井亭大厦","lon":"121.375015043","lat":"31.17043044","category":"46","category_name":"楼宇","address":"上海闵行区虹泉路1000号(近金汇路)"},{"poiid":"B2094753DA6AA5F8459D","title":"Mangosix","lon":"121.37738","lat":"31.171905","category":"500","category_name":"未知分类","address":"上海市 上海市闵行区金汇南路158号"},{"poiid":"B2094757D064A5F44698","title":"多乐房土豆排骨汤","lon":"121.375566586","lat":"31.1692222386","category":"247","category_name":"餐饮美食","address":"上海市吴中路"},{"poiid":"B2094654DA65A3FB4498","title":"诺宝中心","lon":"121.379","lat":"31.1637","category":"71","category_name":"四川菜","address":"闵行区漕宝路1688号诺宝中心大酒店2楼(漕宝路星东路)"},{"poiid":"B2094752D66AA6F44698","title":"THE CAFE KACAO coffee restaurant","lon":"121.376162","lat":"31.170411","category":"247","category_name":"餐饮美食","address":"虹泉路金汇南路"},{"poiid":"B2094757D068A1FE469E","title":"1004mart","lon":"121.37706582","lat":"31.170519156","category":"118","category_name":"超级市场","address":"上海虹泉路"},{"poiid":"B2094757D66AAAF8469F","title":"麻浦屋 虹泉路店","lon":"121.373747054","lat":"31.169760793","category":"96","category_name":"韩国料理","address":"闵行区虹泉路1051弄209号2楼(近金汇路)"},{"poiid":"B2094753DA64A4FA409F","title":"mango six","lon":"121.377265","lat":"31.171844","category":"500","category_name":"未知分类","address":"上海市 金汇南路158号"},{"poiid":"B2094757D068A2F8429A","title":"New Star Korean Spa","lon":"121.378049","lat":"31.170555","category":"500","category_name":"未知分类","address":"上海金汇南路258弄1号"},{"poiid":"B2094753DA6BA1F8449C","title":"mango six","lon":"121.377006","lat":"31.170703","category":"500","category_name":"未知分类","address":"上海市 金汇南路158号"},{"poiid":"B2094753D768A5FA489B","title":"Caffe Bene","lon":"121.373741","lat":"31.169282","category":"500","category_name":"未知分类","address":"上海市 闵行区虹泉路1051弄43号"},{"poiid":"B2094757D06AA0F4419C","title":"纽斯桑拿会所一楼韩国料理","lon":"121.377328586","lat":"31.1717252875","category":"500","category_name":"未知分类","address":"上海虹泉路"},{"poiid":"B2094757D06FAAFD4792","title":"韩国1004超级市场","lon":"121.3810184","lat":"31.170175057","category":"118","category_name":"超级市场","address":"上海闵行区金汇路193号(近吴中路)"},{"poiid":"B2094757D168A2F8489C","title":"맛집바우바우 巴屋巴屋韩国料理","lon":"121.37475858","lat":"31.168861231","category":"247","category_name":"餐饮美食","address":"闵行区虹泉路1051-17-1(近虹莘路)"},{"poiid":"B2094751D369A7FA469E","title":"土豆猪骨汤椰坛韩式专营店","lon":"121.375","lat":"31.16994","category":"96","category_name":"韩国料理","address":"闵行区虹泉路1078号井亭天地3楼01B号(近金汇南路)"},{"poiid":"B209475CD06FABFA4792","title":"咖咖奥咖啡厅","lon":"121.37611","lat":"31.17052","category":"65","category_name":"咖啡厅","address":"虹泉路888号(近吉祥酒店)"},{"poiid":"B2094655D36CA1FF469F","title":"龙茗路宜山路","lon":"121.38011","lat":"31.16547","category":"38","category_name":"公交车站","address":""},{"poiid":"B2094757D06BA5FF449B","title":"乡村土城","lon":"121.37683639523","lat":"31.17224651896","category":"96","category_name":"韩国料理","address":"闵行区金汇南路193号(近虹泉路)"},{"poiid":"B2094757D16FAAFD4398","title":"Krispy Kreme Doughnuts 卡卡圈坊","lon":"121.374831586","lat":"31.170065255","category":"67","category_name":"甜品店","address":"闵行区虹泉路1078号(近金汇南路)"},{"poiid":"B2094752D269A2F84292","title":"碳韩国烧烤","lon":"121.373905","lat":"31.16951","category":"247","category_name":"餐饮美食","address":"虹泉路1101弄7号"},{"poiid":"B2094654D569A5FC4592","title":"巴黎贝甜(虹泉路)","lon":"121.37406","lat":"31.16944","category":"67","category_name":"甜品店","address":"闵行区虹泉路1051号9号(近金汇路)"},{"poiid":"B2094751D36CA2F4429C","title":"Bulloman","lon":"121.37456","lat":"31.16981","category":"96","category_name":"韩国料理","address":"闵行区虹泉路1051弄风度国际内(近金汇南路)"},{"poiid":"B2094750D664A0FA4798","title":"多素拌韩国料理1","lon":"121.374","lat":"31.1701","category":"96","category_name":"韩国料理","address":"闵行区虹泉路1078号井亭天地1楼15室"},{"poiid":"B2094654D564A1FC429B","title":"小草屋(龙茗路)","lon":"121.38012","lat":"31.16598","category":"96","category_name":"韩国料理","address":"闵行区龙茗路2916号(近宜山路)"},{"poiid":"B2094757D068A0FB439C","title":"协和双语学校","lon":"121.375215","lat":"31.169771","category":"253","category_name":"校园生活","address":"闵行区虹泉路999号协和双语学校内"},{"poiid":"B2094757D16FA3FF459C","title":"井亭天地","lon":"121.37461058","lat":"31.171094275","category":"500","category_name":"未知分类","address":"上海市闵行区虹泉路"},{"poiid":"B2094655D36CA7F84293","title":"虹泉路金汇南路","lon":"121.37712","lat":"31.17062","category":"38","category_name":"公交车站","address":""},{"poiid":"B209475DD668A6FB479F","title":"chois coffee","lon":"121.379333","lat":"31.168289","category":"247","category_name":"餐饮美食","address":"上海市 虹泉路"},{"poiid":"B2094757D66AA0FD429D","title":"甘味屋 金汇南路店","lon":"121.376691054","lat":"31.171942793","category":"96","category_name":"韩国料理","address":"闵行区金汇南路193号(虹泉路口)"},{"poiid":"B209475CD36FA2FD439D","title":"马布城  MARINEBLUES TOWN","lon":"121.37437","lat":"31.16904","category":"172","category_name":"酒吧","address":"虹泉路1051弄35号(近虹莘路)"},{"poiid":"B2094753D764AAFB469B","title":"caffebene","lon":"121.373985","lat":"31.169582","category":"500","category_name":"未知分类","address":"上海市 虹泉路1051弄43号"},{"poiid":"B2094757D064A2FD4893","title":"龍茗路燒烤","lon":"121.38003658","lat":"31.165627168","category":"247","category_name":"餐饮美食","address":"上海市龍茗路宜山路路口"},{"poiid":"B2094654DB64A1FC409C","title":"大上海国际花园东门","lon":"121.38025","lat":"31.16481","category":"47","category_name":"住宅区","address":"七宝镇"},{"poiid":"B2094654D569A5FC449C","title":"风度国际生活广场","lon":"121.37363","lat":"31.16901","category":"201","category_name":"城市广场","address":"虹桥镇"},{"poiid":"B2094654D569A6F5469F","title":"明泉·锦绣江南耕读园","lon":"121.37686","lat":"31.16885","category":"47","category_name":"住宅区","address":"金汇南路301弄"},{"poiid":"B209475CDA6FA0F8489D","title":"酷必香酥鸡","lon":"121.377113","lat":"31.170558","category":"247","category_name":"餐饮美食","address":"上海市 虹泉路193号(近金汇南路)"},{"poiid":"B2094757D16CABFA449F","title":"粥故事","lon":"121.37553758","lat":"31.169060235","category":"68","category_name":"快餐厅","address":"闵行区虹泉路1078号1楼1-12A单元(近虹莘路)"},{"poiid":"B2094654D569A6F84199","title":"金虹桥井亭苑","lon":"121.37816444521","lat":"31.172806628371","category":"47","category_name":"住宅区","address":"虹莘路3799弄"},{"poiid":"B2094757D469A0FC4199","title":"Mama's","lon":"121.375522","lat":"31.170492","category":"96","category_name":"韩国料理","address":"闵行区虹泉路1000号井亭大厦1楼家乐丽雅超市内(近金汇南路)"},{"poiid":"B2094757D16EA7F54998","title":"川香麻辣烫","lon":"121.38179291","lat":"31.166378849","category":"68","category_name":"快餐厅","address":"闵行区宜山路(近龙茗路)"},{"poiid":"B2094757D16CABFE499B","title":"新港烧味甜品店","lon":"121.37983658","lat":"31.16574417","category":"247","category_name":"餐饮美食","address":"上海市闵行区龙茗路靠近宜山路"},{"poiid":"B209475DD468AAFB4098","title":"崔家木炭烤肉","lon":"121.373924","lat":"31.169084","category":"247","category_name":"餐饮美食","address":"上海市 虹泉路1078号东2楼（近虹莘路）"},{"poiid":"B2094757D66EA3FF449E","title":"正一品韩国烧烤","lon":"121.377539586","lat":"31.1699992537","category":"247","category_name":"餐饮美食","address":"上海金汇南路"},{"poiid":"B209475DD769A7FC489B","title":"MANGO SIX","lon":"121.377174","lat":"31.171863","category":"247","category_name":"餐饮美食","address":"上海市 金汇南路158号"},{"poiid":"B2094750D768A2F9449B","title":"全州河家","lon":"121.376","lat":"31.1705","category":"96","category_name":"韩国料理","address":"闵行区虹泉路1000号井亭大厦A栋108室(近金汇路)"},{"poiid":"B2094454D26FA6F54993","title":"MANGO SIX","lon":"121.377304","lat":"31.17171","category":"247","category_name":"餐饮美食","address":"上海市 金汇南路158号"},{"poiid":"B2094750D76FA1FB4598","title":"Maancoffee","lon":"121.378","lat":"31.1696","category":"269","category_name":"烧烤","address":"金汇南路265号(近吴中路)"},{"poiid":"B2094654D569A6F54699","title":"纽斯桑拿会所","lon":"121.37805","lat":"31.17055","category":"149","category_name":"洗浴推拿场所","address":"闵行区金汇南路258弄1号(近虹泉路)"},{"poiid":"B2094757D06FA7F9449E","title":"正一品(金汇南路店)","lon":"121.37754","lat":"31.16957","category":"96","category_name":"韩国料理","address":"闵行区金汇南路225号(近虹泉路)"},{"poiid":"B2094757D06AA1FE479D","title":"老土房","lon":"121.38028","lat":"31.16586","category":"96","category_name":"韩国料理","address":"闵行区龙茗路2918号(近宜山路)"},{"poiid":"B2094757D06FA5F5419B","title":"井亭大厦","lon":"121.375015043","lat":"31.17043044","category":"46","category_name":"楼宇","address":"上海闵行区虹泉路1000号(近金汇路)"},{"poiid":"B2094753DA6AA5F8459D","title":"Mangosix","lon":"121.37738","lat":"31.171905","category":"500","category_name":"未知分类","address":"上海市 上海市闵行区金汇南路158号"},{"poiid":"B2094757D064A5F44698","title":"多乐房土豆排骨汤","lon":"121.375566586","lat":"31.1692222386","category":"247","category_name":"餐饮美食","address":"上海市吴中路"},{"poiid":"B2094654DA65A3FB4498","title":"诺宝中心","lon":"121.379","lat":"31.1637","category":"71","category_name":"四川菜","address":"闵行区漕宝路1688号诺宝中心大酒店2楼(漕宝路星东路)"},{"poiid":"B2094752D66AA6F44698","title":"THE CAFE KACAO coffee restaurant","lon":"121.376162","lat":"31.170411","category":"247","category_name":"餐饮美食","address":"虹泉路金汇南路"},{"poiid":"B2094757D068A1FE469E","title":"1004mart","lon":"121.37706582","lat":"31.170519156","category":"118","category_name":"超级市场","address":"上海虹泉路"},{"poiid":"B2094757D66AAAF8469F","title":"麻浦屋 虹泉路店","lon":"121.373747054","lat":"31.169760793","category":"96","category_name":"韩国料理","address":"闵行区虹泉路1051弄209号2楼(近金汇路)"},{"poiid":"B2094753DA64A4FA409F","title":"mango six","lon":"121.377265","lat":"31.171844","category":"500","category_name":"未知分类","address":"上海市 金汇南路158号"},{"poiid":"B2094757D068A2F8429A","title":"New Star Korean Spa","lon":"121.378049","lat":"31.170555","category":"500","category_name":"未知分类","address":"上海金汇南路258弄1号"},{"poiid":"B2094753DA6BA1F8449C","title":"mango six","lon":"121.377006","lat":"31.170703","category":"500","category_name":"未知分类","address":"上海市 金汇南路158号"},{"poiid":"B2094753D768A5FA489B","title":"Caffe Bene","lon":"121.373741","lat":"31.169282","category":"500","category_name":"未知分类","address":"上海市 闵行区虹泉路1051弄43号"},{"poiid":"B2094757D06AA0F4419C","title":"纽斯桑拿会所一楼韩国料理","lon":"121.377328586","lat":"31.1717252875","category":"500","category_name":"未知分类","address":"上海虹泉路"},{"poiid":"B2094757D06FAAFD4792","title":"韩国1004超级市场","lon":"121.3810184","lat":"31.170175057","category":"118","category_name":"超级市场","address":"上海闵行区金汇路193号(近吴中路)"},{"poiid":"B2094757D168A2F8489C","title":"맛집바우바우 巴屋巴屋韩国料理","lon":"121.37475858","lat":"31.168861231","category":"247","category_name":"餐饮美食","address":"闵行区虹泉路1051-17-1(近虹莘路)"},{"poiid":"B2094751D369A7FA469E","title":"土豆猪骨汤椰坛韩式专营店","lon":"121.375","lat":"31.16994","category":"96","category_name":"韩国料理","address":"闵行区虹泉路1078号井亭天地3楼01B号(近金汇南路)"},{"poiid":"B209475CD06FABFA4792","title":"咖咖奥咖啡厅","lon":"121.37611","lat":"31.17052","category":"65","category_name":"咖啡厅","address":"虹泉路888号(近吉祥酒店)"},{"poiid":"B2094655D36CA1FF469F","title":"龙茗路宜山路","lon":"121.38011","lat":"31.16547","category":"38","category_name":"公交车站","address":""},{"poiid":"B2094757D06BA5FF449B","title":"乡村土城","lon":"121.37683639523","lat":"31.17224651896","category":"96","category_name":"韩国料理","address":"闵行区金汇南路193号(近虹泉路)"},{"poiid":"B2094757D16FAAFD4398","title":"Krispy Kreme Doughnuts 卡卡圈坊","lon":"121.374831586","lat":"31.170065255","category":"67","category_name":"甜品店","address":"闵行区虹泉路1078号(近金汇南路)"},{"poiid":"B2094752D269A2F84292","title":"碳韩国烧烤","lon":"121.373905","lat":"31.16951","category":"247","category_name":"餐饮美食","address":"虹泉路1101弄7号"},{"poiid":"B2094654D569A5FC4592","title":"巴黎贝甜(虹泉路)","lon":"121.37406","lat":"31.16944","category":"67","category_name":"甜品店","address":"闵行区虹泉路1051号9号(近金汇路)"},{"poiid":"B2094751D36CA2F4429C","title":"Bulloman","lon":"121.37456","lat":"31.16981","category":"96","category_name":"韩国料理","address":"闵行区虹泉路1051弄风度国际内(近金汇南路)"},{"poiid":"B2094750D664A0FA4798","title":"多素拌韩国料理1","lon":"121.374","lat":"31.1701","category":"96","category_name":"韩国料理","address":"闵行区虹泉路1078号井亭天地1楼15室"},{"poiid":"B2094654D564A1FC429B","title":"小草屋(龙茗路)","lon":"121.38012","lat":"31.16598","category":"96","category_name":"韩国料理","address":"闵行区龙茗路2916号(近宜山路)"},{"poiid":"B2094757D068A0FB439C","title":"协和双语学校","lon":"121.375215","lat":"31.169771","category":"253","category_name":"校园生活","address":"闵行区虹泉路999号协和双语学校内"},{"poiid":"B2094757D16FA3FF459C","title":"井亭天地","lon":"121.37461058","lat":"31.171094275","category":"500","category_name":"未知分类","address":"上海市闵行区虹泉路"},{"poiid":"B2094655D36CA7F84293","title":"虹泉路金汇南路","lon":"121.37712","lat":"31.17062","category":"38","category_name":"公交车站","address":""},{"poiid":"B209475DD668A6FB479F","title":"chois coffee","lon":"121.379333","lat":"31.168289","category":"247","category_name":"餐饮美食","address":"上海市 虹泉路"},{"poiid":"B2094757D66AA0FD429D","title":"甘味屋 金汇南路店","lon":"121.376691054","lat":"31.171942793","category":"96","category_name":"韩国料理","address":"闵行区金汇南路193号(虹泉路口)"},{"poiid":"B209475CD36FA2FD439D","title":"马布城  MARINEBLUES TOWN","lon":"121.37437","lat":"31.16904","category":"172","category_name":"酒吧","address":"虹泉路1051弄35号(近虹莘路)"},{"poiid":"B2094753D764AAFB469B","title":"caffebene","lon":"121.373985","lat":"31.169582","category":"500","category_name":"未知分类","address":"上海市 虹泉路1051弄43号"},{"poiid":"B2094757D064A2FD4893","title":"龍茗路燒烤","lon":"121.38003658","lat":"31.165627168","category":"247","category_name":"餐饮美食","address":"上海市龍茗路宜山路路口"},{"poiid":"B2094654DB64A1FC409C","title":"大上海国际花园东门","lon":"121.38025","lat":"31.16481","category":"47","category_name":"住宅区","address":"七宝镇"},{"poiid":"B2094654D569A5FC449C","title":"风度国际生活广场","lon":"121.37363","lat":"31.16901","category":"201","category_name":"城市广场","address":"虹桥镇"},{"poiid":"B2094654D569A6F5469F","title":"明泉·锦绣江南耕读园","lon":"121.37686","lat":"31.16885","category":"47","category_name":"住宅区","address":"金汇南路301弄"},{"poiid":"B209475CDA6FA0F8489D","title":"酷必香酥鸡","lon":"121.377113","lat":"31.170558","category":"247","category_name":"餐饮美食","address":"上海市 虹泉路193号(近金汇南路)"},{"poiid":"B2094757D16CABFA449F","title":"粥故事","lon":"121.37553758","lat":"31.169060235","category":"68","category_name":"快餐厅","address":"闵行区虹泉路1078号1楼1-12A单元(近虹莘路)"},{"poiid":"B2094654D569A6F84199","title":"金虹桥井亭苑","lon":"121.37816444521","lat":"31.172806628371","category":"47","category_name":"住宅区","address":"虹莘路3799弄"},{"poiid":"B2094757D469A0FC4199","title":"Mama's","lon":"121.375522","lat":"31.170492","category":"96","category_name":"韩国料理","address":"闵行区虹泉路1000号井亭大厦1楼家乐丽雅超市内(近金汇南路)"},{"poiid":"B2094757D16EA7F54998","title":"川香麻辣烫","lon":"121.38179291","lat":"31.166378849","category":"68","category_name":"快餐厅","address":"闵行区宜山路(近龙茗路)"},{"poiid":"B2094757D16CABFE499B","title":"新港烧味甜品店","lon":"121.37983658","lat":"31.16574417","category":"247","category_name":"餐饮美食","address":"上海市闵行区龙茗路靠近宜山路"},{"poiid":"B209475DD468AAFB4098","title":"崔家木炭烤肉","lon":"121.373924","lat":"31.169084","category":"247","category_name":"餐饮美食","address":"上海市 虹泉路1078号东2楼（近虹莘路）"},{"poiid":"B2094757D66EA3FF449E","title":"正一品韩国烧烤","lon":"121.377539586","lat":"31.1699992537","category":"247","category_name":"餐饮美食","address":"上海金汇南路"},{"poiid":"B209475DD769A7FC489B","title":"MANGO SIX","lon":"121.377174","lat":"31.171863","category":"247","category_name":"餐饮美食","address":"上海市 金汇南路158号"},{"poiid":"B2094750D768A2F9449B","title":"全州河家","lon":"121.376","lat":"31.1705","category":"96","category_name":"韩国料理","address":"闵行区虹泉路1000号井亭大厦A栋108室(近金汇路)"},{"poiid":"B2094454D26FA6F54993","title":"MANGO SIX","lon":"121.377304","lat":"31.17171","category":"247","category_name":"餐饮美食","address":"上海市 金汇南路158号"}]