[{"poiid":"B2094757D06FA6FF459F","title":"上井(吴中店)","lon":"121.39815","lat":"31.18179","category":"95","category_name":"日本料理","address":"闵行区吴中路638号(近虹许路)"},{"poiid":"B2094757D06FA7F94692","title":"唐宫壹号(虹许路店)","lon":"121.39554","lat":"31.18129","category":"72","category_name":"广东菜","address":"闵行区虹许路358号天禧嘉福璞缇客酒店2楼(近吴中路)"},{"poiid":"B2094757D06FA6FF429C","title":"天禧嘉福璞缇客酒店","lon":"121.39571","lat":"31.18139","category":"217","category_name":"旅馆招待所","address":"上海市闵行区虹许路358号(虹桥地区,吴中路口)"},{"poiid":"B2094654DB6AA6FF4593","title":"上海大众美林阁大酒店","lon":"121.39614","lat":"31.18052","category":"213","category_name":"五星级宾馆","address":"上海市闵行区吴中路699号(吴中路虹许路口)"},{"poiid":"B2094757D06FA0F4449F","title":"吴中路","lon":"121.393310547","lat":"31.1797122955","category":"500","category_name":"未知分类","address":"上海市吴中路"},{"poiid":"B2094757D06FA1F9439C","title":"美林阁(吴中路店)","lon":"121.3961","lat":"31.18063","category":"76","category_name":"上海菜","address":"闵行区吴中路699号美林阁大酒店1-2楼(近虹许路)"},{"poiid":"B2094757D068A5F4419A","title":"上海爱信诺航天信息有限公司","lon":"121.399977617","lat":"31.1777739822","category":"46","category_name":"楼宇","address":"上海徐汇区钦州北路1198号82栋"},{"poiid":"B2094757D06FA5F54392","title":"闵行区牙病防治所","lon":"121.39264","lat":"31.17916","category":"162","category_name":"医院","address":"闵行区吴中路829号(近虹梅路)"},{"poiid":"B2094757D068A4FF429C","title":"669音乐生态餐厅","lon":"121.397555733","lat":"31.1744916934","category":"91","category_name":"台湾菜","address":"徐汇区桂果路669号(近钦江路)"},{"poiid":"B2094757D069A3FB4999","title":"沈记靓汤(虹许店)","lon":"121.3952","lat":"31.18143","category":"76","category_name":"上海菜","address":"闵行区虹许路368号东侧1-2楼(近吴中路)"},{"poiid":"B2094654D56BABF5469F","title":"上海漕河泾开发区新汇园","lon":"121.40301","lat":"31.17879","category":"45","category_name":"产业园区","address":"钦州北路1122"},{"poiid":"B2094757D069A6F5469C","title":"豪元轩","lon":"121.39341","lat":"31.18455","category":"72","category_name":"广东菜","address":"闵行区虹许路366号(近吴中路)"},{"poiid":"B2094757D66EA5FE459A","title":"潮州府砂锅粥","lon":"121.396678","lat":"31.181774","category":"72","category_name":"广东菜","address":"闵行区吴中路682号金虹桥广场(近中环)"},{"poiid":"B2094757D069A4F54293","title":"幸河日本料理","lon":"121.39766","lat":"31.18169","category":"268","category_name":"自助","address":"闵行区吴中路668号(近虹许路)"},{"poiid":"B2094654D56BAAFD4592","title":"上海漕河泾开发区智汇园A座","lon":"121.40055","lat":"31.17803","category":"46","category_name":"楼宇","address":"钦州北路1198"},{"poiid":"B2094757D465A0FA4893","title":"天禧嘉福璞缇客酒店咖啡厅","lon":"121.39496420445","lat":"31.180596255007","category":"65","category_name":"咖啡厅","address":"闵行区虹许路358号天禧嘉福璞缇客酒店1楼(近吴中路)"},{"poiid":"B2094757DA6EAAF5499E","title":"肯德基(虹桥机场二店)","lon":"121.394481","lat":"31.1795100000002","category":"68","category_name":"快餐厅","address":"闵行区吴中路781号(近虹梅路)"},{"poiid":"B2094757D068A2F94499","title":"漕河泾开发区智汇园","lon":"121.399838","lat":"31.177512","category":"260","category_name":"其他","address":"上海徐汇区钦州北路1199号"},{"poiid":"B2094757D16FA0FB4593","title":"中环路吴中路出入口","lon":"121.395128541","lat":"31.1801158149","category":"260","category_name":"其他","address":"上海中环路吴中路出入口"},{"poiid":"B2094757D168A5FB499A","title":"小吉士","lon":"121.396904586","lat":"31.181888486","category":"76","category_name":"上海菜","address":"闵行区吴中路682号金虹桥广场(近中环)"},{"poiid":"B2094757D16CA5F8409D","title":"苏宁电器闵行第一店","lon":"121.394157386","lat":"31.1817534833","category":"138","category_name":"家电电子卖场","address":"上海中环线吴中路路口"},{"poiid":"B2094655D268A7F8499D","title":"天鸿公寓","lon":"121.39669","lat":"31.178585","category":"47","category_name":"住宅区","address":"上海市闵行区吴中路677弄99支弄"},{"poiid":"B2094757D065A1FD459C","title":"豪享来上海吴中店","lon":"121.3962","lat":"31.1815","category":"247","category_name":"餐饮美食","address":"上海市闵行区吴中路695号"},{"poiid":"B2094655D268A4FC4593","title":"快客No.5225","lon":"121.39748","lat":"31.1787","category":"117","category_name":"便民商店/便利店","address":""},{"poiid":"B2094655D26FABF8489A","title":"万源新城","lon":"121.393","lat":"31.1769","category":"47","category_name":"住宅区","address":"万源路2289弄1-39号"},{"poiid":"B2094757D66CA3FF469D","title":"漕河泾开发区智汇园食堂","lon":"121.39977","lat":"31.17709","category":"68","category_name":"快餐厅","address":"徐汇区钦州北路1198号漕河泾开发区智汇园地下室(桂平路钦州北路)"},{"poiid":"B2094655D268A4FF449B","title":"上海漕河泾开发区智汇园A座(南一门)","lon":"121.39978","lat":"31.17735","category":"46","category_name":"楼宇","address":"钦州北路1198"},{"poiid":"B2094654D564A1FA429B","title":"苹果园","lon":"121.397","lat":"31.1812","category":"47","category_name":"住宅区","address":"苹果园位于长宁虹桥环镇南路88弄"},{"poiid":"B2094655D26CAAF8469D","title":"虹梅小区","lon":"121.39598","lat":"31.17515","category":"47","category_name":"住宅区","address":"虹梅路2666弄1-22号"},{"poiid":"B2094654D564A1F8409F","title":"上海虹桥医院","lon":"121.39499","lat":"31.17503","category":"162","category_name":"医院","address":"闵行区虹梅路2181号(近吴中路)"},{"poiid":"B2094655D26EA7FF4293","title":"兴迪商务大厦","lon":"121.39707435866","lat":"31.174468668323","category":"46","category_name":"楼宇","address":"宜山路1698号"},{"poiid":"B2094654DB65A1FF449B","title":"祥利港式茶餐厅","lon":"121.39521691359","lat":"31.181161131988","category":"72","category_name":"广东菜","address":"闵行区吴中路686弄2号金虹桥广场1楼E1(近虹许路)"},{"poiid":"B2094654D56BAAFF429F","title":"旅专小区","lon":"121.39656","lat":"31.179976","category":"47","category_name":"住宅区","address":"吴中路689弄1-15号"},{"poiid":"B2094757D06AABFF469E","title":"秘密花园","lon":"121.39619958","lat":"31.177783405","category":"47","category_name":"住宅区","address":"上海市闵行区吴中路"},{"poiid":"B2094757D16CA4F9489E","title":"虹桥阳光翠庭","lon":"121.395236","lat":"31.178899","category":"47","category_name":"住宅区","address":"上海市闵行区莲花路2150弄"},{"poiid":"B2094655D26AA6F4479A","title":"天圣酸菜鱼火锅 吴中路店","lon":"121.3954705076","lat":"31.181120220201","category":"86","category_name":"火锅店","address":"闵行区吴中路685号(近虹许路)"},{"poiid":"B2094757D06BA2FE4799","title":"明申花园","lon":"121.39806","lat":"31.181097","category":"252","category_name":"楼宇机构","address":"上海市闵行区吴中路630号"},{"poiid":"B2094757D469A1FE4099","title":"新食尚 Minifoco","lon":"121.395817","lat":"31.174036","category":"68","category_name":"快餐厅","address":"闵行区虹梅路1801号圆房(近宜山路)"},{"poiid":"B2094655D26EA6FF449B","title":"汉庭快捷酒店(上海古北店)","lon":"121.39782","lat":"31.18262","category":"216","category_name":"经济型连锁酒店","address":"闵行区吴中路638号(近虹许路)"},{"poiid":"B2094655D26FA6FA419A","title":"虹兴苑","lon":"121.4","lat":"31.181","category":"47","category_name":"住宅区","address":"虹梅路2555弄"},{"poiid":"B2094655D268A2FA479F","title":"永兆豪庭(虹许路)","lon":"121.39625","lat":"31.17392","category":"47","category_name":"住宅区","address":"上海市徐汇区虹梅路2558弄"},{"poiid":"B2094757D568A5FC4792","title":"钦江园","lon":"121.4000906","lat":"31.17442735","category":"45","category_name":"产业园区","address":"钦江路333"},{"poiid":"B2094757D66EA4F5499E","title":"智汇园82号楼","lon":"121.40037965","lat":"31.177964799","category":"252","category_name":"楼宇机构","address":"上海钦州北路1198号"},{"poiid":"B2094757D16CA5FA419C","title":"每个人都有一些小怪癖","lon":"121.39615058","lat":"31.177423398","category":"500","category_name":"未知分类","address":"上海市闵行区吴中路"},{"poiid":"B209475DD268AAFF4499","title":"徐家汇","lon":"121.398559","lat":"31.176189","category":"500","category_name":"未知分类","address":"上海市 美罗城"},{"poiid":"B2094757D66AA6FC4198","title":"东北农家菜 虹梅路","lon":"121.394544054","lat":"31.175447793","category":"82","category_name":"东北菜","address":"闵行区虹梅路2181号虹桥医院旁(近环镇南路)"},{"poiid":"B2094655D268A3FD4593","title":"旅专小区(东门)","lon":"121.39696","lat":"31.18024","category":"47","category_name":"住宅区","address":"吴中路689弄1-15号"},{"poiid":"B2094757D56CA2F5439E","title":"千鹤居日本料理 吴中路店","lon":"121.39488178291","lat":"31.180961264102","category":"247","category_name":"餐饮美食","address":"吴中路682号金虹桥广场2楼B室近虹许路"},{"poiid":"B2094757D168A5FB409C","title":"另一个世界的梦游者","lon":"121.39612958","lat":"31.177654403","category":"500","category_name":"未知分类","address":"上海市闵行区吴中路"},{"poiid":"B2094757D16AA6FB4498","title":"思科Cisco","lon":"121.39622908","lat":"31.176321577","category":"500","category_name":"未知分类","address":"上海宜山路926号新思大厦7楼"},{"poiid":"B2094757D06FA6FF459F","title":"上井(吴中店)","lon":"121.39815","lat":"31.18179","category":"95","category_name":"日本料理","address":"闵行区吴中路638号(近虹许路)"},{"poiid":"B2094757D06FA7F94692","title":"唐宫壹号(虹许路店)","lon":"121.39554","lat":"31.18129","category":"72","category_name":"广东菜","address":"闵行区虹许路358号天禧嘉福璞缇客酒店2楼(近吴中路)"},{"poiid":"B2094757D06FA6FF429C","title":"天禧嘉福璞缇客酒店","lon":"121.39571","lat":"31.18139","category":"217","category_name":"旅馆招待所","address":"上海市闵行区虹许路358号(虹桥地区,吴中路口)"},{"poiid":"B2094654DB6AA6FF4593","title":"上海大众美林阁大酒店","lon":"121.39614","lat":"31.18052","category":"213","category_name":"五星级宾馆","address":"上海市闵行区吴中路699号(吴中路虹许路口)"},{"poiid":"B2094757D06FA0F4449F","title":"吴中路","lon":"121.393310547","lat":"31.1797122955","category":"500","category_name":"未知分类","address":"上海市吴中路"},{"poiid":"B2094757D06FA1F9439C","title":"美林阁(吴中路店)","lon":"121.3961","lat":"31.18063","category":"76","category_name":"上海菜","address":"闵行区吴中路699号美林阁大酒店1-2楼(近虹许路)"},{"poiid":"B2094757D068A5F4419A","title":"上海爱信诺航天信息有限公司","lon":"121.399977617","lat":"31.1777739822","category":"46","category_name":"楼宇","address":"上海徐汇区钦州北路1198号82栋"},{"poiid":"B2094757D06FA5F54392","title":"闵行区牙病防治所","lon":"121.39264","lat":"31.17916","category":"162","category_name":"医院","address":"闵行区吴中路829号(近虹梅路)"},{"poiid":"B2094757D068A4FF429C","title":"669音乐生态餐厅","lon":"121.397555733","lat":"31.1744916934","category":"91","category_name":"台湾菜","address":"徐汇区桂果路669号(近钦江路)"},{"poiid":"B2094757D069A3FB4999","title":"沈记靓汤(虹许店)","lon":"121.3952","lat":"31.18143","category":"76","category_name":"上海菜","address":"闵行区虹许路368号东侧1-2楼(近吴中路)"},{"poiid":"B2094654D56BABF5469F","title":"上海漕河泾开发区新汇园","lon":"121.40301","lat":"31.17879","category":"45","category_name":"产业园区","address":"钦州北路1122"},{"poiid":"B2094757D069A6F5469C","title":"豪元轩","lon":"121.39341","lat":"31.18455","category":"72","category_name":"广东菜","address":"闵行区虹许路366号(近吴中路)"},{"poiid":"B2094757D66EA5FE459A","title":"潮州府砂锅粥","lon":"121.396678","lat":"31.181774","category":"72","category_name":"广东菜","address":"闵行区吴中路682号金虹桥广场(近中环)"},{"poiid":"B2094757D069A4F54293","title":"幸河日本料理","lon":"121.39766","lat":"31.18169","category":"268","category_name":"自助","address":"闵行区吴中路668号(近虹许路)"},{"poiid":"B2094654D56BAAFD4592","title":"上海漕河泾开发区智汇园A座","lon":"121.40055","lat":"31.17803","category":"46","category_name":"楼宇","address":"钦州北路1198"},{"poiid":"B2094757D465A0FA4893","title":"天禧嘉福璞缇客酒店咖啡厅","lon":"121.39496420445","lat":"31.180596255007","category":"65","category_name":"咖啡厅","address":"闵行区虹许路358号天禧嘉福璞缇客酒店1楼(近吴中路)"},{"poiid":"B2094757DA6EAAF5499E","title":"肯德基(虹桥机场二店)","lon":"121.394481","lat":"31.1795100000002","category":"68","category_name":"快餐厅","address":"闵行区吴中路781号(近虹梅路)"},{"poiid":"B2094757D068A2F94499","title":"漕河泾开发区智汇园","lon":"121.399838","lat":"31.177512","category":"260","category_name":"其他","address":"上海徐汇区钦州北路1199号"},{"poiid":"B2094757D16FA0FB4593","title":"中环路吴中路出入口","lon":"121.395128541","lat":"31.1801158149","category":"260","category_name":"其他","address":"上海中环路吴中路出入口"},{"poiid":"B2094757D168A5FB499A","title":"小吉士","lon":"121.396904586","lat":"31.181888486","category":"76","category_name":"上海菜","address":"闵行区吴中路682号金虹桥广场(近中环)"},{"poiid":"B2094757D16CA5F8409D","title":"苏宁电器闵行第一店","lon":"121.394157386","lat":"31.1817534833","category":"138","category_name":"家电电子卖场","address":"上海中环线吴中路路口"},{"poiid":"B2094655D268A7F8499D","title":"天鸿公寓","lon":"121.39669","lat":"31.178585","category":"47","category_name":"住宅区","address":"上海市闵行区吴中路677弄99支弄"},{"poiid":"B2094757D065A1FD459C","title":"豪享来上海吴中店","lon":"121.3962","lat":"31.1815","category":"247","category_name":"餐饮美食","address":"上海市闵行区吴中路695号"},{"poiid":"B2094655D268A4FC4593","title":"快客No.5225","lon":"121.39748","lat":"31.1787","category":"117","category_name":"便民商店/便利店","address":""},{"poiid":"B2094655D26FABF8489A","title":"万源新城","lon":"121.393","lat":"31.1769","category":"47","category_name":"住宅区","address":"万源路2289弄1-39号"},{"poiid":"B2094757D66CA3FF469D","title":"漕河泾开发区智汇园食堂","lon":"121.39977","lat":"31.17709","category":"68","category_name":"快餐厅","address":"徐汇区钦州北路1198号漕河泾开发区智汇园地下室(桂平路钦州北路)"},{"poiid":"B2094655D268A4FF449B","title":"上海漕河泾开发区智汇园A座(南一门)","lon":"121.39978","lat":"31.17735","category":"46","category_name":"楼宇","address":"钦州北路1198"},{"poiid":"B2094654D564A1FA429B","title":"苹果园","lon":"121.397","lat":"31.1812","category":"47","category_name":"住宅区","address":"苹果园位于长宁虹桥环镇南路88弄"},{"poiid":"B2094655D26CAAF8469D","title":"虹梅小区","lon":"121.39598","lat":"31.17515","category":"47","category_name":"住宅区","address":"虹梅路2666弄1-22号"},{"poiid":"B2094654D564A1F8409F","title":"上海虹桥医院","lon":"121.39499","lat":"31.17503","category":"162","category_name":"医院","address":"闵行区虹梅路2181号(近吴中路)"},{"poiid":"B2094655D26EA7FF4293","title":"兴迪商务大厦","lon":"121.39707435866","lat":"31.174468668323","category":"46","category_name":"楼宇","address":"宜山路1698号"},{"poiid":"B2094654DB65A1FF449B","title":"祥利港式茶餐厅","lon":"121.39521691359","lat":"31.181161131988","category":"72","category_name":"广东菜","address":"闵行区吴中路686弄2号金虹桥广场1楼E1(近虹许路)"},{"poiid":"B2094654D56BAAFF429F","title":"旅专小区","lon":"121.39656","lat":"31.179976","category":"47","category_name":"住宅区","address":"吴中路689弄1-15号"},{"poiid":"B2094757D06AABFF469E","title":"秘密花园","lon":"121.39619958","lat":"31.177783405","category":"47","category_name":"住宅区","address":"上海市闵行区吴中路"},{"poiid":"B2094757D16CA4F9489E","title":"虹桥阳光翠庭","lon":"121.395236","lat":"31.178899","category":"47","category_name":"住宅区","address":"上海市闵行区莲花路2150弄"},{"poiid":"B2094655D26AA6F4479A","title":"天圣酸菜鱼火锅 吴中路店","lon":"121.3954705076","lat":"31.181120220201","category":"86","category_name":"火锅店","address":"闵行区吴中路685号(近虹许路)"},{"poiid":"B2094757D06BA2FE4799","title":"明申花园","lon":"121.39806","lat":"31.181097","category":"252","category_name":"楼宇机构","address":"上海市闵行区吴中路630号"},{"poiid":"B2094757D469A1FE4099","title":"新食尚 Minifoco","lon":"121.395817","lat":"31.174036","category":"68","category_name":"快餐厅","address":"闵行区虹梅路1801号圆房(近宜山路)"},{"poiid":"B2094655D26EA6FF449B","title":"汉庭快捷酒店(上海古北店)","lon":"121.39782","lat":"31.18262","category":"216","category_name":"经济型连锁酒店","address":"闵行区吴中路638号(近虹许路)"},{"poiid":"B2094655D26FA6FA419A","title":"虹兴苑","lon":"121.4","lat":"31.181","category":"47","category_name":"住宅区","address":"虹梅路2555弄"},{"poiid":"B2094655D268A2FA479F","title":"永兆豪庭(虹许路)","lon":"121.39625","lat":"31.17392","category":"47","category_name":"住宅区","address":"上海市徐汇区虹梅路2558弄"},{"poiid":"B2094757D568A5FC4792","title":"钦江园","lon":"121.4000906","lat":"31.17442735","category":"45","category_name":"产业园区","address":"钦江路333"},{"poiid":"B2094757D66EA4F5499E","title":"智汇园82号楼","lon":"121.40037965","lat":"31.177964799","category":"252","category_name":"楼宇机构","address":"上海钦州北路1198号"},{"poiid":"B2094757D16CA5FA419C","title":"每个人都有一些小怪癖","lon":"121.39615058","lat":"31.177423398","category":"500","category_name":"未知分类","address":"上海市闵行区吴中路"},{"poiid":"B209475DD268AAFF4499","title":"徐家汇","lon":"121.398559","lat":"31.176189","category":"500","category_name":"未知分类","address":"上海市 美罗城"},{"poiid":"B2094757D66AA6FC4198","title":"东北农家菜 虹梅路","lon":"121.394544054","lat":"31.175447793","category":"82","category_name":"东北菜","address":"闵行区虹梅路2181号虹桥医院旁(近环镇南路)"},{"poiid":"B2094655D268A3FD4593","title":"旅专小区(东门)","lon":"121.39696","lat":"31.18024","category":"47","category_name":"住宅区","address":"吴中路689弄1-15号"},{"poiid":"B2094757D56CA2F5439E","title":"千鹤居日本料理 吴中路店","lon":"121.39488178291","lat":"31.180961264102","category":"247","category_name":"餐饮美食","address":"吴中路682号金虹桥广场2楼B室近虹许路"},{"poiid":"B2094757D168A5FB409C","title":"另一个世界的梦游者","lon":"121.39612958","lat":"31.177654403","category":"500","category_name":"未知分类","address":"上海市闵行区吴中路"},{"poiid":"B2094757D16AA6FB4498","title":"思科Cisco","lon":"121.39622908","lat":"31.176321577","category":"500","category_name":"未知分类","address":"上海宜山路926号新思大厦7楼"},{"poiid":"B2094757D06FA6FF459F","title":"上井(吴中店)","lon":"121.39815","lat":"31.18179","category":"95","category_name":"日本料理","address":"闵行区吴中路638号(近虹许路)"},{"poiid":"B2094757D06FA7F94692","title":"唐宫壹号(虹许路店)","lon":"121.39554","lat":"31.18129","category":"72","category_name":"广东菜","address":"闵行区虹许路358号天禧嘉福璞缇客酒店2楼(近吴中路)"},{"poiid":"B2094757D06FA6FF429C","title":"天禧嘉福璞缇客酒店","lon":"121.39571","lat":"31.18139","category":"217","category_name":"旅馆招待所","address":"上海市闵行区虹许路358号(虹桥地区,吴中路口)"},{"poiid":"B2094654DB6AA6FF4593","title":"上海大众美林阁大酒店","lon":"121.39614","lat":"31.18052","category":"213","category_name":"五星级宾馆","address":"上海市闵行区吴中路699号(吴中路虹许路口)"},{"poiid":"B2094757D06FA0F4449F","title":"吴中路","lon":"121.393310547","lat":"31.1797122955","category":"500","category_name":"未知分类","address":"上海市吴中路"},{"poiid":"B2094757D06FA1F9439C","title":"美林阁(吴中路店)","lon":"121.3961","lat":"31.18063","category":"76","category_name":"上海菜","address":"闵行区吴中路699号美林阁大酒店1-2楼(近虹许路)"},{"poiid":"B2094757D068A5F4419A","title":"上海爱信诺航天信息有限公司","lon":"121.399977617","lat":"31.1777739822","category":"46","category_name":"楼宇","address":"上海徐汇区钦州北路1198号82栋"},{"poiid":"B2094757D06FA5F54392","title":"闵行区牙病防治所","lon":"121.39264","lat":"31.17916","category":"162","category_name":"医院","address":"闵行区吴中路829号(近虹梅路)"},{"poiid":"B2094757D068A4FF429C","title":"669音乐生态餐厅","lon":"121.397555733","lat":"31.1744916934","category":"91","category_name":"台湾菜","address":"徐汇区桂果路669号(近钦江路)"},{"poiid":"B2094757D069A3FB4999","title":"沈记靓汤(虹许店)","lon":"121.3952","lat":"31.18143","category":"76","category_name":"上海菜","address":"闵行区虹许路368号东侧1-2楼(近吴中路)"},{"poiid":"B2094654D56BABF5469F","title":"上海漕河泾开发区新汇园","lon":"121.40301","lat":"31.17879","category":"45","category_name":"产业园区","address":"钦州北路1122"},{"poiid":"B2094757D069A6F5469C","title":"豪元轩","lon":"121.39341","lat":"31.18455","category":"72","category_name":"广东菜","address":"闵行区虹许路366号(近吴中路)"},{"poiid":"B2094757D66EA5FE459A","title":"潮州府砂锅粥","lon":"121.396678","lat":"31.181774","category":"72","category_name":"广东菜","address":"闵行区吴中路682号金虹桥广场(近中环)"},{"poiid":"B2094757D069A4F54293","title":"幸河日本料理","lon":"121.39766","lat":"31.18169","category":"268","category_name":"自助","address":"闵行区吴中路668号(近虹许路)"},{"poiid":"B2094654D56BAAFD4592","title":"上海漕河泾开发区智汇园A座","lon":"121.40055","lat":"31.17803","category":"46","category_name":"楼宇","address":"钦州北路1198"},{"poiid":"B2094757D465A0FA4893","title":"天禧嘉福璞缇客酒店咖啡厅","lon":"121.39496420445","lat":"31.180596255007","category":"65","category_name":"咖啡厅","address":"闵行区虹许路358号天禧嘉福璞缇客酒店1楼(近吴中路)"},{"poiid":"B2094757DA6EAAF5499E","title":"肯德基(虹桥机场二店)","lon":"121.394481","lat":"31.1795100000002","category":"68","category_name":"快餐厅","address":"闵行区吴中路781号(近虹梅路)"},{"poiid":"B2094757D068A2F94499","title":"漕河泾开发区智汇园","lon":"121.399838","lat":"31.177512","category":"260","category_name":"其他","address":"上海徐汇区钦州北路1199号"},{"poiid":"B2094757D16FA0FB4593","title":"中环路吴中路出入口","lon":"121.395128541","lat":"31.1801158149","category":"260","category_name":"其他","address":"上海中环路吴中路出入口"},{"poiid":"B2094757D168A5FB499A","title":"小吉士","lon":"121.396904586","lat":"31.181888486","category":"76","category_name":"上海菜","address":"闵行区吴中路682号金虹桥广场(近中环)"},{"poiid":"B2094757D16CA5F8409D","title":"苏宁电器闵行第一店","lon":"121.394157386","lat":"31.1817534833","category":"138","category_name":"家电电子卖场","address":"上海中环线吴中路路口"},{"poiid":"B2094655D268A7F8499D","title":"天鸿公寓","lon":"121.39669","lat":"31.178585","category":"47","category_name":"住宅区","address":"上海市闵行区吴中路677弄99支弄"},{"poiid":"B2094757D065A1FD459C","title":"豪享来上海吴中店","lon":"121.3962","lat":"31.1815","category":"247","category_name":"餐饮美食","address":"上海市闵行区吴中路695号"},{"poiid":"B2094655D268A4FC4593","title":"快客No.5225","lon":"121.39748","lat":"31.1787","category":"117","category_name":"便民商店/便利店","address":""},{"poiid":"B2094655D26FABF8489A","title":"万源新城","lon":"121.393","lat":"31.1769","category":"47","category_name":"住宅区","address":"万源路2289弄1-39号"},{"poiid":"B2094757D66CA3FF469D","title":"漕河泾开发区智汇园食堂","lon":"121.39977","lat":"31.17709","category":"68","category_name":"快餐厅","address":"徐汇区钦州北路1198号漕河泾开发区智汇园地下室(桂平路钦州北路)"},{"poiid":"B2094655D268A4FF449B","title":"上海漕河泾开发区智汇园A座(南一门)","lon":"121.39978","lat":"31.17735","category":"46","category_name":"楼宇","address":"钦州北路1198"},{"poiid":"B2094654D564A1FA429B","title":"苹果园","lon":"121.397","lat":"31.1812","category":"47","category_name":"住宅区","address":"苹果园位于长宁虹桥环镇南路88弄"},{"poiid":"B2094655D26CAAF8469D","title":"虹梅小区","lon":"121.39598","lat":"31.17515","category":"47","category_name":"住宅区","address":"虹梅路2666弄1-22号"},{"poiid":"B2094654D564A1F8409F","title":"上海虹桥医院","lon":"121.39499","lat":"31.17503","category":"162","category_name":"医院","address":"闵行区虹梅路2181号(近吴中路)"},{"poiid":"B2094655D26EA7FF4293","title":"兴迪商务大厦","lon":"121.39707435866","lat":"31.174468668323","category":"46","category_name":"楼宇","address":"宜山路1698号"},{"poiid":"B2094654DB65A1FF449B","title":"祥利港式茶餐厅","lon":"121.39521691359","lat":"31.181161131988","category":"72","category_name":"广东菜","address":"闵行区吴中路686弄2号金虹桥广场1楼E1(近虹许路)"},{"poiid":"B2094654D56BAAFF429F","title":"旅专小区","lon":"121.39656","lat":"31.179976","category":"47","category_name":"住宅区","address":"吴中路689弄1-15号"},{"poiid":"B2094757D06AABFF469E","title":"秘密花园","lon":"121.39619958","lat":"31.177783405","category":"47","category_name":"住宅区","address":"上海市闵行区吴中路"},{"poiid":"B2094757D16CA4F9489E","title":"虹桥阳光翠庭","lon":"121.395236","lat":"31.178899","category":"47","category_name":"住宅区","address":"上海市闵行区莲花路2150弄"},{"poiid":"B2094655D26AA6F4479A","title":"天圣酸菜鱼火锅 吴中路店","lon":"121.3954705076","lat":"31.181120220201","category":"86","category_name":"火锅店","address":"闵行区吴中路685号(近虹许路)"},{"poiid":"B2094757D06BA2FE4799","title":"明申花园","lon":"121.39806","lat":"31.181097","category":"252","category_name":"楼宇机构","address":"上海市闵行区吴中路630号"},{"poiid":"B2094757D469A1FE4099","title":"新食尚 Minifoco","lon":"121.395817","lat":"31.174036","category":"68","category_name":"快餐厅","address":"闵行区虹梅路1801号圆房(近宜山路)"},{"poiid":"B2094655D26EA6FF449B","title":"汉庭快捷酒店(上海古北店)","lon":"121.39782","lat":"31.18262","category":"216","category_name":"经济型连锁酒店","address":"闵行区吴中路638号(近虹许路)"},{"poiid":"B2094655D26FA6FA419A","title":"虹兴苑","lon":"121.4","lat":"31.181","category":"47","category_name":"住宅区","address":"虹梅路2555弄"},{"poiid":"B2094655D268A2FA479F","title":"永兆豪庭(虹许路)","lon":"121.39625","lat":"31.17392","category":"47","category_name":"住宅区","address":"上海市徐汇区虹梅路2558弄"},{"poiid":"B2094757D568A5FC4792","title":"钦江园","lon":"121.4000906","lat":"31.17442735","category":"45","category_name":"产业园区","address":"钦江路333"},{"poiid":"B2094757D66EA4F5499E","title":"智汇园82号楼","lon":"121.40037965","lat":"31.177964799","category":"252","category_name":"楼宇机构","address":"上海钦州北路1198号"},{"poiid":"B2094757D16CA5FA419C","title":"每个人都有一些小怪癖","lon":"121.39615058","lat":"31.177423398","category":"500","category_name":"未知分类","address":"上海市闵行区吴中路"},{"poiid":"B209475DD268AAFF4499","title":"徐家汇","lon":"121.398559","lat":"31.176189","category":"500","category_name":"未知分类","address":"上海市 美罗城"},{"poiid":"B2094757D66AA6FC4198","title":"东北农家菜 虹梅路","lon":"121.394544054","lat":"31.175447793","category":"82","category_name":"东北菜","address":"闵行区虹梅路2181号虹桥医院旁(近环镇南路)"},{"poiid":"B2094655D268A3FD4593","title":"旅专小区(东门)","lon":"121.39696","lat":"31.18024","category":"47","category_name":"住宅区","address":"吴中路689弄1-15号"},{"poiid":"B2094757D56CA2F5439E","title":"千鹤居日本料理 吴中路店","lon":"121.39488178291","lat":"31.180961264102","category":"247","category_name":"餐饮美食","address":"吴中路682号金虹桥广场2楼B室近虹许路"},{"poiid":"B2094757D168A5FB409C","title":"另一个世界的梦游者","lon":"121.39612958","lat":"31.177654403","category":"500","category_name":"未知分类","address":"上海市闵行区吴中路"},{"poiid":"B2094757D16AA6FB4498","title":"思科Cisco","lon":"121.39622908","lat":"31.176321577","category":"500","category_name":"未知分类","address":"上海宜山路926号新思大厦7楼"},{"poiid":"B2094757D06FA6FF459F","title":"上井(吴中店)","lon":"121.39815","lat":"31.18179","category":"95","category_name":"日本料理","address":"闵行区吴中路638号(近虹许路)"},{"poiid":"B2094757D06FA7F94692","title":"唐宫壹号(虹许路店)","lon":"121.39554","lat":"31.18129","category":"72","category_name":"广东菜","address":"闵行区虹许路358号天禧嘉福璞缇客酒店2楼(近吴中路)"},{"poiid":"B2094757D06FA6FF429C","title":"天禧嘉福璞缇客酒店","lon":"121.39571","lat":"31.18139","category":"217","category_name":"旅馆招待所","address":"上海市闵行区虹许路358号(虹桥地区,吴中路口)"},{"poiid":"B2094654DB6AA6FF4593","title":"上海大众美林阁大酒店","lon":"121.39614","lat":"31.18052","category":"213","category_name":"五星级宾馆","address":"上海市闵行区吴中路699号(吴中路虹许路口)"},{"poiid":"B2094757D06FA0F4449F","title":"吴中路","lon":"121.393310547","lat":"31.1797122955","category":"500","category_name":"未知分类","address":"上海市吴中路"},{"poiid":"B2094757D06FA1F9439C","title":"美林阁(吴中路店)","lon":"121.3961","lat":"31.18063","category":"76","category_name":"上海菜","address":"闵行区吴中路699号美林阁大酒店1-2楼(近虹许路)"},{"poiid":"B2094757D068A5F4419A","title":"上海爱信诺航天信息有限公司","lon":"121.399977617","lat":"31.1777739822","category":"46","category_name":"楼宇","address":"上海徐汇区钦州北路1198号82栋"},{"poiid":"B2094757D06FA5F54392","title":"闵行区牙病防治所","lon":"121.39264","lat":"31.17916","category":"162","category_name":"医院","address":"闵行区吴中路829号(近虹梅路)"},{"poiid":"B2094757D068A4FF429C","title":"669音乐生态餐厅","lon":"121.397555733","lat":"31.1744916934","category":"91","category_name":"台湾菜","address":"徐汇区桂果路669号(近钦江路)"},{"poiid":"B2094757D069A3FB4999","title":"沈记靓汤(虹许店)","lon":"121.3952","lat":"31.18143","category":"76","category_name":"上海菜","address":"闵行区虹许路368号东侧1-2楼(近吴中路)"},{"poiid":"B2094654D56BABF5469F","title":"上海漕河泾开发区新汇园","lon":"121.40301","lat":"31.17879","category":"45","category_name":"产业园区","address":"钦州北路1122"},{"poiid":"B2094757D069A6F5469C","title":"豪元轩","lon":"121.39341","lat":"31.18455","category":"72","category_name":"广东菜","address":"闵行区虹许路366号(近吴中路)"},{"poiid":"B2094757D66EA5FE459A","title":"潮州府砂锅粥","lon":"121.396678","lat":"31.181774","category":"72","category_name":"广东菜","address":"闵行区吴中路682号金虹桥广场(近中环)"},{"poiid":"B2094757D069A4F54293","title":"幸河日本料理","lon":"121.39766","lat":"31.18169","category":"268","category_name":"自助","address":"闵行区吴中路668号(近虹许路)"},{"poiid":"B2094654D56BAAFD4592","title":"上海漕河泾开发区智汇园A座","lon":"121.40055","lat":"31.17803","category":"46","category_name":"楼宇","address":"钦州北路1198"},{"poiid":"B2094757D465A0FA4893","title":"天禧嘉福璞缇客酒店咖啡厅","lon":"121.39496420445","lat":"31.180596255007","category":"65","category_name":"咖啡厅","address":"闵行区虹许路358号天禧嘉福璞缇客酒店1楼(近吴中路)"},{"poiid":"B2094757DA6EAAF5499E","title":"肯德基(虹桥机场二店)","lon":"121.394481","lat":"31.1795100000002","category":"68","category_name":"快餐厅","address":"闵行区吴中路781号(近虹梅路)"},{"poiid":"B2094757D068A2F94499","title":"漕河泾开发区智汇园","lon":"121.399838","lat":"31.177512","category":"260","category_name":"其他","address":"上海徐汇区钦州北路1199号"},{"poiid":"B2094757D16FA0FB4593","title":"中环路吴中路出入口","lon":"121.395128541","lat":"31.1801158149","category":"260","category_name":"其他","address":"上海中环路吴中路出入口"},{"poiid":"B2094757D168A5FB499A","title":"小吉士","lon":"121.396904586","lat":"31.181888486","category":"76","category_name":"上海菜","address":"闵行区吴中路682号金虹桥广场(近中环)"},{"poiid":"B2094757D16CA5F8409D","title":"苏宁电器闵行第一店","lon":"121.394157386","lat":"31.1817534833","category":"138","category_name":"家电电子卖场","address":"上海中环线吴中路路口"},{"poiid":"B2094655D268A7F8499D","title":"天鸿公寓","lon":"121.39669","lat":"31.178585","category":"47","category_name":"住宅区","address":"上海市闵行区吴中路677弄99支弄"},{"poiid":"B2094757D065A1FD459C","title":"豪享来上海吴中店","lon":"121.3962","lat":"31.1815","category":"247","category_name":"餐饮美食","address":"上海市闵行区吴中路695号"},{"poiid":"B2094655D268A4FC4593","title":"快客No.5225","lon":"121.39748","lat":"31.1787","category":"117","category_name":"便民商店/便利店","address":""},{"poiid":"B2094655D26FABF8489A","title":"万源新城","lon":"121.393","lat":"31.1769","category":"47","category_name":"住宅区","address":"万源路2289弄1-39号"},{"poiid":"B2094757D66CA3FF469D","title":"漕河泾开发区智汇园食堂","lon":"121.39977","lat":"31.17709","category":"68","category_name":"快餐厅","address":"徐汇区钦州北路1198号漕河泾开发区智汇园地下室(桂平路钦州北路)"},{"poiid":"B2094655D268A4FF449B","title":"上海漕河泾开发区智汇园A座(南一门)","lon":"121.39978","lat":"31.17735","category":"46","category_name":"楼宇","address":"钦州北路1198"},{"poiid":"B2094654D564A1FA429B","title":"苹果园","lon":"121.397","lat":"31.1812","category":"47","category_name":"住宅区","address":"苹果园位于长宁虹桥环镇南路88弄"},{"poiid":"B2094655D26CAAF8469D","title":"虹梅小区","lon":"121.39598","lat":"31.17515","category":"47","category_name":"住宅区","address":"虹梅路2666弄1-22号"},{"poiid":"B2094654D564A1F8409F","title":"上海虹桥医院","lon":"121.39499","lat":"31.17503","category":"162","category_name":"医院","address":"闵行区虹梅路2181号(近吴中路)"},{"poiid":"B2094655D26EA7FF4293","title":"兴迪商务大厦","lon":"121.39707435866","lat":"31.174468668323","category":"46","category_name":"楼宇","address":"宜山路1698号"},{"poiid":"B2094654DB65A1FF449B","title":"祥利港式茶餐厅","lon":"121.39521691359","lat":"31.181161131988","category":"72","category_name":"广东菜","address":"闵行区吴中路686弄2号金虹桥广场1楼E1(近虹许路)"},{"poiid":"B2094654D56BAAFF429F","title":"旅专小区","lon":"121.39656","lat":"31.179976","category":"47","category_name":"住宅区","address":"吴中路689弄1-15号"},{"poiid":"B2094757D06AABFF469E","title":"秘密花园","lon":"121.39619958","lat":"31.177783405","category":"47","category_name":"住宅区","address":"上海市闵行区吴中路"},{"poiid":"B2094757D16CA4F9489E","title":"虹桥阳光翠庭","lon":"121.395236","lat":"31.178899","category":"47","category_name":"住宅区","address":"上海市闵行区莲花路2150弄"},{"poiid":"B2094655D26AA6F4479A","title":"天圣酸菜鱼火锅 吴中路店","lon":"121.3954705076","lat":"31.181120220201","category":"86","category_name":"火锅店","address":"闵行区吴中路685号(近虹许路)"},{"poiid":"B2094757D06BA2FE4799","title":"明申花园","lon":"121.39806","lat":"31.181097","category":"252","category_name":"楼宇机构","address":"上海市闵行区吴中路630号"},{"poiid":"B2094757D469A1FE4099","title":"新食尚 Minifoco","lon":"121.395817","lat":"31.174036","category":"68","category_name":"快餐厅","address":"闵行区虹梅路1801号圆房(近宜山路)"},{"poiid":"B2094655D26EA6FF449B","title":"汉庭快捷酒店(上海古北店)","lon":"121.39782","lat":"31.18262","category":"216","category_name":"经济型连锁酒店","address":"闵行区吴中路638号(近虹许路)"},{"poiid":"B2094655D26FA6FA419A","title":"虹兴苑","lon":"121.4","lat":"31.181","category":"47","category_name":"住宅区","address":"虹梅路2555弄"},{"poiid":"B2094655D268A2FA479F","title":"永兆豪庭(虹许路)","lon":"121.39625","lat":"31.17392","category":"47","category_name":"住宅区","address":"上海市徐汇区虹梅路2558弄"},{"poiid":"B2094757D568A5FC4792","title":"钦江园","lon":"121.4000906","lat":"31.17442735","category":"45","category_name":"产业园区","address":"钦江路333"},{"poiid":"B2094757D66EA4F5499E","title":"智汇园82号楼","lon":"121.40037965","lat":"31.177964799","category":"252","category_name":"楼宇机构","address":"上海钦州北路1198号"},{"poiid":"B2094757D16CA5FA419C","title":"每个人都有一些小怪癖","lon":"121.39615058","lat":"31.177423398","category":"500","category_name":"未知分类","address":"上海市闵行区吴中路"},{"poiid":"B209475DD268AAFF4499","title":"徐家汇","lon":"121.398559","lat":"31.176189","category":"500","category_name":"未知分类","address":"上海市 美罗城"},{"poiid":"B2094757D66AA6FC4198","title":"东北农家菜 虹梅路","lon":"121.394544054","lat":"31.175447793","category":"82","category_name":"东北菜","address":"闵行区虹梅路2181号虹桥医院旁(近环镇南路)"},{"poiid":"B2094655D268A3FD4593","title":"旅专小区(东门)","lon":"121.39696","lat":"31.18024","category":"47","category_name":"住宅区","address":"吴中路689弄1-15号"},{"poiid":"B2094757D56CA2F5439E","title":"千鹤居日本料理 吴中路店","lon":"121.39488178291","lat":"31.180961264102","category":"247","category_name":"餐饮美食","address":"吴中路682号金虹桥广场2楼B室近虹许路"},{"poiid":"B2094757D168A5FB409C","title":"另一个世界的梦游者","lon":"121.39612958","lat":"31.177654403","category":"500","category_name":"未知分类","address":"上海市闵行区吴中路"},{"poiid":"B2094757D16AA6FB4498","title":"思科Cisco","lon":"121.39622908","lat":"31.176321577","category":"500","category_name":"未知分类","address":"上海宜山路926号新思大厦7楼"}]