[{"poiid":"B2094654D569AAFC449B","title":"上海动物园","lon":"121.36272202550413","lat":"31.194404631992096","category":"197","category_name":"动物园","address":"虹桥路2381号。"},{"poiid":"B2094757D168A5FB479C","title":"西郊动物园","lon":"121.357255586","lat":"31.1915996757","category":"500","category_name":"未知分类","address":"上海"},{"poiid":"B2094757D06FA1F5499E","title":"龙柏饭店","lon":"121.35993957","lat":"31.190093994","category":"217","category_name":"旅馆招待所","address":"上海市长宁区虹桥路2419号(近沪青平公路)"},{"poiid":"B2094757D06BABFE4698","title":"虹桥机场2号航站楼21号登机口","lon":"121.35440496","lat":"31.1979483666","category":"21","category_name":"飞机场","address":"上海虹桥机场T2"},{"poiid":"B2094757D06FA5F9469C","title":"西郊公园","lon":"121.366499424","lat":"31.1906089622","category":"196","category_name":"公园","address":"上海虹桥路"},{"poiid":"B2094757D06AA3FA439E","title":"虹桥1号楼","lon":"121.3544507","lat":"31.1985262788","category":"252","category_name":"楼宇机构","address":"上海虹桥机场"},{"poiid":"B2094757D06FA3FE4199","title":"虹桥机场新村","lon":"121.35444934","lat":"31.184550556","category":"47","category_name":"住宅区","address":"上海市徐汇区龙华西路丰谷路"},{"poiid":"B2094757D06FA3FC4599","title":"上海动物园地铁站","lon":"121.36693938","lat":"31.19022555","category":"36","category_name":"地铁站","address":"上海轨道交通 十号线 轨交上海动物园站 10"},{"poiid":"B2094757D165A1F44792","title":"上海动物园大猩猩馆","lon":"121.362465586","lat":"31.1930057032","category":"500","category_name":"未知分类","address":"上海动物园"},{"poiid":"B2094757D06BA1FA4293","title":"延安路高架","lon":"121.358902586","lat":"31.1837395221","category":"500","category_name":"未知分类","address":"上海延安路高架"},{"poiid":"B2094757D068A5F9469D","title":"上海国际旅行卫生保健中心","lon":"121.36435699","lat":"31.198169708","category":"162","category_name":"医院","address":"长宁区金浜路15号(近哈密路)"},{"poiid":"B2094757D06FA5F5469B","title":"顽皮家族宠物医院(虹桥路总店)","lon":"121.36548934","lat":"31.190155323","category":"162","category_name":"医院","address":"长宁区虹桥路2393号(近动物园)"},{"poiid":"B2094654DB69A5FF419D","title":"莫泰168连锁旅店(沪青平公路店)","lon":"121.35752","lat":"31.18448","category":"216","category_name":"经济型连锁酒店","address":"闵行区沪青平公路38号"},{"poiid":"B2094654D569AAFC439C","title":"长江商学院","lon":"121.36066","lat":"31.18813","category":"671","category_name":"高校中心点","address":""},{"poiid":"B2094654D569AAFC4293","title":"皇朝别墅","lon":"121.3645","lat":"31.18718","category":"47","category_name":"住宅区","address":"长宁区虹桥路2388号(近虹井路)"},{"poiid":"B2094654D569AAFC429C","title":"阿山饭店","lon":"121.36647159056","lat":"31.189958417134","category":"76","category_name":"上海菜","address":"长宁区虹桥路2378号(近动物园)"},{"poiid":"B2094757D069AAF4409E","title":"上海国际机场宾馆","lon":"121.351939","lat":"31.193988","category":"217","category_name":"旅馆招待所","address":"长宁区迎宾一路368号(虹桥机场候机楼旁)"},{"poiid":"B2094757D065A1FD4298","title":"老虎山","lon":"121.360507586","lat":"31.1949827418","category":"500","category_name":"未知分类","address":"上海西郊公园"},{"poiid":"B2094757D16DA0F44192","title":"汉庭快捷酒店(虹桥机场店)","lon":"121.356521","lat":"31.183054","category":"217","category_name":"旅馆招待所","address":"上海市长宁区沪青平公路58号(近延安西路)"},{"poiid":"B2094757D069A3FE419A","title":"上海出入境检验检疫局/上海国际旅行卫生保健中心","lon":"121.36445758","lat":"31.197729795","category":"162","category_name":"医院","address":"上海市长宁区金浜路15号"},{"poiid":"B2094654D56AA2FF449E","title":"上海航友宾馆","lon":"121.35079","lat":"31.19295","category":"215","category_name":"三星级宾馆","address":"上海市长宁区迎宾一路425号(近虹桥机场一号航站楼)"},{"poiid":"B2094750D66FA6FB4092","title":"医院","lon":"121.364761","lat":"31.195802","category":"162","category_name":"医院","address":"哈密路青溪路"},{"poiid":"B2094757D069A7FB4192","title":"舒友海鲜大酒楼(西郊店)","lon":"121.36363","lat":"31.18867","category":"260","category_name":"其他","address":"长宁区虹桥路2399号(近虹井路)"},{"poiid":"B2094757D068A7F9499D","title":"沪青平公路","lon":"121.356526","lat":"31.187773","category":"500","category_name":"未知分类","address":"上海沪青平公路336号"},{"poiid":"B2094757D66BA4F5419C","title":"pizzasun","lon":"121.36725256124","lat":"31.189778276359","category":"94","category_name":"西餐厅","address":"长宁区虹井路989号(近虹桥路)"},{"poiid":"B2094757D16BA1FA489E","title":"虹桥机场航友宾馆会议中心","lon":"121.35617998","lat":"31.191082165","category":"21","category_name":"飞机场","address":"上海迎宾一路425号"},{"poiid":"B2094655D26EA2FD449D","title":"龙柏饭店宴会厅","lon":"121.36071","lat":"31.18758","category":"247","category_name":"餐饮美食","address":"长宁区虹桥路2409号龙柏饭店2楼(近虹井路)查看地图"},{"poiid":"B2094655D26EA3FA4593","title":"格林豪泰(上海虹桥机场酒店公寓)","lon":"121.36744","lat":"31.19583","category":"216","category_name":"经济型连锁酒店","address":"长宁区哈密路1721号(近虹桥路)"},{"poiid":"B2094757D069ABFA4498","title":"中国人民解放军第四五五医院(哈密路分院)","lon":"121.36747","lat":"31.19587","category":"162","category_name":"医院","address":"长宁区哈密路1713号(近虹桥路)"},{"poiid":"B2094757D66DABF4499C","title":"浦东机场T1航站楼VVIP A区","lon":"121.361251336","lat":"31.198727265","category":"21","category_name":"飞机场","address":"上海浦东机场T1航站楼VVIP A区"},{"poiid":"B2094654DB6BA1F4419C","title":"虹桥龙柏公寓","lon":"121.36544851952","lat":"31.193572126218","category":"47","category_name":"住宅区","address":"绿苑路21弄识别"},{"poiid":"B2094751D264A2FF419B","title":"惟宾甜品","lon":"121.3596519","lat":"31.1842104","category":"247","category_name":"餐饮美食","address":"闵行区黄桦路347号"},{"poiid":"B2094757D465ABFE429A","title":"满月","lon":"121.360967","lat":"31.198553","category":"269","category_name":"烧烤","address":"长宁区金浜路112号(近福泉路)"},{"poiid":"B2094757D168A7F5479F","title":"91路公交程家桥站","lon":"121.35920891","lat":"31.191036798","category":"38","category_name":"公交车站","address":"上海长宁区虹桥路2285号"},{"poiid":"B2094752D36DABFF4599","title":"Geneva","lon":"121.364115","lat":"31.196543","category":"247","category_name":"餐饮美食","address":"哈密路1876弄6号"},{"poiid":"B2094655D26FA0F9419F","title":"龙柏花苑南区","lon":"121.36106","lat":"31.1867","category":"47","category_name":"住宅区","address":"上海市长宁区虹桥路2419号（近沪青平公路）"},{"poiid":"B2094757D16DA6F5419E","title":"新天鹭会议中心","lon":"121.35623","lat":"31.18568","category":"76","category_name":"上海菜","address":"长宁区迎宾三路101号(虹桥机场内)"},{"poiid":"B2094757D568A6FE489D","title":"真功夫(虹桥机场T2店)","lon":"121.351975999998","lat":"31.1938240000001","category":"68","category_name":"快餐厅","address":"闵行区虹桥路2550号虹桥机场T2航站楼内(近迎宾一路)"},{"poiid":"B2094654DB69A7FE429D","title":"沙逊花园 Sassoon Park","lon":"121.35994","lat":"31.19009","category":"47","category_name":"住宅区","address":"长宁区虹桥路2419号龙柏饭店1楼(近虹井路)"},{"poiid":"B2094757D16FA0FC4098","title":"虹桥机场西区东航保障部","lon":"121.35924","lat":"31.188069","category":"21","category_name":"飞机场","address":"上海虹桥机场西区"},{"poiid":"B2094654D569A6FF4498","title":"嘉富丽苑","lon":"121.3627","lat":"31.183609","category":"47","category_name":"住宅区","address":"上海市闵行区黄桦路189号"},{"poiid":"B2094655D26DA6F9489C","title":"龙柏花苑北区","lon":"121.35994","lat":"31.19009","category":"47","category_name":"住宅区","address":"上海市长宁区虹桥路2419号（近沪青平公路）"},{"poiid":"B2094752D66FA7FD4392","title":"上海动物园","lon":"121.364366","lat":"31.184475","category":"250","category_name":"公园户外","address":null},{"poiid":"B2094757D465A3F94698","title":"逸和龙柏饭店","lon":"121.36369077655","lat":"31.189160115686","category":"76","category_name":"上海菜","address":"长宁区虹桥路2451号(近虹井路)"},{"poiid":"B2094654DB6BA0FD489A","title":"龙柏花苑南区(北门)","lon":"121.3608","lat":"31.18721","category":"47","category_name":"住宅区","address":"上海市长宁区虹桥路2419号（近沪青平公路）"},{"poiid":"B2094757D46EA5F4499D","title":"哈里欧咖啡 虹桥机场店","lon":"121.354999","lat":"31.184513","category":"65","category_name":"咖啡厅","address":"闵行区虹桥机场T2"},{"poiid":"B2094757D569A3F8489C","title":"景湖别墅","lon":"121.364","lat":"31.1892","category":"47","category_name":"住宅区","address":"闵行沪青平公路"},{"poiid":"B2094757D16DA6FA4999","title":"佳源日式炭火烧肉","lon":"121.3595197","lat":"31.1870474","category":"269","category_name":"烧烤","address":"长宁区虹桥路2457号(近虹井路)"},{"poiid":"B2094750D66BA5FB4392","title":"奥特莱斯（百联奥特莱斯广场店）","lon":"121.358","lat":"31.1851","category":"141","category_name":"服装鞋帽皮具店","address":"上海青浦区沪青平公路2888号百联奥特莱斯广场店C区二层"},{"poiid":"B2094757D465A1FC439E","title":"倍可意 虹桥机场店 Bricco Cafe","lon":"121.355325054","lat":"31.187997793","category":"94","category_name":"西餐厅","address":"长宁区虹桥机场国内出发禁区B1登机口(近空港二路)"},{"poiid":"B2094654D569AAFC449B","title":"上海动物园","lon":"121.36272202550413","lat":"31.194404631992096","category":"197","category_name":"动物园","address":"虹桥路2381号。"},{"poiid":"B2094757D168A5FB479C","title":"西郊动物园","lon":"121.357255586","lat":"31.1915996757","category":"500","category_name":"未知分类","address":"上海"},{"poiid":"B2094757D06FA1F5499E","title":"龙柏饭店","lon":"121.35993957","lat":"31.190093994","category":"217","category_name":"旅馆招待所","address":"上海市长宁区虹桥路2419号(近沪青平公路)"},{"poiid":"B2094757D06BABFE4698","title":"虹桥机场2号航站楼21号登机口","lon":"121.35440496","lat":"31.1979483666","category":"21","category_name":"飞机场","address":"上海虹桥机场T2"},{"poiid":"B2094757D06FA5F9469C","title":"西郊公园","lon":"121.366499424","lat":"31.1906089622","category":"196","category_name":"公园","address":"上海虹桥路"},{"poiid":"B2094757D06AA3FA439E","title":"虹桥1号楼","lon":"121.3544507","lat":"31.1985262788","category":"252","category_name":"楼宇机构","address":"上海虹桥机场"},{"poiid":"B2094757D06FA3FE4199","title":"虹桥机场新村","lon":"121.35444934","lat":"31.184550556","category":"47","category_name":"住宅区","address":"上海市徐汇区龙华西路丰谷路"},{"poiid":"B2094757D06FA3FC4599","title":"上海动物园地铁站","lon":"121.36693938","lat":"31.19022555","category":"36","category_name":"地铁站","address":"上海轨道交通 十号线 轨交上海动物园站 10"},{"poiid":"B2094757D165A1F44792","title":"上海动物园大猩猩馆","lon":"121.362465586","lat":"31.1930057032","category":"500","category_name":"未知分类","address":"上海动物园"},{"poiid":"B2094757D06BA1FA4293","title":"延安路高架","lon":"121.358902586","lat":"31.1837395221","category":"500","category_name":"未知分类","address":"上海延安路高架"},{"poiid":"B2094757D068A5F9469D","title":"上海国际旅行卫生保健中心","lon":"121.36435699","lat":"31.198169708","category":"162","category_name":"医院","address":"长宁区金浜路15号(近哈密路)"},{"poiid":"B2094757D06FA5F5469B","title":"顽皮家族宠物医院(虹桥路总店)","lon":"121.36548934","lat":"31.190155323","category":"162","category_name":"医院","address":"长宁区虹桥路2393号(近动物园)"},{"poiid":"B2094654DB69A5FF419D","title":"莫泰168连锁旅店(沪青平公路店)","lon":"121.35752","lat":"31.18448","category":"216","category_name":"经济型连锁酒店","address":"闵行区沪青平公路38号"},{"poiid":"B2094654D569AAFC439C","title":"长江商学院","lon":"121.36066","lat":"31.18813","category":"671","category_name":"高校中心点","address":""},{"poiid":"B2094654D569AAFC4293","title":"皇朝别墅","lon":"121.3645","lat":"31.18718","category":"47","category_name":"住宅区","address":"长宁区虹桥路2388号(近虹井路)"},{"poiid":"B2094654D569AAFC429C","title":"阿山饭店","lon":"121.36647159056","lat":"31.189958417134","category":"76","category_name":"上海菜","address":"长宁区虹桥路2378号(近动物园)"},{"poiid":"B2094757D069AAF4409E","title":"上海国际机场宾馆","lon":"121.351939","lat":"31.193988","category":"217","category_name":"旅馆招待所","address":"长宁区迎宾一路368号(虹桥机场候机楼旁)"},{"poiid":"B2094757D065A1FD4298","title":"老虎山","lon":"121.360507586","lat":"31.1949827418","category":"500","category_name":"未知分类","address":"上海西郊公园"},{"poiid":"B2094757D16DA0F44192","title":"汉庭快捷酒店(虹桥机场店)","lon":"121.356521","lat":"31.183054","category":"217","category_name":"旅馆招待所","address":"上海市长宁区沪青平公路58号(近延安西路)"},{"poiid":"B2094757D069A3FE419A","title":"上海出入境检验检疫局/上海国际旅行卫生保健中心","lon":"121.36445758","lat":"31.197729795","category":"162","category_name":"医院","address":"上海市长宁区金浜路15号"},{"poiid":"B2094654D56AA2FF449E","title":"上海航友宾馆","lon":"121.35079","lat":"31.19295","category":"215","category_name":"三星级宾馆","address":"上海市长宁区迎宾一路425号(近虹桥机场一号航站楼)"},{"poiid":"B2094750D66FA6FB4092","title":"医院","lon":"121.364761","lat":"31.195802","category":"162","category_name":"医院","address":"哈密路青溪路"},{"poiid":"B2094757D069A7FB4192","title":"舒友海鲜大酒楼(西郊店)","lon":"121.36363","lat":"31.18867","category":"260","category_name":"其他","address":"长宁区虹桥路2399号(近虹井路)"},{"poiid":"B2094757D068A7F9499D","title":"沪青平公路","lon":"121.356526","lat":"31.187773","category":"500","category_name":"未知分类","address":"上海沪青平公路336号"},{"poiid":"B2094757D66BA4F5419C","title":"pizzasun","lon":"121.36725256124","lat":"31.189778276359","category":"94","category_name":"西餐厅","address":"长宁区虹井路989号(近虹桥路)"},{"poiid":"B2094757D16BA1FA489E","title":"虹桥机场航友宾馆会议中心","lon":"121.35617998","lat":"31.191082165","category":"21","category_name":"飞机场","address":"上海迎宾一路425号"},{"poiid":"B2094655D26EA2FD449D","title":"龙柏饭店宴会厅","lon":"121.36071","lat":"31.18758","category":"247","category_name":"餐饮美食","address":"长宁区虹桥路2409号龙柏饭店2楼(近虹井路)查看地图"},{"poiid":"B2094655D26EA3FA4593","title":"格林豪泰(上海虹桥机场酒店公寓)","lon":"121.36744","lat":"31.19583","category":"216","category_name":"经济型连锁酒店","address":"长宁区哈密路1721号(近虹桥路)"},{"poiid":"B2094757D069ABFA4498","title":"中国人民解放军第四五五医院(哈密路分院)","lon":"121.36747","lat":"31.19587","category":"162","category_name":"医院","address":"长宁区哈密路1713号(近虹桥路)"},{"poiid":"B2094757D66DABF4499C","title":"浦东机场T1航站楼VVIP A区","lon":"121.361251336","lat":"31.198727265","category":"21","category_name":"飞机场","address":"上海浦东机场T1航站楼VVIP A区"},{"poiid":"B2094654DB6BA1F4419C","title":"虹桥龙柏公寓","lon":"121.36544851952","lat":"31.193572126218","category":"47","category_name":"住宅区","address":"绿苑路21弄识别"},{"poiid":"B2094751D264A2FF419B","title":"惟宾甜品","lon":"121.3596519","lat":"31.1842104","category":"247","category_name":"餐饮美食","address":"闵行区黄桦路347号"},{"poiid":"B2094757D465ABFE429A","title":"满月","lon":"121.360967","lat":"31.198553","category":"269","category_name":"烧烤","address":"长宁区金浜路112号(近福泉路)"},{"poiid":"B2094757D168A7F5479F","title":"91路公交程家桥站","lon":"121.35920891","lat":"31.191036798","category":"38","category_name":"公交车站","address":"上海长宁区虹桥路2285号"},{"poiid":"B2094752D36DABFF4599","title":"Geneva","lon":"121.364115","lat":"31.196543","category":"247","category_name":"餐饮美食","address":"哈密路1876弄6号"},{"poiid":"B2094655D26FA0F9419F","title":"龙柏花苑南区","lon":"121.36106","lat":"31.1867","category":"47","category_name":"住宅区","address":"上海市长宁区虹桥路2419号（近沪青平公路）"},{"poiid":"B2094757D16DA6F5419E","title":"新天鹭会议中心","lon":"121.35623","lat":"31.18568","category":"76","category_name":"上海菜","address":"长宁区迎宾三路101号(虹桥机场内)"},{"poiid":"B2094757D568A6FE489D","title":"真功夫(虹桥机场T2店)","lon":"121.351975999998","lat":"31.1938240000001","category":"68","category_name":"快餐厅","address":"闵行区虹桥路2550号虹桥机场T2航站楼内(近迎宾一路)"},{"poiid":"B2094654DB69A7FE429D","title":"沙逊花园 Sassoon Park","lon":"121.35994","lat":"31.19009","category":"47","category_name":"住宅区","address":"长宁区虹桥路2419号龙柏饭店1楼(近虹井路)"},{"poiid":"B2094757D16FA0FC4098","title":"虹桥机场西区东航保障部","lon":"121.35924","lat":"31.188069","category":"21","category_name":"飞机场","address":"上海虹桥机场西区"},{"poiid":"B2094654D569A6FF4498","title":"嘉富丽苑","lon":"121.3627","lat":"31.183609","category":"47","category_name":"住宅区","address":"上海市闵行区黄桦路189号"},{"poiid":"B2094655D26DA6F9489C","title":"龙柏花苑北区","lon":"121.35994","lat":"31.19009","category":"47","category_name":"住宅区","address":"上海市长宁区虹桥路2419号（近沪青平公路）"},{"poiid":"B2094752D66FA7FD4392","title":"上海动物园","lon":"121.364366","lat":"31.184475","category":"250","category_name":"公园户外","address":null},{"poiid":"B2094757D465A3F94698","title":"逸和龙柏饭店","lon":"121.36369077655","lat":"31.189160115686","category":"76","category_name":"上海菜","address":"长宁区虹桥路2451号(近虹井路)"},{"poiid":"B2094654DB6BA0FD489A","title":"龙柏花苑南区(北门)","lon":"121.3608","lat":"31.18721","category":"47","category_name":"住宅区","address":"上海市长宁区虹桥路2419号（近沪青平公路）"},{"poiid":"B2094757D46EA5F4499D","title":"哈里欧咖啡 虹桥机场店","lon":"121.354999","lat":"31.184513","category":"65","category_name":"咖啡厅","address":"闵行区虹桥机场T2"},{"poiid":"B2094757D569A3F8489C","title":"景湖别墅","lon":"121.364","lat":"31.1892","category":"47","category_name":"住宅区","address":"闵行沪青平公路"},{"poiid":"B2094757D16DA6FA4999","title":"佳源日式炭火烧肉","lon":"121.3595197","lat":"31.1870474","category":"269","category_name":"烧烤","address":"长宁区虹桥路2457号(近虹井路)"},{"poiid":"B2094750D66BA5FB4392","title":"奥特莱斯（百联奥特莱斯广场店）","lon":"121.358","lat":"31.1851","category":"141","category_name":"服装鞋帽皮具店","address":"上海青浦区沪青平公路2888号百联奥特莱斯广场店C区二层"},{"poiid":"B2094757D465A1FC439E","title":"倍可意 虹桥机场店 Bricco Cafe","lon":"121.355325054","lat":"31.187997793","category":"94","category_name":"西餐厅","address":"长宁区虹桥机场国内出发禁区B1登机口(近空港二路)"},{"poiid":"B2094654D569AAFC449B","title":"上海动物园","lon":"121.36272202550413","lat":"31.194404631992096","category":"197","category_name":"动物园","address":"虹桥路2381号。"},{"poiid":"B2094757D168A5FB479C","title":"西郊动物园","lon":"121.357255586","lat":"31.1915996757","category":"500","category_name":"未知分类","address":"上海"},{"poiid":"B2094757D06FA1F5499E","title":"龙柏饭店","lon":"121.35993957","lat":"31.190093994","category":"217","category_name":"旅馆招待所","address":"上海市长宁区虹桥路2419号(近沪青平公路)"},{"poiid":"B2094757D06BABFE4698","title":"虹桥机场2号航站楼21号登机口","lon":"121.35440496","lat":"31.1979483666","category":"21","category_name":"飞机场","address":"上海虹桥机场T2"},{"poiid":"B2094757D06FA5F9469C","title":"西郊公园","lon":"121.366499424","lat":"31.1906089622","category":"196","category_name":"公园","address":"上海虹桥路"},{"poiid":"B2094757D06AA3FA439E","title":"虹桥1号楼","lon":"121.3544507","lat":"31.1985262788","category":"252","category_name":"楼宇机构","address":"上海虹桥机场"},{"poiid":"B2094757D06FA3FE4199","title":"虹桥机场新村","lon":"121.35444934","lat":"31.184550556","category":"47","category_name":"住宅区","address":"上海市徐汇区龙华西路丰谷路"},{"poiid":"B2094757D06FA3FC4599","title":"上海动物园地铁站","lon":"121.36693938","lat":"31.19022555","category":"36","category_name":"地铁站","address":"上海轨道交通 十号线 轨交上海动物园站 10"},{"poiid":"B2094757D165A1F44792","title":"上海动物园大猩猩馆","lon":"121.362465586","lat":"31.1930057032","category":"500","category_name":"未知分类","address":"上海动物园"},{"poiid":"B2094757D06BA1FA4293","title":"延安路高架","lon":"121.358902586","lat":"31.1837395221","category":"500","category_name":"未知分类","address":"上海延安路高架"},{"poiid":"B2094757D068A5F9469D","title":"上海国际旅行卫生保健中心","lon":"121.36435699","lat":"31.198169708","category":"162","category_name":"医院","address":"长宁区金浜路15号(近哈密路)"},{"poiid":"B2094757D06FA5F5469B","title":"顽皮家族宠物医院(虹桥路总店)","lon":"121.36548934","lat":"31.190155323","category":"162","category_name":"医院","address":"长宁区虹桥路2393号(近动物园)"},{"poiid":"B2094654DB69A5FF419D","title":"莫泰168连锁旅店(沪青平公路店)","lon":"121.35752","lat":"31.18448","category":"216","category_name":"经济型连锁酒店","address":"闵行区沪青平公路38号"},{"poiid":"B2094654D569AAFC439C","title":"长江商学院","lon":"121.36066","lat":"31.18813","category":"671","category_name":"高校中心点","address":""},{"poiid":"B2094654D569AAFC4293","title":"皇朝别墅","lon":"121.3645","lat":"31.18718","category":"47","category_name":"住宅区","address":"长宁区虹桥路2388号(近虹井路)"},{"poiid":"B2094654D569AAFC429C","title":"阿山饭店","lon":"121.36647159056","lat":"31.189958417134","category":"76","category_name":"上海菜","address":"长宁区虹桥路2378号(近动物园)"},{"poiid":"B2094757D069AAF4409E","title":"上海国际机场宾馆","lon":"121.351939","lat":"31.193988","category":"217","category_name":"旅馆招待所","address":"长宁区迎宾一路368号(虹桥机场候机楼旁)"},{"poiid":"B2094757D065A1FD4298","title":"老虎山","lon":"121.360507586","lat":"31.1949827418","category":"500","category_name":"未知分类","address":"上海西郊公园"},{"poiid":"B2094757D16DA0F44192","title":"汉庭快捷酒店(虹桥机场店)","lon":"121.356521","lat":"31.183054","category":"217","category_name":"旅馆招待所","address":"上海市长宁区沪青平公路58号(近延安西路)"},{"poiid":"B2094757D069A3FE419A","title":"上海出入境检验检疫局/上海国际旅行卫生保健中心","lon":"121.36445758","lat":"31.197729795","category":"162","category_name":"医院","address":"上海市长宁区金浜路15号"},{"poiid":"B2094654D56AA2FF449E","title":"上海航友宾馆","lon":"121.35079","lat":"31.19295","category":"215","category_name":"三星级宾馆","address":"上海市长宁区迎宾一路425号(近虹桥机场一号航站楼)"},{"poiid":"B2094750D66FA6FB4092","title":"医院","lon":"121.364761","lat":"31.195802","category":"162","category_name":"医院","address":"哈密路青溪路"},{"poiid":"B2094757D069A7FB4192","title":"舒友海鲜大酒楼(西郊店)","lon":"121.36363","lat":"31.18867","category":"260","category_name":"其他","address":"长宁区虹桥路2399号(近虹井路)"},{"poiid":"B2094757D068A7F9499D","title":"沪青平公路","lon":"121.356526","lat":"31.187773","category":"500","category_name":"未知分类","address":"上海沪青平公路336号"},{"poiid":"B2094757D66BA4F5419C","title":"pizzasun","lon":"121.36725256124","lat":"31.189778276359","category":"94","category_name":"西餐厅","address":"长宁区虹井路989号(近虹桥路)"},{"poiid":"B2094757D16BA1FA489E","title":"虹桥机场航友宾馆会议中心","lon":"121.35617998","lat":"31.191082165","category":"21","category_name":"飞机场","address":"上海迎宾一路425号"},{"poiid":"B2094655D26EA2FD449D","title":"龙柏饭店宴会厅","lon":"121.36071","lat":"31.18758","category":"247","category_name":"餐饮美食","address":"长宁区虹桥路2409号龙柏饭店2楼(近虹井路)查看地图"},{"poiid":"B2094655D26EA3FA4593","title":"格林豪泰(上海虹桥机场酒店公寓)","lon":"121.36744","lat":"31.19583","category":"216","category_name":"经济型连锁酒店","address":"长宁区哈密路1721号(近虹桥路)"},{"poiid":"B2094757D069ABFA4498","title":"中国人民解放军第四五五医院(哈密路分院)","lon":"121.36747","lat":"31.19587","category":"162","category_name":"医院","address":"长宁区哈密路1713号(近虹桥路)"},{"poiid":"B2094757D66DABF4499C","title":"浦东机场T1航站楼VVIP A区","lon":"121.361251336","lat":"31.198727265","category":"21","category_name":"飞机场","address":"上海浦东机场T1航站楼VVIP A区"},{"poiid":"B2094654DB6BA1F4419C","title":"虹桥龙柏公寓","lon":"121.36544851952","lat":"31.193572126218","category":"47","category_name":"住宅区","address":"绿苑路21弄识别"},{"poiid":"B2094751D264A2FF419B","title":"惟宾甜品","lon":"121.3596519","lat":"31.1842104","category":"247","category_name":"餐饮美食","address":"闵行区黄桦路347号"},{"poiid":"B2094757D465ABFE429A","title":"满月","lon":"121.360967","lat":"31.198553","category":"269","category_name":"烧烤","address":"长宁区金浜路112号(近福泉路)"},{"poiid":"B2094757D168A7F5479F","title":"91路公交程家桥站","lon":"121.35920891","lat":"31.191036798","category":"38","category_name":"公交车站","address":"上海长宁区虹桥路2285号"},{"poiid":"B2094752D36DABFF4599","title":"Geneva","lon":"121.364115","lat":"31.196543","category":"247","category_name":"餐饮美食","address":"哈密路1876弄6号"},{"poiid":"B2094655D26FA0F9419F","title":"龙柏花苑南区","lon":"121.36106","lat":"31.1867","category":"47","category_name":"住宅区","address":"上海市长宁区虹桥路2419号（近沪青平公路）"},{"poiid":"B2094757D16DA6F5419E","title":"新天鹭会议中心","lon":"121.35623","lat":"31.18568","category":"76","category_name":"上海菜","address":"长宁区迎宾三路101号(虹桥机场内)"},{"poiid":"B2094757D568A6FE489D","title":"真功夫(虹桥机场T2店)","lon":"121.351975999998","lat":"31.1938240000001","category":"68","category_name":"快餐厅","address":"闵行区虹桥路2550号虹桥机场T2航站楼内(近迎宾一路)"},{"poiid":"B2094654DB69A7FE429D","title":"沙逊花园 Sassoon Park","lon":"121.35994","lat":"31.19009","category":"47","category_name":"住宅区","address":"长宁区虹桥路2419号龙柏饭店1楼(近虹井路)"},{"poiid":"B2094757D16FA0FC4098","title":"虹桥机场西区东航保障部","lon":"121.35924","lat":"31.188069","category":"21","category_name":"飞机场","address":"上海虹桥机场西区"},{"poiid":"B2094654D569A6FF4498","title":"嘉富丽苑","lon":"121.3627","lat":"31.183609","category":"47","category_name":"住宅区","address":"上海市闵行区黄桦路189号"},{"poiid":"B2094655D26DA6F9489C","title":"龙柏花苑北区","lon":"121.35994","lat":"31.19009","category":"47","category_name":"住宅区","address":"上海市长宁区虹桥路2419号（近沪青平公路）"},{"poiid":"B2094752D66FA7FD4392","title":"上海动物园","lon":"121.364366","lat":"31.184475","category":"250","category_name":"公园户外","address":null},{"poiid":"B2094757D465A3F94698","title":"逸和龙柏饭店","lon":"121.36369077655","lat":"31.189160115686","category":"76","category_name":"上海菜","address":"长宁区虹桥路2451号(近虹井路)"},{"poiid":"B2094654DB6BA0FD489A","title":"龙柏花苑南区(北门)","lon":"121.3608","lat":"31.18721","category":"47","category_name":"住宅区","address":"上海市长宁区虹桥路2419号（近沪青平公路）"},{"poiid":"B2094757D46EA5F4499D","title":"哈里欧咖啡 虹桥机场店","lon":"121.354999","lat":"31.184513","category":"65","category_name":"咖啡厅","address":"闵行区虹桥机场T2"},{"poiid":"B2094757D569A3F8489C","title":"景湖别墅","lon":"121.364","lat":"31.1892","category":"47","category_name":"住宅区","address":"闵行沪青平公路"},{"poiid":"B2094757D16DA6FA4999","title":"佳源日式炭火烧肉","lon":"121.3595197","lat":"31.1870474","category":"269","category_name":"烧烤","address":"长宁区虹桥路2457号(近虹井路)"},{"poiid":"B2094750D66BA5FB4392","title":"奥特莱斯（百联奥特莱斯广场店）","lon":"121.358","lat":"31.1851","category":"141","category_name":"服装鞋帽皮具店","address":"上海青浦区沪青平公路2888号百联奥特莱斯广场店C区二层"},{"poiid":"B2094757D465A1FC439E","title":"倍可意 虹桥机场店 Bricco Cafe","lon":"121.355325054","lat":"31.187997793","category":"94","category_name":"西餐厅","address":"长宁区虹桥机场国内出发禁区B1登机口(近空港二路)"},{"poiid":"B2094654D569AAFC449B","title":"上海动物园","lon":"121.36272202550413","lat":"31.194404631992096","category":"197","category_name":"动物园","address":"虹桥路2381号。"},{"poiid":"B2094757D168A5FB479C","title":"西郊动物园","lon":"121.357255586","lat":"31.1915996757","category":"500","category_name":"未知分类","address":"上海"},{"poiid":"B2094757D06FA1F5499E","title":"龙柏饭店","lon":"121.35993957","lat":"31.190093994","category":"217","category_name":"旅馆招待所","address":"上海市长宁区虹桥路2419号(近沪青平公路)"},{"poiid":"B2094757D06BABFE4698","title":"虹桥机场2号航站楼21号登机口","lon":"121.35440496","lat":"31.1979483666","category":"21","category_name":"飞机场","address":"上海虹桥机场T2"},{"poiid":"B2094757D06FA5F9469C","title":"西郊公园","lon":"121.366499424","lat":"31.1906089622","category":"196","category_name":"公园","address":"上海虹桥路"},{"poiid":"B2094757D06AA3FA439E","title":"虹桥1号楼","lon":"121.3544507","lat":"31.1985262788","category":"252","category_name":"楼宇机构","address":"上海虹桥机场"},{"poiid":"B2094757D06FA3FE4199","title":"虹桥机场新村","lon":"121.35444934","lat":"31.184550556","category":"47","category_name":"住宅区","address":"上海市徐汇区龙华西路丰谷路"},{"poiid":"B2094757D06FA3FC4599","title":"上海动物园地铁站","lon":"121.36693938","lat":"31.19022555","category":"36","category_name":"地铁站","address":"上海轨道交通 十号线 轨交上海动物园站 10"},{"poiid":"B2094757D165A1F44792","title":"上海动物园大猩猩馆","lon":"121.362465586","lat":"31.1930057032","category":"500","category_name":"未知分类","address":"上海动物园"},{"poiid":"B2094757D06BA1FA4293","title":"延安路高架","lon":"121.358902586","lat":"31.1837395221","category":"500","category_name":"未知分类","address":"上海延安路高架"},{"poiid":"B2094757D068A5F9469D","title":"上海国际旅行卫生保健中心","lon":"121.36435699","lat":"31.198169708","category":"162","category_name":"医院","address":"长宁区金浜路15号(近哈密路)"},{"poiid":"B2094757D06FA5F5469B","title":"顽皮家族宠物医院(虹桥路总店)","lon":"121.36548934","lat":"31.190155323","category":"162","category_name":"医院","address":"长宁区虹桥路2393号(近动物园)"},{"poiid":"B2094654DB69A5FF419D","title":"莫泰168连锁旅店(沪青平公路店)","lon":"121.35752","lat":"31.18448","category":"216","category_name":"经济型连锁酒店","address":"闵行区沪青平公路38号"},{"poiid":"B2094654D569AAFC439C","title":"长江商学院","lon":"121.36066","lat":"31.18813","category":"671","category_name":"高校中心点","address":""},{"poiid":"B2094654D569AAFC4293","title":"皇朝别墅","lon":"121.3645","lat":"31.18718","category":"47","category_name":"住宅区","address":"长宁区虹桥路2388号(近虹井路)"},{"poiid":"B2094654D569AAFC429C","title":"阿山饭店","lon":"121.36647159056","lat":"31.189958417134","category":"76","category_name":"上海菜","address":"长宁区虹桥路2378号(近动物园)"},{"poiid":"B2094757D069AAF4409E","title":"上海国际机场宾馆","lon":"121.351939","lat":"31.193988","category":"217","category_name":"旅馆招待所","address":"长宁区迎宾一路368号(虹桥机场候机楼旁)"},{"poiid":"B2094757D065A1FD4298","title":"老虎山","lon":"121.360507586","lat":"31.1949827418","category":"500","category_name":"未知分类","address":"上海西郊公园"},{"poiid":"B2094757D16DA0F44192","title":"汉庭快捷酒店(虹桥机场店)","lon":"121.356521","lat":"31.183054","category":"217","category_name":"旅馆招待所","address":"上海市长宁区沪青平公路58号(近延安西路)"},{"poiid":"B2094757D069A3FE419A","title":"上海出入境检验检疫局/上海国际旅行卫生保健中心","lon":"121.36445758","lat":"31.197729795","category":"162","category_name":"医院","address":"上海市长宁区金浜路15号"},{"poiid":"B2094654D56AA2FF449E","title":"上海航友宾馆","lon":"121.35079","lat":"31.19295","category":"215","category_name":"三星级宾馆","address":"上海市长宁区迎宾一路425号(近虹桥机场一号航站楼)"},{"poiid":"B2094750D66FA6FB4092","title":"医院","lon":"121.364761","lat":"31.195802","category":"162","category_name":"医院","address":"哈密路青溪路"},{"poiid":"B2094757D069A7FB4192","title":"舒友海鲜大酒楼(西郊店)","lon":"121.36363","lat":"31.18867","category":"260","category_name":"其他","address":"长宁区虹桥路2399号(近虹井路)"},{"poiid":"B2094757D068A7F9499D","title":"沪青平公路","lon":"121.356526","lat":"31.187773","category":"500","category_name":"未知分类","address":"上海沪青平公路336号"},{"poiid":"B2094757D66BA4F5419C","title":"pizzasun","lon":"121.36725256124","lat":"31.189778276359","category":"94","category_name":"西餐厅","address":"长宁区虹井路989号(近虹桥路)"},{"poiid":"B2094757D16BA1FA489E","title":"虹桥机场航友宾馆会议中心","lon":"121.35617998","lat":"31.191082165","category":"21","category_name":"飞机场","address":"上海迎宾一路425号"},{"poiid":"B2094655D26EA2FD449D","title":"龙柏饭店宴会厅","lon":"121.36071","lat":"31.18758","category":"247","category_name":"餐饮美食","address":"长宁区虹桥路2409号龙柏饭店2楼(近虹井路)查看地图"},{"poiid":"B2094655D26EA3FA4593","title":"格林豪泰(上海虹桥机场酒店公寓)","lon":"121.36744","lat":"31.19583","category":"216","category_name":"经济型连锁酒店","address":"长宁区哈密路1721号(近虹桥路)"},{"poiid":"B2094757D069ABFA4498","title":"中国人民解放军第四五五医院(哈密路分院)","lon":"121.36747","lat":"31.19587","category":"162","category_name":"医院","address":"长宁区哈密路1713号(近虹桥路)"},{"poiid":"B2094757D66DABF4499C","title":"浦东机场T1航站楼VVIP A区","lon":"121.361251336","lat":"31.198727265","category":"21","category_name":"飞机场","address":"上海浦东机场T1航站楼VVIP A区"},{"poiid":"B2094654DB6BA1F4419C","title":"虹桥龙柏公寓","lon":"121.36544851952","lat":"31.193572126218","category":"47","category_name":"住宅区","address":"绿苑路21弄识别"},{"poiid":"B2094751D264A2FF419B","title":"惟宾甜品","lon":"121.3596519","lat":"31.1842104","category":"247","category_name":"餐饮美食","address":"闵行区黄桦路347号"},{"poiid":"B2094757D465ABFE429A","title":"满月","lon":"121.360967","lat":"31.198553","category":"269","category_name":"烧烤","address":"长宁区金浜路112号(近福泉路)"},{"poiid":"B2094757D168A7F5479F","title":"91路公交程家桥站","lon":"121.35920891","lat":"31.191036798","category":"38","category_name":"公交车站","address":"上海长宁区虹桥路2285号"},{"poiid":"B2094752D36DABFF4599","title":"Geneva","lon":"121.364115","lat":"31.196543","category":"247","category_name":"餐饮美食","address":"哈密路1876弄6号"},{"poiid":"B2094655D26FA0F9419F","title":"龙柏花苑南区","lon":"121.36106","lat":"31.1867","category":"47","category_name":"住宅区","address":"上海市长宁区虹桥路2419号（近沪青平公路）"},{"poiid":"B2094757D16DA6F5419E","title":"新天鹭会议中心","lon":"121.35623","lat":"31.18568","category":"76","category_name":"上海菜","address":"长宁区迎宾三路101号(虹桥机场内)"},{"poiid":"B2094757D568A6FE489D","title":"真功夫(虹桥机场T2店)","lon":"121.351975999998","lat":"31.1938240000001","category":"68","category_name":"快餐厅","address":"闵行区虹桥路2550号虹桥机场T2航站楼内(近迎宾一路)"},{"poiid":"B2094654DB69A7FE429D","title":"沙逊花园 Sassoon Park","lon":"121.35994","lat":"31.19009","category":"47","category_name":"住宅区","address":"长宁区虹桥路2419号龙柏饭店1楼(近虹井路)"},{"poiid":"B2094757D16FA0FC4098","title":"虹桥机场西区东航保障部","lon":"121.35924","lat":"31.188069","category":"21","category_name":"飞机场","address":"上海虹桥机场西区"},{"poiid":"B2094654D569A6FF4498","title":"嘉富丽苑","lon":"121.3627","lat":"31.183609","category":"47","category_name":"住宅区","address":"上海市闵行区黄桦路189号"},{"poiid":"B2094655D26DA6F9489C","title":"龙柏花苑北区","lon":"121.35994","lat":"31.19009","category":"47","category_name":"住宅区","address":"上海市长宁区虹桥路2419号（近沪青平公路）"},{"poiid":"B2094752D66FA7FD4392","title":"上海动物园","lon":"121.364366","lat":"31.184475","category":"250","category_name":"公园户外","address":null},{"poiid":"B2094757D465A3F94698","title":"逸和龙柏饭店","lon":"121.36369077655","lat":"31.189160115686","category":"76","category_name":"上海菜","address":"长宁区虹桥路2451号(近虹井路)"},{"poiid":"B2094654DB6BA0FD489A","title":"龙柏花苑南区(北门)","lon":"121.3608","lat":"31.18721","category":"47","category_name":"住宅区","address":"上海市长宁区虹桥路2419号（近沪青平公路）"},{"poiid":"B2094757D46EA5F4499D","title":"哈里欧咖啡 虹桥机场店","lon":"121.354999","lat":"31.184513","category":"65","category_name":"咖啡厅","address":"闵行区虹桥机场T2"},{"poiid":"B2094757D569A3F8489C","title":"景湖别墅","lon":"121.364","lat":"31.1892","category":"47","category_name":"住宅区","address":"闵行沪青平公路"},{"poiid":"B2094757D16DA6FA4999","title":"佳源日式炭火烧肉","lon":"121.3595197","lat":"31.1870474","category":"269","category_name":"烧烤","address":"长宁区虹桥路2457号(近虹井路)"},{"poiid":"B2094750D66BA5FB4392","title":"奥特莱斯（百联奥特莱斯广场店）","lon":"121.358","lat":"31.1851","category":"141","category_name":"服装鞋帽皮具店","address":"上海青浦区沪青平公路2888号百联奥特莱斯广场店C区二层"},{"poiid":"B2094757D465A1FC439E","title":"倍可意 虹桥机场店 Bricco Cafe","lon":"121.355325054","lat":"31.187997793","category":"94","category_name":"西餐厅","address":"长宁区虹桥机场国内出发禁区B1登机口(近空港二路)"}]