[{"poiid":"B2094654D564A7F5499A","title":"上海影城","lon":"121.42979","lat":"31.20233","category":"178","category_name":"电影院","address":"长宁区新华路160号番禺路口"},{"poiid":"B2094654DB6AA6F8419A","title":"上海银星皇冠假日酒店","lon":"121.42992","lat":"31.2031","category":"214","category_name":"四星级宾馆","address":"长宁区番禺路400号(近法华镇路)"},{"poiid":"B2094757D06EABF54999","title":"秘密花园","lon":"121.4254","lat":"31.20498","category":"47","category_name":"住宅区","address":"长宁区延安西路1742号(近凯旋路)"},{"poiid":"B2094757D06FA3FB4599","title":"五观堂素食","lon":"121.42627","lat":"31.20313","category":"89","category_name":"中式素餐馆","address":"长宁区新华路349号(近定西路)"},{"poiid":"B2094757D06FA2F8479C","title":"Cotton's(新华路店)","lon":"121.4277083","lat":"31.202930121","category":"260","category_name":"其他","address":"长宁区新华路294号(近香花桥路)"},{"poiid":"B2094757D06FA4F54192","title":"上海影城1号放映厅","lon":"121.42998782","lat":"31.202350275","category":"178","category_name":"电影院","address":"上海新华路160号 近番愚路"},{"poiid":"B2094757D068A2FA419F","title":"幸福路","lon":"121.431038586","lat":"31.2040639193","category":"260","category_name":"其他","address":"上海市长宁区幸福路"},{"poiid":"B2094757D06EAAFA419C","title":"星巴克(上海影城店)","lon":"121.429277","lat":"31.2021766","category":"260","category_name":"其他","address":"长宁区新华路160号上海影城1楼001号(番禺路口)"},{"poiid":"B2094757D06FAAFC4592","title":"蝶翠轩(新华店)","lon":"121.426340611","lat":"31.2035536554","category":"76","category_name":"上海菜","address":"长宁区新华路336号(近番禺路上海影城)"},{"poiid":"B2094757D06FA0F4409D","title":"博多豚骨拉面(番禺路店)","lon":"121.42926516","lat":"31.20521588","category":"95","category_name":"日本料理","address":"长宁区番禺路288号(近法华镇路)"},{"poiid":"B2094750DA6EAAF54298","title":"猫屎咖啡","lon":"121.42961","lat":"31.2043","category":"260","category_name":"其他","address":"长宁区番禺路390号(近法华镇路)"},{"poiid":"B2094757D66AA6F4499F","title":"霖霖小馆","lon":"121.431010054","lat":"31.204837793","category":"86","category_name":"火锅店","address":"长宁区幸福路115号(近法华镇路)"},{"poiid":"B2094750D76CA3FA4599","title":"沃歌斯(番禺路店)","lon":"121.429","lat":"31.204","category":"94","category_name":"西餐厅","address":"长宁区番禺路483号1楼(近法华镇路)"},{"poiid":"B2094757D068A1F4459F","title":"番禺大厦","lon":"121.42756","lat":"31.20582","category":"46","category_name":"楼宇","address":"番禺大厦位于长宁番禺路222弄"},{"poiid":"B2094757DB69A6FE4693","title":"申宴酒楼","lon":"121.42924","lat":"31.20491","category":"76","category_name":"上海菜","address":"长宁区番禺路300弄汉森商务楼(近法华镇路)"},{"poiid":"B2094757DA6EABF94799","title":"DADA BAR","lon":"121.431254999998","lat":"31.205202","category":"260","category_name":"其他","address":"长宁区幸福路115号(近华山路)"},{"poiid":"B2094757D16BA4FD449C","title":"法华镇路番禺路","lon":"121.43102358","lat":"31.203950917","category":"500","category_name":"未知分类","address":"上海法华镇路番禺路"},{"poiid":"B2094757D16EA2FC4399","title":"逐梦园","lon":"121.42923447","lat":"31.204408369","category":"500","category_name":"未知分类","address":"上海番愚路324号"},{"poiid":"B2094757D06BA1FD4693","title":"馨悦会所","lon":"121.42986493","lat":"31.201891349","category":"72","category_name":"广东菜","address":"长宁区番禺路508号(新华路口)"},{"poiid":"B2094750D26DA4FE419D","title":"海世轩","lon":"121.4307937","lat":"31.2031788","category":"247","category_name":"餐饮美食","address":"长宁区法华镇路218号(近番禹路)"},{"poiid":"B2094750D66AA6F94793","title":"谈面馆","lon":"121.430213","lat":"31.204071","category":"68","category_name":"快餐厅","address":"长宁区番禺路390号-7时代大厦1楼(近法华镇路)"},{"poiid":"B2094757D06AA4FD4499","title":"安蓝咖啡","lon":"121.429415","lat":"31.205702","category":"65","category_name":"咖啡厅","address":"番禺路291号近牛桥路"},{"poiid":"B2094654DB65A1FD439C","title":"威尔士健身(番禺路)","lon":"121.43029","lat":"31.20404","category":"221","category_name":"健身中心","address":"上海长宁区番禺路387号(近法华镇路)"},{"poiid":"B2094757D66EA6FE449F","title":"上海影城2号放映厅","lon":"121.429810186","lat":"31.2022486838","category":"248","category_name":"生活娱乐","address":"上海市长宁区新华路160号"},{"poiid":"B2094654D564A6FF469D","title":"兴圆苑","lon":"121.43041","lat":"31.20355","category":"76","category_name":"上海菜","address":"长宁区番禺路405号甲(近法华镇路)"},{"poiid":"B2094750DB6CA0FC449E","title":"愛寿司","lon":"121.43","lat":"31.20391","category":"247","category_name":"餐饮美食","address":"长宁区番禺路390号(近法华镇路)"},{"poiid":"B2094655D268A0FC4998","title":"鑫汉森商务管理中心","lon":"121.4289","lat":"31.2048","category":"46","category_name":"楼宇","address":"番禺路300弄7"},{"poiid":"B2094654D564A6FF4592","title":"390会所","lon":"121.4298","lat":"31.20411","category":"248","category_name":"生活娱乐","address":"长宁区番禺路390号(近法华镇路)"},{"poiid":"B2094654D564A6FF4698","title":"组合发型顾问(番禺路)","lon":"121.43041","lat":"31.20378","category":"148","category_name":"美容美发店","address":"番禺路395乙"},{"poiid":"B2094757D06FAAFD4492","title":"淡水老街","lon":"121.43032264","lat":"31.202482669","category":"91","category_name":"台湾菜","address":"长宁区番禺路495号(上海影城对面)"},{"poiid":"B2094757D16FABF84298","title":"老上海弄堂菜馆","lon":"121.42867075","lat":"31.202453967","category":"76","category_name":"上海菜","address":"长宁区新华路160号上海影城2号门3楼(近番禺路)"},{"poiid":"B2094750D56CAAFB419D","title":"雨果咖啡馆","lon":"121.4297032857055","lat":"31.2041816208265","category":"65","category_name":"咖啡厅","address":"长宁区法华镇路135号"},{"poiid":"B2094757D068A7F44199","title":"赛百味(上海影城店)","lon":"121.43019258","lat":"31.202642891","category":"94","category_name":"西餐厅","address":"长宁区新华路160号上海影城内(近番愚路)"},{"poiid":"B2094654DB69A7F9469D","title":"长发花园","lon":"121.42825","lat":"31.20533","category":"47","category_name":"住宅区","address":"上海市长宁区番禺路290弄28号"},{"poiid":"B2094655D265A5F84393","title":"大境别墅","lon":"121.4301","lat":"31.20646","category":"47","category_name":"住宅区","address":"上海番禺路209弄10号"},{"poiid":"B2094654DB65A1FD489E","title":"爱茜茜里 影城店 ICEASON","lon":"121.429787054","lat":"31.202022793","category":"67","category_name":"甜品店","address":"长宁区新华路160号上海影城1楼(近番禺路)  "},{"poiid":"B2094757D469A3F54199","title":"逐梦园 Dream catcher","lon":"121.428796054","lat":"31.205443793","category":"257","category_name":"中餐厅","address":"番禺路324号近法华镇路"},{"poiid":"B2094655D26FA6F4409A","title":"假日苑","lon":"121.42815","lat":"31.204239","category":"47","category_name":"住宅区","address":"法华镇路381弄1-11"},{"poiid":"B2094655D26EABFF419E","title":"城市超市","lon":"121.42984","lat":"31.20246","category":"118","category_name":"超级市场","address":"长宁区新华路160号上海影城地下一层"},{"poiid":"B2094757D06BA0FB409E","title":"江湖龙空中球场","lon":"121.429687507","lat":"31.2036847435","category":"220","category_name":"运动场所","address":"上海长宁区法华镇路299号4楼(近番愚路)"},{"poiid":"B2094654D564A6FF439D","title":"汉森大酒店","lon":"121.42914","lat":"31.20507","category":"215","category_name":"三星级宾馆","address":"番禺路300弄1-5号"},{"poiid":"B2094750D768A4FC459A","title":"高丽乡村炭烤.拌饭馆","lon":"121.429","lat":"31.2065","category":"96","category_name":"韩国料理","address":"长宁区番禺路228号(近平武路)"},{"poiid":"B2094750D36BAAFF449D","title":"四季庭苑咖啡厅","lon":"121.42968","lat":"31.20395","category":"260","category_name":"其他","address":"长宁区番禺路390号时代大厦1楼(近法华镇路)"},{"poiid":"B2094750D664AAFB429D","title":"御封会","lon":"121.429","lat":"31.2024","category":"72","category_name":"广东菜","address":"长宁区新华路185弄1号"},{"poiid":"B2094654D564A6FF459C","title":"赛普商务","lon":"121.42993","lat":"31.20443","category":"46","category_name":"楼宇","address":"番禺路383"},{"poiid":"B2094757D064AAFA469F","title":"番禺中学","lon":"121.42939","lat":"31.20541","category":"55","category_name":"中学","address":"长宁区番禺路270号(近法华镇路)"},{"poiid":"B2094757D16BABFC4193","title":"同步音乐SYNC","lon":"121.428937586","lat":"31.2043799255","category":"500","category_name":"未知分类","address":"上海市长宁区番禺路300号汉森商务楼6楼"},{"poiid":"B2094655D26EAAFC419D","title":"三味茶屋","lon":"121.42913","lat":"31.20551","category":"66","category_name":"茶艺馆","address":"长宁区番禺路282号"},{"poiid":"B209475CD76AA3FC409D","title":"ALCOVE  1982","lon":"121.429924","lat":"31.204364","category":"500","category_name":"未知分类","address":"上海市 番禹路"},{"poiid":"B2094757D069A6FD4493","title":"上海老弄堂菜馆(新华路店)","lon":"121.42963","lat":"31.20191","category":"247","category_name":"餐饮美食","address":"长宁区新华路160号上海影城2号门3楼(近番禺路)  "},{"poiid":"B2094654D564A7F5499A","title":"上海影城","lon":"121.42979","lat":"31.20233","category":"178","category_name":"电影院","address":"长宁区新华路160号番禺路口"},{"poiid":"B2094654DB6AA6F8419A","title":"上海银星皇冠假日酒店","lon":"121.42992","lat":"31.2031","category":"214","category_name":"四星级宾馆","address":"长宁区番禺路400号(近法华镇路)"},{"poiid":"B2094757D06EABF54999","title":"秘密花园","lon":"121.4254","lat":"31.20498","category":"47","category_name":"住宅区","address":"长宁区延安西路1742号(近凯旋路)"},{"poiid":"B2094757D06FA3FB4599","title":"五观堂素食","lon":"121.42627","lat":"31.20313","category":"89","category_name":"中式素餐馆","address":"长宁区新华路349号(近定西路)"},{"poiid":"B2094757D06FA2F8479C","title":"Cotton's(新华路店)","lon":"121.4277083","lat":"31.202930121","category":"260","category_name":"其他","address":"长宁区新华路294号(近香花桥路)"},{"poiid":"B2094757D06FA4F54192","title":"上海影城1号放映厅","lon":"121.42998782","lat":"31.202350275","category":"178","category_name":"电影院","address":"上海新华路160号 近番愚路"},{"poiid":"B2094757D068A2FA419F","title":"幸福路","lon":"121.431038586","lat":"31.2040639193","category":"260","category_name":"其他","address":"上海市长宁区幸福路"},{"poiid":"B2094757D06EAAFA419C","title":"星巴克(上海影城店)","lon":"121.429277","lat":"31.2021766","category":"260","category_name":"其他","address":"长宁区新华路160号上海影城1楼001号(番禺路口)"},{"poiid":"B2094757D06FAAFC4592","title":"蝶翠轩(新华店)","lon":"121.426340611","lat":"31.2035536554","category":"76","category_name":"上海菜","address":"长宁区新华路336号(近番禺路上海影城)"},{"poiid":"B2094757D06FA0F4409D","title":"博多豚骨拉面(番禺路店)","lon":"121.42926516","lat":"31.20521588","category":"95","category_name":"日本料理","address":"长宁区番禺路288号(近法华镇路)"},{"poiid":"B2094750DA6EAAF54298","title":"猫屎咖啡","lon":"121.42961","lat":"31.2043","category":"260","category_name":"其他","address":"长宁区番禺路390号(近法华镇路)"},{"poiid":"B2094757D66AA6F4499F","title":"霖霖小馆","lon":"121.431010054","lat":"31.204837793","category":"86","category_name":"火锅店","address":"长宁区幸福路115号(近法华镇路)"},{"poiid":"B2094750D76CA3FA4599","title":"沃歌斯(番禺路店)","lon":"121.429","lat":"31.204","category":"94","category_name":"西餐厅","address":"长宁区番禺路483号1楼(近法华镇路)"},{"poiid":"B2094757D068A1F4459F","title":"番禺大厦","lon":"121.42756","lat":"31.20582","category":"46","category_name":"楼宇","address":"番禺大厦位于长宁番禺路222弄"},{"poiid":"B2094757DB69A6FE4693","title":"申宴酒楼","lon":"121.42924","lat":"31.20491","category":"76","category_name":"上海菜","address":"长宁区番禺路300弄汉森商务楼(近法华镇路)"},{"poiid":"B2094757DA6EABF94799","title":"DADA BAR","lon":"121.431254999998","lat":"31.205202","category":"260","category_name":"其他","address":"长宁区幸福路115号(近华山路)"},{"poiid":"B2094757D16BA4FD449C","title":"法华镇路番禺路","lon":"121.43102358","lat":"31.203950917","category":"500","category_name":"未知分类","address":"上海法华镇路番禺路"},{"poiid":"B2094757D16EA2FC4399","title":"逐梦园","lon":"121.42923447","lat":"31.204408369","category":"500","category_name":"未知分类","address":"上海番愚路324号"},{"poiid":"B2094757D06BA1FD4693","title":"馨悦会所","lon":"121.42986493","lat":"31.201891349","category":"72","category_name":"广东菜","address":"长宁区番禺路508号(新华路口)"},{"poiid":"B2094750D26DA4FE419D","title":"海世轩","lon":"121.4307937","lat":"31.2031788","category":"247","category_name":"餐饮美食","address":"长宁区法华镇路218号(近番禹路)"},{"poiid":"B2094750D66AA6F94793","title":"谈面馆","lon":"121.430213","lat":"31.204071","category":"68","category_name":"快餐厅","address":"长宁区番禺路390号-7时代大厦1楼(近法华镇路)"},{"poiid":"B2094757D06AA4FD4499","title":"安蓝咖啡","lon":"121.429415","lat":"31.205702","category":"65","category_name":"咖啡厅","address":"番禺路291号近牛桥路"},{"poiid":"B2094654DB65A1FD439C","title":"威尔士健身(番禺路)","lon":"121.43029","lat":"31.20404","category":"221","category_name":"健身中心","address":"上海长宁区番禺路387号(近法华镇路)"},{"poiid":"B2094757D66EA6FE449F","title":"上海影城2号放映厅","lon":"121.429810186","lat":"31.2022486838","category":"248","category_name":"生活娱乐","address":"上海市长宁区新华路160号"},{"poiid":"B2094654D564A6FF469D","title":"兴圆苑","lon":"121.43041","lat":"31.20355","category":"76","category_name":"上海菜","address":"长宁区番禺路405号甲(近法华镇路)"},{"poiid":"B2094750DB6CA0FC449E","title":"愛寿司","lon":"121.43","lat":"31.20391","category":"247","category_name":"餐饮美食","address":"长宁区番禺路390号(近法华镇路)"},{"poiid":"B2094655D268A0FC4998","title":"鑫汉森商务管理中心","lon":"121.4289","lat":"31.2048","category":"46","category_name":"楼宇","address":"番禺路300弄7"},{"poiid":"B2094654D564A6FF4592","title":"390会所","lon":"121.4298","lat":"31.20411","category":"248","category_name":"生活娱乐","address":"长宁区番禺路390号(近法华镇路)"},{"poiid":"B2094654D564A6FF4698","title":"组合发型顾问(番禺路)","lon":"121.43041","lat":"31.20378","category":"148","category_name":"美容美发店","address":"番禺路395乙"},{"poiid":"B2094757D06FAAFD4492","title":"淡水老街","lon":"121.43032264","lat":"31.202482669","category":"91","category_name":"台湾菜","address":"长宁区番禺路495号(上海影城对面)"},{"poiid":"B2094757D16FABF84298","title":"老上海弄堂菜馆","lon":"121.42867075","lat":"31.202453967","category":"76","category_name":"上海菜","address":"长宁区新华路160号上海影城2号门3楼(近番禺路)"},{"poiid":"B2094750D56CAAFB419D","title":"雨果咖啡馆","lon":"121.4297032857055","lat":"31.2041816208265","category":"65","category_name":"咖啡厅","address":"长宁区法华镇路135号"},{"poiid":"B2094757D068A7F44199","title":"赛百味(上海影城店)","lon":"121.43019258","lat":"31.202642891","category":"94","category_name":"西餐厅","address":"长宁区新华路160号上海影城内(近番愚路)"},{"poiid":"B2094654DB69A7F9469D","title":"长发花园","lon":"121.42825","lat":"31.20533","category":"47","category_name":"住宅区","address":"上海市长宁区番禺路290弄28号"},{"poiid":"B2094655D265A5F84393","title":"大境别墅","lon":"121.4301","lat":"31.20646","category":"47","category_name":"住宅区","address":"上海番禺路209弄10号"},{"poiid":"B2094654DB65A1FD489E","title":"爱茜茜里 影城店 ICEASON","lon":"121.429787054","lat":"31.202022793","category":"67","category_name":"甜品店","address":"长宁区新华路160号上海影城1楼(近番禺路)  "},{"poiid":"B2094757D469A3F54199","title":"逐梦园 Dream catcher","lon":"121.428796054","lat":"31.205443793","category":"257","category_name":"中餐厅","address":"番禺路324号近法华镇路"},{"poiid":"B2094655D26FA6F4409A","title":"假日苑","lon":"121.42815","lat":"31.204239","category":"47","category_name":"住宅区","address":"法华镇路381弄1-11"},{"poiid":"B2094655D26EABFF419E","title":"城市超市","lon":"121.42984","lat":"31.20246","category":"118","category_name":"超级市场","address":"长宁区新华路160号上海影城地下一层"},{"poiid":"B2094757D06BA0FB409E","title":"江湖龙空中球场","lon":"121.429687507","lat":"31.2036847435","category":"220","category_name":"运动场所","address":"上海长宁区法华镇路299号4楼(近番愚路)"},{"poiid":"B2094654D564A6FF439D","title":"汉森大酒店","lon":"121.42914","lat":"31.20507","category":"215","category_name":"三星级宾馆","address":"番禺路300弄1-5号"},{"poiid":"B2094750D768A4FC459A","title":"高丽乡村炭烤.拌饭馆","lon":"121.429","lat":"31.2065","category":"96","category_name":"韩国料理","address":"长宁区番禺路228号(近平武路)"},{"poiid":"B2094750D36BAAFF449D","title":"四季庭苑咖啡厅","lon":"121.42968","lat":"31.20395","category":"260","category_name":"其他","address":"长宁区番禺路390号时代大厦1楼(近法华镇路)"},{"poiid":"B2094750D664AAFB429D","title":"御封会","lon":"121.429","lat":"31.2024","category":"72","category_name":"广东菜","address":"长宁区新华路185弄1号"},{"poiid":"B2094654D564A6FF459C","title":"赛普商务","lon":"121.42993","lat":"31.20443","category":"46","category_name":"楼宇","address":"番禺路383"},{"poiid":"B2094757D064AAFA469F","title":"番禺中学","lon":"121.42939","lat":"31.20541","category":"55","category_name":"中学","address":"长宁区番禺路270号(近法华镇路)"},{"poiid":"B2094757D16BABFC4193","title":"同步音乐SYNC","lon":"121.428937586","lat":"31.2043799255","category":"500","category_name":"未知分类","address":"上海市长宁区番禺路300号汉森商务楼6楼"},{"poiid":"B2094655D26EAAFC419D","title":"三味茶屋","lon":"121.42913","lat":"31.20551","category":"66","category_name":"茶艺馆","address":"长宁区番禺路282号"},{"poiid":"B209475CD76AA3FC409D","title":"ALCOVE  1982","lon":"121.429924","lat":"31.204364","category":"500","category_name":"未知分类","address":"上海市 番禹路"},{"poiid":"B2094757D069A6FD4493","title":"上海老弄堂菜馆(新华路店)","lon":"121.42963","lat":"31.20191","category":"247","category_name":"餐饮美食","address":"长宁区新华路160号上海影城2号门3楼(近番禺路)  "},{"poiid":"B2094654D564A7F5499A","title":"上海影城","lon":"121.42979","lat":"31.20233","category":"178","category_name":"电影院","address":"长宁区新华路160号番禺路口"},{"poiid":"B2094654DB6AA6F8419A","title":"上海银星皇冠假日酒店","lon":"121.42992","lat":"31.2031","category":"214","category_name":"四星级宾馆","address":"长宁区番禺路400号(近法华镇路)"},{"poiid":"B2094757D06EABF54999","title":"秘密花园","lon":"121.4254","lat":"31.20498","category":"47","category_name":"住宅区","address":"长宁区延安西路1742号(近凯旋路)"},{"poiid":"B2094757D06FA3FB4599","title":"五观堂素食","lon":"121.42627","lat":"31.20313","category":"89","category_name":"中式素餐馆","address":"长宁区新华路349号(近定西路)"},{"poiid":"B2094757D06FA2F8479C","title":"Cotton's(新华路店)","lon":"121.4277083","lat":"31.202930121","category":"260","category_name":"其他","address":"长宁区新华路294号(近香花桥路)"},{"poiid":"B2094757D06FA4F54192","title":"上海影城1号放映厅","lon":"121.42998782","lat":"31.202350275","category":"178","category_name":"电影院","address":"上海新华路160号 近番愚路"},{"poiid":"B2094757D068A2FA419F","title":"幸福路","lon":"121.431038586","lat":"31.2040639193","category":"260","category_name":"其他","address":"上海市长宁区幸福路"},{"poiid":"B2094757D06EAAFA419C","title":"星巴克(上海影城店)","lon":"121.429277","lat":"31.2021766","category":"260","category_name":"其他","address":"长宁区新华路160号上海影城1楼001号(番禺路口)"},{"poiid":"B2094757D06FAAFC4592","title":"蝶翠轩(新华店)","lon":"121.426340611","lat":"31.2035536554","category":"76","category_name":"上海菜","address":"长宁区新华路336号(近番禺路上海影城)"},{"poiid":"B2094757D06FA0F4409D","title":"博多豚骨拉面(番禺路店)","lon":"121.42926516","lat":"31.20521588","category":"95","category_name":"日本料理","address":"长宁区番禺路288号(近法华镇路)"},{"poiid":"B2094750DA6EAAF54298","title":"猫屎咖啡","lon":"121.42961","lat":"31.2043","category":"260","category_name":"其他","address":"长宁区番禺路390号(近法华镇路)"},{"poiid":"B2094757D66AA6F4499F","title":"霖霖小馆","lon":"121.431010054","lat":"31.204837793","category":"86","category_name":"火锅店","address":"长宁区幸福路115号(近法华镇路)"},{"poiid":"B2094750D76CA3FA4599","title":"沃歌斯(番禺路店)","lon":"121.429","lat":"31.204","category":"94","category_name":"西餐厅","address":"长宁区番禺路483号1楼(近法华镇路)"},{"poiid":"B2094757D068A1F4459F","title":"番禺大厦","lon":"121.42756","lat":"31.20582","category":"46","category_name":"楼宇","address":"番禺大厦位于长宁番禺路222弄"},{"poiid":"B2094757DB69A6FE4693","title":"申宴酒楼","lon":"121.42924","lat":"31.20491","category":"76","category_name":"上海菜","address":"长宁区番禺路300弄汉森商务楼(近法华镇路)"},{"poiid":"B2094757DA6EABF94799","title":"DADA BAR","lon":"121.431254999998","lat":"31.205202","category":"260","category_name":"其他","address":"长宁区幸福路115号(近华山路)"},{"poiid":"B2094757D16BA4FD449C","title":"法华镇路番禺路","lon":"121.43102358","lat":"31.203950917","category":"500","category_name":"未知分类","address":"上海法华镇路番禺路"},{"poiid":"B2094757D16EA2FC4399","title":"逐梦园","lon":"121.42923447","lat":"31.204408369","category":"500","category_name":"未知分类","address":"上海番愚路324号"},{"poiid":"B2094757D06BA1FD4693","title":"馨悦会所","lon":"121.42986493","lat":"31.201891349","category":"72","category_name":"广东菜","address":"长宁区番禺路508号(新华路口)"},{"poiid":"B2094750D26DA4FE419D","title":"海世轩","lon":"121.4307937","lat":"31.2031788","category":"247","category_name":"餐饮美食","address":"长宁区法华镇路218号(近番禹路)"},{"poiid":"B2094750D66AA6F94793","title":"谈面馆","lon":"121.430213","lat":"31.204071","category":"68","category_name":"快餐厅","address":"长宁区番禺路390号-7时代大厦1楼(近法华镇路)"},{"poiid":"B2094757D06AA4FD4499","title":"安蓝咖啡","lon":"121.429415","lat":"31.205702","category":"65","category_name":"咖啡厅","address":"番禺路291号近牛桥路"},{"poiid":"B2094654DB65A1FD439C","title":"威尔士健身(番禺路)","lon":"121.43029","lat":"31.20404","category":"221","category_name":"健身中心","address":"上海长宁区番禺路387号(近法华镇路)"},{"poiid":"B2094757D66EA6FE449F","title":"上海影城2号放映厅","lon":"121.429810186","lat":"31.2022486838","category":"248","category_name":"生活娱乐","address":"上海市长宁区新华路160号"},{"poiid":"B2094654D564A6FF469D","title":"兴圆苑","lon":"121.43041","lat":"31.20355","category":"76","category_name":"上海菜","address":"长宁区番禺路405号甲(近法华镇路)"},{"poiid":"B2094750DB6CA0FC449E","title":"愛寿司","lon":"121.43","lat":"31.20391","category":"247","category_name":"餐饮美食","address":"长宁区番禺路390号(近法华镇路)"},{"poiid":"B2094655D268A0FC4998","title":"鑫汉森商务管理中心","lon":"121.4289","lat":"31.2048","category":"46","category_name":"楼宇","address":"番禺路300弄7"},{"poiid":"B2094654D564A6FF4592","title":"390会所","lon":"121.4298","lat":"31.20411","category":"248","category_name":"生活娱乐","address":"长宁区番禺路390号(近法华镇路)"},{"poiid":"B2094654D564A6FF4698","title":"组合发型顾问(番禺路)","lon":"121.43041","lat":"31.20378","category":"148","category_name":"美容美发店","address":"番禺路395乙"},{"poiid":"B2094757D06FAAFD4492","title":"淡水老街","lon":"121.43032264","lat":"31.202482669","category":"91","category_name":"台湾菜","address":"长宁区番禺路495号(上海影城对面)"},{"poiid":"B2094757D16FABF84298","title":"老上海弄堂菜馆","lon":"121.42867075","lat":"31.202453967","category":"76","category_name":"上海菜","address":"长宁区新华路160号上海影城2号门3楼(近番禺路)"},{"poiid":"B2094750D56CAAFB419D","title":"雨果咖啡馆","lon":"121.4297032857055","lat":"31.2041816208265","category":"65","category_name":"咖啡厅","address":"长宁区法华镇路135号"},{"poiid":"B2094757D068A7F44199","title":"赛百味(上海影城店)","lon":"121.43019258","lat":"31.202642891","category":"94","category_name":"西餐厅","address":"长宁区新华路160号上海影城内(近番愚路)"},{"poiid":"B2094654DB69A7F9469D","title":"长发花园","lon":"121.42825","lat":"31.20533","category":"47","category_name":"住宅区","address":"上海市长宁区番禺路290弄28号"},{"poiid":"B2094655D265A5F84393","title":"大境别墅","lon":"121.4301","lat":"31.20646","category":"47","category_name":"住宅区","address":"上海番禺路209弄10号"},{"poiid":"B2094654DB65A1FD489E","title":"爱茜茜里 影城店 ICEASON","lon":"121.429787054","lat":"31.202022793","category":"67","category_name":"甜品店","address":"长宁区新华路160号上海影城1楼(近番禺路)  "},{"poiid":"B2094757D469A3F54199","title":"逐梦园 Dream catcher","lon":"121.428796054","lat":"31.205443793","category":"257","category_name":"中餐厅","address":"番禺路324号近法华镇路"},{"poiid":"B2094655D26FA6F4409A","title":"假日苑","lon":"121.42815","lat":"31.204239","category":"47","category_name":"住宅区","address":"法华镇路381弄1-11"},{"poiid":"B2094655D26EABFF419E","title":"城市超市","lon":"121.42984","lat":"31.20246","category":"118","category_name":"超级市场","address":"长宁区新华路160号上海影城地下一层"},{"poiid":"B2094757D06BA0FB409E","title":"江湖龙空中球场","lon":"121.429687507","lat":"31.2036847435","category":"220","category_name":"运动场所","address":"上海长宁区法华镇路299号4楼(近番愚路)"},{"poiid":"B2094654D564A6FF439D","title":"汉森大酒店","lon":"121.42914","lat":"31.20507","category":"215","category_name":"三星级宾馆","address":"番禺路300弄1-5号"},{"poiid":"B2094750D768A4FC459A","title":"高丽乡村炭烤.拌饭馆","lon":"121.429","lat":"31.2065","category":"96","category_name":"韩国料理","address":"长宁区番禺路228号(近平武路)"},{"poiid":"B2094750D36BAAFF449D","title":"四季庭苑咖啡厅","lon":"121.42968","lat":"31.20395","category":"260","category_name":"其他","address":"长宁区番禺路390号时代大厦1楼(近法华镇路)"},{"poiid":"B2094750D664AAFB429D","title":"御封会","lon":"121.429","lat":"31.2024","category":"72","category_name":"广东菜","address":"长宁区新华路185弄1号"},{"poiid":"B2094654D564A6FF459C","title":"赛普商务","lon":"121.42993","lat":"31.20443","category":"46","category_name":"楼宇","address":"番禺路383"},{"poiid":"B2094757D064AAFA469F","title":"番禺中学","lon":"121.42939","lat":"31.20541","category":"55","category_name":"中学","address":"长宁区番禺路270号(近法华镇路)"},{"poiid":"B2094757D16BABFC4193","title":"同步音乐SYNC","lon":"121.428937586","lat":"31.2043799255","category":"500","category_name":"未知分类","address":"上海市长宁区番禺路300号汉森商务楼6楼"},{"poiid":"B2094655D26EAAFC419D","title":"三味茶屋","lon":"121.42913","lat":"31.20551","category":"66","category_name":"茶艺馆","address":"长宁区番禺路282号"},{"poiid":"B209475CD76AA3FC409D","title":"ALCOVE  1982","lon":"121.429924","lat":"31.204364","category":"500","category_name":"未知分类","address":"上海市 番禹路"},{"poiid":"B2094757D069A6FD4493","title":"上海老弄堂菜馆(新华路店)","lon":"121.42963","lat":"31.20191","category":"247","category_name":"餐饮美食","address":"长宁区新华路160号上海影城2号门3楼(近番禺路)  "},{"poiid":"B2094654D564A7F5499A","title":"上海影城","lon":"121.42979","lat":"31.20233","category":"178","category_name":"电影院","address":"长宁区新华路160号番禺路口"},{"poiid":"B2094654DB6AA6F8419A","title":"上海银星皇冠假日酒店","lon":"121.42992","lat":"31.2031","category":"214","category_name":"四星级宾馆","address":"长宁区番禺路400号(近法华镇路)"},{"poiid":"B2094757D06EABF54999","title":"秘密花园","lon":"121.4254","lat":"31.20498","category":"47","category_name":"住宅区","address":"长宁区延安西路1742号(近凯旋路)"},{"poiid":"B2094757D06FA3FB4599","title":"五观堂素食","lon":"121.42627","lat":"31.20313","category":"89","category_name":"中式素餐馆","address":"长宁区新华路349号(近定西路)"},{"poiid":"B2094757D06FA2F8479C","title":"Cotton's(新华路店)","lon":"121.4277083","lat":"31.202930121","category":"260","category_name":"其他","address":"长宁区新华路294号(近香花桥路)"},{"poiid":"B2094757D06FA4F54192","title":"上海影城1号放映厅","lon":"121.42998782","lat":"31.202350275","category":"178","category_name":"电影院","address":"上海新华路160号 近番愚路"},{"poiid":"B2094757D068A2FA419F","title":"幸福路","lon":"121.431038586","lat":"31.2040639193","category":"260","category_name":"其他","address":"上海市长宁区幸福路"},{"poiid":"B2094757D06EAAFA419C","title":"星巴克(上海影城店)","lon":"121.429277","lat":"31.2021766","category":"260","category_name":"其他","address":"长宁区新华路160号上海影城1楼001号(番禺路口)"},{"poiid":"B2094757D06FAAFC4592","title":"蝶翠轩(新华店)","lon":"121.426340611","lat":"31.2035536554","category":"76","category_name":"上海菜","address":"长宁区新华路336号(近番禺路上海影城)"},{"poiid":"B2094757D06FA0F4409D","title":"博多豚骨拉面(番禺路店)","lon":"121.42926516","lat":"31.20521588","category":"95","category_name":"日本料理","address":"长宁区番禺路288号(近法华镇路)"},{"poiid":"B2094750DA6EAAF54298","title":"猫屎咖啡","lon":"121.42961","lat":"31.2043","category":"260","category_name":"其他","address":"长宁区番禺路390号(近法华镇路)"},{"poiid":"B2094757D66AA6F4499F","title":"霖霖小馆","lon":"121.431010054","lat":"31.204837793","category":"86","category_name":"火锅店","address":"长宁区幸福路115号(近法华镇路)"},{"poiid":"B2094750D76CA3FA4599","title":"沃歌斯(番禺路店)","lon":"121.429","lat":"31.204","category":"94","category_name":"西餐厅","address":"长宁区番禺路483号1楼(近法华镇路)"},{"poiid":"B2094757D068A1F4459F","title":"番禺大厦","lon":"121.42756","lat":"31.20582","category":"46","category_name":"楼宇","address":"番禺大厦位于长宁番禺路222弄"},{"poiid":"B2094757DB69A6FE4693","title":"申宴酒楼","lon":"121.42924","lat":"31.20491","category":"76","category_name":"上海菜","address":"长宁区番禺路300弄汉森商务楼(近法华镇路)"},{"poiid":"B2094757DA6EABF94799","title":"DADA BAR","lon":"121.431254999998","lat":"31.205202","category":"260","category_name":"其他","address":"长宁区幸福路115号(近华山路)"},{"poiid":"B2094757D16BA4FD449C","title":"法华镇路番禺路","lon":"121.43102358","lat":"31.203950917","category":"500","category_name":"未知分类","address":"上海法华镇路番禺路"},{"poiid":"B2094757D16EA2FC4399","title":"逐梦园","lon":"121.42923447","lat":"31.204408369","category":"500","category_name":"未知分类","address":"上海番愚路324号"},{"poiid":"B2094757D06BA1FD4693","title":"馨悦会所","lon":"121.42986493","lat":"31.201891349","category":"72","category_name":"广东菜","address":"长宁区番禺路508号(新华路口)"},{"poiid":"B2094750D26DA4FE419D","title":"海世轩","lon":"121.4307937","lat":"31.2031788","category":"247","category_name":"餐饮美食","address":"长宁区法华镇路218号(近番禹路)"},{"poiid":"B2094750D66AA6F94793","title":"谈面馆","lon":"121.430213","lat":"31.204071","category":"68","category_name":"快餐厅","address":"长宁区番禺路390号-7时代大厦1楼(近法华镇路)"},{"poiid":"B2094757D06AA4FD4499","title":"安蓝咖啡","lon":"121.429415","lat":"31.205702","category":"65","category_name":"咖啡厅","address":"番禺路291号近牛桥路"},{"poiid":"B2094654DB65A1FD439C","title":"威尔士健身(番禺路)","lon":"121.43029","lat":"31.20404","category":"221","category_name":"健身中心","address":"上海长宁区番禺路387号(近法华镇路)"},{"poiid":"B2094757D66EA6FE449F","title":"上海影城2号放映厅","lon":"121.429810186","lat":"31.2022486838","category":"248","category_name":"生活娱乐","address":"上海市长宁区新华路160号"},{"poiid":"B2094654D564A6FF469D","title":"兴圆苑","lon":"121.43041","lat":"31.20355","category":"76","category_name":"上海菜","address":"长宁区番禺路405号甲(近法华镇路)"},{"poiid":"B2094750DB6CA0FC449E","title":"愛寿司","lon":"121.43","lat":"31.20391","category":"247","category_name":"餐饮美食","address":"长宁区番禺路390号(近法华镇路)"},{"poiid":"B2094655D268A0FC4998","title":"鑫汉森商务管理中心","lon":"121.4289","lat":"31.2048","category":"46","category_name":"楼宇","address":"番禺路300弄7"},{"poiid":"B2094654D564A6FF4592","title":"390会所","lon":"121.4298","lat":"31.20411","category":"248","category_name":"生活娱乐","address":"长宁区番禺路390号(近法华镇路)"},{"poiid":"B2094654D564A6FF4698","title":"组合发型顾问(番禺路)","lon":"121.43041","lat":"31.20378","category":"148","category_name":"美容美发店","address":"番禺路395乙"},{"poiid":"B2094757D06FAAFD4492","title":"淡水老街","lon":"121.43032264","lat":"31.202482669","category":"91","category_name":"台湾菜","address":"长宁区番禺路495号(上海影城对面)"},{"poiid":"B2094757D16FABF84298","title":"老上海弄堂菜馆","lon":"121.42867075","lat":"31.202453967","category":"76","category_name":"上海菜","address":"长宁区新华路160号上海影城2号门3楼(近番禺路)"},{"poiid":"B2094750D56CAAFB419D","title":"雨果咖啡馆","lon":"121.4297032857055","lat":"31.2041816208265","category":"65","category_name":"咖啡厅","address":"长宁区法华镇路135号"},{"poiid":"B2094757D068A7F44199","title":"赛百味(上海影城店)","lon":"121.43019258","lat":"31.202642891","category":"94","category_name":"西餐厅","address":"长宁区新华路160号上海影城内(近番愚路)"},{"poiid":"B2094654DB69A7F9469D","title":"长发花园","lon":"121.42825","lat":"31.20533","category":"47","category_name":"住宅区","address":"上海市长宁区番禺路290弄28号"},{"poiid":"B2094655D265A5F84393","title":"大境别墅","lon":"121.4301","lat":"31.20646","category":"47","category_name":"住宅区","address":"上海番禺路209弄10号"},{"poiid":"B2094654DB65A1FD489E","title":"爱茜茜里 影城店 ICEASON","lon":"121.429787054","lat":"31.202022793","category":"67","category_name":"甜品店","address":"长宁区新华路160号上海影城1楼(近番禺路)  "},{"poiid":"B2094757D469A3F54199","title":"逐梦园 Dream catcher","lon":"121.428796054","lat":"31.205443793","category":"257","category_name":"中餐厅","address":"番禺路324号近法华镇路"},{"poiid":"B2094655D26FA6F4409A","title":"假日苑","lon":"121.42815","lat":"31.204239","category":"47","category_name":"住宅区","address":"法华镇路381弄1-11"},{"poiid":"B2094655D26EABFF419E","title":"城市超市","lon":"121.42984","lat":"31.20246","category":"118","category_name":"超级市场","address":"长宁区新华路160号上海影城地下一层"},{"poiid":"B2094757D06BA0FB409E","title":"江湖龙空中球场","lon":"121.429687507","lat":"31.2036847435","category":"220","category_name":"运动场所","address":"上海长宁区法华镇路299号4楼(近番愚路)"},{"poiid":"B2094654D564A6FF439D","title":"汉森大酒店","lon":"121.42914","lat":"31.20507","category":"215","category_name":"三星级宾馆","address":"番禺路300弄1-5号"},{"poiid":"B2094750D768A4FC459A","title":"高丽乡村炭烤.拌饭馆","lon":"121.429","lat":"31.2065","category":"96","category_name":"韩国料理","address":"长宁区番禺路228号(近平武路)"},{"poiid":"B2094750D36BAAFF449D","title":"四季庭苑咖啡厅","lon":"121.42968","lat":"31.20395","category":"260","category_name":"其他","address":"长宁区番禺路390号时代大厦1楼(近法华镇路)"},{"poiid":"B2094750D664AAFB429D","title":"御封会","lon":"121.429","lat":"31.2024","category":"72","category_name":"广东菜","address":"长宁区新华路185弄1号"},{"poiid":"B2094654D564A6FF459C","title":"赛普商务","lon":"121.42993","lat":"31.20443","category":"46","category_name":"楼宇","address":"番禺路383"},{"poiid":"B2094757D064AAFA469F","title":"番禺中学","lon":"121.42939","lat":"31.20541","category":"55","category_name":"中学","address":"长宁区番禺路270号(近法华镇路)"},{"poiid":"B2094757D16BABFC4193","title":"同步音乐SYNC","lon":"121.428937586","lat":"31.2043799255","category":"500","category_name":"未知分类","address":"上海市长宁区番禺路300号汉森商务楼6楼"},{"poiid":"B2094655D26EAAFC419D","title":"三味茶屋","lon":"121.42913","lat":"31.20551","category":"66","category_name":"茶艺馆","address":"长宁区番禺路282号"},{"poiid":"B209475CD76AA3FC409D","title":"ALCOVE  1982","lon":"121.429924","lat":"31.204364","category":"500","category_name":"未知分类","address":"上海市 番禹路"},{"poiid":"B2094757D069A6FD4493","title":"上海老弄堂菜馆(新华路店)","lon":"121.42963","lat":"31.20191","category":"247","category_name":"餐饮美食","address":"长宁区新华路160号上海影城2号门3楼(近番禺路)  "}]