[{"poiid":"B2094654DA6CA1FF4493","title":"中信泰富广场","lon":"121.462","lat":"31.2349","category":"119","category_name":"商场","address":"静安区南京西路1168号中信泰富广场内(近陕西北路)"},{"poiid":"B2094655D26CAAFF4992","title":"静安别墅","lon":"121.464","lat":"31.2349","category":"47","category_name":"住宅区","address":"静安区南京西路1025弄静安别墅81号(近茂名北路)"},{"poiid":"B2094757D06FA3F4449B","title":"泰廊","lon":"121.46409","lat":"31.2338","category":"99","category_name":"泰国／越南菜品餐厅","address":"静安区大田路127号(近北京西路)"},{"poiid":"B2094753D76FAAFA449C","title":"上海滩国泰旗舰店","lon":"121.466011","lat":"31.216125","category":"249","category_name":"购物服务","address":"淮海中路868号"},{"poiid":"B209475CD564A7F84292","title":"上海滩新天地店","lon":"121.47463","lat":"31.22164","category":"119","category_name":"商场","address":"\"太仓路181弄新天地北里15号\r\n\""},{"poiid":"B209475CD564A7F8439E","title":"上海滩中信泰富店","lon":"121.45602","lat":"31.22851","category":"119","category_name":"商场","address":"\"南京西路1168号中信泰富广场，店铺号221.\r\n\""},{"poiid":"B2094757D068A3F8439A","title":"BELLO'CO 倍乐","lon":"121.45942745","lat":"31.236405856","category":"500","category_name":"未知分类","address":"上海新闸路848号"},{"poiid":"B2094757D06FA2FB409C","title":"东来顺饭庄(石门二路店)","lon":"121.46076","lat":"31.23391","category":"86","category_name":"火锅店","address":"静安区石门二路215号(近新闸路)"},{"poiid":"B2094757D06FA2FC439F","title":"静安雕塑公园","lon":"121.46159","lat":"31.2328","category":"196","category_name":"公园","address":"静安区石门二路128号(近北京西路)"},{"poiid":"B2094655D26BA3F94698","title":"丰收日(石门二路店)","lon":"121.46052","lat":"31.23564","category":"75","category_name":"浙江菜","address":"静安区石门二路268号(近新闸路)"},{"poiid":"B2094654DA6CA5F4489D","title":"凯迪克大厦","lon":"121.461","lat":"31.2377","category":"46","category_name":"楼宇","address":"上海市静安区江宁路212号"},{"poiid":"B2094757D06FA1F84192","title":"现代建筑设计大厦","lon":"121.460772","lat":"31.235274","category":"46","category_name":"楼宇","address":"上海市静安区石门二路258号"},{"poiid":"B2094757D06FAAFA489D","title":"新闸路石门二路","lon":"121.46029061","lat":"31.236030374","category":"500","category_name":"未知分类","address":"上海新闸路慈溪路"},{"poiid":"B2094757D06FA2FE449D","title":"潮汕砂锅粥馆(静安店)","lon":"121.45992","lat":"31.23502","category":"72","category_name":"广东菜","address":"静安区新闸路868号(近石门二路)"},{"poiid":"B2094757D06FA5FD499F","title":"富春小笼(新闸路店)","lon":"121.463359","lat":"31.237918","category":"68","category_name":"快餐厅","address":"静安区新闸路557号(近成都北路)"},{"poiid":"B2094757D06FA7FB409C","title":"国际丽都城","lon":"121.459495","lat":"31.233372","category":"47","category_name":"住宅区","address":"上海静安区北京西路758弄(近石门二路)"},{"poiid":"B2094757D068A2F8429D","title":"新城大厦","lon":"121.461","lat":"31.2369","category":"46","category_name":"楼宇","address":"上海市普陀区中山北路1777号"},{"poiid":"B2094757D06FAAF8499A","title":"嘉发大厦","lon":"121.4627151","lat":"31.23285293","category":"46","category_name":"楼宇","address":"新华都商务花园位于长宁定西路685号"},{"poiid":"B2094757D06AA0FC4793","title":"银发大厦","lon":"121.461","lat":"31.2364","category":"46","category_name":"楼宇","address":"铁西卫工南街8―5号"},{"poiid":"B2094752D669A5F9469E","title":"上海理工大学","lon":"121.462265","lat":"31.236358","category":"500","category_name":"未知分类","address":"军工路580号"},{"poiid":"B2094654DA6CA5FA489B","title":"弘记港式茶餐厅 新闸路店","lon":"121.45998989478","lat":"31.235576570521","category":"72","category_name":"广东菜","address":"静安区新闸路852号(近石门二路)"},{"poiid":"B2094654DA6CA4FF4798","title":"振安广场恒安大厦","lon":"121.45935","lat":"31.23598","category":"46","category_name":"楼宇","address":"石门二路333弄3-9号"},{"poiid":"B2094750D76DABFE489B","title":"蜀巷","lon":"121.46","lat":"31.2351","category":"71","category_name":"四川菜","address":"静安区新闸路854号(近石门二路)"},{"poiid":"B2094757DA65A2F5419A","title":"南北高架","lon":"121.46053","lat":"31.238095","category":"627","category_name":"一般地点标志","address":"南北高架"},{"poiid":"B2094654DA6CA4FA4692","title":"石门二路街道社区卫生服务中心","lon":"121.46137","lat":"31.23516","category":"162","category_name":"医院","address":"山海关路456"},{"poiid":"B2094757D06AA4F8419F","title":"达安城","lon":"121.46119","lat":"31.236032","category":"47","category_name":"住宅区","address":"上海市静安区新闸路777号"},{"poiid":"B2094757D06FABF94299","title":"丽都太平洋全套房酒店","lon":"121.459948","lat":"31.234771","category":"217","category_name":"旅馆招待所","address":"上海市静安区新闸路831号"},{"poiid":"B2094654DA6CA4FA4799","title":"上海市育才初级中学","lon":"121.46126","lat":"31.23472","category":"55","category_name":"中学","address":"静安区山海关路445号(近石门二路)"},{"poiid":"B2094654DA6CA5FA429C","title":"玛哪胜地","lon":"121.46021","lat":"31.23471","category":"112","category_name":"糕饼店","address":"静安区石门二路227号(近山海关路)"},{"poiid":"B2094752D26BA1FD4292","title":"lingo bistro","lon":"121.461267736357","lat":"31.23588586479729","category":"247","category_name":"餐饮美食","address":"南京西路388号仙乐斯广场1楼109室(近黄陂北路)"},{"poiid":"B2094752D665A5F4469E","title":"浦东机场T2","lon":"121.461468","lat":"31.236216","category":"500","category_name":"未知分类","address":"机场镇纬一路100号"},{"poiid":"B2094655D36CA1FD4599","title":"石门二路","lon":"121.45947","lat":"31.23472","category":"38","category_name":"公交车站","address":""},{"poiid":"B2094654DA6CA2FF469A","title":"东展商业大厦","lon":"121.46185","lat":"31.23266","category":"46","category_name":"楼宇","address":"丰台学城海鹰路1号，3号"},{"poiid":"B2094654DB6BA5FD459A","title":"上岛咖啡 新闸路店 UBC Coffee","lon":"121.459860054","lat":"31.235711793","category":"260","category_name":"其他","address":"静安区新闸路777弄1号(近石门二路)"},{"poiid":"B2094751DB6CA5F9459E","title":"长征医院","lon":"121.4608","lat":"31.23635","category":"162","category_name":"医院","address":null},{"poiid":"B2094654DA6CA5FA499A","title":"新福康里商务中心","lon":"121.45948","lat":"31.23501","category":"46","category_name":"楼宇","address":"丰台学城海鹰路1号，3号"},{"poiid":"B2094752D468A1FF4792","title":"安图医院","lon":"121.462212","lat":"31.2352","category":"162","category_name":"医院","address":"延吉东路200号"},{"poiid":"B2094757D769A4F54993","title":"云曦小吃","lon":"121.463874054","lat":"31.236463793","category":"68","category_name":"快餐厅","address":"静安区山海关路296号(近成都北路)"},{"poiid":"B2094654DB64A6FD469A","title":"西海电影院","lon":"121.46123","lat":"31.23679","category":"178","category_name":"电影院","address":"新闸路701号"},{"poiid":"B2094757D16FA3F9469F","title":"上海现代设计集团","lon":"121.460851738","lat":"31.2347463963","category":"500","category_name":"未知分类","address":"上海石门二路258号"},{"poiid":"B2094752D665A5F84192","title":"上海理工大学四公寓一号楼","lon":"121.462195","lat":"31.236027","category":"500","category_name":"未知分类","address":"上海理工大学四公寓一号楼"},{"poiid":"B2094655D265A5F5429E","title":"星之网吧","lon":"121.46136","lat":"31.23627","category":"176","category_name":"网吧","address":"静安区慈溪路211号(近新闸路)"},{"poiid":"B2094654DA6CA4FA499A","title":"全家(新闸路)","lon":"121.46082","lat":"31.23637","category":"117","category_name":"便民商店/便利店","address":"新闸路767"},{"poiid":"B2094654DA6CA4FA4693","title":"石门医院","lon":"121.46138","lat":"31.23516","category":"162","category_name":"医院","address":"山海关路456号"},{"poiid":"B2094752D16FA0FC4599","title":"查餐厅（永新坊店）","lon":"121.462529","lat":"31.236522","category":"247","category_name":"餐饮美食","address":"徐汇区天钥桥路131号永新坊B1楼18号"},{"poiid":"B2094757D064A2FA4098","title":"D's Mansion","lon":"121.461219738","lat":"31.2363664309","category":"47","category_name":"住宅区","address":"上海ShanghaiZhabeiGuangfu Rd"},{"poiid":"B2094757D16AA6F84193","title":"地铁一号线衡山路","lon":"121.461844738","lat":"31.2327313534","category":"500","category_name":"未知分类","address":"上海市静安区泰兴路"},{"poiid":"B2094654DA6CA4FB419B","title":"石门二路社区文化活动中心","lon":"121.46129","lat":"31.23684","category":"248","category_name":"生活娱乐","address":"新闸路701之1-2"},{"poiid":"B2094654DB6BA5FD4093","title":"丽都太平洋公寓酒店(东北门)","lon":"121.46038","lat":"31.23428","category":"213","category_name":"五星级宾馆","address":"新闸路831号"},{"poiid":"B2094757D16EA6FE4392","title":"华山业余美校","lon":"121.45956473","lat":"31.234782397","category":"500","category_name":"未知分类","address":"上海市静安区新闸路848号"},{"poiid":"B2094654DA6CA1FF4493","title":"中信泰富广场","lon":"121.462","lat":"31.2349","category":"119","category_name":"商场","address":"静安区南京西路1168号中信泰富广场内(近陕西北路)"},{"poiid":"B2094655D26CAAFF4992","title":"静安别墅","lon":"121.464","lat":"31.2349","category":"47","category_name":"住宅区","address":"静安区南京西路1025弄静安别墅81号(近茂名北路)"},{"poiid":"B2094757D06FA3F4449B","title":"泰廊","lon":"121.46409","lat":"31.2338","category":"99","category_name":"泰国／越南菜品餐厅","address":"静安区大田路127号(近北京西路)"},{"poiid":"B2094753D76FAAFA449C","title":"上海滩国泰旗舰店","lon":"121.466011","lat":"31.216125","category":"249","category_name":"购物服务","address":"淮海中路868号"},{"poiid":"B209475CD564A7F84292","title":"上海滩新天地店","lon":"121.47463","lat":"31.22164","category":"119","category_name":"商场","address":"\"太仓路181弄新天地北里15号\r\n\""},{"poiid":"B209475CD564A7F8439E","title":"上海滩中信泰富店","lon":"121.45602","lat":"31.22851","category":"119","category_name":"商场","address":"\"南京西路1168号中信泰富广场，店铺号221.\r\n\""},{"poiid":"B2094757D068A3F8439A","title":"BELLO'CO 倍乐","lon":"121.45942745","lat":"31.236405856","category":"500","category_name":"未知分类","address":"上海新闸路848号"},{"poiid":"B2094757D06FA2FB409C","title":"东来顺饭庄(石门二路店)","lon":"121.46076","lat":"31.23391","category":"86","category_name":"火锅店","address":"静安区石门二路215号(近新闸路)"},{"poiid":"B2094757D06FA2FC439F","title":"静安雕塑公园","lon":"121.46159","lat":"31.2328","category":"196","category_name":"公园","address":"静安区石门二路128号(近北京西路)"},{"poiid":"B2094655D26BA3F94698","title":"丰收日(石门二路店)","lon":"121.46052","lat":"31.23564","category":"75","category_name":"浙江菜","address":"静安区石门二路268号(近新闸路)"},{"poiid":"B2094654DA6CA5F4489D","title":"凯迪克大厦","lon":"121.461","lat":"31.2377","category":"46","category_name":"楼宇","address":"上海市静安区江宁路212号"},{"poiid":"B2094757D06FA1F84192","title":"现代建筑设计大厦","lon":"121.460772","lat":"31.235274","category":"46","category_name":"楼宇","address":"上海市静安区石门二路258号"},{"poiid":"B2094757D06FAAFA489D","title":"新闸路石门二路","lon":"121.46029061","lat":"31.236030374","category":"500","category_name":"未知分类","address":"上海新闸路慈溪路"},{"poiid":"B2094757D06FA2FE449D","title":"潮汕砂锅粥馆(静安店)","lon":"121.45992","lat":"31.23502","category":"72","category_name":"广东菜","address":"静安区新闸路868号(近石门二路)"},{"poiid":"B2094757D06FA5FD499F","title":"富春小笼(新闸路店)","lon":"121.463359","lat":"31.237918","category":"68","category_name":"快餐厅","address":"静安区新闸路557号(近成都北路)"},{"poiid":"B2094757D06FA7FB409C","title":"国际丽都城","lon":"121.459495","lat":"31.233372","category":"47","category_name":"住宅区","address":"上海静安区北京西路758弄(近石门二路)"},{"poiid":"B2094757D068A2F8429D","title":"新城大厦","lon":"121.461","lat":"31.2369","category":"46","category_name":"楼宇","address":"上海市普陀区中山北路1777号"},{"poiid":"B2094757D06FAAF8499A","title":"嘉发大厦","lon":"121.4627151","lat":"31.23285293","category":"46","category_name":"楼宇","address":"新华都商务花园位于长宁定西路685号"},{"poiid":"B2094757D06AA0FC4793","title":"银发大厦","lon":"121.461","lat":"31.2364","category":"46","category_name":"楼宇","address":"铁西卫工南街8―5号"},{"poiid":"B2094752D669A5F9469E","title":"上海理工大学","lon":"121.462265","lat":"31.236358","category":"500","category_name":"未知分类","address":"军工路580号"},{"poiid":"B2094654DA6CA5FA489B","title":"弘记港式茶餐厅 新闸路店","lon":"121.45998989478","lat":"31.235576570521","category":"72","category_name":"广东菜","address":"静安区新闸路852号(近石门二路)"},{"poiid":"B2094654DA6CA4FF4798","title":"振安广场恒安大厦","lon":"121.45935","lat":"31.23598","category":"46","category_name":"楼宇","address":"石门二路333弄3-9号"},{"poiid":"B2094750D76DABFE489B","title":"蜀巷","lon":"121.46","lat":"31.2351","category":"71","category_name":"四川菜","address":"静安区新闸路854号(近石门二路)"},{"poiid":"B2094757DA65A2F5419A","title":"南北高架","lon":"121.46053","lat":"31.238095","category":"627","category_name":"一般地点标志","address":"南北高架"},{"poiid":"B2094654DA6CA4FA4692","title":"石门二路街道社区卫生服务中心","lon":"121.46137","lat":"31.23516","category":"162","category_name":"医院","address":"山海关路456"},{"poiid":"B2094757D06AA4F8419F","title":"达安城","lon":"121.46119","lat":"31.236032","category":"47","category_name":"住宅区","address":"上海市静安区新闸路777号"},{"poiid":"B2094757D06FABF94299","title":"丽都太平洋全套房酒店","lon":"121.459948","lat":"31.234771","category":"217","category_name":"旅馆招待所","address":"上海市静安区新闸路831号"},{"poiid":"B2094654DA6CA4FA4799","title":"上海市育才初级中学","lon":"121.46126","lat":"31.23472","category":"55","category_name":"中学","address":"静安区山海关路445号(近石门二路)"},{"poiid":"B2094654DA6CA5FA429C","title":"玛哪胜地","lon":"121.46021","lat":"31.23471","category":"112","category_name":"糕饼店","address":"静安区石门二路227号(近山海关路)"},{"poiid":"B2094752D26BA1FD4292","title":"lingo bistro","lon":"121.461267736357","lat":"31.23588586479729","category":"247","category_name":"餐饮美食","address":"南京西路388号仙乐斯广场1楼109室(近黄陂北路)"},{"poiid":"B2094752D665A5F4469E","title":"浦东机场T2","lon":"121.461468","lat":"31.236216","category":"500","category_name":"未知分类","address":"机场镇纬一路100号"},{"poiid":"B2094655D36CA1FD4599","title":"石门二路","lon":"121.45947","lat":"31.23472","category":"38","category_name":"公交车站","address":""},{"poiid":"B2094654DA6CA2FF469A","title":"东展商业大厦","lon":"121.46185","lat":"31.23266","category":"46","category_name":"楼宇","address":"丰台学城海鹰路1号，3号"},{"poiid":"B2094654DB6BA5FD459A","title":"上岛咖啡 新闸路店 UBC Coffee","lon":"121.459860054","lat":"31.235711793","category":"260","category_name":"其他","address":"静安区新闸路777弄1号(近石门二路)"},{"poiid":"B2094751DB6CA5F9459E","title":"长征医院","lon":"121.4608","lat":"31.23635","category":"162","category_name":"医院","address":null},{"poiid":"B2094654DA6CA5FA499A","title":"新福康里商务中心","lon":"121.45948","lat":"31.23501","category":"46","category_name":"楼宇","address":"丰台学城海鹰路1号，3号"},{"poiid":"B2094752D468A1FF4792","title":"安图医院","lon":"121.462212","lat":"31.2352","category":"162","category_name":"医院","address":"延吉东路200号"},{"poiid":"B2094757D769A4F54993","title":"云曦小吃","lon":"121.463874054","lat":"31.236463793","category":"68","category_name":"快餐厅","address":"静安区山海关路296号(近成都北路)"},{"poiid":"B2094654DB64A6FD469A","title":"西海电影院","lon":"121.46123","lat":"31.23679","category":"178","category_name":"电影院","address":"新闸路701号"},{"poiid":"B2094757D16FA3F9469F","title":"上海现代设计集团","lon":"121.460851738","lat":"31.2347463963","category":"500","category_name":"未知分类","address":"上海石门二路258号"},{"poiid":"B2094752D665A5F84192","title":"上海理工大学四公寓一号楼","lon":"121.462195","lat":"31.236027","category":"500","category_name":"未知分类","address":"上海理工大学四公寓一号楼"},{"poiid":"B2094655D265A5F5429E","title":"星之网吧","lon":"121.46136","lat":"31.23627","category":"176","category_name":"网吧","address":"静安区慈溪路211号(近新闸路)"},{"poiid":"B2094654DA6CA4FA499A","title":"全家(新闸路)","lon":"121.46082","lat":"31.23637","category":"117","category_name":"便民商店/便利店","address":"新闸路767"},{"poiid":"B2094654DA6CA4FA4693","title":"石门医院","lon":"121.46138","lat":"31.23516","category":"162","category_name":"医院","address":"山海关路456号"},{"poiid":"B2094752D16FA0FC4599","title":"查餐厅（永新坊店）","lon":"121.462529","lat":"31.236522","category":"247","category_name":"餐饮美食","address":"徐汇区天钥桥路131号永新坊B1楼18号"},{"poiid":"B2094757D064A2FA4098","title":"D's Mansion","lon":"121.461219738","lat":"31.2363664309","category":"47","category_name":"住宅区","address":"上海ShanghaiZhabeiGuangfu Rd"},{"poiid":"B2094757D16AA6F84193","title":"地铁一号线衡山路","lon":"121.461844738","lat":"31.2327313534","category":"500","category_name":"未知分类","address":"上海市静安区泰兴路"},{"poiid":"B2094654DA6CA4FB419B","title":"石门二路社区文化活动中心","lon":"121.46129","lat":"31.23684","category":"248","category_name":"生活娱乐","address":"新闸路701之1-2"},{"poiid":"B2094654DB6BA5FD4093","title":"丽都太平洋公寓酒店(东北门)","lon":"121.46038","lat":"31.23428","category":"213","category_name":"五星级宾馆","address":"新闸路831号"},{"poiid":"B2094757D16EA6FE4392","title":"华山业余美校","lon":"121.45956473","lat":"31.234782397","category":"500","category_name":"未知分类","address":"上海市静安区新闸路848号"},{"poiid":"B2094654DA6CA1FF4493","title":"中信泰富广场","lon":"121.462","lat":"31.2349","category":"119","category_name":"商场","address":"静安区南京西路1168号中信泰富广场内(近陕西北路)"},{"poiid":"B2094655D26CAAFF4992","title":"静安别墅","lon":"121.464","lat":"31.2349","category":"47","category_name":"住宅区","address":"静安区南京西路1025弄静安别墅81号(近茂名北路)"},{"poiid":"B2094757D06FA3F4449B","title":"泰廊","lon":"121.46409","lat":"31.2338","category":"99","category_name":"泰国／越南菜品餐厅","address":"静安区大田路127号(近北京西路)"},{"poiid":"B2094753D76FAAFA449C","title":"上海滩国泰旗舰店","lon":"121.466011","lat":"31.216125","category":"249","category_name":"购物服务","address":"淮海中路868号"},{"poiid":"B209475CD564A7F84292","title":"上海滩新天地店","lon":"121.47463","lat":"31.22164","category":"119","category_name":"商场","address":"\"太仓路181弄新天地北里15号\r\n\""},{"poiid":"B209475CD564A7F8439E","title":"上海滩中信泰富店","lon":"121.45602","lat":"31.22851","category":"119","category_name":"商场","address":"\"南京西路1168号中信泰富广场，店铺号221.\r\n\""},{"poiid":"B2094757D068A3F8439A","title":"BELLO'CO 倍乐","lon":"121.45942745","lat":"31.236405856","category":"500","category_name":"未知分类","address":"上海新闸路848号"},{"poiid":"B2094757D06FA2FB409C","title":"东来顺饭庄(石门二路店)","lon":"121.46076","lat":"31.23391","category":"86","category_name":"火锅店","address":"静安区石门二路215号(近新闸路)"},{"poiid":"B2094757D06FA2FC439F","title":"静安雕塑公园","lon":"121.46159","lat":"31.2328","category":"196","category_name":"公园","address":"静安区石门二路128号(近北京西路)"},{"poiid":"B2094655D26BA3F94698","title":"丰收日(石门二路店)","lon":"121.46052","lat":"31.23564","category":"75","category_name":"浙江菜","address":"静安区石门二路268号(近新闸路)"},{"poiid":"B2094654DA6CA5F4489D","title":"凯迪克大厦","lon":"121.461","lat":"31.2377","category":"46","category_name":"楼宇","address":"上海市静安区江宁路212号"},{"poiid":"B2094757D06FA1F84192","title":"现代建筑设计大厦","lon":"121.460772","lat":"31.235274","category":"46","category_name":"楼宇","address":"上海市静安区石门二路258号"},{"poiid":"B2094757D06FAAFA489D","title":"新闸路石门二路","lon":"121.46029061","lat":"31.236030374","category":"500","category_name":"未知分类","address":"上海新闸路慈溪路"},{"poiid":"B2094757D06FA2FE449D","title":"潮汕砂锅粥馆(静安店)","lon":"121.45992","lat":"31.23502","category":"72","category_name":"广东菜","address":"静安区新闸路868号(近石门二路)"},{"poiid":"B2094757D06FA5FD499F","title":"富春小笼(新闸路店)","lon":"121.463359","lat":"31.237918","category":"68","category_name":"快餐厅","address":"静安区新闸路557号(近成都北路)"},{"poiid":"B2094757D06FA7FB409C","title":"国际丽都城","lon":"121.459495","lat":"31.233372","category":"47","category_name":"住宅区","address":"上海静安区北京西路758弄(近石门二路)"},{"poiid":"B2094757D068A2F8429D","title":"新城大厦","lon":"121.461","lat":"31.2369","category":"46","category_name":"楼宇","address":"上海市普陀区中山北路1777号"},{"poiid":"B2094757D06FAAF8499A","title":"嘉发大厦","lon":"121.4627151","lat":"31.23285293","category":"46","category_name":"楼宇","address":"新华都商务花园位于长宁定西路685号"},{"poiid":"B2094757D06AA0FC4793","title":"银发大厦","lon":"121.461","lat":"31.2364","category":"46","category_name":"楼宇","address":"铁西卫工南街8―5号"},{"poiid":"B2094752D669A5F9469E","title":"上海理工大学","lon":"121.462265","lat":"31.236358","category":"500","category_name":"未知分类","address":"军工路580号"},{"poiid":"B2094654DA6CA5FA489B","title":"弘记港式茶餐厅 新闸路店","lon":"121.45998989478","lat":"31.235576570521","category":"72","category_name":"广东菜","address":"静安区新闸路852号(近石门二路)"},{"poiid":"B2094654DA6CA4FF4798","title":"振安广场恒安大厦","lon":"121.45935","lat":"31.23598","category":"46","category_name":"楼宇","address":"石门二路333弄3-9号"},{"poiid":"B2094750D76DABFE489B","title":"蜀巷","lon":"121.46","lat":"31.2351","category":"71","category_name":"四川菜","address":"静安区新闸路854号(近石门二路)"},{"poiid":"B2094757DA65A2F5419A","title":"南北高架","lon":"121.46053","lat":"31.238095","category":"627","category_name":"一般地点标志","address":"南北高架"},{"poiid":"B2094654DA6CA4FA4692","title":"石门二路街道社区卫生服务中心","lon":"121.46137","lat":"31.23516","category":"162","category_name":"医院","address":"山海关路456"},{"poiid":"B2094757D06AA4F8419F","title":"达安城","lon":"121.46119","lat":"31.236032","category":"47","category_name":"住宅区","address":"上海市静安区新闸路777号"},{"poiid":"B2094757D06FABF94299","title":"丽都太平洋全套房酒店","lon":"121.459948","lat":"31.234771","category":"217","category_name":"旅馆招待所","address":"上海市静安区新闸路831号"},{"poiid":"B2094654DA6CA4FA4799","title":"上海市育才初级中学","lon":"121.46126","lat":"31.23472","category":"55","category_name":"中学","address":"静安区山海关路445号(近石门二路)"},{"poiid":"B2094654DA6CA5FA429C","title":"玛哪胜地","lon":"121.46021","lat":"31.23471","category":"112","category_name":"糕饼店","address":"静安区石门二路227号(近山海关路)"},{"poiid":"B2094752D26BA1FD4292","title":"lingo bistro","lon":"121.461267736357","lat":"31.23588586479729","category":"247","category_name":"餐饮美食","address":"南京西路388号仙乐斯广场1楼109室(近黄陂北路)"},{"poiid":"B2094752D665A5F4469E","title":"浦东机场T2","lon":"121.461468","lat":"31.236216","category":"500","category_name":"未知分类","address":"机场镇纬一路100号"},{"poiid":"B2094655D36CA1FD4599","title":"石门二路","lon":"121.45947","lat":"31.23472","category":"38","category_name":"公交车站","address":""},{"poiid":"B2094654DA6CA2FF469A","title":"东展商业大厦","lon":"121.46185","lat":"31.23266","category":"46","category_name":"楼宇","address":"丰台学城海鹰路1号，3号"},{"poiid":"B2094654DB6BA5FD459A","title":"上岛咖啡 新闸路店 UBC Coffee","lon":"121.459860054","lat":"31.235711793","category":"260","category_name":"其他","address":"静安区新闸路777弄1号(近石门二路)"},{"poiid":"B2094751DB6CA5F9459E","title":"长征医院","lon":"121.4608","lat":"31.23635","category":"162","category_name":"医院","address":null},{"poiid":"B2094654DA6CA5FA499A","title":"新福康里商务中心","lon":"121.45948","lat":"31.23501","category":"46","category_name":"楼宇","address":"丰台学城海鹰路1号，3号"},{"poiid":"B2094752D468A1FF4792","title":"安图医院","lon":"121.462212","lat":"31.2352","category":"162","category_name":"医院","address":"延吉东路200号"},{"poiid":"B2094757D769A4F54993","title":"云曦小吃","lon":"121.463874054","lat":"31.236463793","category":"68","category_name":"快餐厅","address":"静安区山海关路296号(近成都北路)"},{"poiid":"B2094654DB64A6FD469A","title":"西海电影院","lon":"121.46123","lat":"31.23679","category":"178","category_name":"电影院","address":"新闸路701号"},{"poiid":"B2094757D16FA3F9469F","title":"上海现代设计集团","lon":"121.460851738","lat":"31.2347463963","category":"500","category_name":"未知分类","address":"上海石门二路258号"},{"poiid":"B2094752D665A5F84192","title":"上海理工大学四公寓一号楼","lon":"121.462195","lat":"31.236027","category":"500","category_name":"未知分类","address":"上海理工大学四公寓一号楼"},{"poiid":"B2094655D265A5F5429E","title":"星之网吧","lon":"121.46136","lat":"31.23627","category":"176","category_name":"网吧","address":"静安区慈溪路211号(近新闸路)"},{"poiid":"B2094654DA6CA4FA499A","title":"全家(新闸路)","lon":"121.46082","lat":"31.23637","category":"117","category_name":"便民商店/便利店","address":"新闸路767"},{"poiid":"B2094654DA6CA4FA4693","title":"石门医院","lon":"121.46138","lat":"31.23516","category":"162","category_name":"医院","address":"山海关路456号"},{"poiid":"B2094752D16FA0FC4599","title":"查餐厅（永新坊店）","lon":"121.462529","lat":"31.236522","category":"247","category_name":"餐饮美食","address":"徐汇区天钥桥路131号永新坊B1楼18号"},{"poiid":"B2094757D064A2FA4098","title":"D's Mansion","lon":"121.461219738","lat":"31.2363664309","category":"47","category_name":"住宅区","address":"上海ShanghaiZhabeiGuangfu Rd"},{"poiid":"B2094757D16AA6F84193","title":"地铁一号线衡山路","lon":"121.461844738","lat":"31.2327313534","category":"500","category_name":"未知分类","address":"上海市静安区泰兴路"},{"poiid":"B2094654DA6CA4FB419B","title":"石门二路社区文化活动中心","lon":"121.46129","lat":"31.23684","category":"248","category_name":"生活娱乐","address":"新闸路701之1-2"},{"poiid":"B2094654DB6BA5FD4093","title":"丽都太平洋公寓酒店(东北门)","lon":"121.46038","lat":"31.23428","category":"213","category_name":"五星级宾馆","address":"新闸路831号"},{"poiid":"B2094757D16EA6FE4392","title":"华山业余美校","lon":"121.45956473","lat":"31.234782397","category":"500","category_name":"未知分类","address":"上海市静安区新闸路848号"},{"poiid":"B2094654DA6CA1FF4493","title":"中信泰富广场","lon":"121.462","lat":"31.2349","category":"119","category_name":"商场","address":"静安区南京西路1168号中信泰富广场内(近陕西北路)"},{"poiid":"B2094655D26CAAFF4992","title":"静安别墅","lon":"121.464","lat":"31.2349","category":"47","category_name":"住宅区","address":"静安区南京西路1025弄静安别墅81号(近茂名北路)"},{"poiid":"B2094757D06FA3F4449B","title":"泰廊","lon":"121.46409","lat":"31.2338","category":"99","category_name":"泰国／越南菜品餐厅","address":"静安区大田路127号(近北京西路)"},{"poiid":"B2094753D76FAAFA449C","title":"上海滩国泰旗舰店","lon":"121.466011","lat":"31.216125","category":"249","category_name":"购物服务","address":"淮海中路868号"},{"poiid":"B209475CD564A7F84292","title":"上海滩新天地店","lon":"121.47463","lat":"31.22164","category":"119","category_name":"商场","address":"\"太仓路181弄新天地北里15号\r\n\""},{"poiid":"B209475CD564A7F8439E","title":"上海滩中信泰富店","lon":"121.45602","lat":"31.22851","category":"119","category_name":"商场","address":"\"南京西路1168号中信泰富广场，店铺号221.\r\n\""},{"poiid":"B2094757D068A3F8439A","title":"BELLO'CO 倍乐","lon":"121.45942745","lat":"31.236405856","category":"500","category_name":"未知分类","address":"上海新闸路848号"},{"poiid":"B2094757D06FA2FB409C","title":"东来顺饭庄(石门二路店)","lon":"121.46076","lat":"31.23391","category":"86","category_name":"火锅店","address":"静安区石门二路215号(近新闸路)"},{"poiid":"B2094757D06FA2FC439F","title":"静安雕塑公园","lon":"121.46159","lat":"31.2328","category":"196","category_name":"公园","address":"静安区石门二路128号(近北京西路)"},{"poiid":"B2094655D26BA3F94698","title":"丰收日(石门二路店)","lon":"121.46052","lat":"31.23564","category":"75","category_name":"浙江菜","address":"静安区石门二路268号(近新闸路)"},{"poiid":"B2094654DA6CA5F4489D","title":"凯迪克大厦","lon":"121.461","lat":"31.2377","category":"46","category_name":"楼宇","address":"上海市静安区江宁路212号"},{"poiid":"B2094757D06FA1F84192","title":"现代建筑设计大厦","lon":"121.460772","lat":"31.235274","category":"46","category_name":"楼宇","address":"上海市静安区石门二路258号"},{"poiid":"B2094757D06FAAFA489D","title":"新闸路石门二路","lon":"121.46029061","lat":"31.236030374","category":"500","category_name":"未知分类","address":"上海新闸路慈溪路"},{"poiid":"B2094757D06FA2FE449D","title":"潮汕砂锅粥馆(静安店)","lon":"121.45992","lat":"31.23502","category":"72","category_name":"广东菜","address":"静安区新闸路868号(近石门二路)"},{"poiid":"B2094757D06FA5FD499F","title":"富春小笼(新闸路店)","lon":"121.463359","lat":"31.237918","category":"68","category_name":"快餐厅","address":"静安区新闸路557号(近成都北路)"},{"poiid":"B2094757D06FA7FB409C","title":"国际丽都城","lon":"121.459495","lat":"31.233372","category":"47","category_name":"住宅区","address":"上海静安区北京西路758弄(近石门二路)"},{"poiid":"B2094757D068A2F8429D","title":"新城大厦","lon":"121.461","lat":"31.2369","category":"46","category_name":"楼宇","address":"上海市普陀区中山北路1777号"},{"poiid":"B2094757D06FAAF8499A","title":"嘉发大厦","lon":"121.4627151","lat":"31.23285293","category":"46","category_name":"楼宇","address":"新华都商务花园位于长宁定西路685号"},{"poiid":"B2094757D06AA0FC4793","title":"银发大厦","lon":"121.461","lat":"31.2364","category":"46","category_name":"楼宇","address":"铁西卫工南街8―5号"},{"poiid":"B2094752D669A5F9469E","title":"上海理工大学","lon":"121.462265","lat":"31.236358","category":"500","category_name":"未知分类","address":"军工路580号"},{"poiid":"B2094654DA6CA5FA489B","title":"弘记港式茶餐厅 新闸路店","lon":"121.45998989478","lat":"31.235576570521","category":"72","category_name":"广东菜","address":"静安区新闸路852号(近石门二路)"},{"poiid":"B2094654DA6CA4FF4798","title":"振安广场恒安大厦","lon":"121.45935","lat":"31.23598","category":"46","category_name":"楼宇","address":"石门二路333弄3-9号"},{"poiid":"B2094750D76DABFE489B","title":"蜀巷","lon":"121.46","lat":"31.2351","category":"71","category_name":"四川菜","address":"静安区新闸路854号(近石门二路)"},{"poiid":"B2094757DA65A2F5419A","title":"南北高架","lon":"121.46053","lat":"31.238095","category":"627","category_name":"一般地点标志","address":"南北高架"},{"poiid":"B2094654DA6CA4FA4692","title":"石门二路街道社区卫生服务中心","lon":"121.46137","lat":"31.23516","category":"162","category_name":"医院","address":"山海关路456"},{"poiid":"B2094757D06AA4F8419F","title":"达安城","lon":"121.46119","lat":"31.236032","category":"47","category_name":"住宅区","address":"上海市静安区新闸路777号"},{"poiid":"B2094757D06FABF94299","title":"丽都太平洋全套房酒店","lon":"121.459948","lat":"31.234771","category":"217","category_name":"旅馆招待所","address":"上海市静安区新闸路831号"},{"poiid":"B2094654DA6CA4FA4799","title":"上海市育才初级中学","lon":"121.46126","lat":"31.23472","category":"55","category_name":"中学","address":"静安区山海关路445号(近石门二路)"},{"poiid":"B2094654DA6CA5FA429C","title":"玛哪胜地","lon":"121.46021","lat":"31.23471","category":"112","category_name":"糕饼店","address":"静安区石门二路227号(近山海关路)"},{"poiid":"B2094752D26BA1FD4292","title":"lingo bistro","lon":"121.461267736357","lat":"31.23588586479729","category":"247","category_name":"餐饮美食","address":"南京西路388号仙乐斯广场1楼109室(近黄陂北路)"},{"poiid":"B2094752D665A5F4469E","title":"浦东机场T2","lon":"121.461468","lat":"31.236216","category":"500","category_name":"未知分类","address":"机场镇纬一路100号"},{"poiid":"B2094655D36CA1FD4599","title":"石门二路","lon":"121.45947","lat":"31.23472","category":"38","category_name":"公交车站","address":""},{"poiid":"B2094654DA6CA2FF469A","title":"东展商业大厦","lon":"121.46185","lat":"31.23266","category":"46","category_name":"楼宇","address":"丰台学城海鹰路1号，3号"},{"poiid":"B2094654DB6BA5FD459A","title":"上岛咖啡 新闸路店 UBC Coffee","lon":"121.459860054","lat":"31.235711793","category":"260","category_name":"其他","address":"静安区新闸路777弄1号(近石门二路)"},{"poiid":"B2094751DB6CA5F9459E","title":"长征医院","lon":"121.4608","lat":"31.23635","category":"162","category_name":"医院","address":null},{"poiid":"B2094654DA6CA5FA499A","title":"新福康里商务中心","lon":"121.45948","lat":"31.23501","category":"46","category_name":"楼宇","address":"丰台学城海鹰路1号，3号"},{"poiid":"B2094752D468A1FF4792","title":"安图医院","lon":"121.462212","lat":"31.2352","category":"162","category_name":"医院","address":"延吉东路200号"},{"poiid":"B2094757D769A4F54993","title":"云曦小吃","lon":"121.463874054","lat":"31.236463793","category":"68","category_name":"快餐厅","address":"静安区山海关路296号(近成都北路)"},{"poiid":"B2094654DB64A6FD469A","title":"西海电影院","lon":"121.46123","lat":"31.23679","category":"178","category_name":"电影院","address":"新闸路701号"},{"poiid":"B2094757D16FA3F9469F","title":"上海现代设计集团","lon":"121.460851738","lat":"31.2347463963","category":"500","category_name":"未知分类","address":"上海石门二路258号"},{"poiid":"B2094752D665A5F84192","title":"上海理工大学四公寓一号楼","lon":"121.462195","lat":"31.236027","category":"500","category_name":"未知分类","address":"上海理工大学四公寓一号楼"},{"poiid":"B2094655D265A5F5429E","title":"星之网吧","lon":"121.46136","lat":"31.23627","category":"176","category_name":"网吧","address":"静安区慈溪路211号(近新闸路)"},{"poiid":"B2094654DA6CA4FA499A","title":"全家(新闸路)","lon":"121.46082","lat":"31.23637","category":"117","category_name":"便民商店/便利店","address":"新闸路767"},{"poiid":"B2094654DA6CA4FA4693","title":"石门医院","lon":"121.46138","lat":"31.23516","category":"162","category_name":"医院","address":"山海关路456号"},{"poiid":"B2094752D16FA0FC4599","title":"查餐厅（永新坊店）","lon":"121.462529","lat":"31.236522","category":"247","category_name":"餐饮美食","address":"徐汇区天钥桥路131号永新坊B1楼18号"},{"poiid":"B2094757D064A2FA4098","title":"D's Mansion","lon":"121.461219738","lat":"31.2363664309","category":"47","category_name":"住宅区","address":"上海ShanghaiZhabeiGuangfu Rd"},{"poiid":"B2094757D16AA6F84193","title":"地铁一号线衡山路","lon":"121.461844738","lat":"31.2327313534","category":"500","category_name":"未知分类","address":"上海市静安区泰兴路"},{"poiid":"B2094654DA6CA4FB419B","title":"石门二路社区文化活动中心","lon":"121.46129","lat":"31.23684","category":"248","category_name":"生活娱乐","address":"新闸路701之1-2"},{"poiid":"B2094654DB6BA5FD4093","title":"丽都太平洋公寓酒店(东北门)","lon":"121.46038","lat":"31.23428","category":"213","category_name":"五星级宾馆","address":"新闸路831号"},{"poiid":"B2094757D16EA6FE4392","title":"华山业余美校","lon":"121.45956473","lat":"31.234782397","category":"500","category_name":"未知分类","address":"上海市静安区新闸路848号"}]