[{"poiid":"B2094757D06EAAFA439F","title":"徐泾东地铁站","lon":"121.29818261","lat":"31.187621956","category":"36","category_name":"地铁站","address":"上海轨道交通 二号线 轨交徐泾东站 2"},{"poiid":"B2094757D06FABF54493","title":"上海国家会计学院","lon":"121.288928","lat":"31.175844","category":"671","category_name":"高校中心点","address":"上海市青浦区蟠龙路200号"},{"poiid":"B2094757D06FA4F9489A","title":"西郊庄园","lon":"121.28551","lat":"31.20104","category":"47","category_name":"住宅区","address":"上海市闵行区华漕镇金丰路588弄"},{"poiid":"B2094654DB69A5F9449B","title":"星巴克(金丰路店)","lon":"121.2848848","lat":"31.2031635","category":"65","category_name":"咖啡厅","address":"闵行区金丰路447号(近保乐路)"},{"poiid":"B2094757D068A4FB409C","title":"小钱龙虾馆","lon":"121.2986","lat":"31.20417","category":"87","category_name":"特色／地方风味餐厅","address":"闵行区诸翟镇纪翟南路(联华路口)"},{"poiid":"B2094757D16FAAFD409E","title":"上海美国学校(浦西校区)","lon":"121.27917886","lat":"31.205523976","category":"253","category_name":"校园生活","address":"上海闵行区金丰路256号(近保乐路)"},{"poiid":"B2094655D36CA6F9469D","title":"二号线徐泾东站","lon":"121.29863","lat":"31.18794","category":"38","category_name":"公交车站","address":""},{"poiid":"B2094757D069A6FF4499","title":"G15沈海高速崧泽高架路收费站","lon":"121.28071856","lat":"31.187516158","category":"267","category_name":"收费站","address":"上海青浦区G15沈海高速崧泽高架路出口"},{"poiid":"B2094750D464A7FE4993","title":"玉兰清苑","lon":"121.296809","lat":"31.197307","category":"47","category_name":"住宅区","address":"青浦区龙联路58弄玉兰清苑"},{"poiid":"B2094757D568ABF84493","title":"西郊家园","lon":"121.3018877","lat":"31.18204861","category":"47","category_name":"住宅区","address":"西郊家园位于长宁虹桥路2328弄"},{"poiid":"B2094757D66BA7FD4898","title":"思念小龙虾","lon":"121.286443","lat":"31.188851","category":"269","category_name":"烧烤","address":"盈港东路1518号近华徐公路"},{"poiid":"B2094655D36DA7F44193","title":"菘泽大道","lon":"121.28165","lat":"31.18853","category":"38","category_name":"公交车站","address":""},{"poiid":"B2094757D168A3FB449D","title":"罗家新苑","lon":"121.29334956","lat":"31.1850936954","category":"47","category_name":"住宅区","address":"上海市青浦区徐民东路"},{"poiid":"B2094757D06BA4FD489B","title":"徐泾4路","lon":"121.28848856","lat":"31.1897346533","category":"500","category_name":"未知分类","address":"上海徐泾东环城徐泾东"},{"poiid":"B2094655D36DA6FE499A","title":"徐泾东","lon":"121.29821","lat":"31.18768","category":"38","category_name":"公交车站","address":""},{"poiid":"B2094757D66DABFB419C","title":"迪丰集团","lon":"121.27259356","lat":"31.192406849","category":"263","category_name":"公司","address":"上海市青浦区徐径镇双联路168号"},{"poiid":"B2094654D56AA4FC4498","title":"西郊大公馆","lon":"121.29517","lat":"31.181421","category":"47","category_name":"住宅区","address":"青浦区盈港东路333弄"},{"poiid":"B2094757D064ABFC4992","title":"二联佳苑","lon":"121.29385006","lat":"31.1941462864","category":"47","category_name":"住宅区","address":"上海青浦区徐泾镇徐灵路二00弄"},{"poiid":"B2094654D56AABF84192","title":"上海国家会计学院第三教学楼","lon":"121.2936","lat":"31.17995","category":"52","category_name":"高等院校","address":""},{"poiid":"B2094654D56AA6FA459A","title":"上海英国学校","lon":"121.278","lat":"31.19609","category":"55","category_name":"中学","address":"闵行区华漕镇金光路588号"},{"poiid":"B2094654D56AA6F94793","title":"上海宝怡","lon":"121.29076","lat":"31.19184","category":"248","category_name":"生活娱乐","address":"诸陆东路800"},{"poiid":"B2094757D66CA7FE4093","title":"徐泾1路二联站","lon":"121.29268986","lat":"31.1868304321","category":"38","category_name":"公交车站","address":"上海市青浦区徐泾镇徐灵路"},{"poiid":"B2094757D069ABFA409D","title":"朗迪姆","lon":"121.28484","lat":"31.20335","category":"94","category_name":"西餐厅","address":"闵行区诸翟镇金丰路435号(近保乐路)"},{"poiid":"B2094654DB6BA0FA449D","title":"中国外运上海物流中心","lon":"121.28804","lat":"31.1856","category":"248","category_name":"生活娱乐","address":"蟠中路369"},{"poiid":"B2094655D36CA6F94699","title":"二联村委","lon":"121.29365","lat":"31.19391","category":"38","category_name":"公交车站","address":""},{"poiid":"B2094654D56AA5FD439C","title":"蟠龙庵","lon":"121.27604","lat":"31.18696","category":"244","category_name":"寺庙道观","address":"青浦区徐泾镇蟠龙村(崧泽大道蟠龙路)"},{"poiid":"B2094654D56AA6F4499C","title":"上海平野塑料模具有限公司","lon":"121.29109","lat":"31.18743","category":"263","category_name":"公司","address":"蟠中路283"},{"poiid":"B2094757D568A4F9429C","title":"G15崧泽高架路收费站","lon":"121.280546","lat":"31.188235","category":"267","category_name":"收费站","address":"中国上海市青浦区诸陆东路"},{"poiid":"B2094757D568A0F8439F","title":"上海国家会计学院信息中心","lon":"121.2805642","lat":"31.185955","category":"52","category_name":"高等院校","address":"蟠龙路200号"},{"poiid":"B2094751D36BA4F54899","title":"虹桥机场2号航站楼贵宾休息室","lon":"121.2925606","lat":"31.1971167","category":"500","category_name":"未知分类","address":null},{"poiid":"B2094655D36DA0FB479E","title":"盈港东路诸光路","lon":"121.29952","lat":"31.1847","category":"38","category_name":"公交车站","address":""},{"poiid":"B2094654D56AA6F9469D","title":"上海英海液压机电成套有限公司(龙联路)","lon":"121.28035","lat":"31.1913","category":"263","category_name":"公司","address":"龙联路998号"},{"poiid":"B2094654D56AA4FC449A","title":"国际会议中心(行政教研楼东北)","lon":"121.29274","lat":"31.18022","category":"185","category_name":"会展中心","address":""},{"poiid":"B2094757D465ABFD419F","title":"威尼斯意式咖啡休闲书吧","lon":"121.2841611","lat":"31.2013278","category":"65","category_name":"咖啡厅","address":"闵行区保乐路648号(近西郊庄园)"},{"poiid":"B2094757D16CA0FE4799","title":"永记广东菜","lon":"121.28522","lat":"31.20171","category":"72","category_name":"广东菜","address":"闵行区华漕镇保乐路610号(近金丰路)"},{"poiid":"B2094654D56AA6FB419F","title":"紫薇新村","lon":"121.29767","lat":"31.202496","category":"47","category_name":"住宅区","address":"北翟路5120弄"},{"poiid":"B2094654D56AA6F44993","title":"尤妮佳生活用品(中国)有限公司","lon":"121.28352","lat":"31.18437","category":"263","category_name":"公司","address":"蟠中路358"},{"poiid":"B2094654D56AABF94193","title":"科倍企业发展(上海)有限公司(徐民东路)","lon":"121.29688","lat":"31.18721","category":"263","category_name":"公司","address":""},{"poiid":"B2094757D469A5FD479D","title":"赛百味 金丰路店 Subway","lon":"121.284490054","lat":"31.203679793","category":"94","category_name":"西餐厅","address":"闵行区华漕镇金丰路452号(近西郊庄园)"},{"poiid":"B2094654D56AA6FA4393","title":"宏渡有限公司","lon":"121.29503","lat":"31.19006","category":"263","category_name":"公司","address":"蟠中东路388号"},{"poiid":"B2094757D06BA0FB4893","title":"玉蘭清苑售樓處","lon":"121.29665666","lat":"31.194508994","category":"263","category_name":"公司","address":"上海龍聯路58弄"},{"poiid":"B2094654DB6BA0FA4598","title":"小曾车行","lon":"121.29287","lat":"31.18509","category":"133","category_name":"自行车专卖店","address":"徐民路"},{"poiid":"B2094757D16DA5FC499F","title":"西郊家苑","lon":"121.30043156","lat":"31.1820996323","category":"47","category_name":"住宅区","address":"上海市青浦区徐泾东路"},{"poiid":"B2094654D56AA4F54593","title":"德莉雪丝烘焙坊 Delicious Bakery","lon":"121.28479","lat":"31.20207","category":"112","category_name":"糕饼店","address":"闵行区保乐路612号(保乐路闵行金丰路)"},{"poiid":"B2094757D464ABF9449A","title":"棒约翰比萨 金丰店 Papa John's Pizza","lon":"121.28428025352","lat":"31.204068642386","category":"94","category_name":"西餐厅","address":"闵行区金丰路441号1楼(近保乐路)"},{"poiid":"B2094757D065A6FA499B","title":"朱徐线","lon":"121.299770299","lat":"31.1897847042","category":"38","category_name":"公交车站","address":"上海2号线徐泾东站—朱家角汽车站"},{"poiid":"B2094654DB6BA0FB419C","title":"上海西庭网球俱乐部和公寓","lon":"121.2937959746","lat":"31.206637571572","category":"47","category_name":"住宅区","address":"金丰路555弄"},{"poiid":"B2094654D56AA6FA4793","title":"泰海香泰式餐厅","lon":"121.28369","lat":"31.20122","category":"99","category_name":"泰国／越南菜品餐厅","address":"闵行区保乐路664号(近西郊庄园)"},{"poiid":"B2094750D568A6F54993","title":"Coffee Crema","lon":"121.284454","lat":"31.200942","category":"65","category_name":"咖啡厅","address":"闵行区保乐路654号(近金丰路)"},{"poiid":"B2094757D06BA2F9449F","title":"嘉闵高架","lon":"121.29548186","lat":"31.198963238","category":"500","category_name":"未知分类","address":"上海嘉闵高架"},{"poiid":"B2094757D06EAAFA439F","title":"徐泾东地铁站","lon":"121.29818261","lat":"31.187621956","category":"36","category_name":"地铁站","address":"上海轨道交通 二号线 轨交徐泾东站 2"},{"poiid":"B2094757D06FABF54493","title":"上海国家会计学院","lon":"121.288928","lat":"31.175844","category":"671","category_name":"高校中心点","address":"上海市青浦区蟠龙路200号"},{"poiid":"B2094757D06FA4F9489A","title":"西郊庄园","lon":"121.28551","lat":"31.20104","category":"47","category_name":"住宅区","address":"上海市闵行区华漕镇金丰路588弄"},{"poiid":"B2094654DB69A5F9449B","title":"星巴克(金丰路店)","lon":"121.2848848","lat":"31.2031635","category":"65","category_name":"咖啡厅","address":"闵行区金丰路447号(近保乐路)"},{"poiid":"B2094757D068A4FB409C","title":"小钱龙虾馆","lon":"121.2986","lat":"31.20417","category":"87","category_name":"特色／地方风味餐厅","address":"闵行区诸翟镇纪翟南路(联华路口)"},{"poiid":"B2094757D16FAAFD409E","title":"上海美国学校(浦西校区)","lon":"121.27917886","lat":"31.205523976","category":"253","category_name":"校园生活","address":"上海闵行区金丰路256号(近保乐路)"},{"poiid":"B2094655D36CA6F9469D","title":"二号线徐泾东站","lon":"121.29863","lat":"31.18794","category":"38","category_name":"公交车站","address":""},{"poiid":"B2094757D069A6FF4499","title":"G15沈海高速崧泽高架路收费站","lon":"121.28071856","lat":"31.187516158","category":"267","category_name":"收费站","address":"上海青浦区G15沈海高速崧泽高架路出口"},{"poiid":"B2094750D464A7FE4993","title":"玉兰清苑","lon":"121.296809","lat":"31.197307","category":"47","category_name":"住宅区","address":"青浦区龙联路58弄玉兰清苑"},{"poiid":"B2094757D568ABF84493","title":"西郊家园","lon":"121.3018877","lat":"31.18204861","category":"47","category_name":"住宅区","address":"西郊家园位于长宁虹桥路2328弄"},{"poiid":"B2094757D66BA7FD4898","title":"思念小龙虾","lon":"121.286443","lat":"31.188851","category":"269","category_name":"烧烤","address":"盈港东路1518号近华徐公路"},{"poiid":"B2094655D36DA7F44193","title":"菘泽大道","lon":"121.28165","lat":"31.18853","category":"38","category_name":"公交车站","address":""},{"poiid":"B2094757D168A3FB449D","title":"罗家新苑","lon":"121.29334956","lat":"31.1850936954","category":"47","category_name":"住宅区","address":"上海市青浦区徐民东路"},{"poiid":"B2094757D06BA4FD489B","title":"徐泾4路","lon":"121.28848856","lat":"31.1897346533","category":"500","category_name":"未知分类","address":"上海徐泾东环城徐泾东"},{"poiid":"B2094655D36DA6FE499A","title":"徐泾东","lon":"121.29821","lat":"31.18768","category":"38","category_name":"公交车站","address":""},{"poiid":"B2094757D66DABFB419C","title":"迪丰集团","lon":"121.27259356","lat":"31.192406849","category":"263","category_name":"公司","address":"上海市青浦区徐径镇双联路168号"},{"poiid":"B2094654D56AA4FC4498","title":"西郊大公馆","lon":"121.29517","lat":"31.181421","category":"47","category_name":"住宅区","address":"青浦区盈港东路333弄"},{"poiid":"B2094757D064ABFC4992","title":"二联佳苑","lon":"121.29385006","lat":"31.1941462864","category":"47","category_name":"住宅区","address":"上海青浦区徐泾镇徐灵路二00弄"},{"poiid":"B2094654D56AABF84192","title":"上海国家会计学院第三教学楼","lon":"121.2936","lat":"31.17995","category":"52","category_name":"高等院校","address":""},{"poiid":"B2094654D56AA6FA459A","title":"上海英国学校","lon":"121.278","lat":"31.19609","category":"55","category_name":"中学","address":"闵行区华漕镇金光路588号"},{"poiid":"B2094654D56AA6F94793","title":"上海宝怡","lon":"121.29076","lat":"31.19184","category":"248","category_name":"生活娱乐","address":"诸陆东路800"},{"poiid":"B2094757D66CA7FE4093","title":"徐泾1路二联站","lon":"121.29268986","lat":"31.1868304321","category":"38","category_name":"公交车站","address":"上海市青浦区徐泾镇徐灵路"},{"poiid":"B2094757D069ABFA409D","title":"朗迪姆","lon":"121.28484","lat":"31.20335","category":"94","category_name":"西餐厅","address":"闵行区诸翟镇金丰路435号(近保乐路)"},{"poiid":"B2094654DB6BA0FA449D","title":"中国外运上海物流中心","lon":"121.28804","lat":"31.1856","category":"248","category_name":"生活娱乐","address":"蟠中路369"},{"poiid":"B2094655D36CA6F94699","title":"二联村委","lon":"121.29365","lat":"31.19391","category":"38","category_name":"公交车站","address":""},{"poiid":"B2094654D56AA5FD439C","title":"蟠龙庵","lon":"121.27604","lat":"31.18696","category":"244","category_name":"寺庙道观","address":"青浦区徐泾镇蟠龙村(崧泽大道蟠龙路)"},{"poiid":"B2094654D56AA6F4499C","title":"上海平野塑料模具有限公司","lon":"121.29109","lat":"31.18743","category":"263","category_name":"公司","address":"蟠中路283"},{"poiid":"B2094757D568A4F9429C","title":"G15崧泽高架路收费站","lon":"121.280546","lat":"31.188235","category":"267","category_name":"收费站","address":"中国上海市青浦区诸陆东路"},{"poiid":"B2094757D568A0F8439F","title":"上海国家会计学院信息中心","lon":"121.2805642","lat":"31.185955","category":"52","category_name":"高等院校","address":"蟠龙路200号"},{"poiid":"B2094751D36BA4F54899","title":"虹桥机场2号航站楼贵宾休息室","lon":"121.2925606","lat":"31.1971167","category":"500","category_name":"未知分类","address":null},{"poiid":"B2094655D36DA0FB479E","title":"盈港东路诸光路","lon":"121.29952","lat":"31.1847","category":"38","category_name":"公交车站","address":""},{"poiid":"B2094654D56AA6F9469D","title":"上海英海液压机电成套有限公司(龙联路)","lon":"121.28035","lat":"31.1913","category":"263","category_name":"公司","address":"龙联路998号"},{"poiid":"B2094654D56AA4FC449A","title":"国际会议中心(行政教研楼东北)","lon":"121.29274","lat":"31.18022","category":"185","category_name":"会展中心","address":""},{"poiid":"B2094757D465ABFD419F","title":"威尼斯意式咖啡休闲书吧","lon":"121.2841611","lat":"31.2013278","category":"65","category_name":"咖啡厅","address":"闵行区保乐路648号(近西郊庄园)"},{"poiid":"B2094757D16CA0FE4799","title":"永记广东菜","lon":"121.28522","lat":"31.20171","category":"72","category_name":"广东菜","address":"闵行区华漕镇保乐路610号(近金丰路)"},{"poiid":"B2094654D56AA6FB419F","title":"紫薇新村","lon":"121.29767","lat":"31.202496","category":"47","category_name":"住宅区","address":"北翟路5120弄"},{"poiid":"B2094654D56AA6F44993","title":"尤妮佳生活用品(中国)有限公司","lon":"121.28352","lat":"31.18437","category":"263","category_name":"公司","address":"蟠中路358"},{"poiid":"B2094654D56AABF94193","title":"科倍企业发展(上海)有限公司(徐民东路)","lon":"121.29688","lat":"31.18721","category":"263","category_name":"公司","address":""},{"poiid":"B2094757D469A5FD479D","title":"赛百味 金丰路店 Subway","lon":"121.284490054","lat":"31.203679793","category":"94","category_name":"西餐厅","address":"闵行区华漕镇金丰路452号(近西郊庄园)"},{"poiid":"B2094654D56AA6FA4393","title":"宏渡有限公司","lon":"121.29503","lat":"31.19006","category":"263","category_name":"公司","address":"蟠中东路388号"},{"poiid":"B2094757D06BA0FB4893","title":"玉蘭清苑售樓處","lon":"121.29665666","lat":"31.194508994","category":"263","category_name":"公司","address":"上海龍聯路58弄"},{"poiid":"B2094654DB6BA0FA4598","title":"小曾车行","lon":"121.29287","lat":"31.18509","category":"133","category_name":"自行车专卖店","address":"徐民路"},{"poiid":"B2094757D16DA5FC499F","title":"西郊家苑","lon":"121.30043156","lat":"31.1820996323","category":"47","category_name":"住宅区","address":"上海市青浦区徐泾东路"},{"poiid":"B2094654D56AA4F54593","title":"德莉雪丝烘焙坊 Delicious Bakery","lon":"121.28479","lat":"31.20207","category":"112","category_name":"糕饼店","address":"闵行区保乐路612号(保乐路闵行金丰路)"},{"poiid":"B2094757D464ABF9449A","title":"棒约翰比萨 金丰店 Papa John's Pizza","lon":"121.28428025352","lat":"31.204068642386","category":"94","category_name":"西餐厅","address":"闵行区金丰路441号1楼(近保乐路)"},{"poiid":"B2094757D065A6FA499B","title":"朱徐线","lon":"121.299770299","lat":"31.1897847042","category":"38","category_name":"公交车站","address":"上海2号线徐泾东站—朱家角汽车站"},{"poiid":"B2094654DB6BA0FB419C","title":"上海西庭网球俱乐部和公寓","lon":"121.2937959746","lat":"31.206637571572","category":"47","category_name":"住宅区","address":"金丰路555弄"},{"poiid":"B2094654D56AA6FA4793","title":"泰海香泰式餐厅","lon":"121.28369","lat":"31.20122","category":"99","category_name":"泰国／越南菜品餐厅","address":"闵行区保乐路664号(近西郊庄园)"},{"poiid":"B2094750D568A6F54993","title":"Coffee Crema","lon":"121.284454","lat":"31.200942","category":"65","category_name":"咖啡厅","address":"闵行区保乐路654号(近金丰路)"},{"poiid":"B2094757D06BA2F9449F","title":"嘉闵高架","lon":"121.29548186","lat":"31.198963238","category":"500","category_name":"未知分类","address":"上海嘉闵高架"},{"poiid":"B2094757D06EAAFA439F","title":"徐泾东地铁站","lon":"121.29818261","lat":"31.187621956","category":"36","category_name":"地铁站","address":"上海轨道交通 二号线 轨交徐泾东站 2"},{"poiid":"B2094757D06FABF54493","title":"上海国家会计学院","lon":"121.288928","lat":"31.175844","category":"671","category_name":"高校中心点","address":"上海市青浦区蟠龙路200号"},{"poiid":"B2094757D06FA4F9489A","title":"西郊庄园","lon":"121.28551","lat":"31.20104","category":"47","category_name":"住宅区","address":"上海市闵行区华漕镇金丰路588弄"},{"poiid":"B2094654DB69A5F9449B","title":"星巴克(金丰路店)","lon":"121.2848848","lat":"31.2031635","category":"65","category_name":"咖啡厅","address":"闵行区金丰路447号(近保乐路)"},{"poiid":"B2094757D068A4FB409C","title":"小钱龙虾馆","lon":"121.2986","lat":"31.20417","category":"87","category_name":"特色／地方风味餐厅","address":"闵行区诸翟镇纪翟南路(联华路口)"},{"poiid":"B2094757D16FAAFD409E","title":"上海美国学校(浦西校区)","lon":"121.27917886","lat":"31.205523976","category":"253","category_name":"校园生活","address":"上海闵行区金丰路256号(近保乐路)"},{"poiid":"B2094655D36CA6F9469D","title":"二号线徐泾东站","lon":"121.29863","lat":"31.18794","category":"38","category_name":"公交车站","address":""},{"poiid":"B2094757D069A6FF4499","title":"G15沈海高速崧泽高架路收费站","lon":"121.28071856","lat":"31.187516158","category":"267","category_name":"收费站","address":"上海青浦区G15沈海高速崧泽高架路出口"},{"poiid":"B2094750D464A7FE4993","title":"玉兰清苑","lon":"121.296809","lat":"31.197307","category":"47","category_name":"住宅区","address":"青浦区龙联路58弄玉兰清苑"},{"poiid":"B2094757D568ABF84493","title":"西郊家园","lon":"121.3018877","lat":"31.18204861","category":"47","category_name":"住宅区","address":"西郊家园位于长宁虹桥路2328弄"},{"poiid":"B2094757D66BA7FD4898","title":"思念小龙虾","lon":"121.286443","lat":"31.188851","category":"269","category_name":"烧烤","address":"盈港东路1518号近华徐公路"},{"poiid":"B2094655D36DA7F44193","title":"菘泽大道","lon":"121.28165","lat":"31.18853","category":"38","category_name":"公交车站","address":""},{"poiid":"B2094757D168A3FB449D","title":"罗家新苑","lon":"121.29334956","lat":"31.1850936954","category":"47","category_name":"住宅区","address":"上海市青浦区徐民东路"},{"poiid":"B2094757D06BA4FD489B","title":"徐泾4路","lon":"121.28848856","lat":"31.1897346533","category":"500","category_name":"未知分类","address":"上海徐泾东环城徐泾东"},{"poiid":"B2094655D36DA6FE499A","title":"徐泾东","lon":"121.29821","lat":"31.18768","category":"38","category_name":"公交车站","address":""},{"poiid":"B2094757D66DABFB419C","title":"迪丰集团","lon":"121.27259356","lat":"31.192406849","category":"263","category_name":"公司","address":"上海市青浦区徐径镇双联路168号"},{"poiid":"B2094654D56AA4FC4498","title":"西郊大公馆","lon":"121.29517","lat":"31.181421","category":"47","category_name":"住宅区","address":"青浦区盈港东路333弄"},{"poiid":"B2094757D064ABFC4992","title":"二联佳苑","lon":"121.29385006","lat":"31.1941462864","category":"47","category_name":"住宅区","address":"上海青浦区徐泾镇徐灵路二00弄"},{"poiid":"B2094654D56AABF84192","title":"上海国家会计学院第三教学楼","lon":"121.2936","lat":"31.17995","category":"52","category_name":"高等院校","address":""},{"poiid":"B2094654D56AA6FA459A","title":"上海英国学校","lon":"121.278","lat":"31.19609","category":"55","category_name":"中学","address":"闵行区华漕镇金光路588号"},{"poiid":"B2094654D56AA6F94793","title":"上海宝怡","lon":"121.29076","lat":"31.19184","category":"248","category_name":"生活娱乐","address":"诸陆东路800"},{"poiid":"B2094757D66CA7FE4093","title":"徐泾1路二联站","lon":"121.29268986","lat":"31.1868304321","category":"38","category_name":"公交车站","address":"上海市青浦区徐泾镇徐灵路"},{"poiid":"B2094757D069ABFA409D","title":"朗迪姆","lon":"121.28484","lat":"31.20335","category":"94","category_name":"西餐厅","address":"闵行区诸翟镇金丰路435号(近保乐路)"},{"poiid":"B2094654DB6BA0FA449D","title":"中国外运上海物流中心","lon":"121.28804","lat":"31.1856","category":"248","category_name":"生活娱乐","address":"蟠中路369"},{"poiid":"B2094655D36CA6F94699","title":"二联村委","lon":"121.29365","lat":"31.19391","category":"38","category_name":"公交车站","address":""},{"poiid":"B2094654D56AA5FD439C","title":"蟠龙庵","lon":"121.27604","lat":"31.18696","category":"244","category_name":"寺庙道观","address":"青浦区徐泾镇蟠龙村(崧泽大道蟠龙路)"},{"poiid":"B2094654D56AA6F4499C","title":"上海平野塑料模具有限公司","lon":"121.29109","lat":"31.18743","category":"263","category_name":"公司","address":"蟠中路283"},{"poiid":"B2094757D568A4F9429C","title":"G15崧泽高架路收费站","lon":"121.280546","lat":"31.188235","category":"267","category_name":"收费站","address":"中国上海市青浦区诸陆东路"},{"poiid":"B2094757D568A0F8439F","title":"上海国家会计学院信息中心","lon":"121.2805642","lat":"31.185955","category":"52","category_name":"高等院校","address":"蟠龙路200号"},{"poiid":"B2094751D36BA4F54899","title":"虹桥机场2号航站楼贵宾休息室","lon":"121.2925606","lat":"31.1971167","category":"500","category_name":"未知分类","address":null},{"poiid":"B2094655D36DA0FB479E","title":"盈港东路诸光路","lon":"121.29952","lat":"31.1847","category":"38","category_name":"公交车站","address":""},{"poiid":"B2094654D56AA6F9469D","title":"上海英海液压机电成套有限公司(龙联路)","lon":"121.28035","lat":"31.1913","category":"263","category_name":"公司","address":"龙联路998号"},{"poiid":"B2094654D56AA4FC449A","title":"国际会议中心(行政教研楼东北)","lon":"121.29274","lat":"31.18022","category":"185","category_name":"会展中心","address":""},{"poiid":"B2094757D465ABFD419F","title":"威尼斯意式咖啡休闲书吧","lon":"121.2841611","lat":"31.2013278","category":"65","category_name":"咖啡厅","address":"闵行区保乐路648号(近西郊庄园)"},{"poiid":"B2094757D16CA0FE4799","title":"永记广东菜","lon":"121.28522","lat":"31.20171","category":"72","category_name":"广东菜","address":"闵行区华漕镇保乐路610号(近金丰路)"},{"poiid":"B2094654D56AA6FB419F","title":"紫薇新村","lon":"121.29767","lat":"31.202496","category":"47","category_name":"住宅区","address":"北翟路5120弄"},{"poiid":"B2094654D56AA6F44993","title":"尤妮佳生活用品(中国)有限公司","lon":"121.28352","lat":"31.18437","category":"263","category_name":"公司","address":"蟠中路358"},{"poiid":"B2094654D56AABF94193","title":"科倍企业发展(上海)有限公司(徐民东路)","lon":"121.29688","lat":"31.18721","category":"263","category_name":"公司","address":""},{"poiid":"B2094757D469A5FD479D","title":"赛百味 金丰路店 Subway","lon":"121.284490054","lat":"31.203679793","category":"94","category_name":"西餐厅","address":"闵行区华漕镇金丰路452号(近西郊庄园)"},{"poiid":"B2094654D56AA6FA4393","title":"宏渡有限公司","lon":"121.29503","lat":"31.19006","category":"263","category_name":"公司","address":"蟠中东路388号"},{"poiid":"B2094757D06BA0FB4893","title":"玉蘭清苑售樓處","lon":"121.29665666","lat":"31.194508994","category":"263","category_name":"公司","address":"上海龍聯路58弄"},{"poiid":"B2094654DB6BA0FA4598","title":"小曾车行","lon":"121.29287","lat":"31.18509","category":"133","category_name":"自行车专卖店","address":"徐民路"},{"poiid":"B2094757D16DA5FC499F","title":"西郊家苑","lon":"121.30043156","lat":"31.1820996323","category":"47","category_name":"住宅区","address":"上海市青浦区徐泾东路"},{"poiid":"B2094654D56AA4F54593","title":"德莉雪丝烘焙坊 Delicious Bakery","lon":"121.28479","lat":"31.20207","category":"112","category_name":"糕饼店","address":"闵行区保乐路612号(保乐路闵行金丰路)"},{"poiid":"B2094757D464ABF9449A","title":"棒约翰比萨 金丰店 Papa John's Pizza","lon":"121.28428025352","lat":"31.204068642386","category":"94","category_name":"西餐厅","address":"闵行区金丰路441号1楼(近保乐路)"},{"poiid":"B2094757D065A6FA499B","title":"朱徐线","lon":"121.299770299","lat":"31.1897847042","category":"38","category_name":"公交车站","address":"上海2号线徐泾东站—朱家角汽车站"},{"poiid":"B2094654DB6BA0FB419C","title":"上海西庭网球俱乐部和公寓","lon":"121.2937959746","lat":"31.206637571572","category":"47","category_name":"住宅区","address":"金丰路555弄"},{"poiid":"B2094654D56AA6FA4793","title":"泰海香泰式餐厅","lon":"121.28369","lat":"31.20122","category":"99","category_name":"泰国／越南菜品餐厅","address":"闵行区保乐路664号(近西郊庄园)"},{"poiid":"B2094750D568A6F54993","title":"Coffee Crema","lon":"121.284454","lat":"31.200942","category":"65","category_name":"咖啡厅","address":"闵行区保乐路654号(近金丰路)"},{"poiid":"B2094757D06BA2F9449F","title":"嘉闵高架","lon":"121.29548186","lat":"31.198963238","category":"500","category_name":"未知分类","address":"上海嘉闵高架"},{"poiid":"B2094757D06EAAFA439F","title":"徐泾东地铁站","lon":"121.29818261","lat":"31.187621956","category":"36","category_name":"地铁站","address":"上海轨道交通 二号线 轨交徐泾东站 2"},{"poiid":"B2094757D06FABF54493","title":"上海国家会计学院","lon":"121.288928","lat":"31.175844","category":"671","category_name":"高校中心点","address":"上海市青浦区蟠龙路200号"},{"poiid":"B2094757D06FA4F9489A","title":"西郊庄园","lon":"121.28551","lat":"31.20104","category":"47","category_name":"住宅区","address":"上海市闵行区华漕镇金丰路588弄"},{"poiid":"B2094654DB69A5F9449B","title":"星巴克(金丰路店)","lon":"121.2848848","lat":"31.2031635","category":"65","category_name":"咖啡厅","address":"闵行区金丰路447号(近保乐路)"},{"poiid":"B2094757D068A4FB409C","title":"小钱龙虾馆","lon":"121.2986","lat":"31.20417","category":"87","category_name":"特色／地方风味餐厅","address":"闵行区诸翟镇纪翟南路(联华路口)"},{"poiid":"B2094757D16FAAFD409E","title":"上海美国学校(浦西校区)","lon":"121.27917886","lat":"31.205523976","category":"253","category_name":"校园生活","address":"上海闵行区金丰路256号(近保乐路)"},{"poiid":"B2094655D36CA6F9469D","title":"二号线徐泾东站","lon":"121.29863","lat":"31.18794","category":"38","category_name":"公交车站","address":""},{"poiid":"B2094757D069A6FF4499","title":"G15沈海高速崧泽高架路收费站","lon":"121.28071856","lat":"31.187516158","category":"267","category_name":"收费站","address":"上海青浦区G15沈海高速崧泽高架路出口"},{"poiid":"B2094750D464A7FE4993","title":"玉兰清苑","lon":"121.296809","lat":"31.197307","category":"47","category_name":"住宅区","address":"青浦区龙联路58弄玉兰清苑"},{"poiid":"B2094757D568ABF84493","title":"西郊家园","lon":"121.3018877","lat":"31.18204861","category":"47","category_name":"住宅区","address":"西郊家园位于长宁虹桥路2328弄"},{"poiid":"B2094757D66BA7FD4898","title":"思念小龙虾","lon":"121.286443","lat":"31.188851","category":"269","category_name":"烧烤","address":"盈港东路1518号近华徐公路"},{"poiid":"B2094655D36DA7F44193","title":"菘泽大道","lon":"121.28165","lat":"31.18853","category":"38","category_name":"公交车站","address":""},{"poiid":"B2094757D168A3FB449D","title":"罗家新苑","lon":"121.29334956","lat":"31.1850936954","category":"47","category_name":"住宅区","address":"上海市青浦区徐民东路"},{"poiid":"B2094757D06BA4FD489B","title":"徐泾4路","lon":"121.28848856","lat":"31.1897346533","category":"500","category_name":"未知分类","address":"上海徐泾东环城徐泾东"},{"poiid":"B2094655D36DA6FE499A","title":"徐泾东","lon":"121.29821","lat":"31.18768","category":"38","category_name":"公交车站","address":""},{"poiid":"B2094757D66DABFB419C","title":"迪丰集团","lon":"121.27259356","lat":"31.192406849","category":"263","category_name":"公司","address":"上海市青浦区徐径镇双联路168号"},{"poiid":"B2094654D56AA4FC4498","title":"西郊大公馆","lon":"121.29517","lat":"31.181421","category":"47","category_name":"住宅区","address":"青浦区盈港东路333弄"},{"poiid":"B2094757D064ABFC4992","title":"二联佳苑","lon":"121.29385006","lat":"31.1941462864","category":"47","category_name":"住宅区","address":"上海青浦区徐泾镇徐灵路二00弄"},{"poiid":"B2094654D56AABF84192","title":"上海国家会计学院第三教学楼","lon":"121.2936","lat":"31.17995","category":"52","category_name":"高等院校","address":""},{"poiid":"B2094654D56AA6FA459A","title":"上海英国学校","lon":"121.278","lat":"31.19609","category":"55","category_name":"中学","address":"闵行区华漕镇金光路588号"},{"poiid":"B2094654D56AA6F94793","title":"上海宝怡","lon":"121.29076","lat":"31.19184","category":"248","category_name":"生活娱乐","address":"诸陆东路800"},{"poiid":"B2094757D66CA7FE4093","title":"徐泾1路二联站","lon":"121.29268986","lat":"31.1868304321","category":"38","category_name":"公交车站","address":"上海市青浦区徐泾镇徐灵路"},{"poiid":"B2094757D069ABFA409D","title":"朗迪姆","lon":"121.28484","lat":"31.20335","category":"94","category_name":"西餐厅","address":"闵行区诸翟镇金丰路435号(近保乐路)"},{"poiid":"B2094654DB6BA0FA449D","title":"中国外运上海物流中心","lon":"121.28804","lat":"31.1856","category":"248","category_name":"生活娱乐","address":"蟠中路369"},{"poiid":"B2094655D36CA6F94699","title":"二联村委","lon":"121.29365","lat":"31.19391","category":"38","category_name":"公交车站","address":""},{"poiid":"B2094654D56AA5FD439C","title":"蟠龙庵","lon":"121.27604","lat":"31.18696","category":"244","category_name":"寺庙道观","address":"青浦区徐泾镇蟠龙村(崧泽大道蟠龙路)"},{"poiid":"B2094654D56AA6F4499C","title":"上海平野塑料模具有限公司","lon":"121.29109","lat":"31.18743","category":"263","category_name":"公司","address":"蟠中路283"},{"poiid":"B2094757D568A4F9429C","title":"G15崧泽高架路收费站","lon":"121.280546","lat":"31.188235","category":"267","category_name":"收费站","address":"中国上海市青浦区诸陆东路"},{"poiid":"B2094757D568A0F8439F","title":"上海国家会计学院信息中心","lon":"121.2805642","lat":"31.185955","category":"52","category_name":"高等院校","address":"蟠龙路200号"},{"poiid":"B2094751D36BA4F54899","title":"虹桥机场2号航站楼贵宾休息室","lon":"121.2925606","lat":"31.1971167","category":"500","category_name":"未知分类","address":null},{"poiid":"B2094655D36DA0FB479E","title":"盈港东路诸光路","lon":"121.29952","lat":"31.1847","category":"38","category_name":"公交车站","address":""},{"poiid":"B2094654D56AA6F9469D","title":"上海英海液压机电成套有限公司(龙联路)","lon":"121.28035","lat":"31.1913","category":"263","category_name":"公司","address":"龙联路998号"},{"poiid":"B2094654D56AA4FC449A","title":"国际会议中心(行政教研楼东北)","lon":"121.29274","lat":"31.18022","category":"185","category_name":"会展中心","address":""},{"poiid":"B2094757D465ABFD419F","title":"威尼斯意式咖啡休闲书吧","lon":"121.2841611","lat":"31.2013278","category":"65","category_name":"咖啡厅","address":"闵行区保乐路648号(近西郊庄园)"},{"poiid":"B2094757D16CA0FE4799","title":"永记广东菜","lon":"121.28522","lat":"31.20171","category":"72","category_name":"广东菜","address":"闵行区华漕镇保乐路610号(近金丰路)"},{"poiid":"B2094654D56AA6FB419F","title":"紫薇新村","lon":"121.29767","lat":"31.202496","category":"47","category_name":"住宅区","address":"北翟路5120弄"},{"poiid":"B2094654D56AA6F44993","title":"尤妮佳生活用品(中国)有限公司","lon":"121.28352","lat":"31.18437","category":"263","category_name":"公司","address":"蟠中路358"},{"poiid":"B2094654D56AABF94193","title":"科倍企业发展(上海)有限公司(徐民东路)","lon":"121.29688","lat":"31.18721","category":"263","category_name":"公司","address":""},{"poiid":"B2094757D469A5FD479D","title":"赛百味 金丰路店 Subway","lon":"121.284490054","lat":"31.203679793","category":"94","category_name":"西餐厅","address":"闵行区华漕镇金丰路452号(近西郊庄园)"},{"poiid":"B2094654D56AA6FA4393","title":"宏渡有限公司","lon":"121.29503","lat":"31.19006","category":"263","category_name":"公司","address":"蟠中东路388号"},{"poiid":"B2094757D06BA0FB4893","title":"玉蘭清苑售樓處","lon":"121.29665666","lat":"31.194508994","category":"263","category_name":"公司","address":"上海龍聯路58弄"},{"poiid":"B2094654DB6BA0FA4598","title":"小曾车行","lon":"121.29287","lat":"31.18509","category":"133","category_name":"自行车专卖店","address":"徐民路"},{"poiid":"B2094757D16DA5FC499F","title":"西郊家苑","lon":"121.30043156","lat":"31.1820996323","category":"47","category_name":"住宅区","address":"上海市青浦区徐泾东路"},{"poiid":"B2094654D56AA4F54593","title":"德莉雪丝烘焙坊 Delicious Bakery","lon":"121.28479","lat":"31.20207","category":"112","category_name":"糕饼店","address":"闵行区保乐路612号(保乐路闵行金丰路)"},{"poiid":"B2094757D464ABF9449A","title":"棒约翰比萨 金丰店 Papa John's Pizza","lon":"121.28428025352","lat":"31.204068642386","category":"94","category_name":"西餐厅","address":"闵行区金丰路441号1楼(近保乐路)"},{"poiid":"B2094757D065A6FA499B","title":"朱徐线","lon":"121.299770299","lat":"31.1897847042","category":"38","category_name":"公交车站","address":"上海2号线徐泾东站—朱家角汽车站"},{"poiid":"B2094654DB6BA0FB419C","title":"上海西庭网球俱乐部和公寓","lon":"121.2937959746","lat":"31.206637571572","category":"47","category_name":"住宅区","address":"金丰路555弄"},{"poiid":"B2094654D56AA6FA4793","title":"泰海香泰式餐厅","lon":"121.28369","lat":"31.20122","category":"99","category_name":"泰国／越南菜品餐厅","address":"闵行区保乐路664号(近西郊庄园)"},{"poiid":"B2094750D568A6F54993","title":"Coffee Crema","lon":"121.284454","lat":"31.200942","category":"65","category_name":"咖啡厅","address":"闵行区保乐路654号(近金丰路)"},{"poiid":"B2094757D06BA2F9449F","title":"嘉闵高架","lon":"121.29548186","lat":"31.198963238","category":"500","category_name":"未知分类","address":"上海嘉闵高架"}]