[{"poiid":"B2094757D66FA6FA489E","title":"光明邨大酒家","lon":"121.46748133","lat":"31.220763235","category":"76","category_name":"上海菜","address":"卢湾区淮海中路588号(近成都南路)"},{"poiid":"B2094757D06EAAFE489E","title":"麻辣诱惑(淮海中路店)","lon":"121.46677","lat":"31.21946","category":"71","category_name":"四川菜","address":"淮海中路627-635号雪豹商城4-6楼近思南路"},{"poiid":"B2094757DB68A4FC439A","title":"香港谭仔三哥餐厅 成都南路店","lon":"121.468113","lat":"31.220826","category":"72","category_name":"广东菜","address":"卢湾区成都南路160号3楼(淮海中路口)"},{"poiid":"B2094753D76FAAFA449C","title":"上海滩国泰旗舰店","lon":"121.466011","lat":"31.216125","category":"249","category_name":"购物服务","address":"淮海中路868号"},{"poiid":"B209475CD564A7F84292","title":"上海滩新天地店","lon":"121.47463","lat":"31.22164","category":"119","category_name":"商场","address":"\"太仓路181弄新天地北里15号\r\n\""},{"poiid":"B209475CD564A7F8439E","title":"上海滩中信泰富店","lon":"121.45602","lat":"31.22851","category":"119","category_name":"商场","address":"\"南京西路1168号中信泰富广场，店铺号221.\r\n\""},{"poiid":"B2094757D66EA4FC4692","title":"上海歌城","lon":"121.46619473","lat":"31.219792077","category":"170","category_name":"KTV","address":"上海淮海路"},{"poiid":"B2094757D06EAAFF449A","title":"万得城(淮海店)","lon":"121.46826372","lat":"31.220509474","category":"138","category_name":"家电电子卖场","address":"上海卢湾区淮海中路527号锦江国际购物中心1至6层"},{"poiid":"B2094757D06FA3FB429B","title":"长乐路","lon":"121.465668","lat":"31.221659","category":"260","category_name":"其他","address":"铁东区陕西北路38号"},{"poiid":"B2094757D06EAAFE4899","title":"阿迪达斯魔方(品牌旗舰店)","lon":"121.465890042","lat":"31.2197844069","category":"140","category_name":"体育用品店","address":"卢湾区淮海中路691号(近思南路)"},{"poiid":"B2094654DB69A5FD4099","title":"好乐迪(顺昌路旗舰店)","lon":"121.46782","lat":"31.22111","category":"170","category_name":"KTV","address":"卢湾区顺昌路2号(近太仓路新天地)"},{"poiid":"B2094757D06FA3FB4698","title":"NPC(New Project Center)","lon":"121.466313665","lat":"31.2212256013","category":"141","category_name":"服装鞋帽皮具店","address":"上海卢湾区长乐路139号11室(近成都南路)"},{"poiid":"B2094757D06FA0FE409B","title":"Bricco cafe(淮海路店)","lon":"121.46821","lat":"31.22075","category":"94","category_name":"西餐厅","address":"卢湾区成都南路158号甲(近淮海中路)"},{"poiid":"B2094757D06FABF4439F","title":"windows bar","lon":"121.46728327","lat":"31.22062747","category":"172","category_name":"酒吧","address":"上海淮海中路万得城11楼"},{"poiid":"B2094654D564A5F94292","title":"上海社会科学院(淮海中路)","lon":"121.46636","lat":"31.2213","category":"191","category_name":"科研机构","address":"卢湾区淮海中路622弄7号(长春食品店对面)"},{"poiid":"B2094757D165ABFF4592","title":"光明村","lon":"121.46494373","lat":"31.220659096","category":"500","category_name":"未知分类","address":"上海市卢湾区茂名南路"},{"poiid":"B2094757D068A3FE4699","title":"天天周末(巨鹿路店)","lon":"121.46443","lat":"31.22252","category":"173","category_name":"游戏厅","address":"卢湾区巨鹿路227号(近瑞金一路)"},{"poiid":"B2094757D06FA4FD4299","title":"天香火锅楼(淮海店)","lon":"121.46836","lat":"31.22093","category":"86","category_name":"火锅店","address":"卢湾区淮海中路542弄103室(近成都南路)"},{"poiid":"B2094455DA65A3F94993","title":"很高兴遇见你","lon":"121.46669","lat":"31.21983","category":"247","category_name":"餐饮美食","address":"上海市 淮海中路776号3楼"},{"poiid":"B2094757D069A7FA4793","title":"新割烹小熊屋","lon":"121.467968054","lat":"31.221256793","category":"95","category_name":"日本料理","address":"卢湾区成都南路105-117号(近淮海中路)"},{"poiid":"B2094654D564A5FB489E","title":"都市风情街","lon":"121.46743","lat":"31.22232","category":"116","category_name":"特色商业街","address":"卢湾区长乐路190号都市风情街内(近成都南路)"},{"poiid":"B2094750D16BA6F8409B","title":"Salon V","lon":"121.465538","lat":"31.22171","category":"248","category_name":"生活娱乐","address":"长乐路139-26号(近瑞金一路)"},{"poiid":"B2094757D068A0FD429E","title":"久事复兴大厦","lon":"121.466","lat":"31.2235","category":"46","category_name":"楼宇","address":"铁西建设东路57号"},{"poiid":"B2094757D664A4FF4492","title":"丝袜奶茶 南京西路店 Denny House","lon":"121.46797","lat":"31.22142","category":"67","category_name":"甜品店","address":"静安区南京西路1025弄静安别墅128号(近南汇路)"},{"poiid":"B2094750D269A0FD4593","title":"恒基海鲜火锅","lon":"121.4681","lat":"31.22087","category":"86","category_name":"火锅店","address":"卢湾区成都南路127号(近淮海路)"},{"poiid":"B2094655D26AAAF5429E","title":"GODHANDS日系发型设计","lon":"121.46627","lat":"31.22154","category":"148","category_name":"美容美发店","address":"卢湾区长乐路139号9小号2楼(近成都南路)"},{"poiid":"B2094757D069A1F84293","title":"GOD HANDS 日系发型设计(长乐店)","lon":"121.46659","lat":"31.22159","category":"148","category_name":"美容美发店","address":"上海卢湾区长乐路139号9小号2楼(近成都南路)"},{"poiid":"B2094757D06FA4F8479A","title":"City Shop 城市超市(时代广场店)","lon":"121.46779018","lat":"31.22007985","category":"118","category_name":"超级市场","address":"上海卢湾区淮海中路99号大上海时代广场B1楼(近柳林路)"},{"poiid":"B2094757D069AAF5419A","title":"公主婚纱摄影","lon":"121.46825","lat":"31.22044","category":"249","category_name":"购物服务","address":"卢湾区淮海中路566号(近成都南路)查看地图"},{"poiid":"B2094655D26AABFF4998","title":"上海御花园酒店","lon":"121.46636","lat":"31.2213","category":"250","category_name":"公园户外","address":"卢湾区淮海中路622弄7号(近思南路)"},{"poiid":"B2094654DB69A6F4479B","title":"吉野家  华狮广场店","lon":"121.4654","lat":"31.21974","category":"95","category_name":"日本料理","address":"卢湾区淮海中路688号华狮购物中心B1楼(近思南路)"},{"poiid":"B2094757D464A7FC4499","title":"本杰比餐厅 淮海中路店 PUNJABI","lon":"121.466376","lat":"31.219755","category":"102","category_name":"印度风味","address":"卢湾区淮海中路627号5楼(近思南路)"},{"poiid":"B2094757D068A1F54192","title":"香港三联书店","lon":"121.46689","lat":"31.21987","category":"125","category_name":"书店","address":"卢湾区淮海中路624号(近思南路)"},{"poiid":"B2094750DB6FA4FD429B","title":"上海书城淮海路店","lon":"121.466621","lat":"31.219999","category":"249","category_name":"购物服务","address":null},{"poiid":"B2094757D069A0F4459C","title":"上海科学会堂","lon":"121.46645073","lat":"31.221138106","category":"500","category_name":"未知分类","address":"上海市卢湾区南昌路59号"},{"poiid":"B2094757D06FA7F4469A","title":"85度C(成都店)","lon":"121.46835","lat":"31.22084","category":"112","category_name":"糕饼店","address":"卢湾区成都南路127号(近淮海中路)"},{"poiid":"B2094757D069A4FC4192","title":"东方巴黎霞飞苑","lon":"121.465","lat":"31.2206","category":"47","category_name":"住宅区","address":"上海徐汇区南昌路555号"},{"poiid":"B2094757D06FA2FB4798","title":"C&amp;A(淮海路店)","lon":"121.46745","lat":"31.21959","category":"141","category_name":"服装鞋帽皮具店","address":"上海卢湾区淮海中路627-641号(近思南路)  "},{"poiid":"B2094655D26AA2FD419A","title":"社会科学院餐厅","lon":"121.467617054","lat":"31.220439793","category":"76","category_name":"上海菜","address":"上海卢湾区淮海中路622弄7号(近思南路)  "},{"poiid":"B2094757D465ABFC479C","title":"山林熟食 长春食品店","lon":"121.466429054","lat":"31.219775793","category":"68","category_name":"快餐厅","address":"卢湾区淮海中路617号长春食品商店内(近思南路)"},{"poiid":"B2094654DA6EA1FF419F","title":"永新大厦","lon":"121.468","lat":"31.2233","category":"46","category_name":"楼宇","address":"卢湾区淮海中路527号"},{"poiid":"B2094654DB64AAFD439F","title":"倍可意意漾时光","lon":"121.46794","lat":"31.22096","category":"65","category_name":"咖啡厅","address":"成都南路158甲"},{"poiid":"B2094655D268ABFA4199","title":"长乐坊","lon":"121.46518","lat":"31.22172","category":"71","category_name":"四川菜","address":"卢湾区长乐路161号新锦江大酒店4楼(近瑞金一路)"},{"poiid":"B2094750D665A7F9499D","title":"快乐柠檬(华狮广场店)","lon":"121.466","lat":"31.2197","category":"113","category_name":"冷饮店","address":"卢湾区淮海中路688号华狮购物中心门前广场"},{"poiid":"B2094750D76CA7F84798","title":"社科院小食堂","lon":"121.466","lat":"31.2208","category":"76","category_name":"上海菜","address":"卢湾区淮海中路622弄7号社科院院内"},{"poiid":"B2094655D26FA2F44399","title":"星巴克咖啡(杉德公司)","lon":"121.46567","lat":"31.21984","category":"65","category_name":"咖啡厅","address":"卢湾区淮海中路688号"},{"poiid":"B2094750D36DA1FE439E","title":"七葉和茶","lon":"121.466247","lat":"31.223526","category":"247","category_name":"餐饮美食","address":"美羅城"},{"poiid":"B2094655D26EA4F8469E","title":"时代(淮海)电影院","lon":"121.46846","lat":"31.22088","category":"178","category_name":"电影院","address":"卢湾区淮海中路550号"},{"poiid":"B2094757D469A3F54499","title":"阿瓦隆 Avalon","lon":"121.4652","lat":"31.22137","category":"94","category_name":"西餐厅","address":"卢湾区长乐路139号19室2-3楼(近瑞金一路预计2012年7月上旬营业)"},{"poiid":"B2094655D265ABFA4193","title":"BLOC","lon":"121.46527","lat":"31.2214","category":"94","category_name":"西餐厅","address":"卢湾区雁荡路99号(近南昌路)"},{"poiid":"B2094757D66FA6FA489E","title":"光明邨大酒家","lon":"121.46748133","lat":"31.220763235","category":"76","category_name":"上海菜","address":"卢湾区淮海中路588号(近成都南路)"},{"poiid":"B2094757D06EAAFE489E","title":"麻辣诱惑(淮海中路店)","lon":"121.46677","lat":"31.21946","category":"71","category_name":"四川菜","address":"淮海中路627-635号雪豹商城4-6楼近思南路"},{"poiid":"B2094757DB68A4FC439A","title":"香港谭仔三哥餐厅 成都南路店","lon":"121.468113","lat":"31.220826","category":"72","category_name":"广东菜","address":"卢湾区成都南路160号3楼(淮海中路口)"},{"poiid":"B2094753D76FAAFA449C","title":"上海滩国泰旗舰店","lon":"121.466011","lat":"31.216125","category":"249","category_name":"购物服务","address":"淮海中路868号"},{"poiid":"B209475CD564A7F84292","title":"上海滩新天地店","lon":"121.47463","lat":"31.22164","category":"119","category_name":"商场","address":"\"太仓路181弄新天地北里15号\r\n\""},{"poiid":"B209475CD564A7F8439E","title":"上海滩中信泰富店","lon":"121.45602","lat":"31.22851","category":"119","category_name":"商场","address":"\"南京西路1168号中信泰富广场，店铺号221.\r\n\""},{"poiid":"B2094757D66EA4FC4692","title":"上海歌城","lon":"121.46619473","lat":"31.219792077","category":"170","category_name":"KTV","address":"上海淮海路"},{"poiid":"B2094757D06EAAFF449A","title":"万得城(淮海店)","lon":"121.46826372","lat":"31.220509474","category":"138","category_name":"家电电子卖场","address":"上海卢湾区淮海中路527号锦江国际购物中心1至6层"},{"poiid":"B2094757D06FA3FB429B","title":"长乐路","lon":"121.465668","lat":"31.221659","category":"260","category_name":"其他","address":"铁东区陕西北路38号"},{"poiid":"B2094757D06EAAFE4899","title":"阿迪达斯魔方(品牌旗舰店)","lon":"121.465890042","lat":"31.2197844069","category":"140","category_name":"体育用品店","address":"卢湾区淮海中路691号(近思南路)"},{"poiid":"B2094654DB69A5FD4099","title":"好乐迪(顺昌路旗舰店)","lon":"121.46782","lat":"31.22111","category":"170","category_name":"KTV","address":"卢湾区顺昌路2号(近太仓路新天地)"},{"poiid":"B2094757D06FA3FB4698","title":"NPC(New Project Center)","lon":"121.466313665","lat":"31.2212256013","category":"141","category_name":"服装鞋帽皮具店","address":"上海卢湾区长乐路139号11室(近成都南路)"},{"poiid":"B2094757D06FA0FE409B","title":"Bricco cafe(淮海路店)","lon":"121.46821","lat":"31.22075","category":"94","category_name":"西餐厅","address":"卢湾区成都南路158号甲(近淮海中路)"},{"poiid":"B2094757D06FABF4439F","title":"windows bar","lon":"121.46728327","lat":"31.22062747","category":"172","category_name":"酒吧","address":"上海淮海中路万得城11楼"},{"poiid":"B2094654D564A5F94292","title":"上海社会科学院(淮海中路)","lon":"121.46636","lat":"31.2213","category":"191","category_name":"科研机构","address":"卢湾区淮海中路622弄7号(长春食品店对面)"},{"poiid":"B2094757D165ABFF4592","title":"光明村","lon":"121.46494373","lat":"31.220659096","category":"500","category_name":"未知分类","address":"上海市卢湾区茂名南路"},{"poiid":"B2094757D068A3FE4699","title":"天天周末(巨鹿路店)","lon":"121.46443","lat":"31.22252","category":"173","category_name":"游戏厅","address":"卢湾区巨鹿路227号(近瑞金一路)"},{"poiid":"B2094757D06FA4FD4299","title":"天香火锅楼(淮海店)","lon":"121.46836","lat":"31.22093","category":"86","category_name":"火锅店","address":"卢湾区淮海中路542弄103室(近成都南路)"},{"poiid":"B2094455DA65A3F94993","title":"很高兴遇见你","lon":"121.46669","lat":"31.21983","category":"247","category_name":"餐饮美食","address":"上海市 淮海中路776号3楼"},{"poiid":"B2094757D069A7FA4793","title":"新割烹小熊屋","lon":"121.467968054","lat":"31.221256793","category":"95","category_name":"日本料理","address":"卢湾区成都南路105-117号(近淮海中路)"},{"poiid":"B2094654D564A5FB489E","title":"都市风情街","lon":"121.46743","lat":"31.22232","category":"116","category_name":"特色商业街","address":"卢湾区长乐路190号都市风情街内(近成都南路)"},{"poiid":"B2094750D16BA6F8409B","title":"Salon V","lon":"121.465538","lat":"31.22171","category":"248","category_name":"生活娱乐","address":"长乐路139-26号(近瑞金一路)"},{"poiid":"B2094757D068A0FD429E","title":"久事复兴大厦","lon":"121.466","lat":"31.2235","category":"46","category_name":"楼宇","address":"铁西建设东路57号"},{"poiid":"B2094757D664A4FF4492","title":"丝袜奶茶 南京西路店 Denny House","lon":"121.46797","lat":"31.22142","category":"67","category_name":"甜品店","address":"静安区南京西路1025弄静安别墅128号(近南汇路)"},{"poiid":"B2094750D269A0FD4593","title":"恒基海鲜火锅","lon":"121.4681","lat":"31.22087","category":"86","category_name":"火锅店","address":"卢湾区成都南路127号(近淮海路)"},{"poiid":"B2094655D26AAAF5429E","title":"GODHANDS日系发型设计","lon":"121.46627","lat":"31.22154","category":"148","category_name":"美容美发店","address":"卢湾区长乐路139号9小号2楼(近成都南路)"},{"poiid":"B2094757D069A1F84293","title":"GOD HANDS 日系发型设计(长乐店)","lon":"121.46659","lat":"31.22159","category":"148","category_name":"美容美发店","address":"上海卢湾区长乐路139号9小号2楼(近成都南路)"},{"poiid":"B2094757D06FA4F8479A","title":"City Shop 城市超市(时代广场店)","lon":"121.46779018","lat":"31.22007985","category":"118","category_name":"超级市场","address":"上海卢湾区淮海中路99号大上海时代广场B1楼(近柳林路)"},{"poiid":"B2094757D069AAF5419A","title":"公主婚纱摄影","lon":"121.46825","lat":"31.22044","category":"249","category_name":"购物服务","address":"卢湾区淮海中路566号(近成都南路)查看地图"},{"poiid":"B2094655D26AABFF4998","title":"上海御花园酒店","lon":"121.46636","lat":"31.2213","category":"250","category_name":"公园户外","address":"卢湾区淮海中路622弄7号(近思南路)"},{"poiid":"B2094654DB69A6F4479B","title":"吉野家  华狮广场店","lon":"121.4654","lat":"31.21974","category":"95","category_name":"日本料理","address":"卢湾区淮海中路688号华狮购物中心B1楼(近思南路)"},{"poiid":"B2094757D464A7FC4499","title":"本杰比餐厅 淮海中路店 PUNJABI","lon":"121.466376","lat":"31.219755","category":"102","category_name":"印度风味","address":"卢湾区淮海中路627号5楼(近思南路)"},{"poiid":"B2094757D068A1F54192","title":"香港三联书店","lon":"121.46689","lat":"31.21987","category":"125","category_name":"书店","address":"卢湾区淮海中路624号(近思南路)"},{"poiid":"B2094750DB6FA4FD429B","title":"上海书城淮海路店","lon":"121.466621","lat":"31.219999","category":"249","category_name":"购物服务","address":null},{"poiid":"B2094757D069A0F4459C","title":"上海科学会堂","lon":"121.46645073","lat":"31.221138106","category":"500","category_name":"未知分类","address":"上海市卢湾区南昌路59号"},{"poiid":"B2094757D06FA7F4469A","title":"85度C(成都店)","lon":"121.46835","lat":"31.22084","category":"112","category_name":"糕饼店","address":"卢湾区成都南路127号(近淮海中路)"},{"poiid":"B2094757D069A4FC4192","title":"东方巴黎霞飞苑","lon":"121.465","lat":"31.2206","category":"47","category_name":"住宅区","address":"上海徐汇区南昌路555号"},{"poiid":"B2094757D06FA2FB4798","title":"C&amp;A(淮海路店)","lon":"121.46745","lat":"31.21959","category":"141","category_name":"服装鞋帽皮具店","address":"上海卢湾区淮海中路627-641号(近思南路)  "},{"poiid":"B2094655D26AA2FD419A","title":"社会科学院餐厅","lon":"121.467617054","lat":"31.220439793","category":"76","category_name":"上海菜","address":"上海卢湾区淮海中路622弄7号(近思南路)  "},{"poiid":"B2094757D465ABFC479C","title":"山林熟食 长春食品店","lon":"121.466429054","lat":"31.219775793","category":"68","category_name":"快餐厅","address":"卢湾区淮海中路617号长春食品商店内(近思南路)"},{"poiid":"B2094654DA6EA1FF419F","title":"永新大厦","lon":"121.468","lat":"31.2233","category":"46","category_name":"楼宇","address":"卢湾区淮海中路527号"},{"poiid":"B2094654DB64AAFD439F","title":"倍可意意漾时光","lon":"121.46794","lat":"31.22096","category":"65","category_name":"咖啡厅","address":"成都南路158甲"},{"poiid":"B2094655D268ABFA4199","title":"长乐坊","lon":"121.46518","lat":"31.22172","category":"71","category_name":"四川菜","address":"卢湾区长乐路161号新锦江大酒店4楼(近瑞金一路)"},{"poiid":"B2094750D665A7F9499D","title":"快乐柠檬(华狮广场店)","lon":"121.466","lat":"31.2197","category":"113","category_name":"冷饮店","address":"卢湾区淮海中路688号华狮购物中心门前广场"},{"poiid":"B2094750D76CA7F84798","title":"社科院小食堂","lon":"121.466","lat":"31.2208","category":"76","category_name":"上海菜","address":"卢湾区淮海中路622弄7号社科院院内"},{"poiid":"B2094655D26FA2F44399","title":"星巴克咖啡(杉德公司)","lon":"121.46567","lat":"31.21984","category":"65","category_name":"咖啡厅","address":"卢湾区淮海中路688号"},{"poiid":"B2094750D36DA1FE439E","title":"七葉和茶","lon":"121.466247","lat":"31.223526","category":"247","category_name":"餐饮美食","address":"美羅城"},{"poiid":"B2094655D26EA4F8469E","title":"时代(淮海)电影院","lon":"121.46846","lat":"31.22088","category":"178","category_name":"电影院","address":"卢湾区淮海中路550号"},{"poiid":"B2094757D469A3F54499","title":"阿瓦隆 Avalon","lon":"121.4652","lat":"31.22137","category":"94","category_name":"西餐厅","address":"卢湾区长乐路139号19室2-3楼(近瑞金一路预计2012年7月上旬营业)"},{"poiid":"B2094655D265ABFA4193","title":"BLOC","lon":"121.46527","lat":"31.2214","category":"94","category_name":"西餐厅","address":"卢湾区雁荡路99号(近南昌路)"},{"poiid":"B2094757D66FA6FA489E","title":"光明邨大酒家","lon":"121.46748133","lat":"31.220763235","category":"76","category_name":"上海菜","address":"卢湾区淮海中路588号(近成都南路)"},{"poiid":"B2094757D06EAAFE489E","title":"麻辣诱惑(淮海中路店)","lon":"121.46677","lat":"31.21946","category":"71","category_name":"四川菜","address":"淮海中路627-635号雪豹商城4-6楼近思南路"},{"poiid":"B2094757DB68A4FC439A","title":"香港谭仔三哥餐厅 成都南路店","lon":"121.468113","lat":"31.220826","category":"72","category_name":"广东菜","address":"卢湾区成都南路160号3楼(淮海中路口)"},{"poiid":"B2094753D76FAAFA449C","title":"上海滩国泰旗舰店","lon":"121.466011","lat":"31.216125","category":"249","category_name":"购物服务","address":"淮海中路868号"},{"poiid":"B209475CD564A7F84292","title":"上海滩新天地店","lon":"121.47463","lat":"31.22164","category":"119","category_name":"商场","address":"\"太仓路181弄新天地北里15号\r\n\""},{"poiid":"B209475CD564A7F8439E","title":"上海滩中信泰富店","lon":"121.45602","lat":"31.22851","category":"119","category_name":"商场","address":"\"南京西路1168号中信泰富广场，店铺号221.\r\n\""},{"poiid":"B2094757D66EA4FC4692","title":"上海歌城","lon":"121.46619473","lat":"31.219792077","category":"170","category_name":"KTV","address":"上海淮海路"},{"poiid":"B2094757D06EAAFF449A","title":"万得城(淮海店)","lon":"121.46826372","lat":"31.220509474","category":"138","category_name":"家电电子卖场","address":"上海卢湾区淮海中路527号锦江国际购物中心1至6层"},{"poiid":"B2094757D06FA3FB429B","title":"长乐路","lon":"121.465668","lat":"31.221659","category":"260","category_name":"其他","address":"铁东区陕西北路38号"},{"poiid":"B2094757D06EAAFE4899","title":"阿迪达斯魔方(品牌旗舰店)","lon":"121.465890042","lat":"31.2197844069","category":"140","category_name":"体育用品店","address":"卢湾区淮海中路691号(近思南路)"},{"poiid":"B2094654DB69A5FD4099","title":"好乐迪(顺昌路旗舰店)","lon":"121.46782","lat":"31.22111","category":"170","category_name":"KTV","address":"卢湾区顺昌路2号(近太仓路新天地)"},{"poiid":"B2094757D06FA3FB4698","title":"NPC(New Project Center)","lon":"121.466313665","lat":"31.2212256013","category":"141","category_name":"服装鞋帽皮具店","address":"上海卢湾区长乐路139号11室(近成都南路)"},{"poiid":"B2094757D06FA0FE409B","title":"Bricco cafe(淮海路店)","lon":"121.46821","lat":"31.22075","category":"94","category_name":"西餐厅","address":"卢湾区成都南路158号甲(近淮海中路)"},{"poiid":"B2094757D06FABF4439F","title":"windows bar","lon":"121.46728327","lat":"31.22062747","category":"172","category_name":"酒吧","address":"上海淮海中路万得城11楼"},{"poiid":"B2094654D564A5F94292","title":"上海社会科学院(淮海中路)","lon":"121.46636","lat":"31.2213","category":"191","category_name":"科研机构","address":"卢湾区淮海中路622弄7号(长春食品店对面)"},{"poiid":"B2094757D165ABFF4592","title":"光明村","lon":"121.46494373","lat":"31.220659096","category":"500","category_name":"未知分类","address":"上海市卢湾区茂名南路"},{"poiid":"B2094757D068A3FE4699","title":"天天周末(巨鹿路店)","lon":"121.46443","lat":"31.22252","category":"173","category_name":"游戏厅","address":"卢湾区巨鹿路227号(近瑞金一路)"},{"poiid":"B2094757D06FA4FD4299","title":"天香火锅楼(淮海店)","lon":"121.46836","lat":"31.22093","category":"86","category_name":"火锅店","address":"卢湾区淮海中路542弄103室(近成都南路)"},{"poiid":"B2094455DA65A3F94993","title":"很高兴遇见你","lon":"121.46669","lat":"31.21983","category":"247","category_name":"餐饮美食","address":"上海市 淮海中路776号3楼"},{"poiid":"B2094757D069A7FA4793","title":"新割烹小熊屋","lon":"121.467968054","lat":"31.221256793","category":"95","category_name":"日本料理","address":"卢湾区成都南路105-117号(近淮海中路)"},{"poiid":"B2094654D564A5FB489E","title":"都市风情街","lon":"121.46743","lat":"31.22232","category":"116","category_name":"特色商业街","address":"卢湾区长乐路190号都市风情街内(近成都南路)"},{"poiid":"B2094750D16BA6F8409B","title":"Salon V","lon":"121.465538","lat":"31.22171","category":"248","category_name":"生活娱乐","address":"长乐路139-26号(近瑞金一路)"},{"poiid":"B2094757D068A0FD429E","title":"久事复兴大厦","lon":"121.466","lat":"31.2235","category":"46","category_name":"楼宇","address":"铁西建设东路57号"},{"poiid":"B2094757D664A4FF4492","title":"丝袜奶茶 南京西路店 Denny House","lon":"121.46797","lat":"31.22142","category":"67","category_name":"甜品店","address":"静安区南京西路1025弄静安别墅128号(近南汇路)"},{"poiid":"B2094750D269A0FD4593","title":"恒基海鲜火锅","lon":"121.4681","lat":"31.22087","category":"86","category_name":"火锅店","address":"卢湾区成都南路127号(近淮海路)"},{"poiid":"B2094655D26AAAF5429E","title":"GODHANDS日系发型设计","lon":"121.46627","lat":"31.22154","category":"148","category_name":"美容美发店","address":"卢湾区长乐路139号9小号2楼(近成都南路)"},{"poiid":"B2094757D069A1F84293","title":"GOD HANDS 日系发型设计(长乐店)","lon":"121.46659","lat":"31.22159","category":"148","category_name":"美容美发店","address":"上海卢湾区长乐路139号9小号2楼(近成都南路)"},{"poiid":"B2094757D06FA4F8479A","title":"City Shop 城市超市(时代广场店)","lon":"121.46779018","lat":"31.22007985","category":"118","category_name":"超级市场","address":"上海卢湾区淮海中路99号大上海时代广场B1楼(近柳林路)"},{"poiid":"B2094757D069AAF5419A","title":"公主婚纱摄影","lon":"121.46825","lat":"31.22044","category":"249","category_name":"购物服务","address":"卢湾区淮海中路566号(近成都南路)查看地图"},{"poiid":"B2094655D26AABFF4998","title":"上海御花园酒店","lon":"121.46636","lat":"31.2213","category":"250","category_name":"公园户外","address":"卢湾区淮海中路622弄7号(近思南路)"},{"poiid":"B2094654DB69A6F4479B","title":"吉野家  华狮广场店","lon":"121.4654","lat":"31.21974","category":"95","category_name":"日本料理","address":"卢湾区淮海中路688号华狮购物中心B1楼(近思南路)"},{"poiid":"B2094757D464A7FC4499","title":"本杰比餐厅 淮海中路店 PUNJABI","lon":"121.466376","lat":"31.219755","category":"102","category_name":"印度风味","address":"卢湾区淮海中路627号5楼(近思南路)"},{"poiid":"B2094757D068A1F54192","title":"香港三联书店","lon":"121.46689","lat":"31.21987","category":"125","category_name":"书店","address":"卢湾区淮海中路624号(近思南路)"},{"poiid":"B2094750DB6FA4FD429B","title":"上海书城淮海路店","lon":"121.466621","lat":"31.219999","category":"249","category_name":"购物服务","address":null},{"poiid":"B2094757D069A0F4459C","title":"上海科学会堂","lon":"121.46645073","lat":"31.221138106","category":"500","category_name":"未知分类","address":"上海市卢湾区南昌路59号"},{"poiid":"B2094757D06FA7F4469A","title":"85度C(成都店)","lon":"121.46835","lat":"31.22084","category":"112","category_name":"糕饼店","address":"卢湾区成都南路127号(近淮海中路)"},{"poiid":"B2094757D069A4FC4192","title":"东方巴黎霞飞苑","lon":"121.465","lat":"31.2206","category":"47","category_name":"住宅区","address":"上海徐汇区南昌路555号"},{"poiid":"B2094757D06FA2FB4798","title":"C&amp;A(淮海路店)","lon":"121.46745","lat":"31.21959","category":"141","category_name":"服装鞋帽皮具店","address":"上海卢湾区淮海中路627-641号(近思南路)  "},{"poiid":"B2094655D26AA2FD419A","title":"社会科学院餐厅","lon":"121.467617054","lat":"31.220439793","category":"76","category_name":"上海菜","address":"上海卢湾区淮海中路622弄7号(近思南路)  "},{"poiid":"B2094757D465ABFC479C","title":"山林熟食 长春食品店","lon":"121.466429054","lat":"31.219775793","category":"68","category_name":"快餐厅","address":"卢湾区淮海中路617号长春食品商店内(近思南路)"},{"poiid":"B2094654DA6EA1FF419F","title":"永新大厦","lon":"121.468","lat":"31.2233","category":"46","category_name":"楼宇","address":"卢湾区淮海中路527号"},{"poiid":"B2094654DB64AAFD439F","title":"倍可意意漾时光","lon":"121.46794","lat":"31.22096","category":"65","category_name":"咖啡厅","address":"成都南路158甲"},{"poiid":"B2094655D268ABFA4199","title":"长乐坊","lon":"121.46518","lat":"31.22172","category":"71","category_name":"四川菜","address":"卢湾区长乐路161号新锦江大酒店4楼(近瑞金一路)"},{"poiid":"B2094750D665A7F9499D","title":"快乐柠檬(华狮广场店)","lon":"121.466","lat":"31.2197","category":"113","category_name":"冷饮店","address":"卢湾区淮海中路688号华狮购物中心门前广场"},{"poiid":"B2094750D76CA7F84798","title":"社科院小食堂","lon":"121.466","lat":"31.2208","category":"76","category_name":"上海菜","address":"卢湾区淮海中路622弄7号社科院院内"},{"poiid":"B2094655D26FA2F44399","title":"星巴克咖啡(杉德公司)","lon":"121.46567","lat":"31.21984","category":"65","category_name":"咖啡厅","address":"卢湾区淮海中路688号"},{"poiid":"B2094750D36DA1FE439E","title":"七葉和茶","lon":"121.466247","lat":"31.223526","category":"247","category_name":"餐饮美食","address":"美羅城"},{"poiid":"B2094655D26EA4F8469E","title":"时代(淮海)电影院","lon":"121.46846","lat":"31.22088","category":"178","category_name":"电影院","address":"卢湾区淮海中路550号"},{"poiid":"B2094757D469A3F54499","title":"阿瓦隆 Avalon","lon":"121.4652","lat":"31.22137","category":"94","category_name":"西餐厅","address":"卢湾区长乐路139号19室2-3楼(近瑞金一路预计2012年7月上旬营业)"},{"poiid":"B2094655D265ABFA4193","title":"BLOC","lon":"121.46527","lat":"31.2214","category":"94","category_name":"西餐厅","address":"卢湾区雁荡路99号(近南昌路)"},{"poiid":"B2094757D66FA6FA489E","title":"光明邨大酒家","lon":"121.46748133","lat":"31.220763235","category":"76","category_name":"上海菜","address":"卢湾区淮海中路588号(近成都南路)"},{"poiid":"B2094757D06EAAFE489E","title":"麻辣诱惑(淮海中路店)","lon":"121.46677","lat":"31.21946","category":"71","category_name":"四川菜","address":"淮海中路627-635号雪豹商城4-6楼近思南路"},{"poiid":"B2094757DB68A4FC439A","title":"香港谭仔三哥餐厅 成都南路店","lon":"121.468113","lat":"31.220826","category":"72","category_name":"广东菜","address":"卢湾区成都南路160号3楼(淮海中路口)"},{"poiid":"B2094753D76FAAFA449C","title":"上海滩国泰旗舰店","lon":"121.466011","lat":"31.216125","category":"249","category_name":"购物服务","address":"淮海中路868号"},{"poiid":"B209475CD564A7F84292","title":"上海滩新天地店","lon":"121.47463","lat":"31.22164","category":"119","category_name":"商场","address":"\"太仓路181弄新天地北里15号\r\n\""},{"poiid":"B209475CD564A7F8439E","title":"上海滩中信泰富店","lon":"121.45602","lat":"31.22851","category":"119","category_name":"商场","address":"\"南京西路1168号中信泰富广场，店铺号221.\r\n\""},{"poiid":"B2094757D66EA4FC4692","title":"上海歌城","lon":"121.46619473","lat":"31.219792077","category":"170","category_name":"KTV","address":"上海淮海路"},{"poiid":"B2094757D06EAAFF449A","title":"万得城(淮海店)","lon":"121.46826372","lat":"31.220509474","category":"138","category_name":"家电电子卖场","address":"上海卢湾区淮海中路527号锦江国际购物中心1至6层"},{"poiid":"B2094757D06FA3FB429B","title":"长乐路","lon":"121.465668","lat":"31.221659","category":"260","category_name":"其他","address":"铁东区陕西北路38号"},{"poiid":"B2094757D06EAAFE4899","title":"阿迪达斯魔方(品牌旗舰店)","lon":"121.465890042","lat":"31.2197844069","category":"140","category_name":"体育用品店","address":"卢湾区淮海中路691号(近思南路)"},{"poiid":"B2094654DB69A5FD4099","title":"好乐迪(顺昌路旗舰店)","lon":"121.46782","lat":"31.22111","category":"170","category_name":"KTV","address":"卢湾区顺昌路2号(近太仓路新天地)"},{"poiid":"B2094757D06FA3FB4698","title":"NPC(New Project Center)","lon":"121.466313665","lat":"31.2212256013","category":"141","category_name":"服装鞋帽皮具店","address":"上海卢湾区长乐路139号11室(近成都南路)"},{"poiid":"B2094757D06FA0FE409B","title":"Bricco cafe(淮海路店)","lon":"121.46821","lat":"31.22075","category":"94","category_name":"西餐厅","address":"卢湾区成都南路158号甲(近淮海中路)"},{"poiid":"B2094757D06FABF4439F","title":"windows bar","lon":"121.46728327","lat":"31.22062747","category":"172","category_name":"酒吧","address":"上海淮海中路万得城11楼"},{"poiid":"B2094654D564A5F94292","title":"上海社会科学院(淮海中路)","lon":"121.46636","lat":"31.2213","category":"191","category_name":"科研机构","address":"卢湾区淮海中路622弄7号(长春食品店对面)"},{"poiid":"B2094757D165ABFF4592","title":"光明村","lon":"121.46494373","lat":"31.220659096","category":"500","category_name":"未知分类","address":"上海市卢湾区茂名南路"},{"poiid":"B2094757D068A3FE4699","title":"天天周末(巨鹿路店)","lon":"121.46443","lat":"31.22252","category":"173","category_name":"游戏厅","address":"卢湾区巨鹿路227号(近瑞金一路)"},{"poiid":"B2094757D06FA4FD4299","title":"天香火锅楼(淮海店)","lon":"121.46836","lat":"31.22093","category":"86","category_name":"火锅店","address":"卢湾区淮海中路542弄103室(近成都南路)"},{"poiid":"B2094455DA65A3F94993","title":"很高兴遇见你","lon":"121.46669","lat":"31.21983","category":"247","category_name":"餐饮美食","address":"上海市 淮海中路776号3楼"},{"poiid":"B2094757D069A7FA4793","title":"新割烹小熊屋","lon":"121.467968054","lat":"31.221256793","category":"95","category_name":"日本料理","address":"卢湾区成都南路105-117号(近淮海中路)"},{"poiid":"B2094654D564A5FB489E","title":"都市风情街","lon":"121.46743","lat":"31.22232","category":"116","category_name":"特色商业街","address":"卢湾区长乐路190号都市风情街内(近成都南路)"},{"poiid":"B2094750D16BA6F8409B","title":"Salon V","lon":"121.465538","lat":"31.22171","category":"248","category_name":"生活娱乐","address":"长乐路139-26号(近瑞金一路)"},{"poiid":"B2094757D068A0FD429E","title":"久事复兴大厦","lon":"121.466","lat":"31.2235","category":"46","category_name":"楼宇","address":"铁西建设东路57号"},{"poiid":"B2094757D664A4FF4492","title":"丝袜奶茶 南京西路店 Denny House","lon":"121.46797","lat":"31.22142","category":"67","category_name":"甜品店","address":"静安区南京西路1025弄静安别墅128号(近南汇路)"},{"poiid":"B2094750D269A0FD4593","title":"恒基海鲜火锅","lon":"121.4681","lat":"31.22087","category":"86","category_name":"火锅店","address":"卢湾区成都南路127号(近淮海路)"},{"poiid":"B2094655D26AAAF5429E","title":"GODHANDS日系发型设计","lon":"121.46627","lat":"31.22154","category":"148","category_name":"美容美发店","address":"卢湾区长乐路139号9小号2楼(近成都南路)"},{"poiid":"B2094757D069A1F84293","title":"GOD HANDS 日系发型设计(长乐店)","lon":"121.46659","lat":"31.22159","category":"148","category_name":"美容美发店","address":"上海卢湾区长乐路139号9小号2楼(近成都南路)"},{"poiid":"B2094757D06FA4F8479A","title":"City Shop 城市超市(时代广场店)","lon":"121.46779018","lat":"31.22007985","category":"118","category_name":"超级市场","address":"上海卢湾区淮海中路99号大上海时代广场B1楼(近柳林路)"},{"poiid":"B2094757D069AAF5419A","title":"公主婚纱摄影","lon":"121.46825","lat":"31.22044","category":"249","category_name":"购物服务","address":"卢湾区淮海中路566号(近成都南路)查看地图"},{"poiid":"B2094655D26AABFF4998","title":"上海御花园酒店","lon":"121.46636","lat":"31.2213","category":"250","category_name":"公园户外","address":"卢湾区淮海中路622弄7号(近思南路)"},{"poiid":"B2094654DB69A6F4479B","title":"吉野家  华狮广场店","lon":"121.4654","lat":"31.21974","category":"95","category_name":"日本料理","address":"卢湾区淮海中路688号华狮购物中心B1楼(近思南路)"},{"poiid":"B2094757D464A7FC4499","title":"本杰比餐厅 淮海中路店 PUNJABI","lon":"121.466376","lat":"31.219755","category":"102","category_name":"印度风味","address":"卢湾区淮海中路627号5楼(近思南路)"},{"poiid":"B2094757D068A1F54192","title":"香港三联书店","lon":"121.46689","lat":"31.21987","category":"125","category_name":"书店","address":"卢湾区淮海中路624号(近思南路)"},{"poiid":"B2094750DB6FA4FD429B","title":"上海书城淮海路店","lon":"121.466621","lat":"31.219999","category":"249","category_name":"购物服务","address":null},{"poiid":"B2094757D069A0F4459C","title":"上海科学会堂","lon":"121.46645073","lat":"31.221138106","category":"500","category_name":"未知分类","address":"上海市卢湾区南昌路59号"},{"poiid":"B2094757D06FA7F4469A","title":"85度C(成都店)","lon":"121.46835","lat":"31.22084","category":"112","category_name":"糕饼店","address":"卢湾区成都南路127号(近淮海中路)"},{"poiid":"B2094757D069A4FC4192","title":"东方巴黎霞飞苑","lon":"121.465","lat":"31.2206","category":"47","category_name":"住宅区","address":"上海徐汇区南昌路555号"},{"poiid":"B2094757D06FA2FB4798","title":"C&amp;A(淮海路店)","lon":"121.46745","lat":"31.21959","category":"141","category_name":"服装鞋帽皮具店","address":"上海卢湾区淮海中路627-641号(近思南路)  "},{"poiid":"B2094655D26AA2FD419A","title":"社会科学院餐厅","lon":"121.467617054","lat":"31.220439793","category":"76","category_name":"上海菜","address":"上海卢湾区淮海中路622弄7号(近思南路)  "},{"poiid":"B2094757D465ABFC479C","title":"山林熟食 长春食品店","lon":"121.466429054","lat":"31.219775793","category":"68","category_name":"快餐厅","address":"卢湾区淮海中路617号长春食品商店内(近思南路)"},{"poiid":"B2094654DA6EA1FF419F","title":"永新大厦","lon":"121.468","lat":"31.2233","category":"46","category_name":"楼宇","address":"卢湾区淮海中路527号"},{"poiid":"B2094654DB64AAFD439F","title":"倍可意意漾时光","lon":"121.46794","lat":"31.22096","category":"65","category_name":"咖啡厅","address":"成都南路158甲"},{"poiid":"B2094655D268ABFA4199","title":"长乐坊","lon":"121.46518","lat":"31.22172","category":"71","category_name":"四川菜","address":"卢湾区长乐路161号新锦江大酒店4楼(近瑞金一路)"},{"poiid":"B2094750D665A7F9499D","title":"快乐柠檬(华狮广场店)","lon":"121.466","lat":"31.2197","category":"113","category_name":"冷饮店","address":"卢湾区淮海中路688号华狮购物中心门前广场"},{"poiid":"B2094750D76CA7F84798","title":"社科院小食堂","lon":"121.466","lat":"31.2208","category":"76","category_name":"上海菜","address":"卢湾区淮海中路622弄7号社科院院内"},{"poiid":"B2094655D26FA2F44399","title":"星巴克咖啡(杉德公司)","lon":"121.46567","lat":"31.21984","category":"65","category_name":"咖啡厅","address":"卢湾区淮海中路688号"},{"poiid":"B2094750D36DA1FE439E","title":"七葉和茶","lon":"121.466247","lat":"31.223526","category":"247","category_name":"餐饮美食","address":"美羅城"},{"poiid":"B2094655D26EA4F8469E","title":"时代(淮海)电影院","lon":"121.46846","lat":"31.22088","category":"178","category_name":"电影院","address":"卢湾区淮海中路550号"},{"poiid":"B2094757D469A3F54499","title":"阿瓦隆 Avalon","lon":"121.4652","lat":"31.22137","category":"94","category_name":"西餐厅","address":"卢湾区长乐路139号19室2-3楼(近瑞金一路预计2012年7月上旬营业)"},{"poiid":"B2094655D265ABFA4193","title":"BLOC","lon":"121.46527","lat":"31.2214","category":"94","category_name":"西餐厅","address":"卢湾区雁荡路99号(近南昌路)"},{"poiid":"B2094757D66FA6FA489E","title":"光明邨大酒家","lon":"121.46748133","lat":"31.220763235","category":"76","category_name":"上海菜","address":"卢湾区淮海中路588号(近成都南路)"},{"poiid":"B2094757D06EAAFE489E","title":"麻辣诱惑(淮海中路店)","lon":"121.46677","lat":"31.21946","category":"71","category_name":"四川菜","address":"淮海中路627-635号雪豹商城4-6楼近思南路"},{"poiid":"B2094757DB68A4FC439A","title":"香港谭仔三哥餐厅 成都南路店","lon":"121.468113","lat":"31.220826","category":"72","category_name":"广东菜","address":"卢湾区成都南路160号3楼(淮海中路口)"},{"poiid":"B2094753D76FAAFA449C","title":"上海滩国泰旗舰店","lon":"121.466011","lat":"31.216125","category":"249","category_name":"购物服务","address":"淮海中路868号"},{"poiid":"B209475CD564A7F84292","title":"上海滩新天地店","lon":"121.47463","lat":"31.22164","category":"119","category_name":"商场","address":"\"太仓路181弄新天地北里15号\r\n\""},{"poiid":"B209475CD564A7F8439E","title":"上海滩中信泰富店","lon":"121.45602","lat":"31.22851","category":"119","category_name":"商场","address":"\"南京西路1168号中信泰富广场，店铺号221.\r\n\""},{"poiid":"B2094757D66EA4FC4692","title":"上海歌城","lon":"121.46619473","lat":"31.219792077","category":"170","category_name":"KTV","address":"上海淮海路"},{"poiid":"B2094757D06EAAFF449A","title":"万得城(淮海店)","lon":"121.46826372","lat":"31.220509474","category":"138","category_name":"家电电子卖场","address":"上海卢湾区淮海中路527号锦江国际购物中心1至6层"},{"poiid":"B2094757D06FA3FB429B","title":"长乐路","lon":"121.465668","lat":"31.221659","category":"260","category_name":"其他","address":"铁东区陕西北路38号"},{"poiid":"B2094757D06EAAFE4899","title":"阿迪达斯魔方(品牌旗舰店)","lon":"121.465890042","lat":"31.2197844069","category":"140","category_name":"体育用品店","address":"卢湾区淮海中路691号(近思南路)"},{"poiid":"B2094654DB69A5FD4099","title":"好乐迪(顺昌路旗舰店)","lon":"121.46782","lat":"31.22111","category":"170","category_name":"KTV","address":"卢湾区顺昌路2号(近太仓路新天地)"},{"poiid":"B2094757D06FA3FB4698","title":"NPC(New Project Center)","lon":"121.466313665","lat":"31.2212256013","category":"141","category_name":"服装鞋帽皮具店","address":"上海卢湾区长乐路139号11室(近成都南路)"},{"poiid":"B2094757D06FA0FE409B","title":"Bricco cafe(淮海路店)","lon":"121.46821","lat":"31.22075","category":"94","category_name":"西餐厅","address":"卢湾区成都南路158号甲(近淮海中路)"},{"poiid":"B2094757D06FABF4439F","title":"windows bar","lon":"121.46728327","lat":"31.22062747","category":"172","category_name":"酒吧","address":"上海淮海中路万得城11楼"},{"poiid":"B2094654D564A5F94292","title":"上海社会科学院(淮海中路)","lon":"121.46636","lat":"31.2213","category":"191","category_name":"科研机构","address":"卢湾区淮海中路622弄7号(长春食品店对面)"},{"poiid":"B2094757D165ABFF4592","title":"光明村","lon":"121.46494373","lat":"31.220659096","category":"500","category_name":"未知分类","address":"上海市卢湾区茂名南路"},{"poiid":"B2094757D068A3FE4699","title":"天天周末(巨鹿路店)","lon":"121.46443","lat":"31.22252","category":"173","category_name":"游戏厅","address":"卢湾区巨鹿路227号(近瑞金一路)"},{"poiid":"B2094757D06FA4FD4299","title":"天香火锅楼(淮海店)","lon":"121.46836","lat":"31.22093","category":"86","category_name":"火锅店","address":"卢湾区淮海中路542弄103室(近成都南路)"},{"poiid":"B2094455DA65A3F94993","title":"很高兴遇见你","lon":"121.46669","lat":"31.21983","category":"247","category_name":"餐饮美食","address":"上海市 淮海中路776号3楼"},{"poiid":"B2094757D069A7FA4793","title":"新割烹小熊屋","lon":"121.467968054","lat":"31.221256793","category":"95","category_name":"日本料理","address":"卢湾区成都南路105-117号(近淮海中路)"},{"poiid":"B2094654D564A5FB489E","title":"都市风情街","lon":"121.46743","lat":"31.22232","category":"116","category_name":"特色商业街","address":"卢湾区长乐路190号都市风情街内(近成都南路)"},{"poiid":"B2094750D16BA6F8409B","title":"Salon V","lon":"121.465538","lat":"31.22171","category":"248","category_name":"生活娱乐","address":"长乐路139-26号(近瑞金一路)"},{"poiid":"B2094757D068A0FD429E","title":"久事复兴大厦","lon":"121.466","lat":"31.2235","category":"46","category_name":"楼宇","address":"铁西建设东路57号"},{"poiid":"B2094757D664A4FF4492","title":"丝袜奶茶 南京西路店 Denny House","lon":"121.46797","lat":"31.22142","category":"67","category_name":"甜品店","address":"静安区南京西路1025弄静安别墅128号(近南汇路)"},{"poiid":"B2094750D269A0FD4593","title":"恒基海鲜火锅","lon":"121.4681","lat":"31.22087","category":"86","category_name":"火锅店","address":"卢湾区成都南路127号(近淮海路)"},{"poiid":"B2094655D26AAAF5429E","title":"GODHANDS日系发型设计","lon":"121.46627","lat":"31.22154","category":"148","category_name":"美容美发店","address":"卢湾区长乐路139号9小号2楼(近成都南路)"},{"poiid":"B2094757D069A1F84293","title":"GOD HANDS 日系发型设计(长乐店)","lon":"121.46659","lat":"31.22159","category":"148","category_name":"美容美发店","address":"上海卢湾区长乐路139号9小号2楼(近成都南路)"},{"poiid":"B2094757D06FA4F8479A","title":"City Shop 城市超市(时代广场店)","lon":"121.46779018","lat":"31.22007985","category":"118","category_name":"超级市场","address":"上海卢湾区淮海中路99号大上海时代广场B1楼(近柳林路)"},{"poiid":"B2094757D069AAF5419A","title":"公主婚纱摄影","lon":"121.46825","lat":"31.22044","category":"249","category_name":"购物服务","address":"卢湾区淮海中路566号(近成都南路)查看地图"},{"poiid":"B2094655D26AABFF4998","title":"上海御花园酒店","lon":"121.46636","lat":"31.2213","category":"250","category_name":"公园户外","address":"卢湾区淮海中路622弄7号(近思南路)"},{"poiid":"B2094654DB69A6F4479B","title":"吉野家  华狮广场店","lon":"121.4654","lat":"31.21974","category":"95","category_name":"日本料理","address":"卢湾区淮海中路688号华狮购物中心B1楼(近思南路)"},{"poiid":"B2094757D464A7FC4499","title":"本杰比餐厅 淮海中路店 PUNJABI","lon":"121.466376","lat":"31.219755","category":"102","category_name":"印度风味","address":"卢湾区淮海中路627号5楼(近思南路)"},{"poiid":"B2094757D068A1F54192","title":"香港三联书店","lon":"121.46689","lat":"31.21987","category":"125","category_name":"书店","address":"卢湾区淮海中路624号(近思南路)"},{"poiid":"B2094750DB6FA4FD429B","title":"上海书城淮海路店","lon":"121.466621","lat":"31.219999","category":"249","category_name":"购物服务","address":null},{"poiid":"B2094757D069A0F4459C","title":"上海科学会堂","lon":"121.46645073","lat":"31.221138106","category":"500","category_name":"未知分类","address":"上海市卢湾区南昌路59号"},{"poiid":"B2094757D06FA7F4469A","title":"85度C(成都店)","lon":"121.46835","lat":"31.22084","category":"112","category_name":"糕饼店","address":"卢湾区成都南路127号(近淮海中路)"},{"poiid":"B2094757D069A4FC4192","title":"东方巴黎霞飞苑","lon":"121.465","lat":"31.2206","category":"47","category_name":"住宅区","address":"上海徐汇区南昌路555号"},{"poiid":"B2094757D06FA2FB4798","title":"C&amp;A(淮海路店)","lon":"121.46745","lat":"31.21959","category":"141","category_name":"服装鞋帽皮具店","address":"上海卢湾区淮海中路627-641号(近思南路)  "},{"poiid":"B2094655D26AA2FD419A","title":"社会科学院餐厅","lon":"121.467617054","lat":"31.220439793","category":"76","category_name":"上海菜","address":"上海卢湾区淮海中路622弄7号(近思南路)  "},{"poiid":"B2094757D465ABFC479C","title":"山林熟食 长春食品店","lon":"121.466429054","lat":"31.219775793","category":"68","category_name":"快餐厅","address":"卢湾区淮海中路617号长春食品商店内(近思南路)"},{"poiid":"B2094654DA6EA1FF419F","title":"永新大厦","lon":"121.468","lat":"31.2233","category":"46","category_name":"楼宇","address":"卢湾区淮海中路527号"},{"poiid":"B2094654DB64AAFD439F","title":"倍可意意漾时光","lon":"121.46794","lat":"31.22096","category":"65","category_name":"咖啡厅","address":"成都南路158甲"},{"poiid":"B2094655D268ABFA4199","title":"长乐坊","lon":"121.46518","lat":"31.22172","category":"71","category_name":"四川菜","address":"卢湾区长乐路161号新锦江大酒店4楼(近瑞金一路)"},{"poiid":"B2094750D665A7F9499D","title":"快乐柠檬(华狮广场店)","lon":"121.466","lat":"31.2197","category":"113","category_name":"冷饮店","address":"卢湾区淮海中路688号华狮购物中心门前广场"},{"poiid":"B2094750D76CA7F84798","title":"社科院小食堂","lon":"121.466","lat":"31.2208","category":"76","category_name":"上海菜","address":"卢湾区淮海中路622弄7号社科院院内"},{"poiid":"B2094655D26FA2F44399","title":"星巴克咖啡(杉德公司)","lon":"121.46567","lat":"31.21984","category":"65","category_name":"咖啡厅","address":"卢湾区淮海中路688号"},{"poiid":"B2094750D36DA1FE439E","title":"七葉和茶","lon":"121.466247","lat":"31.223526","category":"247","category_name":"餐饮美食","address":"美羅城"},{"poiid":"B2094655D26EA4F8469E","title":"时代(淮海)电影院","lon":"121.46846","lat":"31.22088","category":"178","category_name":"电影院","address":"卢湾区淮海中路550号"},{"poiid":"B2094757D469A3F54499","title":"阿瓦隆 Avalon","lon":"121.4652","lat":"31.22137","category":"94","category_name":"西餐厅","address":"卢湾区长乐路139号19室2-3楼(近瑞金一路预计2012年7月上旬营业)"},{"poiid":"B2094655D265ABFA4193","title":"BLOC","lon":"121.46527","lat":"31.2214","category":"94","category_name":"西餐厅","address":"卢湾区雁荡路99号(近南昌路)"}]