[{"poiid":"B2094655D26FA5FF4398","title":"置地广场","lon":"121.48237","lat":"31.23631","category":"119","category_name":"商场","address":"黄浦区南京东路409-459号(近山西南路)"},{"poiid":"B2094655D26CAAF5419B","title":"353广场","lon":"121.48339","lat":"31.23676","category":"119","category_name":"商场","address":"黄浦区南京东路353号(近河南中路)"},{"poiid":"B2094757D06EAAF84992","title":"Apple Store 苹果官方零售店(南京东路店)","lon":"121.484334712","lat":"31.2375712753","category":"138","category_name":"家电电子卖场","address":"上海市黄浦区南京东路300号名人购物中心B1-F2(河南中路口)"},{"poiid":"B2094753D76FAAFA449C","title":"上海滩国泰旗舰店","lon":"121.466011","lat":"31.216125","category":"249","category_name":"购物服务","address":"淮海中路868号"},{"poiid":"B209475CD564A7F84292","title":"上海滩新天地店","lon":"121.47463","lat":"31.22164","category":"119","category_name":"商场","address":"\"太仓路181弄新天地北里15号\r\n\""},{"poiid":"B209475CD564A7F8439E","title":"上海滩中信泰富店","lon":"121.45602","lat":"31.22851","category":"119","category_name":"商场","address":"\"南京西路1168号中信泰富广场，店铺号221.\r\n\""},{"poiid":"B209475CD564A7F84392","title":"上海滩浦东香格里拉店","lon":"121.50058","lat":"31.23634","category":"119","category_name":"商场","address":"浦东富成路33号香格里拉酒店内大堂层"},{"poiid":"B2094757D06FA6FC459B","title":"鲜芋仙(宏伊广场店)","lon":"121.484139738","lat":"31.2373384516","category":"67","category_name":"甜品店","address":"黄浦区南京东路288号宏伊国际广场B1楼(近南京东路步行街)"},{"poiid":"B2094750DA6BA1F44593","title":"Forever21上海店","lon":"121.485175","lat":"31.237633","category":"249","category_name":"购物服务","address":"南京东路233号河南中路路口"},{"poiid":"B2094757D068A3FE4992","title":"星巴克(名人大厦店)","lon":"121.4848452","lat":"31.2375642","category":"260","category_name":"其他","address":"黄浦区南京东路300号名人购物中心1楼L114号铺(近河南路)"},{"poiid":"B2094757D06FA2F4489B","title":"名人商业大厦","lon":"121.48353704","lat":"31.23810352","category":"46","category_name":"楼宇","address":"上海市天津路155号"},{"poiid":"B2094757D76AA7FD469D","title":"赤坂亭 南京东路店 A KA SA KA TEI","lon":"121.48449","lat":"31.23748","category":"268","category_name":"自助","address":"黄浦区南京东路300号名人购物中心3楼L312-313室(近河南中路)"},{"poiid":"B2094757D06FA2F4489D","title":"斗牛士(353广场店)","lon":"121.483458755","lat":"31.2365172341","category":"94","category_name":"西餐厅","address":"黄浦区南京东路353号353广场5楼510室(山东路口)"},{"poiid":"B2094757D16DAAFD439D","title":"融合马来西亚","lon":"121.48441473","lat":"31.237640458","category":"500","category_name":"未知分类","address":"上海名人购物中心"},{"poiid":"B2094757D16CABFB449B","title":"俏江南(名人广场店)","lon":"121.484086738","lat":"31.2375784567","category":"71","category_name":"四川菜","address":"黄浦区南京东路300号名人购物中心6楼"},{"poiid":"B2094757D06FAAF9469A","title":"汉拿山","lon":"121.484004738","lat":"31.2379848654","category":"500","category_name":"未知分类","address":"上海名人广场5F"},{"poiid":"B2094757D06FA0FC479A","title":"尚一汤(名人店)","lon":"121.484609045","lat":"31.2375079839","category":"72","category_name":"广东菜","address":"黄浦区南京东路300号名人购物中心4楼420单元(河南中路口)"},{"poiid":"B2094757D06FA1F9479D","title":"021上海菜主题餐厅(353广场店)","lon":"121.48358","lat":"31.23652","category":"76","category_name":"上海菜","address":"黄浦区南京东路353号353广场7楼(近河南中路)"},{"poiid":"B2094757D465A4F5459D","title":"老上海弄堂菜馆 名人店","lon":"121.48452579975","lat":"31.237623382578","category":"76","category_name":"上海菜","address":"黄浦区南京东路300号名人商业大厦6楼(近河南中路)"},{"poiid":"B2094757D06FA3F94798","title":"都市总部大楼","lon":"121.484","lat":"31.2366","category":"46","category_name":"楼宇","address":"西藏中路168号"},{"poiid":"B2094757D06EAAFC439B","title":"美特斯邦威(南京东路旗舰店)","lon":"121.482674","lat":"31.236528","category":"141","category_name":"服装鞋帽皮具店","address":"黄浦区南京东路387号圣德娜商厦内(山西南路口)"},{"poiid":"B2094750D26EAAFD4998","title":"融合马来西亚餐厅 名人店 Food Fusion","lon":"121.48440778255","lat":"31.237504128155","category":"110","category_name":"其他亚洲菜","address":"黄浦区南京东路300号名人购物中心L413-415室(近南京东路地铁站2号口)"},{"poiid":"B2094751D364AAFA4393","title":"上海南京路步行街（353广场）","lon":"121.482653","lat":"31.236516","category":"249","category_name":"购物服务","address":null},{"poiid":"B2094757D06FA0FE489E","title":"桥香园 南京东路店","lon":"121.48284074315","lat":"31.237031133729","category":"68","category_name":"快餐厅","address":"黄浦区南京东路388号2楼(山西南路口)"},{"poiid":"B2094753D469A5FC469E","title":"年代秀饭堂","lon":"121.483963","lat":"31.23822","category":"247","category_name":"餐饮美食","address":"上海市 天津路118号（近河南中路）"},{"poiid":"B2094757D06FA3FB439E","title":"牛阵日式火锅(353广场店)","lon":"121.484081768","lat":"31.2369316606","category":"95","category_name":"日本料理","address":"黄浦区南京东路353号353广场2楼(南京东路山东中路)"},{"poiid":"B2094757D06EAAFC4293","title":"太平洋咖啡Pacific Coffee(名人商业大厦店)","lon":"121.484204","lat":"31.237958","category":"260","category_name":"其他","address":"黄浦区南京东路300号名人购物中心L2楼211-212室(河南中路口)"},{"poiid":"B2094757DB6AA6F8429D","title":"麦当劳（353广场店）","lon":"121.484","lat":"31.2364","category":"68","category_name":"快餐厅","address":"黄浦区南京东路720号第一食品内(近贵州路)"},{"poiid":"B2094757D06FA5F9459A","title":"禾绿回转寿司(宏伊店)","lon":"121.48424","lat":"31.23717","category":"95","category_name":"日本料理","address":"黄浦区南京中路299号宏伊国际广场B1楼108单元(南京东路山东中路)"},{"poiid":"B2094750D76EABFE469D","title":"许留山(名人商业广场店)","lon":"121.484","lat":"31.2373","category":"67","category_name":"甜品店","address":"黄浦区南京东路300号名人商业广场B1楼108商铺(近河南中路)"},{"poiid":"B2094757D06AABF8499E","title":"上海市南京饭店","lon":"121.482299805","lat":"31.2373943329","category":"216","category_name":"经济型连锁酒店","address":"黄浦区山西南路200号(南京东路口)"},{"poiid":"B2094757D16CA6F4479E","title":"颂阁岚","lon":"121.48420273","lat":"31.237309451","category":"249","category_name":"购物服务","address":"上海市353广场"},{"poiid":"B2094757D06FA4FE439B","title":"萨莉亚(353广场店)","lon":"121.48346473","lat":"31.236138426","category":"94","category_name":"西餐厅","address":"黄浦区南京东路353号4楼(近福建路)"},{"poiid":"B2094757D068A0F5499B","title":"应昌期围棋学校","lon":"121.48277","lat":"31.23792","category":"55","category_name":"中学","address":"黄浦区天津路200号(山西南路天津路)"},{"poiid":"B2094757D068A6F44392","title":"傣妹(南京东路一店)","lon":"121.48295","lat":"31.23611","category":"86","category_name":"火锅店","address":"黄浦区南京东路387号圣德娜商厦6楼(山西南路口)"},{"poiid":"B2094757D06EAAFE409B","title":"ANNA BANANA 爱酸奶","lon":"121.48458173","lat":"31.237558456","category":"67","category_name":"甜品店","address":"上海黄浦区河南中路88号威斯汀大饭店101室(广东路口)"},{"poiid":"B2094654DA6FA5F8469E","title":"蔡同德堂","lon":"121.48195","lat":"31.23659","category":"162","category_name":"医院","address":"黄浦区南京东路450号(近福建中路)"},{"poiid":"B2094655D26AA1F5489D","title":"阿英煲山西南路店","lon":"121.48185","lat":"31.2378","category":"260","category_name":"其他","address":"黄浦区山西南路239号(近天津路)"},{"poiid":"B2094757D06AA2F54799","title":"呀咪咖哩屋","lon":"121.484063738","lat":"31.2375854569","category":"247","category_name":"餐饮美食","address":"上海市黄浦区南京东路300号名人商厦B1层"},{"poiid":"B2094655D36CA2FC419D","title":"ZARA(353广场店)","lon":"121.48343","lat":"31.23683","category":"141","category_name":"服装鞋帽皮具店","address":"上海黄浦区南京东路369号(近河南中路)"},{"poiid":"B2094752DB69A7F5479C","title":"上海恒基名人购物中心","lon":"121.48429153798679","lat":"31.237247655790956","category":"119","category_name":"商场","address":"黄浦区南京东路300号（近河南中路）"},{"poiid":"B2094757DB6CA4FF419D","title":"汉拿山","lon":"121.48404","lat":"31.23815","category":"96","category_name":"韩国料理","address":"黄浦区南京东路300号名人大厦5楼511-513号(近河南中路)"},{"poiid":"B2094757D465A5F8459C","title":"沈大成 353广场店","lon":"121.483866054","lat":"31.237021793","category":"76","category_name":"上海菜","address":"黄浦区南京东路353号353广场3楼(近河南中路)"},{"poiid":"B2094757D068A7F44893","title":"小梁园精菜坊","lon":"121.48434","lat":"31.23824","category":"75","category_name":"浙江菜","address":"黄浦区天津路118号(近河南中路)"},{"poiid":"B2094757D068AAFE4699","title":"鸭王食府","lon":"121.48266475","lat":"31.236176656","category":"68","category_name":"快餐厅","address":"黄浦区南京东路358号(近河南路)"},{"poiid":"B2094757D065A4FD4893","title":"轨道交通2号线(南京东路)","lon":"121.484178138","lat":"31.2382214704","category":"500","category_name":"未知分类","address":"上海南京东路河南中路(可换乘轨道交通10号线)"},{"poiid":"B2094757D068A7F5499A","title":"翠亭酒家","lon":"121.4823","lat":"31.23689","category":"76","category_name":"上海菜","address":"黄浦区山西南路211号(近天津路)"},{"poiid":"B2094757D168A7FD4698","title":"The Coffee Bean","lon":"121.483576738","lat":"31.2370234449","category":"65","category_name":"咖啡厅","address":"上海市黄浦区福建中路"},{"poiid":"B2094750D164A3F84493","title":"上海南京路青年旅舍","lon":"121.481613","lat":"31.237738","category":"215","category_name":"三星级宾馆","address":"上海市黄浦区天津路258号"},{"poiid":"B2094654DA6FA5F84592","title":"老凤祥银楼总店","lon":"121.48216","lat":"31.23663","category":"131","category_name":"珠宝首饰工艺品","address":"南京东路432"},{"poiid":"B2094655D26FA5FF4398","title":"置地广场","lon":"121.48237","lat":"31.23631","category":"119","category_name":"商场","address":"黄浦区南京东路409-459号(近山西南路)"},{"poiid":"B2094655D26CAAF5419B","title":"353广场","lon":"121.48339","lat":"31.23676","category":"119","category_name":"商场","address":"黄浦区南京东路353号(近河南中路)"},{"poiid":"B2094757D06EAAF84992","title":"Apple Store 苹果官方零售店(南京东路店)","lon":"121.484334712","lat":"31.2375712753","category":"138","category_name":"家电电子卖场","address":"上海市黄浦区南京东路300号名人购物中心B1-F2(河南中路口)"},{"poiid":"B2094753D76FAAFA449C","title":"上海滩国泰旗舰店","lon":"121.466011","lat":"31.216125","category":"249","category_name":"购物服务","address":"淮海中路868号"},{"poiid":"B209475CD564A7F84292","title":"上海滩新天地店","lon":"121.47463","lat":"31.22164","category":"119","category_name":"商场","address":"\"太仓路181弄新天地北里15号\r\n\""},{"poiid":"B209475CD564A7F8439E","title":"上海滩中信泰富店","lon":"121.45602","lat":"31.22851","category":"119","category_name":"商场","address":"\"南京西路1168号中信泰富广场，店铺号221.\r\n\""},{"poiid":"B209475CD564A7F84392","title":"上海滩浦东香格里拉店","lon":"121.50058","lat":"31.23634","category":"119","category_name":"商场","address":"浦东富成路33号香格里拉酒店内大堂层"},{"poiid":"B2094757D06FA6FC459B","title":"鲜芋仙(宏伊广场店)","lon":"121.484139738","lat":"31.2373384516","category":"67","category_name":"甜品店","address":"黄浦区南京东路288号宏伊国际广场B1楼(近南京东路步行街)"},{"poiid":"B2094750DA6BA1F44593","title":"Forever21上海店","lon":"121.485175","lat":"31.237633","category":"249","category_name":"购物服务","address":"南京东路233号河南中路路口"},{"poiid":"B2094757D068A3FE4992","title":"星巴克(名人大厦店)","lon":"121.4848452","lat":"31.2375642","category":"260","category_name":"其他","address":"黄浦区南京东路300号名人购物中心1楼L114号铺(近河南路)"},{"poiid":"B2094757D06FA2F4489B","title":"名人商业大厦","lon":"121.48353704","lat":"31.23810352","category":"46","category_name":"楼宇","address":"上海市天津路155号"},{"poiid":"B2094757D76AA7FD469D","title":"赤坂亭 南京东路店 A KA SA KA TEI","lon":"121.48449","lat":"31.23748","category":"268","category_name":"自助","address":"黄浦区南京东路300号名人购物中心3楼L312-313室(近河南中路)"},{"poiid":"B2094757D06FA2F4489D","title":"斗牛士(353广场店)","lon":"121.483458755","lat":"31.2365172341","category":"94","category_name":"西餐厅","address":"黄浦区南京东路353号353广场5楼510室(山东路口)"},{"poiid":"B2094757D16DAAFD439D","title":"融合马来西亚","lon":"121.48441473","lat":"31.237640458","category":"500","category_name":"未知分类","address":"上海名人购物中心"},{"poiid":"B2094757D16CABFB449B","title":"俏江南(名人广场店)","lon":"121.484086738","lat":"31.2375784567","category":"71","category_name":"四川菜","address":"黄浦区南京东路300号名人购物中心6楼"},{"poiid":"B2094757D06FAAF9469A","title":"汉拿山","lon":"121.484004738","lat":"31.2379848654","category":"500","category_name":"未知分类","address":"上海名人广场5F"},{"poiid":"B2094757D06FA0FC479A","title":"尚一汤(名人店)","lon":"121.484609045","lat":"31.2375079839","category":"72","category_name":"广东菜","address":"黄浦区南京东路300号名人购物中心4楼420单元(河南中路口)"},{"poiid":"B2094757D06FA1F9479D","title":"021上海菜主题餐厅(353广场店)","lon":"121.48358","lat":"31.23652","category":"76","category_name":"上海菜","address":"黄浦区南京东路353号353广场7楼(近河南中路)"},{"poiid":"B2094757D465A4F5459D","title":"老上海弄堂菜馆 名人店","lon":"121.48452579975","lat":"31.237623382578","category":"76","category_name":"上海菜","address":"黄浦区南京东路300号名人商业大厦6楼(近河南中路)"},{"poiid":"B2094757D06FA3F94798","title":"都市总部大楼","lon":"121.484","lat":"31.2366","category":"46","category_name":"楼宇","address":"西藏中路168号"},{"poiid":"B2094757D06EAAFC439B","title":"美特斯邦威(南京东路旗舰店)","lon":"121.482674","lat":"31.236528","category":"141","category_name":"服装鞋帽皮具店","address":"黄浦区南京东路387号圣德娜商厦内(山西南路口)"},{"poiid":"B2094750D26EAAFD4998","title":"融合马来西亚餐厅 名人店 Food Fusion","lon":"121.48440778255","lat":"31.237504128155","category":"110","category_name":"其他亚洲菜","address":"黄浦区南京东路300号名人购物中心L413-415室(近南京东路地铁站2号口)"},{"poiid":"B2094751D364AAFA4393","title":"上海南京路步行街（353广场）","lon":"121.482653","lat":"31.236516","category":"249","category_name":"购物服务","address":null},{"poiid":"B2094757D06FA0FE489E","title":"桥香园 南京东路店","lon":"121.48284074315","lat":"31.237031133729","category":"68","category_name":"快餐厅","address":"黄浦区南京东路388号2楼(山西南路口)"},{"poiid":"B2094753D469A5FC469E","title":"年代秀饭堂","lon":"121.483963","lat":"31.23822","category":"247","category_name":"餐饮美食","address":"上海市 天津路118号（近河南中路）"},{"poiid":"B2094757D06FA3FB439E","title":"牛阵日式火锅(353广场店)","lon":"121.484081768","lat":"31.2369316606","category":"95","category_name":"日本料理","address":"黄浦区南京东路353号353广场2楼(南京东路山东中路)"},{"poiid":"B2094757D06EAAFC4293","title":"太平洋咖啡Pacific Coffee(名人商业大厦店)","lon":"121.484204","lat":"31.237958","category":"260","category_name":"其他","address":"黄浦区南京东路300号名人购物中心L2楼211-212室(河南中路口)"},{"poiid":"B2094757DB6AA6F8429D","title":"麦当劳（353广场店）","lon":"121.484","lat":"31.2364","category":"68","category_name":"快餐厅","address":"黄浦区南京东路720号第一食品内(近贵州路)"},{"poiid":"B2094757D06FA5F9459A","title":"禾绿回转寿司(宏伊店)","lon":"121.48424","lat":"31.23717","category":"95","category_name":"日本料理","address":"黄浦区南京中路299号宏伊国际广场B1楼108单元(南京东路山东中路)"},{"poiid":"B2094750D76EABFE469D","title":"许留山(名人商业广场店)","lon":"121.484","lat":"31.2373","category":"67","category_name":"甜品店","address":"黄浦区南京东路300号名人商业广场B1楼108商铺(近河南中路)"},{"poiid":"B2094757D06AABF8499E","title":"上海市南京饭店","lon":"121.482299805","lat":"31.2373943329","category":"216","category_name":"经济型连锁酒店","address":"黄浦区山西南路200号(南京东路口)"},{"poiid":"B2094757D16CA6F4479E","title":"颂阁岚","lon":"121.48420273","lat":"31.237309451","category":"249","category_name":"购物服务","address":"上海市353广场"},{"poiid":"B2094757D06FA4FE439B","title":"萨莉亚(353广场店)","lon":"121.48346473","lat":"31.236138426","category":"94","category_name":"西餐厅","address":"黄浦区南京东路353号4楼(近福建路)"},{"poiid":"B2094757D068A0F5499B","title":"应昌期围棋学校","lon":"121.48277","lat":"31.23792","category":"55","category_name":"中学","address":"黄浦区天津路200号(山西南路天津路)"},{"poiid":"B2094757D068A6F44392","title":"傣妹(南京东路一店)","lon":"121.48295","lat":"31.23611","category":"86","category_name":"火锅店","address":"黄浦区南京东路387号圣德娜商厦6楼(山西南路口)"},{"poiid":"B2094757D06EAAFE409B","title":"ANNA BANANA 爱酸奶","lon":"121.48458173","lat":"31.237558456","category":"67","category_name":"甜品店","address":"上海黄浦区河南中路88号威斯汀大饭店101室(广东路口)"},{"poiid":"B2094654DA6FA5F8469E","title":"蔡同德堂","lon":"121.48195","lat":"31.23659","category":"162","category_name":"医院","address":"黄浦区南京东路450号(近福建中路)"},{"poiid":"B2094655D26AA1F5489D","title":"阿英煲山西南路店","lon":"121.48185","lat":"31.2378","category":"260","category_name":"其他","address":"黄浦区山西南路239号(近天津路)"},{"poiid":"B2094757D06AA2F54799","title":"呀咪咖哩屋","lon":"121.484063738","lat":"31.2375854569","category":"247","category_name":"餐饮美食","address":"上海市黄浦区南京东路300号名人商厦B1层"},{"poiid":"B2094655D36CA2FC419D","title":"ZARA(353广场店)","lon":"121.48343","lat":"31.23683","category":"141","category_name":"服装鞋帽皮具店","address":"上海黄浦区南京东路369号(近河南中路)"},{"poiid":"B2094752DB69A7F5479C","title":"上海恒基名人购物中心","lon":"121.48429153798679","lat":"31.237247655790956","category":"119","category_name":"商场","address":"黄浦区南京东路300号（近河南中路）"},{"poiid":"B2094757DB6CA4FF419D","title":"汉拿山","lon":"121.48404","lat":"31.23815","category":"96","category_name":"韩国料理","address":"黄浦区南京东路300号名人大厦5楼511-513号(近河南中路)"},{"poiid":"B2094757D465A5F8459C","title":"沈大成 353广场店","lon":"121.483866054","lat":"31.237021793","category":"76","category_name":"上海菜","address":"黄浦区南京东路353号353广场3楼(近河南中路)"},{"poiid":"B2094757D068A7F44893","title":"小梁园精菜坊","lon":"121.48434","lat":"31.23824","category":"75","category_name":"浙江菜","address":"黄浦区天津路118号(近河南中路)"},{"poiid":"B2094757D068AAFE4699","title":"鸭王食府","lon":"121.48266475","lat":"31.236176656","category":"68","category_name":"快餐厅","address":"黄浦区南京东路358号(近河南路)"},{"poiid":"B2094757D065A4FD4893","title":"轨道交通2号线(南京东路)","lon":"121.484178138","lat":"31.2382214704","category":"500","category_name":"未知分类","address":"上海南京东路河南中路(可换乘轨道交通10号线)"},{"poiid":"B2094757D068A7F5499A","title":"翠亭酒家","lon":"121.4823","lat":"31.23689","category":"76","category_name":"上海菜","address":"黄浦区山西南路211号(近天津路)"},{"poiid":"B2094757D168A7FD4698","title":"The Coffee Bean","lon":"121.483576738","lat":"31.2370234449","category":"65","category_name":"咖啡厅","address":"上海市黄浦区福建中路"},{"poiid":"B2094750D164A3F84493","title":"上海南京路青年旅舍","lon":"121.481613","lat":"31.237738","category":"215","category_name":"三星级宾馆","address":"上海市黄浦区天津路258号"},{"poiid":"B2094654DA6FA5F84592","title":"老凤祥银楼总店","lon":"121.48216","lat":"31.23663","category":"131","category_name":"珠宝首饰工艺品","address":"南京东路432"},{"poiid":"B2094655D26FA5FF4398","title":"置地广场","lon":"121.48237","lat":"31.23631","category":"119","category_name":"商场","address":"黄浦区南京东路409-459号(近山西南路)"},{"poiid":"B2094655D26CAAF5419B","title":"353广场","lon":"121.48339","lat":"31.23676","category":"119","category_name":"商场","address":"黄浦区南京东路353号(近河南中路)"},{"poiid":"B2094757D06EAAF84992","title":"Apple Store 苹果官方零售店(南京东路店)","lon":"121.484334712","lat":"31.2375712753","category":"138","category_name":"家电电子卖场","address":"上海市黄浦区南京东路300号名人购物中心B1-F2(河南中路口)"},{"poiid":"B2094753D76FAAFA449C","title":"上海滩国泰旗舰店","lon":"121.466011","lat":"31.216125","category":"249","category_name":"购物服务","address":"淮海中路868号"},{"poiid":"B209475CD564A7F84292","title":"上海滩新天地店","lon":"121.47463","lat":"31.22164","category":"119","category_name":"商场","address":"\"太仓路181弄新天地北里15号\r\n\""},{"poiid":"B209475CD564A7F8439E","title":"上海滩中信泰富店","lon":"121.45602","lat":"31.22851","category":"119","category_name":"商场","address":"\"南京西路1168号中信泰富广场，店铺号221.\r\n\""},{"poiid":"B209475CD564A7F84392","title":"上海滩浦东香格里拉店","lon":"121.50058","lat":"31.23634","category":"119","category_name":"商场","address":"浦东富成路33号香格里拉酒店内大堂层"},{"poiid":"B2094757D06FA6FC459B","title":"鲜芋仙(宏伊广场店)","lon":"121.484139738","lat":"31.2373384516","category":"67","category_name":"甜品店","address":"黄浦区南京东路288号宏伊国际广场B1楼(近南京东路步行街)"},{"poiid":"B2094750DA6BA1F44593","title":"Forever21上海店","lon":"121.485175","lat":"31.237633","category":"249","category_name":"购物服务","address":"南京东路233号河南中路路口"},{"poiid":"B2094757D068A3FE4992","title":"星巴克(名人大厦店)","lon":"121.4848452","lat":"31.2375642","category":"260","category_name":"其他","address":"黄浦区南京东路300号名人购物中心1楼L114号铺(近河南路)"},{"poiid":"B2094757D06FA2F4489B","title":"名人商业大厦","lon":"121.48353704","lat":"31.23810352","category":"46","category_name":"楼宇","address":"上海市天津路155号"},{"poiid":"B2094757D76AA7FD469D","title":"赤坂亭 南京东路店 A KA SA KA TEI","lon":"121.48449","lat":"31.23748","category":"268","category_name":"自助","address":"黄浦区南京东路300号名人购物中心3楼L312-313室(近河南中路)"},{"poiid":"B2094757D06FA2F4489D","title":"斗牛士(353广场店)","lon":"121.483458755","lat":"31.2365172341","category":"94","category_name":"西餐厅","address":"黄浦区南京东路353号353广场5楼510室(山东路口)"},{"poiid":"B2094757D16DAAFD439D","title":"融合马来西亚","lon":"121.48441473","lat":"31.237640458","category":"500","category_name":"未知分类","address":"上海名人购物中心"},{"poiid":"B2094757D16CABFB449B","title":"俏江南(名人广场店)","lon":"121.484086738","lat":"31.2375784567","category":"71","category_name":"四川菜","address":"黄浦区南京东路300号名人购物中心6楼"},{"poiid":"B2094757D06FAAF9469A","title":"汉拿山","lon":"121.484004738","lat":"31.2379848654","category":"500","category_name":"未知分类","address":"上海名人广场5F"},{"poiid":"B2094757D06FA0FC479A","title":"尚一汤(名人店)","lon":"121.484609045","lat":"31.2375079839","category":"72","category_name":"广东菜","address":"黄浦区南京东路300号名人购物中心4楼420单元(河南中路口)"},{"poiid":"B2094757D06FA1F9479D","title":"021上海菜主题餐厅(353广场店)","lon":"121.48358","lat":"31.23652","category":"76","category_name":"上海菜","address":"黄浦区南京东路353号353广场7楼(近河南中路)"},{"poiid":"B2094757D465A4F5459D","title":"老上海弄堂菜馆 名人店","lon":"121.48452579975","lat":"31.237623382578","category":"76","category_name":"上海菜","address":"黄浦区南京东路300号名人商业大厦6楼(近河南中路)"},{"poiid":"B2094757D06FA3F94798","title":"都市总部大楼","lon":"121.484","lat":"31.2366","category":"46","category_name":"楼宇","address":"西藏中路168号"},{"poiid":"B2094757D06EAAFC439B","title":"美特斯邦威(南京东路旗舰店)","lon":"121.482674","lat":"31.236528","category":"141","category_name":"服装鞋帽皮具店","address":"黄浦区南京东路387号圣德娜商厦内(山西南路口)"},{"poiid":"B2094750D26EAAFD4998","title":"融合马来西亚餐厅 名人店 Food Fusion","lon":"121.48440778255","lat":"31.237504128155","category":"110","category_name":"其他亚洲菜","address":"黄浦区南京东路300号名人购物中心L413-415室(近南京东路地铁站2号口)"},{"poiid":"B2094751D364AAFA4393","title":"上海南京路步行街（353广场）","lon":"121.482653","lat":"31.236516","category":"249","category_name":"购物服务","address":null},{"poiid":"B2094757D06FA0FE489E","title":"桥香园 南京东路店","lon":"121.48284074315","lat":"31.237031133729","category":"68","category_name":"快餐厅","address":"黄浦区南京东路388号2楼(山西南路口)"},{"poiid":"B2094753D469A5FC469E","title":"年代秀饭堂","lon":"121.483963","lat":"31.23822","category":"247","category_name":"餐饮美食","address":"上海市 天津路118号（近河南中路）"},{"poiid":"B2094757D06FA3FB439E","title":"牛阵日式火锅(353广场店)","lon":"121.484081768","lat":"31.2369316606","category":"95","category_name":"日本料理","address":"黄浦区南京东路353号353广场2楼(南京东路山东中路)"},{"poiid":"B2094757D06EAAFC4293","title":"太平洋咖啡Pacific Coffee(名人商业大厦店)","lon":"121.484204","lat":"31.237958","category":"260","category_name":"其他","address":"黄浦区南京东路300号名人购物中心L2楼211-212室(河南中路口)"},{"poiid":"B2094757DB6AA6F8429D","title":"麦当劳（353广场店）","lon":"121.484","lat":"31.2364","category":"68","category_name":"快餐厅","address":"黄浦区南京东路720号第一食品内(近贵州路)"},{"poiid":"B2094757D06FA5F9459A","title":"禾绿回转寿司(宏伊店)","lon":"121.48424","lat":"31.23717","category":"95","category_name":"日本料理","address":"黄浦区南京中路299号宏伊国际广场B1楼108单元(南京东路山东中路)"},{"poiid":"B2094750D76EABFE469D","title":"许留山(名人商业广场店)","lon":"121.484","lat":"31.2373","category":"67","category_name":"甜品店","address":"黄浦区南京东路300号名人商业广场B1楼108商铺(近河南中路)"},{"poiid":"B2094757D06AABF8499E","title":"上海市南京饭店","lon":"121.482299805","lat":"31.2373943329","category":"216","category_name":"经济型连锁酒店","address":"黄浦区山西南路200号(南京东路口)"},{"poiid":"B2094757D16CA6F4479E","title":"颂阁岚","lon":"121.48420273","lat":"31.237309451","category":"249","category_name":"购物服务","address":"上海市353广场"},{"poiid":"B2094757D06FA4FE439B","title":"萨莉亚(353广场店)","lon":"121.48346473","lat":"31.236138426","category":"94","category_name":"西餐厅","address":"黄浦区南京东路353号4楼(近福建路)"},{"poiid":"B2094757D068A0F5499B","title":"应昌期围棋学校","lon":"121.48277","lat":"31.23792","category":"55","category_name":"中学","address":"黄浦区天津路200号(山西南路天津路)"},{"poiid":"B2094757D068A6F44392","title":"傣妹(南京东路一店)","lon":"121.48295","lat":"31.23611","category":"86","category_name":"火锅店","address":"黄浦区南京东路387号圣德娜商厦6楼(山西南路口)"},{"poiid":"B2094757D06EAAFE409B","title":"ANNA BANANA 爱酸奶","lon":"121.48458173","lat":"31.237558456","category":"67","category_name":"甜品店","address":"上海黄浦区河南中路88号威斯汀大饭店101室(广东路口)"},{"poiid":"B2094654DA6FA5F8469E","title":"蔡同德堂","lon":"121.48195","lat":"31.23659","category":"162","category_name":"医院","address":"黄浦区南京东路450号(近福建中路)"},{"poiid":"B2094655D26AA1F5489D","title":"阿英煲山西南路店","lon":"121.48185","lat":"31.2378","category":"260","category_name":"其他","address":"黄浦区山西南路239号(近天津路)"},{"poiid":"B2094757D06AA2F54799","title":"呀咪咖哩屋","lon":"121.484063738","lat":"31.2375854569","category":"247","category_name":"餐饮美食","address":"上海市黄浦区南京东路300号名人商厦B1层"},{"poiid":"B2094655D36CA2FC419D","title":"ZARA(353广场店)","lon":"121.48343","lat":"31.23683","category":"141","category_name":"服装鞋帽皮具店","address":"上海黄浦区南京东路369号(近河南中路)"},{"poiid":"B2094752DB69A7F5479C","title":"上海恒基名人购物中心","lon":"121.48429153798679","lat":"31.237247655790956","category":"119","category_name":"商场","address":"黄浦区南京东路300号（近河南中路）"},{"poiid":"B2094757DB6CA4FF419D","title":"汉拿山","lon":"121.48404","lat":"31.23815","category":"96","category_name":"韩国料理","address":"黄浦区南京东路300号名人大厦5楼511-513号(近河南中路)"},{"poiid":"B2094757D465A5F8459C","title":"沈大成 353广场店","lon":"121.483866054","lat":"31.237021793","category":"76","category_name":"上海菜","address":"黄浦区南京东路353号353广场3楼(近河南中路)"},{"poiid":"B2094757D068A7F44893","title":"小梁园精菜坊","lon":"121.48434","lat":"31.23824","category":"75","category_name":"浙江菜","address":"黄浦区天津路118号(近河南中路)"},{"poiid":"B2094757D068AAFE4699","title":"鸭王食府","lon":"121.48266475","lat":"31.236176656","category":"68","category_name":"快餐厅","address":"黄浦区南京东路358号(近河南路)"},{"poiid":"B2094757D065A4FD4893","title":"轨道交通2号线(南京东路)","lon":"121.484178138","lat":"31.2382214704","category":"500","category_name":"未知分类","address":"上海南京东路河南中路(可换乘轨道交通10号线)"},{"poiid":"B2094757D068A7F5499A","title":"翠亭酒家","lon":"121.4823","lat":"31.23689","category":"76","category_name":"上海菜","address":"黄浦区山西南路211号(近天津路)"},{"poiid":"B2094757D168A7FD4698","title":"The Coffee Bean","lon":"121.483576738","lat":"31.2370234449","category":"65","category_name":"咖啡厅","address":"上海市黄浦区福建中路"},{"poiid":"B2094750D164A3F84493","title":"上海南京路青年旅舍","lon":"121.481613","lat":"31.237738","category":"215","category_name":"三星级宾馆","address":"上海市黄浦区天津路258号"},{"poiid":"B2094654DA6FA5F84592","title":"老凤祥银楼总店","lon":"121.48216","lat":"31.23663","category":"131","category_name":"珠宝首饰工艺品","address":"南京东路432"},{"poiid":"B2094655D26FA5FF4398","title":"置地广场","lon":"121.48237","lat":"31.23631","category":"119","category_name":"商场","address":"黄浦区南京东路409-459号(近山西南路)"},{"poiid":"B2094655D26CAAF5419B","title":"353广场","lon":"121.48339","lat":"31.23676","category":"119","category_name":"商场","address":"黄浦区南京东路353号(近河南中路)"},{"poiid":"B2094757D06EAAF84992","title":"Apple Store 苹果官方零售店(南京东路店)","lon":"121.484334712","lat":"31.2375712753","category":"138","category_name":"家电电子卖场","address":"上海市黄浦区南京东路300号名人购物中心B1-F2(河南中路口)"},{"poiid":"B2094753D76FAAFA449C","title":"上海滩国泰旗舰店","lon":"121.466011","lat":"31.216125","category":"249","category_name":"购物服务","address":"淮海中路868号"},{"poiid":"B209475CD564A7F84292","title":"上海滩新天地店","lon":"121.47463","lat":"31.22164","category":"119","category_name":"商场","address":"\"太仓路181弄新天地北里15号\r\n\""},{"poiid":"B209475CD564A7F8439E","title":"上海滩中信泰富店","lon":"121.45602","lat":"31.22851","category":"119","category_name":"商场","address":"\"南京西路1168号中信泰富广场，店铺号221.\r\n\""},{"poiid":"B209475CD564A7F84392","title":"上海滩浦东香格里拉店","lon":"121.50058","lat":"31.23634","category":"119","category_name":"商场","address":"浦东富成路33号香格里拉酒店内大堂层"},{"poiid":"B2094757D06FA6FC459B","title":"鲜芋仙(宏伊广场店)","lon":"121.484139738","lat":"31.2373384516","category":"67","category_name":"甜品店","address":"黄浦区南京东路288号宏伊国际广场B1楼(近南京东路步行街)"},{"poiid":"B2094750DA6BA1F44593","title":"Forever21上海店","lon":"121.485175","lat":"31.237633","category":"249","category_name":"购物服务","address":"南京东路233号河南中路路口"},{"poiid":"B2094757D068A3FE4992","title":"星巴克(名人大厦店)","lon":"121.4848452","lat":"31.2375642","category":"260","category_name":"其他","address":"黄浦区南京东路300号名人购物中心1楼L114号铺(近河南路)"},{"poiid":"B2094757D06FA2F4489B","title":"名人商业大厦","lon":"121.48353704","lat":"31.23810352","category":"46","category_name":"楼宇","address":"上海市天津路155号"},{"poiid":"B2094757D76AA7FD469D","title":"赤坂亭 南京东路店 A KA SA KA TEI","lon":"121.48449","lat":"31.23748","category":"268","category_name":"自助","address":"黄浦区南京东路300号名人购物中心3楼L312-313室(近河南中路)"},{"poiid":"B2094757D06FA2F4489D","title":"斗牛士(353广场店)","lon":"121.483458755","lat":"31.2365172341","category":"94","category_name":"西餐厅","address":"黄浦区南京东路353号353广场5楼510室(山东路口)"},{"poiid":"B2094757D16DAAFD439D","title":"融合马来西亚","lon":"121.48441473","lat":"31.237640458","category":"500","category_name":"未知分类","address":"上海名人购物中心"},{"poiid":"B2094757D16CABFB449B","title":"俏江南(名人广场店)","lon":"121.484086738","lat":"31.2375784567","category":"71","category_name":"四川菜","address":"黄浦区南京东路300号名人购物中心6楼"},{"poiid":"B2094757D06FAAF9469A","title":"汉拿山","lon":"121.484004738","lat":"31.2379848654","category":"500","category_name":"未知分类","address":"上海名人广场5F"},{"poiid":"B2094757D06FA0FC479A","title":"尚一汤(名人店)","lon":"121.484609045","lat":"31.2375079839","category":"72","category_name":"广东菜","address":"黄浦区南京东路300号名人购物中心4楼420单元(河南中路口)"},{"poiid":"B2094757D06FA1F9479D","title":"021上海菜主题餐厅(353广场店)","lon":"121.48358","lat":"31.23652","category":"76","category_name":"上海菜","address":"黄浦区南京东路353号353广场7楼(近河南中路)"},{"poiid":"B2094757D465A4F5459D","title":"老上海弄堂菜馆 名人店","lon":"121.48452579975","lat":"31.237623382578","category":"76","category_name":"上海菜","address":"黄浦区南京东路300号名人商业大厦6楼(近河南中路)"},{"poiid":"B2094757D06FA3F94798","title":"都市总部大楼","lon":"121.484","lat":"31.2366","category":"46","category_name":"楼宇","address":"西藏中路168号"},{"poiid":"B2094757D06EAAFC439B","title":"美特斯邦威(南京东路旗舰店)","lon":"121.482674","lat":"31.236528","category":"141","category_name":"服装鞋帽皮具店","address":"黄浦区南京东路387号圣德娜商厦内(山西南路口)"},{"poiid":"B2094750D26EAAFD4998","title":"融合马来西亚餐厅 名人店 Food Fusion","lon":"121.48440778255","lat":"31.237504128155","category":"110","category_name":"其他亚洲菜","address":"黄浦区南京东路300号名人购物中心L413-415室(近南京东路地铁站2号口)"},{"poiid":"B2094751D364AAFA4393","title":"上海南京路步行街（353广场）","lon":"121.482653","lat":"31.236516","category":"249","category_name":"购物服务","address":null},{"poiid":"B2094757D06FA0FE489E","title":"桥香园 南京东路店","lon":"121.48284074315","lat":"31.237031133729","category":"68","category_name":"快餐厅","address":"黄浦区南京东路388号2楼(山西南路口)"},{"poiid":"B2094753D469A5FC469E","title":"年代秀饭堂","lon":"121.483963","lat":"31.23822","category":"247","category_name":"餐饮美食","address":"上海市 天津路118号（近河南中路）"},{"poiid":"B2094757D06FA3FB439E","title":"牛阵日式火锅(353广场店)","lon":"121.484081768","lat":"31.2369316606","category":"95","category_name":"日本料理","address":"黄浦区南京东路353号353广场2楼(南京东路山东中路)"},{"poiid":"B2094757D06EAAFC4293","title":"太平洋咖啡Pacific Coffee(名人商业大厦店)","lon":"121.484204","lat":"31.237958","category":"260","category_name":"其他","address":"黄浦区南京东路300号名人购物中心L2楼211-212室(河南中路口)"},{"poiid":"B2094757DB6AA6F8429D","title":"麦当劳（353广场店）","lon":"121.484","lat":"31.2364","category":"68","category_name":"快餐厅","address":"黄浦区南京东路720号第一食品内(近贵州路)"},{"poiid":"B2094757D06FA5F9459A","title":"禾绿回转寿司(宏伊店)","lon":"121.48424","lat":"31.23717","category":"95","category_name":"日本料理","address":"黄浦区南京中路299号宏伊国际广场B1楼108单元(南京东路山东中路)"},{"poiid":"B2094750D76EABFE469D","title":"许留山(名人商业广场店)","lon":"121.484","lat":"31.2373","category":"67","category_name":"甜品店","address":"黄浦区南京东路300号名人商业广场B1楼108商铺(近河南中路)"},{"poiid":"B2094757D06AABF8499E","title":"上海市南京饭店","lon":"121.482299805","lat":"31.2373943329","category":"216","category_name":"经济型连锁酒店","address":"黄浦区山西南路200号(南京东路口)"},{"poiid":"B2094757D16CA6F4479E","title":"颂阁岚","lon":"121.48420273","lat":"31.237309451","category":"249","category_name":"购物服务","address":"上海市353广场"},{"poiid":"B2094757D06FA4FE439B","title":"萨莉亚(353广场店)","lon":"121.48346473","lat":"31.236138426","category":"94","category_name":"西餐厅","address":"黄浦区南京东路353号4楼(近福建路)"},{"poiid":"B2094757D068A0F5499B","title":"应昌期围棋学校","lon":"121.48277","lat":"31.23792","category":"55","category_name":"中学","address":"黄浦区天津路200号(山西南路天津路)"},{"poiid":"B2094757D068A6F44392","title":"傣妹(南京东路一店)","lon":"121.48295","lat":"31.23611","category":"86","category_name":"火锅店","address":"黄浦区南京东路387号圣德娜商厦6楼(山西南路口)"},{"poiid":"B2094757D06EAAFE409B","title":"ANNA BANANA 爱酸奶","lon":"121.48458173","lat":"31.237558456","category":"67","category_name":"甜品店","address":"上海黄浦区河南中路88号威斯汀大饭店101室(广东路口)"},{"poiid":"B2094654DA6FA5F8469E","title":"蔡同德堂","lon":"121.48195","lat":"31.23659","category":"162","category_name":"医院","address":"黄浦区南京东路450号(近福建中路)"},{"poiid":"B2094655D26AA1F5489D","title":"阿英煲山西南路店","lon":"121.48185","lat":"31.2378","category":"260","category_name":"其他","address":"黄浦区山西南路239号(近天津路)"},{"poiid":"B2094757D06AA2F54799","title":"呀咪咖哩屋","lon":"121.484063738","lat":"31.2375854569","category":"247","category_name":"餐饮美食","address":"上海市黄浦区南京东路300号名人商厦B1层"},{"poiid":"B2094655D36CA2FC419D","title":"ZARA(353广场店)","lon":"121.48343","lat":"31.23683","category":"141","category_name":"服装鞋帽皮具店","address":"上海黄浦区南京东路369号(近河南中路)"},{"poiid":"B2094752DB69A7F5479C","title":"上海恒基名人购物中心","lon":"121.48429153798679","lat":"31.237247655790956","category":"119","category_name":"商场","address":"黄浦区南京东路300号（近河南中路）"},{"poiid":"B2094757DB6CA4FF419D","title":"汉拿山","lon":"121.48404","lat":"31.23815","category":"96","category_name":"韩国料理","address":"黄浦区南京东路300号名人大厦5楼511-513号(近河南中路)"},{"poiid":"B2094757D465A5F8459C","title":"沈大成 353广场店","lon":"121.483866054","lat":"31.237021793","category":"76","category_name":"上海菜","address":"黄浦区南京东路353号353广场3楼(近河南中路)"},{"poiid":"B2094757D068A7F44893","title":"小梁园精菜坊","lon":"121.48434","lat":"31.23824","category":"75","category_name":"浙江菜","address":"黄浦区天津路118号(近河南中路)"},{"poiid":"B2094757D068AAFE4699","title":"鸭王食府","lon":"121.48266475","lat":"31.236176656","category":"68","category_name":"快餐厅","address":"黄浦区南京东路358号(近河南路)"},{"poiid":"B2094757D065A4FD4893","title":"轨道交通2号线(南京东路)","lon":"121.484178138","lat":"31.2382214704","category":"500","category_name":"未知分类","address":"上海南京东路河南中路(可换乘轨道交通10号线)"},{"poiid":"B2094757D068A7F5499A","title":"翠亭酒家","lon":"121.4823","lat":"31.23689","category":"76","category_name":"上海菜","address":"黄浦区山西南路211号(近天津路)"},{"poiid":"B2094757D168A7FD4698","title":"The Coffee Bean","lon":"121.483576738","lat":"31.2370234449","category":"65","category_name":"咖啡厅","address":"上海市黄浦区福建中路"},{"poiid":"B2094750D164A3F84493","title":"上海南京路青年旅舍","lon":"121.481613","lat":"31.237738","category":"215","category_name":"三星级宾馆","address":"上海市黄浦区天津路258号"},{"poiid":"B2094654DA6FA5F84592","title":"老凤祥银楼总店","lon":"121.48216","lat":"31.23663","category":"131","category_name":"珠宝首饰工艺品","address":"南京东路432"},{"poiid":"B2094655D26FA5FF4398","title":"置地广场","lon":"121.48237","lat":"31.23631","category":"119","category_name":"商场","address":"黄浦区南京东路409-459号(近山西南路)"},{"poiid":"B2094655D26CAAF5419B","title":"353广场","lon":"121.48339","lat":"31.23676","category":"119","category_name":"商场","address":"黄浦区南京东路353号(近河南中路)"},{"poiid":"B2094757D06EAAF84992","title":"Apple Store 苹果官方零售店(南京东路店)","lon":"121.484334712","lat":"31.2375712753","category":"138","category_name":"家电电子卖场","address":"上海市黄浦区南京东路300号名人购物中心B1-F2(河南中路口)"},{"poiid":"B2094753D76FAAFA449C","title":"上海滩国泰旗舰店","lon":"121.466011","lat":"31.216125","category":"249","category_name":"购物服务","address":"淮海中路868号"},{"poiid":"B209475CD564A7F84292","title":"上海滩新天地店","lon":"121.47463","lat":"31.22164","category":"119","category_name":"商场","address":"\"太仓路181弄新天地北里15号\r\n\""},{"poiid":"B209475CD564A7F8439E","title":"上海滩中信泰富店","lon":"121.45602","lat":"31.22851","category":"119","category_name":"商场","address":"\"南京西路1168号中信泰富广场，店铺号221.\r\n\""},{"poiid":"B209475CD564A7F84392","title":"上海滩浦东香格里拉店","lon":"121.50058","lat":"31.23634","category":"119","category_name":"商场","address":"浦东富成路33号香格里拉酒店内大堂层"},{"poiid":"B2094757D06FA6FC459B","title":"鲜芋仙(宏伊广场店)","lon":"121.484139738","lat":"31.2373384516","category":"67","category_name":"甜品店","address":"黄浦区南京东路288号宏伊国际广场B1楼(近南京东路步行街)"},{"poiid":"B2094750DA6BA1F44593","title":"Forever21上海店","lon":"121.485175","lat":"31.237633","category":"249","category_name":"购物服务","address":"南京东路233号河南中路路口"},{"poiid":"B2094757D068A3FE4992","title":"星巴克(名人大厦店)","lon":"121.4848452","lat":"31.2375642","category":"260","category_name":"其他","address":"黄浦区南京东路300号名人购物中心1楼L114号铺(近河南路)"},{"poiid":"B2094757D06FA2F4489B","title":"名人商业大厦","lon":"121.48353704","lat":"31.23810352","category":"46","category_name":"楼宇","address":"上海市天津路155号"},{"poiid":"B2094757D76AA7FD469D","title":"赤坂亭 南京东路店 A KA SA KA TEI","lon":"121.48449","lat":"31.23748","category":"268","category_name":"自助","address":"黄浦区南京东路300号名人购物中心3楼L312-313室(近河南中路)"},{"poiid":"B2094757D06FA2F4489D","title":"斗牛士(353广场店)","lon":"121.483458755","lat":"31.2365172341","category":"94","category_name":"西餐厅","address":"黄浦区南京东路353号353广场5楼510室(山东路口)"},{"poiid":"B2094757D16DAAFD439D","title":"融合马来西亚","lon":"121.48441473","lat":"31.237640458","category":"500","category_name":"未知分类","address":"上海名人购物中心"},{"poiid":"B2094757D16CABFB449B","title":"俏江南(名人广场店)","lon":"121.484086738","lat":"31.2375784567","category":"71","category_name":"四川菜","address":"黄浦区南京东路300号名人购物中心6楼"},{"poiid":"B2094757D06FAAF9469A","title":"汉拿山","lon":"121.484004738","lat":"31.2379848654","category":"500","category_name":"未知分类","address":"上海名人广场5F"},{"poiid":"B2094757D06FA0FC479A","title":"尚一汤(名人店)","lon":"121.484609045","lat":"31.2375079839","category":"72","category_name":"广东菜","address":"黄浦区南京东路300号名人购物中心4楼420单元(河南中路口)"},{"poiid":"B2094757D06FA1F9479D","title":"021上海菜主题餐厅(353广场店)","lon":"121.48358","lat":"31.23652","category":"76","category_name":"上海菜","address":"黄浦区南京东路353号353广场7楼(近河南中路)"},{"poiid":"B2094757D465A4F5459D","title":"老上海弄堂菜馆 名人店","lon":"121.48452579975","lat":"31.237623382578","category":"76","category_name":"上海菜","address":"黄浦区南京东路300号名人商业大厦6楼(近河南中路)"},{"poiid":"B2094757D06FA3F94798","title":"都市总部大楼","lon":"121.484","lat":"31.2366","category":"46","category_name":"楼宇","address":"西藏中路168号"},{"poiid":"B2094757D06EAAFC439B","title":"美特斯邦威(南京东路旗舰店)","lon":"121.482674","lat":"31.236528","category":"141","category_name":"服装鞋帽皮具店","address":"黄浦区南京东路387号圣德娜商厦内(山西南路口)"},{"poiid":"B2094750D26EAAFD4998","title":"融合马来西亚餐厅 名人店 Food Fusion","lon":"121.48440778255","lat":"31.237504128155","category":"110","category_name":"其他亚洲菜","address":"黄浦区南京东路300号名人购物中心L413-415室(近南京东路地铁站2号口)"},{"poiid":"B2094751D364AAFA4393","title":"上海南京路步行街（353广场）","lon":"121.482653","lat":"31.236516","category":"249","category_name":"购物服务","address":null},{"poiid":"B2094757D06FA0FE489E","title":"桥香园 南京东路店","lon":"121.48284074315","lat":"31.237031133729","category":"68","category_name":"快餐厅","address":"黄浦区南京东路388号2楼(山西南路口)"},{"poiid":"B2094753D469A5FC469E","title":"年代秀饭堂","lon":"121.483963","lat":"31.23822","category":"247","category_name":"餐饮美食","address":"上海市 天津路118号（近河南中路）"},{"poiid":"B2094757D06FA3FB439E","title":"牛阵日式火锅(353广场店)","lon":"121.484081768","lat":"31.2369316606","category":"95","category_name":"日本料理","address":"黄浦区南京东路353号353广场2楼(南京东路山东中路)"},{"poiid":"B2094757D06EAAFC4293","title":"太平洋咖啡Pacific Coffee(名人商业大厦店)","lon":"121.484204","lat":"31.237958","category":"260","category_name":"其他","address":"黄浦区南京东路300号名人购物中心L2楼211-212室(河南中路口)"},{"poiid":"B2094757DB6AA6F8429D","title":"麦当劳（353广场店）","lon":"121.484","lat":"31.2364","category":"68","category_name":"快餐厅","address":"黄浦区南京东路720号第一食品内(近贵州路)"},{"poiid":"B2094757D06FA5F9459A","title":"禾绿回转寿司(宏伊店)","lon":"121.48424","lat":"31.23717","category":"95","category_name":"日本料理","address":"黄浦区南京中路299号宏伊国际广场B1楼108单元(南京东路山东中路)"},{"poiid":"B2094750D76EABFE469D","title":"许留山(名人商业广场店)","lon":"121.484","lat":"31.2373","category":"67","category_name":"甜品店","address":"黄浦区南京东路300号名人商业广场B1楼108商铺(近河南中路)"},{"poiid":"B2094757D06AABF8499E","title":"上海市南京饭店","lon":"121.482299805","lat":"31.2373943329","category":"216","category_name":"经济型连锁酒店","address":"黄浦区山西南路200号(南京东路口)"},{"poiid":"B2094757D16CA6F4479E","title":"颂阁岚","lon":"121.48420273","lat":"31.237309451","category":"249","category_name":"购物服务","address":"上海市353广场"},{"poiid":"B2094757D06FA4FE439B","title":"萨莉亚(353广场店)","lon":"121.48346473","lat":"31.236138426","category":"94","category_name":"西餐厅","address":"黄浦区南京东路353号4楼(近福建路)"},{"poiid":"B2094757D068A0F5499B","title":"应昌期围棋学校","lon":"121.48277","lat":"31.23792","category":"55","category_name":"中学","address":"黄浦区天津路200号(山西南路天津路)"},{"poiid":"B2094757D068A6F44392","title":"傣妹(南京东路一店)","lon":"121.48295","lat":"31.23611","category":"86","category_name":"火锅店","address":"黄浦区南京东路387号圣德娜商厦6楼(山西南路口)"},{"poiid":"B2094757D06EAAFE409B","title":"ANNA BANANA 爱酸奶","lon":"121.48458173","lat":"31.237558456","category":"67","category_name":"甜品店","address":"上海黄浦区河南中路88号威斯汀大饭店101室(广东路口)"},{"poiid":"B2094654DA6FA5F8469E","title":"蔡同德堂","lon":"121.48195","lat":"31.23659","category":"162","category_name":"医院","address":"黄浦区南京东路450号(近福建中路)"},{"poiid":"B2094655D26AA1F5489D","title":"阿英煲山西南路店","lon":"121.48185","lat":"31.2378","category":"260","category_name":"其他","address":"黄浦区山西南路239号(近天津路)"},{"poiid":"B2094757D06AA2F54799","title":"呀咪咖哩屋","lon":"121.484063738","lat":"31.2375854569","category":"247","category_name":"餐饮美食","address":"上海市黄浦区南京东路300号名人商厦B1层"},{"poiid":"B2094655D36CA2FC419D","title":"ZARA(353广场店)","lon":"121.48343","lat":"31.23683","category":"141","category_name":"服装鞋帽皮具店","address":"上海黄浦区南京东路369号(近河南中路)"},{"poiid":"B2094752DB69A7F5479C","title":"上海恒基名人购物中心","lon":"121.48429153798679","lat":"31.237247655790956","category":"119","category_name":"商场","address":"黄浦区南京东路300号（近河南中路）"},{"poiid":"B2094757DB6CA4FF419D","title":"汉拿山","lon":"121.48404","lat":"31.23815","category":"96","category_name":"韩国料理","address":"黄浦区南京东路300号名人大厦5楼511-513号(近河南中路)"},{"poiid":"B2094757D465A5F8459C","title":"沈大成 353广场店","lon":"121.483866054","lat":"31.237021793","category":"76","category_name":"上海菜","address":"黄浦区南京东路353号353广场3楼(近河南中路)"},{"poiid":"B2094757D068A7F44893","title":"小梁园精菜坊","lon":"121.48434","lat":"31.23824","category":"75","category_name":"浙江菜","address":"黄浦区天津路118号(近河南中路)"},{"poiid":"B2094757D068AAFE4699","title":"鸭王食府","lon":"121.48266475","lat":"31.236176656","category":"68","category_name":"快餐厅","address":"黄浦区南京东路358号(近河南路)"},{"poiid":"B2094757D065A4FD4893","title":"轨道交通2号线(南京东路)","lon":"121.484178138","lat":"31.2382214704","category":"500","category_name":"未知分类","address":"上海南京东路河南中路(可换乘轨道交通10号线)"},{"poiid":"B2094757D068A7F5499A","title":"翠亭酒家","lon":"121.4823","lat":"31.23689","category":"76","category_name":"上海菜","address":"黄浦区山西南路211号(近天津路)"},{"poiid":"B2094757D168A7FD4698","title":"The Coffee Bean","lon":"121.483576738","lat":"31.2370234449","category":"65","category_name":"咖啡厅","address":"上海市黄浦区福建中路"},{"poiid":"B2094750D164A3F84493","title":"上海南京路青年旅舍","lon":"121.481613","lat":"31.237738","category":"215","category_name":"三星级宾馆","address":"上海市黄浦区天津路258号"},{"poiid":"B2094654DA6FA5F84592","title":"老凤祥银楼总店","lon":"121.48216","lat":"31.23663","category":"131","category_name":"珠宝首饰工艺品","address":"南京东路432"}]