[{"poiid":"B2094654DA6CA1FF4493","title":"中信泰富广场","lon":"121.462","lat":"31.2349","category":"119","category_name":"商场","address":"静安区南京西路1168号中信泰富广场内(近陕西北路)"},{"poiid":"B2094757D06FA3FC449C","title":"上海商城","lon":"121.459","lat":"31.2331","category":"119","category_name":"商场","address":"上海静安区南京西路1376号(近西康路)"},{"poiid":"B2094757D06FA2FB409C","title":"东来顺饭庄(石门二路店)","lon":"121.46076","lat":"31.23391","category":"86","category_name":"火锅店","address":"静安区石门二路215号(近新闸路)"},{"poiid":"B2094753D76FAAFA449C","title":"上海滩国泰旗舰店","lon":"121.466011","lat":"31.216125","category":"249","category_name":"购物服务","address":"淮海中路868号"},{"poiid":"B209475CD564A7F84292","title":"上海滩新天地店","lon":"121.47463","lat":"31.22164","category":"119","category_name":"商场","address":"\"太仓路181弄新天地北里15号\r\n\""},{"poiid":"B209475CD564A7F8439E","title":"上海滩中信泰富店","lon":"121.45602","lat":"31.22851","category":"119","category_name":"商场","address":"\"南京西路1168号中信泰富广场，店铺号221.\r\n\""},{"poiid":"B2094655D26CAAFF4992","title":"静安别墅","lon":"121.464","lat":"31.2349","category":"47","category_name":"住宅区","address":"静安区南京西路1025弄静安别墅81号(近茂名北路)"},{"poiid":"B2094757D06FA2FC439F","title":"静安雕塑公园","lon":"121.46159","lat":"31.2328","category":"196","category_name":"公园","address":"静安区石门二路128号(近北京西路)"},{"poiid":"B2094757D068A3F8439A","title":"BELLO'CO 倍乐","lon":"121.45942745","lat":"31.236405856","category":"500","category_name":"未知分类","address":"上海新闸路848号"},{"poiid":"B2094655D26BA3F94698","title":"丰收日(石门二路店)","lon":"121.46052","lat":"31.23564","category":"75","category_name":"浙江菜","address":"静安区石门二路268号(近新闸路)"},{"poiid":"B2094757D06FA1F84192","title":"现代建筑设计大厦","lon":"121.460772","lat":"31.235274","category":"46","category_name":"楼宇","address":"上海市静安区石门二路258号"},{"poiid":"B2094654DA6CA5F4489D","title":"凯迪克大厦","lon":"121.461","lat":"31.2377","category":"46","category_name":"楼宇","address":"上海市静安区江宁路212号"},{"poiid":"B2094757D06FAAFA489D","title":"新闸路石门二路","lon":"121.46029061","lat":"31.236030374","category":"500","category_name":"未知分类","address":"上海新闸路慈溪路"},{"poiid":"B2094757D06FA2FE449D","title":"潮汕砂锅粥馆(静安店)","lon":"121.45992","lat":"31.23502","category":"72","category_name":"广东菜","address":"静安区新闸路868号(近石门二路)"},{"poiid":"B2094757D06FA7FB409C","title":"国际丽都城","lon":"121.459495","lat":"31.233372","category":"47","category_name":"住宅区","address":"上海静安区北京西路758弄(近石门二路)"},{"poiid":"B2094757D06FAAF8499A","title":"嘉发大厦","lon":"121.4627151","lat":"31.23285293","category":"46","category_name":"楼宇","address":"新华都商务花园位于长宁定西路685号"},{"poiid":"B2094654DA6CA5FA489B","title":"弘记港式茶餐厅 新闸路店","lon":"121.45998989478","lat":"31.235576570521","category":"72","category_name":"广东菜","address":"静安区新闸路852号(近石门二路)"},{"poiid":"B2094757D068A2F8429D","title":"新城大厦","lon":"121.461","lat":"31.2369","category":"46","category_name":"楼宇","address":"上海市普陀区中山北路1777号"},{"poiid":"B2094750D76DABFE489B","title":"蜀巷","lon":"121.46","lat":"31.2351","category":"71","category_name":"四川菜","address":"静安区新闸路854号(近石门二路)"},{"poiid":"B2094654DA6CA4FA4799","title":"上海市育才初级中学","lon":"121.46126","lat":"31.23472","category":"55","category_name":"中学","address":"静安区山海关路445号(近石门二路)"},{"poiid":"B2094757D06FABF94299","title":"丽都太平洋全套房酒店","lon":"121.459948","lat":"31.234771","category":"217","category_name":"旅馆招待所","address":"上海市静安区新闸路831号"},{"poiid":"B2094654DB6BA6F4449B","title":"振鼎鸡(静安店)","lon":"121.46159","lat":"31.23197","category":"68","category_name":"快餐厅","address":"静安区石门二路61号(近北京西路)"},{"poiid":"B2094654DA6CA5FA429C","title":"玛哪胜地","lon":"121.46021","lat":"31.23471","category":"112","category_name":"糕饼店","address":"静安区石门二路227号(近山海关路)"},{"poiid":"B2094757D06AA0FC4793","title":"银发大厦","lon":"121.461","lat":"31.2364","category":"46","category_name":"楼宇","address":"铁西卫工南街8―5号"},{"poiid":"B2094654DA6CA4FA4692","title":"石门二路街道社区卫生服务中心","lon":"121.46137","lat":"31.23516","category":"162","category_name":"医院","address":"山海关路456"},{"poiid":"B2094654DA6CA4FF4798","title":"振安广场恒安大厦","lon":"121.45935","lat":"31.23598","category":"46","category_name":"楼宇","address":"石门二路333弄3-9号"},{"poiid":"B2094655D36CA1FD4599","title":"石门二路","lon":"121.45947","lat":"31.23472","category":"38","category_name":"公交车站","address":""},{"poiid":"B2094654DA6CA2FF469A","title":"东展商业大厦","lon":"121.46185","lat":"31.23266","category":"46","category_name":"楼宇","address":"丰台学城海鹰路1号，3号"},{"poiid":"B2094757D16FA3F9469F","title":"上海现代设计集团","lon":"121.460851738","lat":"31.2347463963","category":"500","category_name":"未知分类","address":"上海石门二路258号"},{"poiid":"B2094654DB6BA5FD4093","title":"丽都太平洋公寓酒店(东北门)","lon":"121.46038","lat":"31.23428","category":"213","category_name":"五星级宾馆","address":"新闸路831号"},{"poiid":"B2094654DA6CA5FA499A","title":"新福康里商务中心","lon":"121.45948","lat":"31.23501","category":"46","category_name":"楼宇","address":"丰台学城海鹰路1号，3号"},{"poiid":"B2094752D669A5F9469E","title":"上海理工大学","lon":"121.462265","lat":"31.236358","category":"500","category_name":"未知分类","address":"军工路580号"},{"poiid":"B2094757D16EA7FD4293","title":"东来顺","lon":"121.462352738","lat":"31.2320483388","category":"500","category_name":"未知分类","address":"上海石门二路215号"},{"poiid":"B2094757D16AA6F84193","title":"地铁一号线衡山路","lon":"121.461844738","lat":"31.2327313534","category":"500","category_name":"未知分类","address":"上海市静安区泰兴路"},{"poiid":"B2094757D06AA6FB469B","title":"现代建筑装饰环境设计研究院","lon":"121.460496","lat":"31.234936","category":"46","category_name":"楼宇","address":"上海石门二路258号4楼"},{"poiid":"B2094654DA6CA4FA4798","title":"中国教育学会书法教育专业委员会实验中学","lon":"121.46126","lat":"31.23472","category":"55","category_name":"中学","address":"山海关路445"},{"poiid":"B2094757D16EA6FE4392","title":"华山业余美校","lon":"121.45956473","lat":"31.234782397","category":"500","category_name":"未知分类","address":"上海市静安区新闸路848号"},{"poiid":"B2094757D16BA4FF4492","title":"潮汕沙锅粥馆","lon":"121.458894","lat":"31.2346","category":"247","category_name":"餐饮美食","address":"上海新闸路868号"},{"poiid":"B2094654DB6BA5FD4492","title":"现代建筑设计大厦食堂","lon":"121.46084","lat":"31.23511","category":"257","category_name":"中餐厅","address":"石门二路258号现代建筑设计大厦5层"},{"poiid":"B2094757D06AA4F8419F","title":"达安城","lon":"121.46119","lat":"31.236032","category":"47","category_name":"住宅区","address":"上海市静安区新闸路777号"},{"poiid":"B2094757D169A3FC469B","title":"吉藏日本料理","lon":"121.461995738","lat":"31.2331023613","category":"500","category_name":"未知分类","address":"上海静安区石门二路19号(近南京西路)"},{"poiid":"B2094757D16CA7FB4599","title":"民生银行（京门支行）","lon":"121.46070098","lat":"31.233873367","category":"46","category_name":"楼宇","address":"上海石门二路181号"},{"poiid":"B2094757D165A4F94893","title":"俄罗斯套娃餐厅","lon":"121.460130338","lat":"31.2346250938","category":"94","category_name":"西餐厅","address":"上海石门二路165号，近北京西路"},{"poiid":"B2094757D068A5F4459F","title":"7-ELEVEN(丽都店)","lon":"121.460243","lat":"31.234555","category":"117","category_name":"便民商店/便利店","address":"上海市静安区石门二路223号1-2层"},{"poiid":"B2094654DA6CA4FA4693","title":"石门医院","lon":"121.46138","lat":"31.23516","category":"162","category_name":"医院","address":"山海关路456号"},{"poiid":"B2094757D465A3FE4698","title":"元铭餐饮店","lon":"121.459883054","lat":"31.235428793","category":"76","category_name":"上海菜","address":"静安区新闸路858号(近石门二路)"},{"poiid":"B2094757D169ABFE479D","title":"九龙冰室港式茶餐厅","lon":"121.462001738","lat":"31.2340073806","category":"500","category_name":"未知分类","address":"静安区石门二路19号(近奉贤路)"},{"poiid":"B2094750D268A2FD4092","title":"古丽仙西域餐厅","lon":"121.458595","lat":"31.234464","category":"247","category_name":"餐饮美食","address":"南京西路818广场"},{"poiid":"B2094655D26CABF4469A","title":"怡安里","lon":"121.46144","lat":"31.23418","category":"47","category_name":"住宅区","address":"石门二路186弄3-27号"},{"poiid":"B2094654DA6CA5FA429F","title":"丽都口腔门诊部","lon":"121.46018","lat":"31.23478","category":"162","category_name":"医院","address":"静安区石门二路229号(近新闸路)"},{"poiid":"B2094654DA6CA1FF4493","title":"中信泰富广场","lon":"121.462","lat":"31.2349","category":"119","category_name":"商场","address":"静安区南京西路1168号中信泰富广场内(近陕西北路)"},{"poiid":"B2094757D06FA3FC449C","title":"上海商城","lon":"121.459","lat":"31.2331","category":"119","category_name":"商场","address":"上海静安区南京西路1376号(近西康路)"},{"poiid":"B2094757D06FA2FB409C","title":"东来顺饭庄(石门二路店)","lon":"121.46076","lat":"31.23391","category":"86","category_name":"火锅店","address":"静安区石门二路215号(近新闸路)"},{"poiid":"B2094753D76FAAFA449C","title":"上海滩国泰旗舰店","lon":"121.466011","lat":"31.216125","category":"249","category_name":"购物服务","address":"淮海中路868号"},{"poiid":"B209475CD564A7F84292","title":"上海滩新天地店","lon":"121.47463","lat":"31.22164","category":"119","category_name":"商场","address":"\"太仓路181弄新天地北里15号\r\n\""},{"poiid":"B209475CD564A7F8439E","title":"上海滩中信泰富店","lon":"121.45602","lat":"31.22851","category":"119","category_name":"商场","address":"\"南京西路1168号中信泰富广场，店铺号221.\r\n\""},{"poiid":"B2094655D26CAAFF4992","title":"静安别墅","lon":"121.464","lat":"31.2349","category":"47","category_name":"住宅区","address":"静安区南京西路1025弄静安别墅81号(近茂名北路)"},{"poiid":"B2094757D06FA2FC439F","title":"静安雕塑公园","lon":"121.46159","lat":"31.2328","category":"196","category_name":"公园","address":"静安区石门二路128号(近北京西路)"},{"poiid":"B2094757D068A3F8439A","title":"BELLO'CO 倍乐","lon":"121.45942745","lat":"31.236405856","category":"500","category_name":"未知分类","address":"上海新闸路848号"},{"poiid":"B2094655D26BA3F94698","title":"丰收日(石门二路店)","lon":"121.46052","lat":"31.23564","category":"75","category_name":"浙江菜","address":"静安区石门二路268号(近新闸路)"},{"poiid":"B2094757D06FA1F84192","title":"现代建筑设计大厦","lon":"121.460772","lat":"31.235274","category":"46","category_name":"楼宇","address":"上海市静安区石门二路258号"},{"poiid":"B2094654DA6CA5F4489D","title":"凯迪克大厦","lon":"121.461","lat":"31.2377","category":"46","category_name":"楼宇","address":"上海市静安区江宁路212号"},{"poiid":"B2094757D06FAAFA489D","title":"新闸路石门二路","lon":"121.46029061","lat":"31.236030374","category":"500","category_name":"未知分类","address":"上海新闸路慈溪路"},{"poiid":"B2094757D06FA2FE449D","title":"潮汕砂锅粥馆(静安店)","lon":"121.45992","lat":"31.23502","category":"72","category_name":"广东菜","address":"静安区新闸路868号(近石门二路)"},{"poiid":"B2094757D06FA7FB409C","title":"国际丽都城","lon":"121.459495","lat":"31.233372","category":"47","category_name":"住宅区","address":"上海静安区北京西路758弄(近石门二路)"},{"poiid":"B2094757D06FAAF8499A","title":"嘉发大厦","lon":"121.4627151","lat":"31.23285293","category":"46","category_name":"楼宇","address":"新华都商务花园位于长宁定西路685号"},{"poiid":"B2094654DA6CA5FA489B","title":"弘记港式茶餐厅 新闸路店","lon":"121.45998989478","lat":"31.235576570521","category":"72","category_name":"广东菜","address":"静安区新闸路852号(近石门二路)"},{"poiid":"B2094757D068A2F8429D","title":"新城大厦","lon":"121.461","lat":"31.2369","category":"46","category_name":"楼宇","address":"上海市普陀区中山北路1777号"},{"poiid":"B2094750D76DABFE489B","title":"蜀巷","lon":"121.46","lat":"31.2351","category":"71","category_name":"四川菜","address":"静安区新闸路854号(近石门二路)"},{"poiid":"B2094654DA6CA4FA4799","title":"上海市育才初级中学","lon":"121.46126","lat":"31.23472","category":"55","category_name":"中学","address":"静安区山海关路445号(近石门二路)"},{"poiid":"B2094757D06FABF94299","title":"丽都太平洋全套房酒店","lon":"121.459948","lat":"31.234771","category":"217","category_name":"旅馆招待所","address":"上海市静安区新闸路831号"},{"poiid":"B2094654DB6BA6F4449B","title":"振鼎鸡(静安店)","lon":"121.46159","lat":"31.23197","category":"68","category_name":"快餐厅","address":"静安区石门二路61号(近北京西路)"},{"poiid":"B2094654DA6CA5FA429C","title":"玛哪胜地","lon":"121.46021","lat":"31.23471","category":"112","category_name":"糕饼店","address":"静安区石门二路227号(近山海关路)"},{"poiid":"B2094757D06AA0FC4793","title":"银发大厦","lon":"121.461","lat":"31.2364","category":"46","category_name":"楼宇","address":"铁西卫工南街8―5号"},{"poiid":"B2094654DA6CA4FA4692","title":"石门二路街道社区卫生服务中心","lon":"121.46137","lat":"31.23516","category":"162","category_name":"医院","address":"山海关路456"},{"poiid":"B2094654DA6CA4FF4798","title":"振安广场恒安大厦","lon":"121.45935","lat":"31.23598","category":"46","category_name":"楼宇","address":"石门二路333弄3-9号"},{"poiid":"B2094655D36CA1FD4599","title":"石门二路","lon":"121.45947","lat":"31.23472","category":"38","category_name":"公交车站","address":""},{"poiid":"B2094654DA6CA2FF469A","title":"东展商业大厦","lon":"121.46185","lat":"31.23266","category":"46","category_name":"楼宇","address":"丰台学城海鹰路1号，3号"},{"poiid":"B2094757D16FA3F9469F","title":"上海现代设计集团","lon":"121.460851738","lat":"31.2347463963","category":"500","category_name":"未知分类","address":"上海石门二路258号"},{"poiid":"B2094654DB6BA5FD4093","title":"丽都太平洋公寓酒店(东北门)","lon":"121.46038","lat":"31.23428","category":"213","category_name":"五星级宾馆","address":"新闸路831号"},{"poiid":"B2094654DA6CA5FA499A","title":"新福康里商务中心","lon":"121.45948","lat":"31.23501","category":"46","category_name":"楼宇","address":"丰台学城海鹰路1号，3号"},{"poiid":"B2094752D669A5F9469E","title":"上海理工大学","lon":"121.462265","lat":"31.236358","category":"500","category_name":"未知分类","address":"军工路580号"},{"poiid":"B2094757D16EA7FD4293","title":"东来顺","lon":"121.462352738","lat":"31.2320483388","category":"500","category_name":"未知分类","address":"上海石门二路215号"},{"poiid":"B2094757D16AA6F84193","title":"地铁一号线衡山路","lon":"121.461844738","lat":"31.2327313534","category":"500","category_name":"未知分类","address":"上海市静安区泰兴路"},{"poiid":"B2094757D06AA6FB469B","title":"现代建筑装饰环境设计研究院","lon":"121.460496","lat":"31.234936","category":"46","category_name":"楼宇","address":"上海石门二路258号4楼"},{"poiid":"B2094654DA6CA4FA4798","title":"中国教育学会书法教育专业委员会实验中学","lon":"121.46126","lat":"31.23472","category":"55","category_name":"中学","address":"山海关路445"},{"poiid":"B2094757D16EA6FE4392","title":"华山业余美校","lon":"121.45956473","lat":"31.234782397","category":"500","category_name":"未知分类","address":"上海市静安区新闸路848号"},{"poiid":"B2094757D16BA4FF4492","title":"潮汕沙锅粥馆","lon":"121.458894","lat":"31.2346","category":"247","category_name":"餐饮美食","address":"上海新闸路868号"},{"poiid":"B2094654DB6BA5FD4492","title":"现代建筑设计大厦食堂","lon":"121.46084","lat":"31.23511","category":"257","category_name":"中餐厅","address":"石门二路258号现代建筑设计大厦5层"},{"poiid":"B2094757D06AA4F8419F","title":"达安城","lon":"121.46119","lat":"31.236032","category":"47","category_name":"住宅区","address":"上海市静安区新闸路777号"},{"poiid":"B2094757D169A3FC469B","title":"吉藏日本料理","lon":"121.461995738","lat":"31.2331023613","category":"500","category_name":"未知分类","address":"上海静安区石门二路19号(近南京西路)"},{"poiid":"B2094757D16CA7FB4599","title":"民生银行（京门支行）","lon":"121.46070098","lat":"31.233873367","category":"46","category_name":"楼宇","address":"上海石门二路181号"},{"poiid":"B2094757D165A4F94893","title":"俄罗斯套娃餐厅","lon":"121.460130338","lat":"31.2346250938","category":"94","category_name":"西餐厅","address":"上海石门二路165号，近北京西路"},{"poiid":"B2094757D068A5F4459F","title":"7-ELEVEN(丽都店)","lon":"121.460243","lat":"31.234555","category":"117","category_name":"便民商店/便利店","address":"上海市静安区石门二路223号1-2层"},{"poiid":"B2094654DA6CA4FA4693","title":"石门医院","lon":"121.46138","lat":"31.23516","category":"162","category_name":"医院","address":"山海关路456号"},{"poiid":"B2094757D465A3FE4698","title":"元铭餐饮店","lon":"121.459883054","lat":"31.235428793","category":"76","category_name":"上海菜","address":"静安区新闸路858号(近石门二路)"},{"poiid":"B2094757D169ABFE479D","title":"九龙冰室港式茶餐厅","lon":"121.462001738","lat":"31.2340073806","category":"500","category_name":"未知分类","address":"静安区石门二路19号(近奉贤路)"},{"poiid":"B2094750D268A2FD4092","title":"古丽仙西域餐厅","lon":"121.458595","lat":"31.234464","category":"247","category_name":"餐饮美食","address":"南京西路818广场"},{"poiid":"B2094655D26CABF4469A","title":"怡安里","lon":"121.46144","lat":"31.23418","category":"47","category_name":"住宅区","address":"石门二路186弄3-27号"},{"poiid":"B2094654DA6CA5FA429F","title":"丽都口腔门诊部","lon":"121.46018","lat":"31.23478","category":"162","category_name":"医院","address":"静安区石门二路229号(近新闸路)"},{"poiid":"B2094654DA6CA1FF4493","title":"中信泰富广场","lon":"121.462","lat":"31.2349","category":"119","category_name":"商场","address":"静安区南京西路1168号中信泰富广场内(近陕西北路)"},{"poiid":"B2094757D06FA3FC449C","title":"上海商城","lon":"121.459","lat":"31.2331","category":"119","category_name":"商场","address":"上海静安区南京西路1376号(近西康路)"},{"poiid":"B2094757D06FA2FB409C","title":"东来顺饭庄(石门二路店)","lon":"121.46076","lat":"31.23391","category":"86","category_name":"火锅店","address":"静安区石门二路215号(近新闸路)"},{"poiid":"B2094753D76FAAFA449C","title":"上海滩国泰旗舰店","lon":"121.466011","lat":"31.216125","category":"249","category_name":"购物服务","address":"淮海中路868号"},{"poiid":"B209475CD564A7F84292","title":"上海滩新天地店","lon":"121.47463","lat":"31.22164","category":"119","category_name":"商场","address":"\"太仓路181弄新天地北里15号\r\n\""},{"poiid":"B209475CD564A7F8439E","title":"上海滩中信泰富店","lon":"121.45602","lat":"31.22851","category":"119","category_name":"商场","address":"\"南京西路1168号中信泰富广场，店铺号221.\r\n\""},{"poiid":"B2094655D26CAAFF4992","title":"静安别墅","lon":"121.464","lat":"31.2349","category":"47","category_name":"住宅区","address":"静安区南京西路1025弄静安别墅81号(近茂名北路)"},{"poiid":"B2094757D06FA2FC439F","title":"静安雕塑公园","lon":"121.46159","lat":"31.2328","category":"196","category_name":"公园","address":"静安区石门二路128号(近北京西路)"},{"poiid":"B2094757D068A3F8439A","title":"BELLO'CO 倍乐","lon":"121.45942745","lat":"31.236405856","category":"500","category_name":"未知分类","address":"上海新闸路848号"},{"poiid":"B2094655D26BA3F94698","title":"丰收日(石门二路店)","lon":"121.46052","lat":"31.23564","category":"75","category_name":"浙江菜","address":"静安区石门二路268号(近新闸路)"},{"poiid":"B2094757D06FA1F84192","title":"现代建筑设计大厦","lon":"121.460772","lat":"31.235274","category":"46","category_name":"楼宇","address":"上海市静安区石门二路258号"},{"poiid":"B2094654DA6CA5F4489D","title":"凯迪克大厦","lon":"121.461","lat":"31.2377","category":"46","category_name":"楼宇","address":"上海市静安区江宁路212号"},{"poiid":"B2094757D06FAAFA489D","title":"新闸路石门二路","lon":"121.46029061","lat":"31.236030374","category":"500","category_name":"未知分类","address":"上海新闸路慈溪路"},{"poiid":"B2094757D06FA2FE449D","title":"潮汕砂锅粥馆(静安店)","lon":"121.45992","lat":"31.23502","category":"72","category_name":"广东菜","address":"静安区新闸路868号(近石门二路)"},{"poiid":"B2094757D06FA7FB409C","title":"国际丽都城","lon":"121.459495","lat":"31.233372","category":"47","category_name":"住宅区","address":"上海静安区北京西路758弄(近石门二路)"},{"poiid":"B2094757D06FAAF8499A","title":"嘉发大厦","lon":"121.4627151","lat":"31.23285293","category":"46","category_name":"楼宇","address":"新华都商务花园位于长宁定西路685号"},{"poiid":"B2094654DA6CA5FA489B","title":"弘记港式茶餐厅 新闸路店","lon":"121.45998989478","lat":"31.235576570521","category":"72","category_name":"广东菜","address":"静安区新闸路852号(近石门二路)"},{"poiid":"B2094757D068A2F8429D","title":"新城大厦","lon":"121.461","lat":"31.2369","category":"46","category_name":"楼宇","address":"上海市普陀区中山北路1777号"},{"poiid":"B2094750D76DABFE489B","title":"蜀巷","lon":"121.46","lat":"31.2351","category":"71","category_name":"四川菜","address":"静安区新闸路854号(近石门二路)"},{"poiid":"B2094654DA6CA4FA4799","title":"上海市育才初级中学","lon":"121.46126","lat":"31.23472","category":"55","category_name":"中学","address":"静安区山海关路445号(近石门二路)"},{"poiid":"B2094757D06FABF94299","title":"丽都太平洋全套房酒店","lon":"121.459948","lat":"31.234771","category":"217","category_name":"旅馆招待所","address":"上海市静安区新闸路831号"},{"poiid":"B2094654DB6BA6F4449B","title":"振鼎鸡(静安店)","lon":"121.46159","lat":"31.23197","category":"68","category_name":"快餐厅","address":"静安区石门二路61号(近北京西路)"},{"poiid":"B2094654DA6CA5FA429C","title":"玛哪胜地","lon":"121.46021","lat":"31.23471","category":"112","category_name":"糕饼店","address":"静安区石门二路227号(近山海关路)"},{"poiid":"B2094757D06AA0FC4793","title":"银发大厦","lon":"121.461","lat":"31.2364","category":"46","category_name":"楼宇","address":"铁西卫工南街8―5号"},{"poiid":"B2094654DA6CA4FA4692","title":"石门二路街道社区卫生服务中心","lon":"121.46137","lat":"31.23516","category":"162","category_name":"医院","address":"山海关路456"},{"poiid":"B2094654DA6CA4FF4798","title":"振安广场恒安大厦","lon":"121.45935","lat":"31.23598","category":"46","category_name":"楼宇","address":"石门二路333弄3-9号"},{"poiid":"B2094655D36CA1FD4599","title":"石门二路","lon":"121.45947","lat":"31.23472","category":"38","category_name":"公交车站","address":""},{"poiid":"B2094654DA6CA2FF469A","title":"东展商业大厦","lon":"121.46185","lat":"31.23266","category":"46","category_name":"楼宇","address":"丰台学城海鹰路1号，3号"},{"poiid":"B2094757D16FA3F9469F","title":"上海现代设计集团","lon":"121.460851738","lat":"31.2347463963","category":"500","category_name":"未知分类","address":"上海石门二路258号"},{"poiid":"B2094654DB6BA5FD4093","title":"丽都太平洋公寓酒店(东北门)","lon":"121.46038","lat":"31.23428","category":"213","category_name":"五星级宾馆","address":"新闸路831号"},{"poiid":"B2094654DA6CA5FA499A","title":"新福康里商务中心","lon":"121.45948","lat":"31.23501","category":"46","category_name":"楼宇","address":"丰台学城海鹰路1号，3号"},{"poiid":"B2094752D669A5F9469E","title":"上海理工大学","lon":"121.462265","lat":"31.236358","category":"500","category_name":"未知分类","address":"军工路580号"},{"poiid":"B2094757D16EA7FD4293","title":"东来顺","lon":"121.462352738","lat":"31.2320483388","category":"500","category_name":"未知分类","address":"上海石门二路215号"},{"poiid":"B2094757D16AA6F84193","title":"地铁一号线衡山路","lon":"121.461844738","lat":"31.2327313534","category":"500","category_name":"未知分类","address":"上海市静安区泰兴路"},{"poiid":"B2094757D06AA6FB469B","title":"现代建筑装饰环境设计研究院","lon":"121.460496","lat":"31.234936","category":"46","category_name":"楼宇","address":"上海石门二路258号4楼"},{"poiid":"B2094654DA6CA4FA4798","title":"中国教育学会书法教育专业委员会实验中学","lon":"121.46126","lat":"31.23472","category":"55","category_name":"中学","address":"山海关路445"},{"poiid":"B2094757D16EA6FE4392","title":"华山业余美校","lon":"121.45956473","lat":"31.234782397","category":"500","category_name":"未知分类","address":"上海市静安区新闸路848号"},{"poiid":"B2094757D16BA4FF4492","title":"潮汕沙锅粥馆","lon":"121.458894","lat":"31.2346","category":"247","category_name":"餐饮美食","address":"上海新闸路868号"},{"poiid":"B2094654DB6BA5FD4492","title":"现代建筑设计大厦食堂","lon":"121.46084","lat":"31.23511","category":"257","category_name":"中餐厅","address":"石门二路258号现代建筑设计大厦5层"},{"poiid":"B2094757D06AA4F8419F","title":"达安城","lon":"121.46119","lat":"31.236032","category":"47","category_name":"住宅区","address":"上海市静安区新闸路777号"},{"poiid":"B2094757D169A3FC469B","title":"吉藏日本料理","lon":"121.461995738","lat":"31.2331023613","category":"500","category_name":"未知分类","address":"上海静安区石门二路19号(近南京西路)"},{"poiid":"B2094757D16CA7FB4599","title":"民生银行（京门支行）","lon":"121.46070098","lat":"31.233873367","category":"46","category_name":"楼宇","address":"上海石门二路181号"},{"poiid":"B2094757D165A4F94893","title":"俄罗斯套娃餐厅","lon":"121.460130338","lat":"31.2346250938","category":"94","category_name":"西餐厅","address":"上海石门二路165号，近北京西路"},{"poiid":"B2094757D068A5F4459F","title":"7-ELEVEN(丽都店)","lon":"121.460243","lat":"31.234555","category":"117","category_name":"便民商店/便利店","address":"上海市静安区石门二路223号1-2层"},{"poiid":"B2094654DA6CA4FA4693","title":"石门医院","lon":"121.46138","lat":"31.23516","category":"162","category_name":"医院","address":"山海关路456号"},{"poiid":"B2094757D465A3FE4698","title":"元铭餐饮店","lon":"121.459883054","lat":"31.235428793","category":"76","category_name":"上海菜","address":"静安区新闸路858号(近石门二路)"},{"poiid":"B2094757D169ABFE479D","title":"九龙冰室港式茶餐厅","lon":"121.462001738","lat":"31.2340073806","category":"500","category_name":"未知分类","address":"静安区石门二路19号(近奉贤路)"},{"poiid":"B2094750D268A2FD4092","title":"古丽仙西域餐厅","lon":"121.458595","lat":"31.234464","category":"247","category_name":"餐饮美食","address":"南京西路818广场"},{"poiid":"B2094655D26CABF4469A","title":"怡安里","lon":"121.46144","lat":"31.23418","category":"47","category_name":"住宅区","address":"石门二路186弄3-27号"},{"poiid":"B2094654DA6CA5FA429F","title":"丽都口腔门诊部","lon":"121.46018","lat":"31.23478","category":"162","category_name":"医院","address":"静安区石门二路229号(近新闸路)"},{"poiid":"B2094654DA6CA1FF4493","title":"中信泰富广场","lon":"121.462","lat":"31.2349","category":"119","category_name":"商场","address":"静安区南京西路1168号中信泰富广场内(近陕西北路)"},{"poiid":"B2094757D06FA3FC449C","title":"上海商城","lon":"121.459","lat":"31.2331","category":"119","category_name":"商场","address":"上海静安区南京西路1376号(近西康路)"},{"poiid":"B2094757D06FA2FB409C","title":"东来顺饭庄(石门二路店)","lon":"121.46076","lat":"31.23391","category":"86","category_name":"火锅店","address":"静安区石门二路215号(近新闸路)"},{"poiid":"B2094753D76FAAFA449C","title":"上海滩国泰旗舰店","lon":"121.466011","lat":"31.216125","category":"249","category_name":"购物服务","address":"淮海中路868号"},{"poiid":"B209475CD564A7F84292","title":"上海滩新天地店","lon":"121.47463","lat":"31.22164","category":"119","category_name":"商场","address":"\"太仓路181弄新天地北里15号\r\n\""},{"poiid":"B209475CD564A7F8439E","title":"上海滩中信泰富店","lon":"121.45602","lat":"31.22851","category":"119","category_name":"商场","address":"\"南京西路1168号中信泰富广场，店铺号221.\r\n\""},{"poiid":"B2094655D26CAAFF4992","title":"静安别墅","lon":"121.464","lat":"31.2349","category":"47","category_name":"住宅区","address":"静安区南京西路1025弄静安别墅81号(近茂名北路)"},{"poiid":"B2094757D06FA2FC439F","title":"静安雕塑公园","lon":"121.46159","lat":"31.2328","category":"196","category_name":"公园","address":"静安区石门二路128号(近北京西路)"},{"poiid":"B2094757D068A3F8439A","title":"BELLO'CO 倍乐","lon":"121.45942745","lat":"31.236405856","category":"500","category_name":"未知分类","address":"上海新闸路848号"},{"poiid":"B2094655D26BA3F94698","title":"丰收日(石门二路店)","lon":"121.46052","lat":"31.23564","category":"75","category_name":"浙江菜","address":"静安区石门二路268号(近新闸路)"},{"poiid":"B2094757D06FA1F84192","title":"现代建筑设计大厦","lon":"121.460772","lat":"31.235274","category":"46","category_name":"楼宇","address":"上海市静安区石门二路258号"},{"poiid":"B2094654DA6CA5F4489D","title":"凯迪克大厦","lon":"121.461","lat":"31.2377","category":"46","category_name":"楼宇","address":"上海市静安区江宁路212号"},{"poiid":"B2094757D06FAAFA489D","title":"新闸路石门二路","lon":"121.46029061","lat":"31.236030374","category":"500","category_name":"未知分类","address":"上海新闸路慈溪路"},{"poiid":"B2094757D06FA2FE449D","title":"潮汕砂锅粥馆(静安店)","lon":"121.45992","lat":"31.23502","category":"72","category_name":"广东菜","address":"静安区新闸路868号(近石门二路)"},{"poiid":"B2094757D06FA7FB409C","title":"国际丽都城","lon":"121.459495","lat":"31.233372","category":"47","category_name":"住宅区","address":"上海静安区北京西路758弄(近石门二路)"},{"poiid":"B2094757D06FAAF8499A","title":"嘉发大厦","lon":"121.4627151","lat":"31.23285293","category":"46","category_name":"楼宇","address":"新华都商务花园位于长宁定西路685号"},{"poiid":"B2094654DA6CA5FA489B","title":"弘记港式茶餐厅 新闸路店","lon":"121.45998989478","lat":"31.235576570521","category":"72","category_name":"广东菜","address":"静安区新闸路852号(近石门二路)"},{"poiid":"B2094757D068A2F8429D","title":"新城大厦","lon":"121.461","lat":"31.2369","category":"46","category_name":"楼宇","address":"上海市普陀区中山北路1777号"},{"poiid":"B2094750D76DABFE489B","title":"蜀巷","lon":"121.46","lat":"31.2351","category":"71","category_name":"四川菜","address":"静安区新闸路854号(近石门二路)"},{"poiid":"B2094654DA6CA4FA4799","title":"上海市育才初级中学","lon":"121.46126","lat":"31.23472","category":"55","category_name":"中学","address":"静安区山海关路445号(近石门二路)"},{"poiid":"B2094757D06FABF94299","title":"丽都太平洋全套房酒店","lon":"121.459948","lat":"31.234771","category":"217","category_name":"旅馆招待所","address":"上海市静安区新闸路831号"},{"poiid":"B2094654DB6BA6F4449B","title":"振鼎鸡(静安店)","lon":"121.46159","lat":"31.23197","category":"68","category_name":"快餐厅","address":"静安区石门二路61号(近北京西路)"},{"poiid":"B2094654DA6CA5FA429C","title":"玛哪胜地","lon":"121.46021","lat":"31.23471","category":"112","category_name":"糕饼店","address":"静安区石门二路227号(近山海关路)"},{"poiid":"B2094757D06AA0FC4793","title":"银发大厦","lon":"121.461","lat":"31.2364","category":"46","category_name":"楼宇","address":"铁西卫工南街8―5号"},{"poiid":"B2094654DA6CA4FA4692","title":"石门二路街道社区卫生服务中心","lon":"121.46137","lat":"31.23516","category":"162","category_name":"医院","address":"山海关路456"},{"poiid":"B2094654DA6CA4FF4798","title":"振安广场恒安大厦","lon":"121.45935","lat":"31.23598","category":"46","category_name":"楼宇","address":"石门二路333弄3-9号"},{"poiid":"B2094655D36CA1FD4599","title":"石门二路","lon":"121.45947","lat":"31.23472","category":"38","category_name":"公交车站","address":""},{"poiid":"B2094654DA6CA2FF469A","title":"东展商业大厦","lon":"121.46185","lat":"31.23266","category":"46","category_name":"楼宇","address":"丰台学城海鹰路1号，3号"},{"poiid":"B2094757D16FA3F9469F","title":"上海现代设计集团","lon":"121.460851738","lat":"31.2347463963","category":"500","category_name":"未知分类","address":"上海石门二路258号"},{"poiid":"B2094654DB6BA5FD4093","title":"丽都太平洋公寓酒店(东北门)","lon":"121.46038","lat":"31.23428","category":"213","category_name":"五星级宾馆","address":"新闸路831号"},{"poiid":"B2094654DA6CA5FA499A","title":"新福康里商务中心","lon":"121.45948","lat":"31.23501","category":"46","category_name":"楼宇","address":"丰台学城海鹰路1号，3号"},{"poiid":"B2094752D669A5F9469E","title":"上海理工大学","lon":"121.462265","lat":"31.236358","category":"500","category_name":"未知分类","address":"军工路580号"},{"poiid":"B2094757D16EA7FD4293","title":"东来顺","lon":"121.462352738","lat":"31.2320483388","category":"500","category_name":"未知分类","address":"上海石门二路215号"},{"poiid":"B2094757D16AA6F84193","title":"地铁一号线衡山路","lon":"121.461844738","lat":"31.2327313534","category":"500","category_name":"未知分类","address":"上海市静安区泰兴路"},{"poiid":"B2094757D06AA6FB469B","title":"现代建筑装饰环境设计研究院","lon":"121.460496","lat":"31.234936","category":"46","category_name":"楼宇","address":"上海石门二路258号4楼"},{"poiid":"B2094654DA6CA4FA4798","title":"中国教育学会书法教育专业委员会实验中学","lon":"121.46126","lat":"31.23472","category":"55","category_name":"中学","address":"山海关路445"},{"poiid":"B2094757D16EA6FE4392","title":"华山业余美校","lon":"121.45956473","lat":"31.234782397","category":"500","category_name":"未知分类","address":"上海市静安区新闸路848号"},{"poiid":"B2094757D16BA4FF4492","title":"潮汕沙锅粥馆","lon":"121.458894","lat":"31.2346","category":"247","category_name":"餐饮美食","address":"上海新闸路868号"},{"poiid":"B2094654DB6BA5FD4492","title":"现代建筑设计大厦食堂","lon":"121.46084","lat":"31.23511","category":"257","category_name":"中餐厅","address":"石门二路258号现代建筑设计大厦5层"},{"poiid":"B2094757D06AA4F8419F","title":"达安城","lon":"121.46119","lat":"31.236032","category":"47","category_name":"住宅区","address":"上海市静安区新闸路777号"},{"poiid":"B2094757D169A3FC469B","title":"吉藏日本料理","lon":"121.461995738","lat":"31.2331023613","category":"500","category_name":"未知分类","address":"上海静安区石门二路19号(近南京西路)"},{"poiid":"B2094757D16CA7FB4599","title":"民生银行（京门支行）","lon":"121.46070098","lat":"31.233873367","category":"46","category_name":"楼宇","address":"上海石门二路181号"},{"poiid":"B2094757D165A4F94893","title":"俄罗斯套娃餐厅","lon":"121.460130338","lat":"31.2346250938","category":"94","category_name":"西餐厅","address":"上海石门二路165号，近北京西路"},{"poiid":"B2094757D068A5F4459F","title":"7-ELEVEN(丽都店)","lon":"121.460243","lat":"31.234555","category":"117","category_name":"便民商店/便利店","address":"上海市静安区石门二路223号1-2层"},{"poiid":"B2094654DA6CA4FA4693","title":"石门医院","lon":"121.46138","lat":"31.23516","category":"162","category_name":"医院","address":"山海关路456号"},{"poiid":"B2094757D465A3FE4698","title":"元铭餐饮店","lon":"121.459883054","lat":"31.235428793","category":"76","category_name":"上海菜","address":"静安区新闸路858号(近石门二路)"},{"poiid":"B2094757D169ABFE479D","title":"九龙冰室港式茶餐厅","lon":"121.462001738","lat":"31.2340073806","category":"500","category_name":"未知分类","address":"静安区石门二路19号(近奉贤路)"},{"poiid":"B2094750D268A2FD4092","title":"古丽仙西域餐厅","lon":"121.458595","lat":"31.234464","category":"247","category_name":"餐饮美食","address":"南京西路818广场"},{"poiid":"B2094655D26CABF4469A","title":"怡安里","lon":"121.46144","lat":"31.23418","category":"47","category_name":"住宅区","address":"石门二路186弄3-27号"},{"poiid":"B2094654DA6CA5FA429F","title":"丽都口腔门诊部","lon":"121.46018","lat":"31.23478","category":"162","category_name":"医院","address":"静安区石门二路229号(近新闸路)"}]