[{"poiid":"B2094654DA6BA6FC429B","title":"上海市青浦区体育场","lon":"121.11895","lat":"31.15216","category":"224","category_name":"综合体育馆","address":"体育场路1号"},{"poiid":"B2094757D068A3F9439E","title":"自由港量贩式KTV(青浦店)","lon":"121.12195","lat":"31.14887","category":"170","category_name":"KTV","address":"青浦区公园路258号(浦仓路口)"},{"poiid":"B2094654DA6BA7FF4599","title":"稻香村商场","lon":"121.11582","lat":"31.1485","category":"119","category_name":"商场","address":"公园路522-544"},{"poiid":"B2094757D06FA0F4469B","title":"麦当劳(青浦店)","lon":"121.11793","lat":"31.15247","category":"68","category_name":"快餐厅","address":"青浦区青安路55-59号(青安路青赵公路)"},{"poiid":"B2094757D069A3F5419E","title":"青浦区中医医院","lon":"121.11604615","lat":"31.15034918","category":"162","category_name":"医院","address":"青浦区青浦镇青安路95号(近青浦一中)"},{"poiid":"B2094757D068A7FF469E","title":"肯德基 青浦镇一店 KFC","lon":"121.116998054","lat":"31.148852793","category":"68","category_name":"快餐厅","address":"青浦区青浦镇公园路461号(青浦车站路公园路)"},{"poiid":"B2094750D26BA6FD4198","title":"汉拿山","lon":"121.117111","lat":"31.148128","category":"247","category_name":"餐饮美食","address":"青浦区公园路544号稻香村商业广场4楼401号铺(近青安路)"},{"poiid":"B2094757D664A3F54799","title":"七欣天迷宗蟹 青浦店","lon":"121.119998","lat":"31.153206","category":"86","category_name":"火锅店","address":"青浦区沙埭浜路35-39号(近体育场路)"},{"poiid":"B2094654DA6BA6FE439C","title":"青浦体育馆","lon":"121.11769","lat":"31.15164","category":"224","category_name":"综合体育馆","address":"体育场路"},{"poiid":"B2094757D06BA7FA419A","title":"雪岳山韩国烧烤(青浦店)","lon":"121.11878","lat":"31.15339","category":"96","category_name":"韩国料理","address":"青浦区沙埭浜路124号(近青安路)"},{"poiid":"B2094654DA6BA6FE4192","title":"凯特利广场","lon":"121.11692","lat":"31.149","category":"119","category_name":"商场","address":"公园路458"},{"poiid":"B2094750DA6FA1FD469B","title":"一茶一坐（青浦公园店）","lon":"121.116108","lat":"31.148425","category":"66","category_name":"茶艺馆","address":"青浦区公园路544号稻香村商业广场内(近青安路)"},{"poiid":"B2094655D26EA1F54399","title":"小肥羊 青浦店","lon":"121.11718575893","lat":"31.151186560965","category":"86","category_name":"火锅店","address":"青浦区青浦青安路218号(青安路青赵公路)"},{"poiid":"B2094757D165A7F54198","title":"青浦教师进修学院","lon":"121.12072706","lat":"31.148430402","category":"253","category_name":"校园生活","address":"上海青浦"},{"poiid":"B2094757D064A1FA439C","title":"豪享来(青浦店)","lon":"121.11789","lat":"31.15232","category":"94","category_name":"西餐厅","address":"青浦区青安路246号(青安路青赵公路)"},{"poiid":"B2094654DA6BA6FE4193","title":"百特喜意式休闲餐厅(青安路)","lon":"121.11692","lat":"31.14913","category":"98","category_name":"意式菜品餐厅","address":"青浦区公园路458号凯特利广场1楼(公园路青浦庙前街)"},{"poiid":"B2094757D06AA7FD419A","title":"上海居礼国际酒店","lon":"121.11678691","lat":"31.14951489","category":"217","category_name":"旅馆招待所","address":"青浦区青安路58号(青安路青浦医院路)"},{"poiid":"B2094757D66EA5F94999","title":"咔浓咖啡","lon":"121.119855035","lat":"31.1505348737","category":"65","category_name":"咖啡厅","address":"青浦区欧洲街74弄3号"},{"poiid":"B2094757D068A3F8439C","title":"85度C 青浦店","lon":"121.12089","lat":"31.14898","category":"112","category_name":"糕饼店","address":"青浦区公园路300号农工商超市旁(浦仓路公园路)"},{"poiid":"B2094757D06BA4FA499D","title":"青浦区行政服务中心","lon":"121.12342184","lat":"31.152591323","category":"500","category_name":"未知分类","address":"上海近郊青浦区外青松公路6189号"},{"poiid":"B2094757D16CA0FB499B","title":"世田造型","lon":"121.120825","lat":"31.150514","category":"148","category_name":"美容美发店","address":"上海浦仓路"},{"poiid":"B2094757D064A4FD4999","title":"大碗鱼(青浦店)","lon":"121.11312","lat":"31.14808","category":"71","category_name":"四川菜","address":"青浦区公园路666弄桥梓湾商场内(近东方商厦)"},{"poiid":"B2094654DA6BA6FC469C","title":"农工商超市NO.50","lon":"121.12065","lat":"31.14896","category":"118","category_name":"超级市场","address":"青浦镇"},{"poiid":"B2094757D66AA6FF489B","title":"印度餐厅","lon":"121.118039","lat":"31.152858","category":"102","category_name":"印度风味","address":"青浦区沙隶浜路"},{"poiid":"B2094757D06AA2F5499A","title":"蔡先生苏州汤包馆 青安路店","lon":"121.117188","lat":"31.150285","category":"87","category_name":"特色／地方风味餐厅","address":"青浦区青安路110-112号(近中医院)"},{"poiid":"B2094757D06BA1FB4092","title":"鑫洋桌球俱乐部","lon":"121.118713035","lat":"31.150653876","category":"171","category_name":"台球厅","address":"上海青浦区体育场路"},{"poiid":"B2094655D268A5F54693","title":"公园路营业厅","lon":"121.11843","lat":"31.14888","category":"151","category_name":"电讯营业厅","address":"青浦区公园路406号"},{"poiid":"B2094757D56DA7FF4192","title":"粥聚阁","lon":"121.11840963364","lat":"31.153810074222","category":"72","category_name":"广东菜","address":"青浦区沙埭浜路128号(近青安路)"},{"poiid":"B2094655D268A4FC479B","title":"青浦体育馆(南门)","lon":"121.11869","lat":"31.1514","category":"224","category_name":"综合体育馆","address":"体育场路"},{"poiid":"B2094654DA6BA7FA449D","title":"华伦商厦","lon":"121.11959688312","lat":"31.152119924492","category":"46","category_name":"楼宇","address":"城中东路635号2层"},{"poiid":"B2094655D268A2FB449E","title":"青浦区体育中心羽毛球馆","lon":"121.11849","lat":"31.15148","category":"227","category_name":"羽毛球场","address":""},{"poiid":"B2094655D36CA2F8439E","title":"青浦一中","lon":"121.11685","lat":"31.14992","category":"55","category_name":"中学","address":""},{"poiid":"B2094654DA6BA7F84493","title":"四兴大楼","lon":"121.12","lat":"31.1525","category":"46","category_name":"楼宇","address":"城中东路626号"},{"poiid":"B2094654DA6BA6FE419A","title":"莱欧美容美发艺术沙龙","lon":"121.11914","lat":"31.14942","category":"148","category_name":"美容美发店","address":""},{"poiid":"B2094655D268A2FB4499","title":"青浦区体育中心乒乓球馆","lon":"121.11849","lat":"31.15148","category":"225","category_name":"乒乓球馆","address":""},{"poiid":"B2094655D268A5FB4298","title":"上海协和大厦","lon":"121.11725","lat":"31.1493","category":"46","category_name":"楼宇","address":"青浦区青浦镇青安路58号、公园路458号"},{"poiid":"B2094654DA6BA7FB4798","title":"蔡师傅面馆","lon":"121.12157","lat":"31.15144","category":"87","category_name":"特色／地方风味餐厅","address":"青浦区体育场路(近浦仓路)"},{"poiid":"B2094654DA6BA6FC4193","title":"青浦游泳馆","lon":"121.12051","lat":"31.15202","category":"231","category_name":"游泳馆","address":"青浦区浦仓路535号(欧洲街体育场路)"},{"poiid":"B2094757D16EA3F8459D","title":"苏宁电器(公园店)","lon":"121.117248","lat":"31.148756","category":"138","category_name":"家电电子卖场","address":"青浦区公园路458号凯特利广场"},{"poiid":"B2094655D26EA5FF419A","title":"台湾小吃总汇","lon":"121.1181","lat":"31.15149","category":"68","category_name":"快餐厅","address":"青浦区体育场路408号"},{"poiid":"B2094750DA65A6F4409B","title":"朱家角镇","lon":"121.121879","lat":"31.151987","category":"500","category_name":"未知分类","address":null},{"poiid":"B2094757D664AAF4499D","title":"重庆秦妈火锅","lon":"121.117247","lat":"31.148784","category":"86","category_name":"火锅店","address":"青浦区公园路458号凯特利广场3楼(近居礼酒店)"},{"poiid":"B2094757D66CA7FF459E","title":"越岭阁(青浦店)","lon":"121.12066","lat":"31.14847","category":"96","category_name":"韩国料理","address":"青浦区公园路209号(近浦仓路)"},{"poiid":"B2094757D16BA1FB4392","title":"青浦区体育中心","lon":"121.118616835","lat":"31.1508924807","category":"500","category_name":"未知分类","address":"青浦区体育场路1号(欧洲街体育场路)"},{"poiid":"B2094757D165A1FD479A","title":"七欣吃蟹","lon":"121.119951035","lat":"31.1525599132","category":"500","category_name":"未知分类","address":"上海青浦区沙埭浜路"},{"poiid":"B2094655D268A1FD479D","title":"川福火锅(浦仓路)","lon":"121.12075","lat":"31.14982","category":"86","category_name":"火锅店","address":""},{"poiid":"B2094655D268A2FB449F","title":"篮球场","lon":"121.11979","lat":"31.15255","category":"229","category_name":"篮球场馆","address":""},{"poiid":"B2094654DA6BA6FD4792","title":"上海市海曼文化艺术专修学校青浦教学点","lon":"121.11907","lat":"31.15099","category":"190","category_name":"培训机构","address":""},{"poiid":"B2094654DA6BA6FD489A","title":"前翔保健按摩","lon":"121.11906","lat":"31.15085","category":"149","category_name":"洗浴推拿场所","address":"欧洲街75号"},{"poiid":"B2094757DA64A3FB439F","title":"汇丰豪轩","lon":"121.118039","lat":"31.152473","category":"252","category_name":"楼宇机构","address":"青浦区五厍浜路168弄"},{"poiid":"B2094654DA6BA6FC429B","title":"上海市青浦区体育场","lon":"121.11895","lat":"31.15216","category":"224","category_name":"综合体育馆","address":"体育场路1号"},{"poiid":"B2094757D068A3F9439E","title":"自由港量贩式KTV(青浦店)","lon":"121.12195","lat":"31.14887","category":"170","category_name":"KTV","address":"青浦区公园路258号(浦仓路口)"},{"poiid":"B2094654DA6BA7FF4599","title":"稻香村商场","lon":"121.11582","lat":"31.1485","category":"119","category_name":"商场","address":"公园路522-544"},{"poiid":"B2094757D06FA0F4469B","title":"麦当劳(青浦店)","lon":"121.11793","lat":"31.15247","category":"68","category_name":"快餐厅","address":"青浦区青安路55-59号(青安路青赵公路)"},{"poiid":"B2094757D069A3F5419E","title":"青浦区中医医院","lon":"121.11604615","lat":"31.15034918","category":"162","category_name":"医院","address":"青浦区青浦镇青安路95号(近青浦一中)"},{"poiid":"B2094757D068A7FF469E","title":"肯德基 青浦镇一店 KFC","lon":"121.116998054","lat":"31.148852793","category":"68","category_name":"快餐厅","address":"青浦区青浦镇公园路461号(青浦车站路公园路)"},{"poiid":"B2094750D26BA6FD4198","title":"汉拿山","lon":"121.117111","lat":"31.148128","category":"247","category_name":"餐饮美食","address":"青浦区公园路544号稻香村商业广场4楼401号铺(近青安路)"},{"poiid":"B2094757D664A3F54799","title":"七欣天迷宗蟹 青浦店","lon":"121.119998","lat":"31.153206","category":"86","category_name":"火锅店","address":"青浦区沙埭浜路35-39号(近体育场路)"},{"poiid":"B2094654DA6BA6FE439C","title":"青浦体育馆","lon":"121.11769","lat":"31.15164","category":"224","category_name":"综合体育馆","address":"体育场路"},{"poiid":"B2094757D06BA7FA419A","title":"雪岳山韩国烧烤(青浦店)","lon":"121.11878","lat":"31.15339","category":"96","category_name":"韩国料理","address":"青浦区沙埭浜路124号(近青安路)"},{"poiid":"B2094654DA6BA6FE4192","title":"凯特利广场","lon":"121.11692","lat":"31.149","category":"119","category_name":"商场","address":"公园路458"},{"poiid":"B2094750DA6FA1FD469B","title":"一茶一坐（青浦公园店）","lon":"121.116108","lat":"31.148425","category":"66","category_name":"茶艺馆","address":"青浦区公园路544号稻香村商业广场内(近青安路)"},{"poiid":"B2094655D26EA1F54399","title":"小肥羊 青浦店","lon":"121.11718575893","lat":"31.151186560965","category":"86","category_name":"火锅店","address":"青浦区青浦青安路218号(青安路青赵公路)"},{"poiid":"B2094757D165A7F54198","title":"青浦教师进修学院","lon":"121.12072706","lat":"31.148430402","category":"253","category_name":"校园生活","address":"上海青浦"},{"poiid":"B2094757D064A1FA439C","title":"豪享来(青浦店)","lon":"121.11789","lat":"31.15232","category":"94","category_name":"西餐厅","address":"青浦区青安路246号(青安路青赵公路)"},{"poiid":"B2094654DA6BA6FE4193","title":"百特喜意式休闲餐厅(青安路)","lon":"121.11692","lat":"31.14913","category":"98","category_name":"意式菜品餐厅","address":"青浦区公园路458号凯特利广场1楼(公园路青浦庙前街)"},{"poiid":"B2094757D06AA7FD419A","title":"上海居礼国际酒店","lon":"121.11678691","lat":"31.14951489","category":"217","category_name":"旅馆招待所","address":"青浦区青安路58号(青安路青浦医院路)"},{"poiid":"B2094757D66EA5F94999","title":"咔浓咖啡","lon":"121.119855035","lat":"31.1505348737","category":"65","category_name":"咖啡厅","address":"青浦区欧洲街74弄3号"},{"poiid":"B2094757D068A3F8439C","title":"85度C 青浦店","lon":"121.12089","lat":"31.14898","category":"112","category_name":"糕饼店","address":"青浦区公园路300号农工商超市旁(浦仓路公园路)"},{"poiid":"B2094757D06BA4FA499D","title":"青浦区行政服务中心","lon":"121.12342184","lat":"31.152591323","category":"500","category_name":"未知分类","address":"上海近郊青浦区外青松公路6189号"},{"poiid":"B2094757D16CA0FB499B","title":"世田造型","lon":"121.120825","lat":"31.150514","category":"148","category_name":"美容美发店","address":"上海浦仓路"},{"poiid":"B2094757D064A4FD4999","title":"大碗鱼(青浦店)","lon":"121.11312","lat":"31.14808","category":"71","category_name":"四川菜","address":"青浦区公园路666弄桥梓湾商场内(近东方商厦)"},{"poiid":"B2094654DA6BA6FC469C","title":"农工商超市NO.50","lon":"121.12065","lat":"31.14896","category":"118","category_name":"超级市场","address":"青浦镇"},{"poiid":"B2094757D66AA6FF489B","title":"印度餐厅","lon":"121.118039","lat":"31.152858","category":"102","category_name":"印度风味","address":"青浦区沙隶浜路"},{"poiid":"B2094757D06AA2F5499A","title":"蔡先生苏州汤包馆 青安路店","lon":"121.117188","lat":"31.150285","category":"87","category_name":"特色／地方风味餐厅","address":"青浦区青安路110-112号(近中医院)"},{"poiid":"B2094757D06BA1FB4092","title":"鑫洋桌球俱乐部","lon":"121.118713035","lat":"31.150653876","category":"171","category_name":"台球厅","address":"上海青浦区体育场路"},{"poiid":"B2094655D268A5F54693","title":"公园路营业厅","lon":"121.11843","lat":"31.14888","category":"151","category_name":"电讯营业厅","address":"青浦区公园路406号"},{"poiid":"B2094757D56DA7FF4192","title":"粥聚阁","lon":"121.11840963364","lat":"31.153810074222","category":"72","category_name":"广东菜","address":"青浦区沙埭浜路128号(近青安路)"},{"poiid":"B2094655D268A4FC479B","title":"青浦体育馆(南门)","lon":"121.11869","lat":"31.1514","category":"224","category_name":"综合体育馆","address":"体育场路"},{"poiid":"B2094654DA6BA7FA449D","title":"华伦商厦","lon":"121.11959688312","lat":"31.152119924492","category":"46","category_name":"楼宇","address":"城中东路635号2层"},{"poiid":"B2094655D268A2FB449E","title":"青浦区体育中心羽毛球馆","lon":"121.11849","lat":"31.15148","category":"227","category_name":"羽毛球场","address":""},{"poiid":"B2094655D36CA2F8439E","title":"青浦一中","lon":"121.11685","lat":"31.14992","category":"55","category_name":"中学","address":""},{"poiid":"B2094654DA6BA7F84493","title":"四兴大楼","lon":"121.12","lat":"31.1525","category":"46","category_name":"楼宇","address":"城中东路626号"},{"poiid":"B2094654DA6BA6FE419A","title":"莱欧美容美发艺术沙龙","lon":"121.11914","lat":"31.14942","category":"148","category_name":"美容美发店","address":""},{"poiid":"B2094655D268A2FB4499","title":"青浦区体育中心乒乓球馆","lon":"121.11849","lat":"31.15148","category":"225","category_name":"乒乓球馆","address":""},{"poiid":"B2094655D268A5FB4298","title":"上海协和大厦","lon":"121.11725","lat":"31.1493","category":"46","category_name":"楼宇","address":"青浦区青浦镇青安路58号、公园路458号"},{"poiid":"B2094654DA6BA7FB4798","title":"蔡师傅面馆","lon":"121.12157","lat":"31.15144","category":"87","category_name":"特色／地方风味餐厅","address":"青浦区体育场路(近浦仓路)"},{"poiid":"B2094654DA6BA6FC4193","title":"青浦游泳馆","lon":"121.12051","lat":"31.15202","category":"231","category_name":"游泳馆","address":"青浦区浦仓路535号(欧洲街体育场路)"},{"poiid":"B2094757D16EA3F8459D","title":"苏宁电器(公园店)","lon":"121.117248","lat":"31.148756","category":"138","category_name":"家电电子卖场","address":"青浦区公园路458号凯特利广场"},{"poiid":"B2094655D26EA5FF419A","title":"台湾小吃总汇","lon":"121.1181","lat":"31.15149","category":"68","category_name":"快餐厅","address":"青浦区体育场路408号"},{"poiid":"B2094750DA65A6F4409B","title":"朱家角镇","lon":"121.121879","lat":"31.151987","category":"500","category_name":"未知分类","address":null},{"poiid":"B2094757D664AAF4499D","title":"重庆秦妈火锅","lon":"121.117247","lat":"31.148784","category":"86","category_name":"火锅店","address":"青浦区公园路458号凯特利广场3楼(近居礼酒店)"},{"poiid":"B2094757D66CA7FF459E","title":"越岭阁(青浦店)","lon":"121.12066","lat":"31.14847","category":"96","category_name":"韩国料理","address":"青浦区公园路209号(近浦仓路)"},{"poiid":"B2094757D16BA1FB4392","title":"青浦区体育中心","lon":"121.118616835","lat":"31.1508924807","category":"500","category_name":"未知分类","address":"青浦区体育场路1号(欧洲街体育场路)"},{"poiid":"B2094757D165A1FD479A","title":"七欣吃蟹","lon":"121.119951035","lat":"31.1525599132","category":"500","category_name":"未知分类","address":"上海青浦区沙埭浜路"},{"poiid":"B2094655D268A1FD479D","title":"川福火锅(浦仓路)","lon":"121.12075","lat":"31.14982","category":"86","category_name":"火锅店","address":""},{"poiid":"B2094655D268A2FB449F","title":"篮球场","lon":"121.11979","lat":"31.15255","category":"229","category_name":"篮球场馆","address":""},{"poiid":"B2094654DA6BA6FD4792","title":"上海市海曼文化艺术专修学校青浦教学点","lon":"121.11907","lat":"31.15099","category":"190","category_name":"培训机构","address":""},{"poiid":"B2094654DA6BA6FD489A","title":"前翔保健按摩","lon":"121.11906","lat":"31.15085","category":"149","category_name":"洗浴推拿场所","address":"欧洲街75号"},{"poiid":"B2094757DA64A3FB439F","title":"汇丰豪轩","lon":"121.118039","lat":"31.152473","category":"252","category_name":"楼宇机构","address":"青浦区五厍浜路168弄"},{"poiid":"B2094654DA6BA6FC429B","title":"上海市青浦区体育场","lon":"121.11895","lat":"31.15216","category":"224","category_name":"综合体育馆","address":"体育场路1号"},{"poiid":"B2094757D068A3F9439E","title":"自由港量贩式KTV(青浦店)","lon":"121.12195","lat":"31.14887","category":"170","category_name":"KTV","address":"青浦区公园路258号(浦仓路口)"},{"poiid":"B2094654DA6BA7FF4599","title":"稻香村商场","lon":"121.11582","lat":"31.1485","category":"119","category_name":"商场","address":"公园路522-544"},{"poiid":"B2094757D06FA0F4469B","title":"麦当劳(青浦店)","lon":"121.11793","lat":"31.15247","category":"68","category_name":"快餐厅","address":"青浦区青安路55-59号(青安路青赵公路)"},{"poiid":"B2094757D069A3F5419E","title":"青浦区中医医院","lon":"121.11604615","lat":"31.15034918","category":"162","category_name":"医院","address":"青浦区青浦镇青安路95号(近青浦一中)"},{"poiid":"B2094757D068A7FF469E","title":"肯德基 青浦镇一店 KFC","lon":"121.116998054","lat":"31.148852793","category":"68","category_name":"快餐厅","address":"青浦区青浦镇公园路461号(青浦车站路公园路)"},{"poiid":"B2094750D26BA6FD4198","title":"汉拿山","lon":"121.117111","lat":"31.148128","category":"247","category_name":"餐饮美食","address":"青浦区公园路544号稻香村商业广场4楼401号铺(近青安路)"},{"poiid":"B2094757D664A3F54799","title":"七欣天迷宗蟹 青浦店","lon":"121.119998","lat":"31.153206","category":"86","category_name":"火锅店","address":"青浦区沙埭浜路35-39号(近体育场路)"},{"poiid":"B2094654DA6BA6FE439C","title":"青浦体育馆","lon":"121.11769","lat":"31.15164","category":"224","category_name":"综合体育馆","address":"体育场路"},{"poiid":"B2094757D06BA7FA419A","title":"雪岳山韩国烧烤(青浦店)","lon":"121.11878","lat":"31.15339","category":"96","category_name":"韩国料理","address":"青浦区沙埭浜路124号(近青安路)"},{"poiid":"B2094654DA6BA6FE4192","title":"凯特利广场","lon":"121.11692","lat":"31.149","category":"119","category_name":"商场","address":"公园路458"},{"poiid":"B2094750DA6FA1FD469B","title":"一茶一坐（青浦公园店）","lon":"121.116108","lat":"31.148425","category":"66","category_name":"茶艺馆","address":"青浦区公园路544号稻香村商业广场内(近青安路)"},{"poiid":"B2094655D26EA1F54399","title":"小肥羊 青浦店","lon":"121.11718575893","lat":"31.151186560965","category":"86","category_name":"火锅店","address":"青浦区青浦青安路218号(青安路青赵公路)"},{"poiid":"B2094757D165A7F54198","title":"青浦教师进修学院","lon":"121.12072706","lat":"31.148430402","category":"253","category_name":"校园生活","address":"上海青浦"},{"poiid":"B2094757D064A1FA439C","title":"豪享来(青浦店)","lon":"121.11789","lat":"31.15232","category":"94","category_name":"西餐厅","address":"青浦区青安路246号(青安路青赵公路)"},{"poiid":"B2094654DA6BA6FE4193","title":"百特喜意式休闲餐厅(青安路)","lon":"121.11692","lat":"31.14913","category":"98","category_name":"意式菜品餐厅","address":"青浦区公园路458号凯特利广场1楼(公园路青浦庙前街)"},{"poiid":"B2094757D06AA7FD419A","title":"上海居礼国际酒店","lon":"121.11678691","lat":"31.14951489","category":"217","category_name":"旅馆招待所","address":"青浦区青安路58号(青安路青浦医院路)"},{"poiid":"B2094757D66EA5F94999","title":"咔浓咖啡","lon":"121.119855035","lat":"31.1505348737","category":"65","category_name":"咖啡厅","address":"青浦区欧洲街74弄3号"},{"poiid":"B2094757D068A3F8439C","title":"85度C 青浦店","lon":"121.12089","lat":"31.14898","category":"112","category_name":"糕饼店","address":"青浦区公园路300号农工商超市旁(浦仓路公园路)"},{"poiid":"B2094757D06BA4FA499D","title":"青浦区行政服务中心","lon":"121.12342184","lat":"31.152591323","category":"500","category_name":"未知分类","address":"上海近郊青浦区外青松公路6189号"},{"poiid":"B2094757D16CA0FB499B","title":"世田造型","lon":"121.120825","lat":"31.150514","category":"148","category_name":"美容美发店","address":"上海浦仓路"},{"poiid":"B2094757D064A4FD4999","title":"大碗鱼(青浦店)","lon":"121.11312","lat":"31.14808","category":"71","category_name":"四川菜","address":"青浦区公园路666弄桥梓湾商场内(近东方商厦)"},{"poiid":"B2094654DA6BA6FC469C","title":"农工商超市NO.50","lon":"121.12065","lat":"31.14896","category":"118","category_name":"超级市场","address":"青浦镇"},{"poiid":"B2094757D66AA6FF489B","title":"印度餐厅","lon":"121.118039","lat":"31.152858","category":"102","category_name":"印度风味","address":"青浦区沙隶浜路"},{"poiid":"B2094757D06AA2F5499A","title":"蔡先生苏州汤包馆 青安路店","lon":"121.117188","lat":"31.150285","category":"87","category_name":"特色／地方风味餐厅","address":"青浦区青安路110-112号(近中医院)"},{"poiid":"B2094757D06BA1FB4092","title":"鑫洋桌球俱乐部","lon":"121.118713035","lat":"31.150653876","category":"171","category_name":"台球厅","address":"上海青浦区体育场路"},{"poiid":"B2094655D268A5F54693","title":"公园路营业厅","lon":"121.11843","lat":"31.14888","category":"151","category_name":"电讯营业厅","address":"青浦区公园路406号"},{"poiid":"B2094757D56DA7FF4192","title":"粥聚阁","lon":"121.11840963364","lat":"31.153810074222","category":"72","category_name":"广东菜","address":"青浦区沙埭浜路128号(近青安路)"},{"poiid":"B2094655D268A4FC479B","title":"青浦体育馆(南门)","lon":"121.11869","lat":"31.1514","category":"224","category_name":"综合体育馆","address":"体育场路"},{"poiid":"B2094654DA6BA7FA449D","title":"华伦商厦","lon":"121.11959688312","lat":"31.152119924492","category":"46","category_name":"楼宇","address":"城中东路635号2层"},{"poiid":"B2094655D268A2FB449E","title":"青浦区体育中心羽毛球馆","lon":"121.11849","lat":"31.15148","category":"227","category_name":"羽毛球场","address":""},{"poiid":"B2094655D36CA2F8439E","title":"青浦一中","lon":"121.11685","lat":"31.14992","category":"55","category_name":"中学","address":""},{"poiid":"B2094654DA6BA7F84493","title":"四兴大楼","lon":"121.12","lat":"31.1525","category":"46","category_name":"楼宇","address":"城中东路626号"},{"poiid":"B2094654DA6BA6FE419A","title":"莱欧美容美发艺术沙龙","lon":"121.11914","lat":"31.14942","category":"148","category_name":"美容美发店","address":""},{"poiid":"B2094655D268A2FB4499","title":"青浦区体育中心乒乓球馆","lon":"121.11849","lat":"31.15148","category":"225","category_name":"乒乓球馆","address":""},{"poiid":"B2094655D268A5FB4298","title":"上海协和大厦","lon":"121.11725","lat":"31.1493","category":"46","category_name":"楼宇","address":"青浦区青浦镇青安路58号、公园路458号"},{"poiid":"B2094654DA6BA7FB4798","title":"蔡师傅面馆","lon":"121.12157","lat":"31.15144","category":"87","category_name":"特色／地方风味餐厅","address":"青浦区体育场路(近浦仓路)"},{"poiid":"B2094654DA6BA6FC4193","title":"青浦游泳馆","lon":"121.12051","lat":"31.15202","category":"231","category_name":"游泳馆","address":"青浦区浦仓路535号(欧洲街体育场路)"},{"poiid":"B2094757D16EA3F8459D","title":"苏宁电器(公园店)","lon":"121.117248","lat":"31.148756","category":"138","category_name":"家电电子卖场","address":"青浦区公园路458号凯特利广场"},{"poiid":"B2094655D26EA5FF419A","title":"台湾小吃总汇","lon":"121.1181","lat":"31.15149","category":"68","category_name":"快餐厅","address":"青浦区体育场路408号"},{"poiid":"B2094750DA65A6F4409B","title":"朱家角镇","lon":"121.121879","lat":"31.151987","category":"500","category_name":"未知分类","address":null},{"poiid":"B2094757D664AAF4499D","title":"重庆秦妈火锅","lon":"121.117247","lat":"31.148784","category":"86","category_name":"火锅店","address":"青浦区公园路458号凯特利广场3楼(近居礼酒店)"},{"poiid":"B2094757D66CA7FF459E","title":"越岭阁(青浦店)","lon":"121.12066","lat":"31.14847","category":"96","category_name":"韩国料理","address":"青浦区公园路209号(近浦仓路)"},{"poiid":"B2094757D16BA1FB4392","title":"青浦区体育中心","lon":"121.118616835","lat":"31.1508924807","category":"500","category_name":"未知分类","address":"青浦区体育场路1号(欧洲街体育场路)"},{"poiid":"B2094757D165A1FD479A","title":"七欣吃蟹","lon":"121.119951035","lat":"31.1525599132","category":"500","category_name":"未知分类","address":"上海青浦区沙埭浜路"},{"poiid":"B2094655D268A1FD479D","title":"川福火锅(浦仓路)","lon":"121.12075","lat":"31.14982","category":"86","category_name":"火锅店","address":""},{"poiid":"B2094655D268A2FB449F","title":"篮球场","lon":"121.11979","lat":"31.15255","category":"229","category_name":"篮球场馆","address":""},{"poiid":"B2094654DA6BA6FD4792","title":"上海市海曼文化艺术专修学校青浦教学点","lon":"121.11907","lat":"31.15099","category":"190","category_name":"培训机构","address":""},{"poiid":"B2094654DA6BA6FD489A","title":"前翔保健按摩","lon":"121.11906","lat":"31.15085","category":"149","category_name":"洗浴推拿场所","address":"欧洲街75号"},{"poiid":"B2094757DA64A3FB439F","title":"汇丰豪轩","lon":"121.118039","lat":"31.152473","category":"252","category_name":"楼宇机构","address":"青浦区五厍浜路168弄"},{"poiid":"B2094654DA6BA6FC429B","title":"上海市青浦区体育场","lon":"121.11895","lat":"31.15216","category":"224","category_name":"综合体育馆","address":"体育场路1号"},{"poiid":"B2094757D068A3F9439E","title":"自由港量贩式KTV(青浦店)","lon":"121.12195","lat":"31.14887","category":"170","category_name":"KTV","address":"青浦区公园路258号(浦仓路口)"},{"poiid":"B2094654DA6BA7FF4599","title":"稻香村商场","lon":"121.11582","lat":"31.1485","category":"119","category_name":"商场","address":"公园路522-544"},{"poiid":"B2094757D06FA0F4469B","title":"麦当劳(青浦店)","lon":"121.11793","lat":"31.15247","category":"68","category_name":"快餐厅","address":"青浦区青安路55-59号(青安路青赵公路)"},{"poiid":"B2094757D069A3F5419E","title":"青浦区中医医院","lon":"121.11604615","lat":"31.15034918","category":"162","category_name":"医院","address":"青浦区青浦镇青安路95号(近青浦一中)"},{"poiid":"B2094757D068A7FF469E","title":"肯德基 青浦镇一店 KFC","lon":"121.116998054","lat":"31.148852793","category":"68","category_name":"快餐厅","address":"青浦区青浦镇公园路461号(青浦车站路公园路)"},{"poiid":"B2094750D26BA6FD4198","title":"汉拿山","lon":"121.117111","lat":"31.148128","category":"247","category_name":"餐饮美食","address":"青浦区公园路544号稻香村商业广场4楼401号铺(近青安路)"},{"poiid":"B2094757D664A3F54799","title":"七欣天迷宗蟹 青浦店","lon":"121.119998","lat":"31.153206","category":"86","category_name":"火锅店","address":"青浦区沙埭浜路35-39号(近体育场路)"},{"poiid":"B2094654DA6BA6FE439C","title":"青浦体育馆","lon":"121.11769","lat":"31.15164","category":"224","category_name":"综合体育馆","address":"体育场路"},{"poiid":"B2094757D06BA7FA419A","title":"雪岳山韩国烧烤(青浦店)","lon":"121.11878","lat":"31.15339","category":"96","category_name":"韩国料理","address":"青浦区沙埭浜路124号(近青安路)"},{"poiid":"B2094654DA6BA6FE4192","title":"凯特利广场","lon":"121.11692","lat":"31.149","category":"119","category_name":"商场","address":"公园路458"},{"poiid":"B2094750DA6FA1FD469B","title":"一茶一坐（青浦公园店）","lon":"121.116108","lat":"31.148425","category":"66","category_name":"茶艺馆","address":"青浦区公园路544号稻香村商业广场内(近青安路)"},{"poiid":"B2094655D26EA1F54399","title":"小肥羊 青浦店","lon":"121.11718575893","lat":"31.151186560965","category":"86","category_name":"火锅店","address":"青浦区青浦青安路218号(青安路青赵公路)"},{"poiid":"B2094757D165A7F54198","title":"青浦教师进修学院","lon":"121.12072706","lat":"31.148430402","category":"253","category_name":"校园生活","address":"上海青浦"},{"poiid":"B2094757D064A1FA439C","title":"豪享来(青浦店)","lon":"121.11789","lat":"31.15232","category":"94","category_name":"西餐厅","address":"青浦区青安路246号(青安路青赵公路)"},{"poiid":"B2094654DA6BA6FE4193","title":"百特喜意式休闲餐厅(青安路)","lon":"121.11692","lat":"31.14913","category":"98","category_name":"意式菜品餐厅","address":"青浦区公园路458号凯特利广场1楼(公园路青浦庙前街)"},{"poiid":"B2094757D06AA7FD419A","title":"上海居礼国际酒店","lon":"121.11678691","lat":"31.14951489","category":"217","category_name":"旅馆招待所","address":"青浦区青安路58号(青安路青浦医院路)"},{"poiid":"B2094757D66EA5F94999","title":"咔浓咖啡","lon":"121.119855035","lat":"31.1505348737","category":"65","category_name":"咖啡厅","address":"青浦区欧洲街74弄3号"},{"poiid":"B2094757D068A3F8439C","title":"85度C 青浦店","lon":"121.12089","lat":"31.14898","category":"112","category_name":"糕饼店","address":"青浦区公园路300号农工商超市旁(浦仓路公园路)"},{"poiid":"B2094757D06BA4FA499D","title":"青浦区行政服务中心","lon":"121.12342184","lat":"31.152591323","category":"500","category_name":"未知分类","address":"上海近郊青浦区外青松公路6189号"},{"poiid":"B2094757D16CA0FB499B","title":"世田造型","lon":"121.120825","lat":"31.150514","category":"148","category_name":"美容美发店","address":"上海浦仓路"},{"poiid":"B2094757D064A4FD4999","title":"大碗鱼(青浦店)","lon":"121.11312","lat":"31.14808","category":"71","category_name":"四川菜","address":"青浦区公园路666弄桥梓湾商场内(近东方商厦)"},{"poiid":"B2094654DA6BA6FC469C","title":"农工商超市NO.50","lon":"121.12065","lat":"31.14896","category":"118","category_name":"超级市场","address":"青浦镇"},{"poiid":"B2094757D66AA6FF489B","title":"印度餐厅","lon":"121.118039","lat":"31.152858","category":"102","category_name":"印度风味","address":"青浦区沙隶浜路"},{"poiid":"B2094757D06AA2F5499A","title":"蔡先生苏州汤包馆 青安路店","lon":"121.117188","lat":"31.150285","category":"87","category_name":"特色／地方风味餐厅","address":"青浦区青安路110-112号(近中医院)"},{"poiid":"B2094757D06BA1FB4092","title":"鑫洋桌球俱乐部","lon":"121.118713035","lat":"31.150653876","category":"171","category_name":"台球厅","address":"上海青浦区体育场路"},{"poiid":"B2094655D268A5F54693","title":"公园路营业厅","lon":"121.11843","lat":"31.14888","category":"151","category_name":"电讯营业厅","address":"青浦区公园路406号"},{"poiid":"B2094757D56DA7FF4192","title":"粥聚阁","lon":"121.11840963364","lat":"31.153810074222","category":"72","category_name":"广东菜","address":"青浦区沙埭浜路128号(近青安路)"},{"poiid":"B2094655D268A4FC479B","title":"青浦体育馆(南门)","lon":"121.11869","lat":"31.1514","category":"224","category_name":"综合体育馆","address":"体育场路"},{"poiid":"B2094654DA6BA7FA449D","title":"华伦商厦","lon":"121.11959688312","lat":"31.152119924492","category":"46","category_name":"楼宇","address":"城中东路635号2层"},{"poiid":"B2094655D268A2FB449E","title":"青浦区体育中心羽毛球馆","lon":"121.11849","lat":"31.15148","category":"227","category_name":"羽毛球场","address":""},{"poiid":"B2094655D36CA2F8439E","title":"青浦一中","lon":"121.11685","lat":"31.14992","category":"55","category_name":"中学","address":""},{"poiid":"B2094654DA6BA7F84493","title":"四兴大楼","lon":"121.12","lat":"31.1525","category":"46","category_name":"楼宇","address":"城中东路626号"},{"poiid":"B2094654DA6BA6FE419A","title":"莱欧美容美发艺术沙龙","lon":"121.11914","lat":"31.14942","category":"148","category_name":"美容美发店","address":""},{"poiid":"B2094655D268A2FB4499","title":"青浦区体育中心乒乓球馆","lon":"121.11849","lat":"31.15148","category":"225","category_name":"乒乓球馆","address":""},{"poiid":"B2094655D268A5FB4298","title":"上海协和大厦","lon":"121.11725","lat":"31.1493","category":"46","category_name":"楼宇","address":"青浦区青浦镇青安路58号、公园路458号"},{"poiid":"B2094654DA6BA7FB4798","title":"蔡师傅面馆","lon":"121.12157","lat":"31.15144","category":"87","category_name":"特色／地方风味餐厅","address":"青浦区体育场路(近浦仓路)"},{"poiid":"B2094654DA6BA6FC4193","title":"青浦游泳馆","lon":"121.12051","lat":"31.15202","category":"231","category_name":"游泳馆","address":"青浦区浦仓路535号(欧洲街体育场路)"},{"poiid":"B2094757D16EA3F8459D","title":"苏宁电器(公园店)","lon":"121.117248","lat":"31.148756","category":"138","category_name":"家电电子卖场","address":"青浦区公园路458号凯特利广场"},{"poiid":"B2094655D26EA5FF419A","title":"台湾小吃总汇","lon":"121.1181","lat":"31.15149","category":"68","category_name":"快餐厅","address":"青浦区体育场路408号"},{"poiid":"B2094750DA65A6F4409B","title":"朱家角镇","lon":"121.121879","lat":"31.151987","category":"500","category_name":"未知分类","address":null},{"poiid":"B2094757D664AAF4499D","title":"重庆秦妈火锅","lon":"121.117247","lat":"31.148784","category":"86","category_name":"火锅店","address":"青浦区公园路458号凯特利广场3楼(近居礼酒店)"},{"poiid":"B2094757D66CA7FF459E","title":"越岭阁(青浦店)","lon":"121.12066","lat":"31.14847","category":"96","category_name":"韩国料理","address":"青浦区公园路209号(近浦仓路)"},{"poiid":"B2094757D16BA1FB4392","title":"青浦区体育中心","lon":"121.118616835","lat":"31.1508924807","category":"500","category_name":"未知分类","address":"青浦区体育场路1号(欧洲街体育场路)"},{"poiid":"B2094757D165A1FD479A","title":"七欣吃蟹","lon":"121.119951035","lat":"31.1525599132","category":"500","category_name":"未知分类","address":"上海青浦区沙埭浜路"},{"poiid":"B2094655D268A1FD479D","title":"川福火锅(浦仓路)","lon":"121.12075","lat":"31.14982","category":"86","category_name":"火锅店","address":""},{"poiid":"B2094655D268A2FB449F","title":"篮球场","lon":"121.11979","lat":"31.15255","category":"229","category_name":"篮球场馆","address":""},{"poiid":"B2094654DA6BA6FD4792","title":"上海市海曼文化艺术专修学校青浦教学点","lon":"121.11907","lat":"31.15099","category":"190","category_name":"培训机构","address":""},{"poiid":"B2094654DA6BA6FD489A","title":"前翔保健按摩","lon":"121.11906","lat":"31.15085","category":"149","category_name":"洗浴推拿场所","address":"欧洲街75号"},{"poiid":"B2094757DA64A3FB439F","title":"汇丰豪轩","lon":"121.118039","lat":"31.152473","category":"252","category_name":"楼宇机构","address":"青浦区五厍浜路168弄"}]