[{"poiid":"B2094757D06FA5F9469C","title":"西郊公园","lon":"121.366499424","lat":"31.1906089622","category":"196","category_name":"公园","address":"上海虹桥路"},{"poiid":"B2094757D06FA3FC4599","title":"上海动物园地铁站","lon":"121.36693938","lat":"31.19022555","category":"36","category_name":"地铁站","address":"上海轨道交通 十号线 轨交上海动物园站 10"},{"poiid":"B2094757D069A2F44593","title":"羊家胡同(虹井店)","lon":"121.368635451","lat":"31.1857045772","category":"86","category_name":"火锅店","address":"闵行区虹井路777号(延安西路高架)"},{"poiid":"B2094757D068A1FC439A","title":"竹北海道昆布锅","lon":"121.36858926767","lat":"31.185345447801","category":"86","category_name":"火锅店","address":"闵行区虹井路771号(近黄桦路)"},{"poiid":"B2094757D06FA5F5469B","title":"顽皮家族宠物医院(虹桥路总店)","lon":"121.36548934","lat":"31.190155323","category":"162","category_name":"医院","address":"长宁区虹桥路2393号(近动物园)"},{"poiid":"B2094655D36CA5FE499D","title":"程家桥路","lon":"121.37315","lat":"31.18759","category":"38","category_name":"公交车站","address":""},{"poiid":"B2094757D068A3F94999","title":"阿勇鲁肉饭(虹井路店)","lon":"121.36877","lat":"31.18573","category":"91","category_name":"台湾菜","address":"闵行区虹井路803号(近延安西路)"},{"poiid":"B2094757D06FA4FF4699","title":"虹桥花市","lon":"121.37098312","lat":"31.1843542105","category":"249","category_name":"购物服务","address":"闵行区虹井路718号(近金汇路)"},{"poiid":"B2094654D569AAFC429C","title":"阿山饭店","lon":"121.36647159056","lat":"31.189958417134","category":"76","category_name":"上海菜","address":"长宁区虹桥路2378号(近动物园)"},{"poiid":"B2094757D068A6FE489F","title":"虹井路","lon":"121.36887359","lat":"31.185691833","category":"500","category_name":"未知分类","address":"上海闵行区虹井路"},{"poiid":"B2094750D268A6FE429B","title":"金钱豹 延安西路店","lon":"121.37327828084","lat":"31.187941439535","category":"268","category_name":"自助","address":"长宁区延安西路3162号(近虹中路)"},{"poiid":"B2094757D068A7F5499E","title":"豪皇鲍翅 闵行店","lon":"121.37267990904","lat":"31.187658879487","category":"247","category_name":"餐饮美食","address":"闵行区程家桥路175号(近延安西路)"},{"poiid":"B2094654D569AAFC4293","title":"皇朝别墅","lon":"121.3645","lat":"31.18718","category":"47","category_name":"住宅区","address":"长宁区虹桥路2388号(近虹井路)"},{"poiid":"B2094757D068A1FC459E","title":"天鹅轩","lon":"121.36951","lat":"31.1903","category":"75","category_name":"浙江菜","address":"长宁区虹桥路2395号(近虹井路)查看地图"},{"poiid":"B2094757D069A7FA4092","title":"来兴潮菜(虹井路店)","lon":"121.36900329","lat":"31.186100006","category":"72","category_name":"广东菜","address":"闵行区虹井路789号(近延安西路)"},{"poiid":"B2094654D569A6FE479A","title":"兰奇餐厅 Frankie's Place","lon":"121.3683557893","lat":"31.185284080682","category":"110","category_name":"其他亚洲菜","address":"闵行区黄桦路546号(近虹井路)"},{"poiid":"B2094757D168A2F4429D","title":"六井品位料理","lon":"121.37132058","lat":"31.1877376","category":"95","category_name":"日本料理","address":"长宁区延安西路3300号(近虹井路)"},{"poiid":"B2094757D66BA4F5419C","title":"pizzasun","lon":"121.36725256124","lat":"31.189778276359","category":"94","category_name":"西餐厅","address":"长宁区虹井路989号(近虹桥路)"},{"poiid":"B2094757D06AA0FB4099","title":"人民公社农家菜","lon":"121.37031","lat":"31.19103","category":"87","category_name":"特色／地方风味餐厅","address":"长宁区哈密路2028号(近虹桥路)"},{"poiid":"B2094654DB65A1FF409E","title":"聚点小龙虾 虹井路店","lon":"121.368713054","lat":"31.184886793","category":"257","category_name":"中餐厅","address":"闵行区虹井路751号(近黄桦路)"},{"poiid":"B2094654D569A5FE4692","title":"上海宝京精品酒店","lon":"121.3714","lat":"31.18723","category":"250","category_name":"公园户外","address":"长宁区延安西路3300号(程家桥路虹井路之间)"},{"poiid":"B2094750D664A2F84592","title":"邱记潮汕砂锅粥(虹井路店)","lon":"121.368","lat":"31.1867","category":"72","category_name":"广东菜","address":"闵行区虹井路807号(延安西路口)"},{"poiid":"B2094757D06BA6FA429B","title":"壹柒零羊蝎子特色火锅","lon":"121.372319054","lat":"31.187211793","category":"86","category_name":"火锅店","address":"闵行区程家桥路170号(近延安路)"},{"poiid":"B2094757D66CA5FB449F","title":"上海动物园公交车站","lon":"121.36844118","lat":"31.187005085","category":"38","category_name":"公交车站","address":"上海虹井路"},{"poiid":"B2094757D06AABF94798","title":"来福生煎(虹井路店)","lon":"121.36806","lat":"31.18863","category":"68","category_name":"快餐厅","address":"闵行区虹井路892号(近延安西路)"},{"poiid":"B2094757D069A1F84092","title":"包旺锅贴(程家桥路店)","lon":"121.37243156","lat":"31.188730883","category":"68","category_name":"快餐厅","address":"闵行区程家桥路56号(近虹桥路)"},{"poiid":"B2094757D66FA3FE419A","title":"Sun Cafe &amp; Bakery","lon":"121.36798638","lat":"31.186771381","category":"112","category_name":"糕饼店","address":"长宁区虹井路898号(近虹桥路)"},{"poiid":"B2094757D66CABFA4499","title":"虹桥机场T2航站楼公司分队办公室","lon":"121.36891858","lat":"31.186308572","category":"46","category_name":"楼宇","address":"上海闵行区"},{"poiid":"B2094757D06BA3F44299","title":"布达哈有机素食餐厅 Buddha Hut","lon":"121.368317054","lat":"31.187063793","category":"89","category_name":"中式素餐馆","address":"虹井路866号近延安西路"},{"poiid":"B2094654DB6BA0FD479D","title":"莎芭天妮 虹井路店 SarBarTine","lon":"121.368824054","lat":"31.186016793","category":"112","category_name":"糕饼店","address":"闵行区虹井路878号(近虹桥路)"},{"poiid":"B2094757D66BABFF4099","title":"新招鲜本地鸡窝 黄桦路店","lon":"121.368351","lat":"31.185407","category":"86","category_name":"火锅店","address":"闵行区黄桦路349号(近红松路)"},{"poiid":"B2094654DB6BA1F54398","title":"汉庭快捷(虹桥店)","lon":"121.37427","lat":"31.18721","category":"216","category_name":"经济型连锁酒店","address":"闵行区程家桥路181号延安西路高架南侧(近金汇路程家桥路)"},{"poiid":"B2094654D569A5FE479A","title":"南洋绿都(北门)","lon":"121.3704","lat":"31.18695","category":"47","category_name":"住宅区","address":"延安西路3500号"},{"poiid":"B2094757D16CA2FC4999","title":"嘉丽豪园","lon":"121.37019788","lat":"31.187300446","category":"500","category_name":"未知分类","address":"上海虹井路888弄"},{"poiid":"B2094757D06BA6F8489C","title":"京城一锅羊蝎子火锅","lon":"121.368921054","lat":"31.184934793","category":"86","category_name":"火锅店","address":"闵行区虹井路751号(近延安西路)"},{"poiid":"B2094757D66AA0F84193","title":"银子楼","lon":"121.372053","lat":"31.189044","category":"76","category_name":"上海菜","address":"长宁区程家桥路100号(近延安西路)"},{"poiid":"B2094750D26EABF94393","title":"上海金钱豹大酒店","lon":"121.371025","lat":"31.185379","category":"247","category_name":"餐饮美食","address":"闵行区延安西路3162"},{"poiid":"B2094757D16DAAFA439E","title":"JELO STUDIO","lon":"121.36874","lat":"31.18821","category":"500","category_name":"未知分类","address":"上海长宁区虹井路888弄嘉丽豪园8号504室(近西郊公园)  "},{"poiid":"B2094654DB69A6FA4292","title":"敦煌千子莲足道(虹井路店)","lon":"121.36839","lat":"31.18733","category":"162","category_name":"医院","address":"长宁区虹井路820号三层"},{"poiid":"B2094757D068A0FE449C","title":"龙柏四村","lon":"121.369531","lat":"31.182853","category":"47","category_name":"住宅区","address":"上海闵行区红松路(近兰竹路)"},{"poiid":"B2094757DB6DA5F84698","title":"布丁酒店连锁（上海虹桥机场店）","lon":"121.371323168","lat":"31.190602543","category":"216","category_name":"经济型连锁酒店","address":"长宁区虹桥路2323号(哈密路口)"},{"poiid":"B2094654D569A6FB489E","title":"虹井小区","lon":"121.36918","lat":"31.18647","category":"47","category_name":"住宅区","address":"上海闵行区虹井路788弄"},{"poiid":"B2094757D16FA1FE489D","title":"上海市动物疫病预防控制中心(牧医宠物医院)","lon":"121.366632","lat":"31.188205","category":"162","category_name":"医院","address":"上海市虹井路855弄30号"},{"poiid":"B2094751DA65A4FD4399","title":"酒藏","lon":"121.371378","lat":"31.192276","category":"247","category_name":"餐饮美食","address":"长宁区剑河路(近延安西路)"},{"poiid":"B2094757D16AA7FD499C","title":"一锅两吃","lon":"121.368274586","lat":"31.1882246098","category":"247","category_name":"餐饮美食","address":"上海市长宁区虹井路807号"},{"poiid":"B2094757D164A2FF4593","title":"加拿大落基山脉班芙国家公园","lon":"121.368947586","lat":"31.1860635675","category":"196","category_name":"公园","address":"224 Banff Ave Banff, AB T1L  "},{"poiid":"B2094654D569A6FE459F","title":"华都公寓","lon":"121.371402","lat":"31.189735","category":"47","category_name":"住宅区","address":"黄桦路422弄1-13号"},{"poiid":"B209475DD56DA0FB489C","title":"上海动物园","lon":"121.368179","lat":"31.190324","category":"250","category_name":"公园户外","address":"上海市 虹桥路虹井路"},{"poiid":"B2094757D06AAAF44092","title":"全家便利(虹井路店)","lon":"121.36811","lat":"31.18852","category":"117","category_name":"便民商店/便利店","address":"上海闵行区虹井路890号"},{"poiid":"B2094757D16AA4FD409D","title":"东北饺子王","lon":"121.36710023","lat":"31.189976084","category":"82","category_name":"东北菜","address":"长宁区剑河路2425号(安龙路仙霞路)"},{"poiid":"B2094757D06FA5F9469C","title":"西郊公园","lon":"121.366499424","lat":"31.1906089622","category":"196","category_name":"公园","address":"上海虹桥路"},{"poiid":"B2094757D06FA3FC4599","title":"上海动物园地铁站","lon":"121.36693938","lat":"31.19022555","category":"36","category_name":"地铁站","address":"上海轨道交通 十号线 轨交上海动物园站 10"},{"poiid":"B2094757D069A2F44593","title":"羊家胡同(虹井店)","lon":"121.368635451","lat":"31.1857045772","category":"86","category_name":"火锅店","address":"闵行区虹井路777号(延安西路高架)"},{"poiid":"B2094757D068A1FC439A","title":"竹北海道昆布锅","lon":"121.36858926767","lat":"31.185345447801","category":"86","category_name":"火锅店","address":"闵行区虹井路771号(近黄桦路)"},{"poiid":"B2094757D06FA5F5469B","title":"顽皮家族宠物医院(虹桥路总店)","lon":"121.36548934","lat":"31.190155323","category":"162","category_name":"医院","address":"长宁区虹桥路2393号(近动物园)"},{"poiid":"B2094655D36CA5FE499D","title":"程家桥路","lon":"121.37315","lat":"31.18759","category":"38","category_name":"公交车站","address":""},{"poiid":"B2094757D068A3F94999","title":"阿勇鲁肉饭(虹井路店)","lon":"121.36877","lat":"31.18573","category":"91","category_name":"台湾菜","address":"闵行区虹井路803号(近延安西路)"},{"poiid":"B2094757D06FA4FF4699","title":"虹桥花市","lon":"121.37098312","lat":"31.1843542105","category":"249","category_name":"购物服务","address":"闵行区虹井路718号(近金汇路)"},{"poiid":"B2094654D569AAFC429C","title":"阿山饭店","lon":"121.36647159056","lat":"31.189958417134","category":"76","category_name":"上海菜","address":"长宁区虹桥路2378号(近动物园)"},{"poiid":"B2094757D068A6FE489F","title":"虹井路","lon":"121.36887359","lat":"31.185691833","category":"500","category_name":"未知分类","address":"上海闵行区虹井路"},{"poiid":"B2094750D268A6FE429B","title":"金钱豹 延安西路店","lon":"121.37327828084","lat":"31.187941439535","category":"268","category_name":"自助","address":"长宁区延安西路3162号(近虹中路)"},{"poiid":"B2094757D068A7F5499E","title":"豪皇鲍翅 闵行店","lon":"121.37267990904","lat":"31.187658879487","category":"247","category_name":"餐饮美食","address":"闵行区程家桥路175号(近延安西路)"},{"poiid":"B2094654D569AAFC4293","title":"皇朝别墅","lon":"121.3645","lat":"31.18718","category":"47","category_name":"住宅区","address":"长宁区虹桥路2388号(近虹井路)"},{"poiid":"B2094757D068A1FC459E","title":"天鹅轩","lon":"121.36951","lat":"31.1903","category":"75","category_name":"浙江菜","address":"长宁区虹桥路2395号(近虹井路)查看地图"},{"poiid":"B2094757D069A7FA4092","title":"来兴潮菜(虹井路店)","lon":"121.36900329","lat":"31.186100006","category":"72","category_name":"广东菜","address":"闵行区虹井路789号(近延安西路)"},{"poiid":"B2094654D569A6FE479A","title":"兰奇餐厅 Frankie's Place","lon":"121.3683557893","lat":"31.185284080682","category":"110","category_name":"其他亚洲菜","address":"闵行区黄桦路546号(近虹井路)"},{"poiid":"B2094757D168A2F4429D","title":"六井品位料理","lon":"121.37132058","lat":"31.1877376","category":"95","category_name":"日本料理","address":"长宁区延安西路3300号(近虹井路)"},{"poiid":"B2094757D66BA4F5419C","title":"pizzasun","lon":"121.36725256124","lat":"31.189778276359","category":"94","category_name":"西餐厅","address":"长宁区虹井路989号(近虹桥路)"},{"poiid":"B2094757D06AA0FB4099","title":"人民公社农家菜","lon":"121.37031","lat":"31.19103","category":"87","category_name":"特色／地方风味餐厅","address":"长宁区哈密路2028号(近虹桥路)"},{"poiid":"B2094654DB65A1FF409E","title":"聚点小龙虾 虹井路店","lon":"121.368713054","lat":"31.184886793","category":"257","category_name":"中餐厅","address":"闵行区虹井路751号(近黄桦路)"},{"poiid":"B2094654D569A5FE4692","title":"上海宝京精品酒店","lon":"121.3714","lat":"31.18723","category":"250","category_name":"公园户外","address":"长宁区延安西路3300号(程家桥路虹井路之间)"},{"poiid":"B2094750D664A2F84592","title":"邱记潮汕砂锅粥(虹井路店)","lon":"121.368","lat":"31.1867","category":"72","category_name":"广东菜","address":"闵行区虹井路807号(延安西路口)"},{"poiid":"B2094757D06BA6FA429B","title":"壹柒零羊蝎子特色火锅","lon":"121.372319054","lat":"31.187211793","category":"86","category_name":"火锅店","address":"闵行区程家桥路170号(近延安路)"},{"poiid":"B2094757D66CA5FB449F","title":"上海动物园公交车站","lon":"121.36844118","lat":"31.187005085","category":"38","category_name":"公交车站","address":"上海虹井路"},{"poiid":"B2094757D06AABF94798","title":"来福生煎(虹井路店)","lon":"121.36806","lat":"31.18863","category":"68","category_name":"快餐厅","address":"闵行区虹井路892号(近延安西路)"},{"poiid":"B2094757D069A1F84092","title":"包旺锅贴(程家桥路店)","lon":"121.37243156","lat":"31.188730883","category":"68","category_name":"快餐厅","address":"闵行区程家桥路56号(近虹桥路)"},{"poiid":"B2094757D66FA3FE419A","title":"Sun Cafe &amp; Bakery","lon":"121.36798638","lat":"31.186771381","category":"112","category_name":"糕饼店","address":"长宁区虹井路898号(近虹桥路)"},{"poiid":"B2094757D66CABFA4499","title":"虹桥机场T2航站楼公司分队办公室","lon":"121.36891858","lat":"31.186308572","category":"46","category_name":"楼宇","address":"上海闵行区"},{"poiid":"B2094757D06BA3F44299","title":"布达哈有机素食餐厅 Buddha Hut","lon":"121.368317054","lat":"31.187063793","category":"89","category_name":"中式素餐馆","address":"虹井路866号近延安西路"},{"poiid":"B2094654DB6BA0FD479D","title":"莎芭天妮 虹井路店 SarBarTine","lon":"121.368824054","lat":"31.186016793","category":"112","category_name":"糕饼店","address":"闵行区虹井路878号(近虹桥路)"},{"poiid":"B2094757D66BABFF4099","title":"新招鲜本地鸡窝 黄桦路店","lon":"121.368351","lat":"31.185407","category":"86","category_name":"火锅店","address":"闵行区黄桦路349号(近红松路)"},{"poiid":"B2094654DB6BA1F54398","title":"汉庭快捷(虹桥店)","lon":"121.37427","lat":"31.18721","category":"216","category_name":"经济型连锁酒店","address":"闵行区程家桥路181号延安西路高架南侧(近金汇路程家桥路)"},{"poiid":"B2094654D569A5FE479A","title":"南洋绿都(北门)","lon":"121.3704","lat":"31.18695","category":"47","category_name":"住宅区","address":"延安西路3500号"},{"poiid":"B2094757D16CA2FC4999","title":"嘉丽豪园","lon":"121.37019788","lat":"31.187300446","category":"500","category_name":"未知分类","address":"上海虹井路888弄"},{"poiid":"B2094757D06BA6F8489C","title":"京城一锅羊蝎子火锅","lon":"121.368921054","lat":"31.184934793","category":"86","category_name":"火锅店","address":"闵行区虹井路751号(近延安西路)"},{"poiid":"B2094757D66AA0F84193","title":"银子楼","lon":"121.372053","lat":"31.189044","category":"76","category_name":"上海菜","address":"长宁区程家桥路100号(近延安西路)"},{"poiid":"B2094750D26EABF94393","title":"上海金钱豹大酒店","lon":"121.371025","lat":"31.185379","category":"247","category_name":"餐饮美食","address":"闵行区延安西路3162"},{"poiid":"B2094757D16DAAFA439E","title":"JELO STUDIO","lon":"121.36874","lat":"31.18821","category":"500","category_name":"未知分类","address":"上海长宁区虹井路888弄嘉丽豪园8号504室(近西郊公园)  "},{"poiid":"B2094654DB69A6FA4292","title":"敦煌千子莲足道(虹井路店)","lon":"121.36839","lat":"31.18733","category":"162","category_name":"医院","address":"长宁区虹井路820号三层"},{"poiid":"B2094757D068A0FE449C","title":"龙柏四村","lon":"121.369531","lat":"31.182853","category":"47","category_name":"住宅区","address":"上海闵行区红松路(近兰竹路)"},{"poiid":"B2094757DB6DA5F84698","title":"布丁酒店连锁（上海虹桥机场店）","lon":"121.371323168","lat":"31.190602543","category":"216","category_name":"经济型连锁酒店","address":"长宁区虹桥路2323号(哈密路口)"},{"poiid":"B2094654D569A6FB489E","title":"虹井小区","lon":"121.36918","lat":"31.18647","category":"47","category_name":"住宅区","address":"上海闵行区虹井路788弄"},{"poiid":"B2094757D16FA1FE489D","title":"上海市动物疫病预防控制中心(牧医宠物医院)","lon":"121.366632","lat":"31.188205","category":"162","category_name":"医院","address":"上海市虹井路855弄30号"},{"poiid":"B2094751DA65A4FD4399","title":"酒藏","lon":"121.371378","lat":"31.192276","category":"247","category_name":"餐饮美食","address":"长宁区剑河路(近延安西路)"},{"poiid":"B2094757D16AA7FD499C","title":"一锅两吃","lon":"121.368274586","lat":"31.1882246098","category":"247","category_name":"餐饮美食","address":"上海市长宁区虹井路807号"},{"poiid":"B2094757D164A2FF4593","title":"加拿大落基山脉班芙国家公园","lon":"121.368947586","lat":"31.1860635675","category":"196","category_name":"公园","address":"224 Banff Ave Banff, AB T1L  "},{"poiid":"B2094654D569A6FE459F","title":"华都公寓","lon":"121.371402","lat":"31.189735","category":"47","category_name":"住宅区","address":"黄桦路422弄1-13号"},{"poiid":"B209475DD56DA0FB489C","title":"上海动物园","lon":"121.368179","lat":"31.190324","category":"250","category_name":"公园户外","address":"上海市 虹桥路虹井路"},{"poiid":"B2094757D06AAAF44092","title":"全家便利(虹井路店)","lon":"121.36811","lat":"31.18852","category":"117","category_name":"便民商店/便利店","address":"上海闵行区虹井路890号"},{"poiid":"B2094757D16AA4FD409D","title":"东北饺子王","lon":"121.36710023","lat":"31.189976084","category":"82","category_name":"东北菜","address":"长宁区剑河路2425号(安龙路仙霞路)"},{"poiid":"B2094757D06FA5F9469C","title":"西郊公园","lon":"121.366499424","lat":"31.1906089622","category":"196","category_name":"公园","address":"上海虹桥路"},{"poiid":"B2094757D06FA3FC4599","title":"上海动物园地铁站","lon":"121.36693938","lat":"31.19022555","category":"36","category_name":"地铁站","address":"上海轨道交通 十号线 轨交上海动物园站 10"},{"poiid":"B2094757D069A2F44593","title":"羊家胡同(虹井店)","lon":"121.368635451","lat":"31.1857045772","category":"86","category_name":"火锅店","address":"闵行区虹井路777号(延安西路高架)"},{"poiid":"B2094757D068A1FC439A","title":"竹北海道昆布锅","lon":"121.36858926767","lat":"31.185345447801","category":"86","category_name":"火锅店","address":"闵行区虹井路771号(近黄桦路)"},{"poiid":"B2094757D06FA5F5469B","title":"顽皮家族宠物医院(虹桥路总店)","lon":"121.36548934","lat":"31.190155323","category":"162","category_name":"医院","address":"长宁区虹桥路2393号(近动物园)"},{"poiid":"B2094655D36CA5FE499D","title":"程家桥路","lon":"121.37315","lat":"31.18759","category":"38","category_name":"公交车站","address":""},{"poiid":"B2094757D068A3F94999","title":"阿勇鲁肉饭(虹井路店)","lon":"121.36877","lat":"31.18573","category":"91","category_name":"台湾菜","address":"闵行区虹井路803号(近延安西路)"},{"poiid":"B2094757D06FA4FF4699","title":"虹桥花市","lon":"121.37098312","lat":"31.1843542105","category":"249","category_name":"购物服务","address":"闵行区虹井路718号(近金汇路)"},{"poiid":"B2094654D569AAFC429C","title":"阿山饭店","lon":"121.36647159056","lat":"31.189958417134","category":"76","category_name":"上海菜","address":"长宁区虹桥路2378号(近动物园)"},{"poiid":"B2094757D068A6FE489F","title":"虹井路","lon":"121.36887359","lat":"31.185691833","category":"500","category_name":"未知分类","address":"上海闵行区虹井路"},{"poiid":"B2094750D268A6FE429B","title":"金钱豹 延安西路店","lon":"121.37327828084","lat":"31.187941439535","category":"268","category_name":"自助","address":"长宁区延安西路3162号(近虹中路)"},{"poiid":"B2094757D068A7F5499E","title":"豪皇鲍翅 闵行店","lon":"121.37267990904","lat":"31.187658879487","category":"247","category_name":"餐饮美食","address":"闵行区程家桥路175号(近延安西路)"},{"poiid":"B2094654D569AAFC4293","title":"皇朝别墅","lon":"121.3645","lat":"31.18718","category":"47","category_name":"住宅区","address":"长宁区虹桥路2388号(近虹井路)"},{"poiid":"B2094757D068A1FC459E","title":"天鹅轩","lon":"121.36951","lat":"31.1903","category":"75","category_name":"浙江菜","address":"长宁区虹桥路2395号(近虹井路)查看地图"},{"poiid":"B2094757D069A7FA4092","title":"来兴潮菜(虹井路店)","lon":"121.36900329","lat":"31.186100006","category":"72","category_name":"广东菜","address":"闵行区虹井路789号(近延安西路)"},{"poiid":"B2094654D569A6FE479A","title":"兰奇餐厅 Frankie's Place","lon":"121.3683557893","lat":"31.185284080682","category":"110","category_name":"其他亚洲菜","address":"闵行区黄桦路546号(近虹井路)"},{"poiid":"B2094757D168A2F4429D","title":"六井品位料理","lon":"121.37132058","lat":"31.1877376","category":"95","category_name":"日本料理","address":"长宁区延安西路3300号(近虹井路)"},{"poiid":"B2094757D66BA4F5419C","title":"pizzasun","lon":"121.36725256124","lat":"31.189778276359","category":"94","category_name":"西餐厅","address":"长宁区虹井路989号(近虹桥路)"},{"poiid":"B2094757D06AA0FB4099","title":"人民公社农家菜","lon":"121.37031","lat":"31.19103","category":"87","category_name":"特色／地方风味餐厅","address":"长宁区哈密路2028号(近虹桥路)"},{"poiid":"B2094654DB65A1FF409E","title":"聚点小龙虾 虹井路店","lon":"121.368713054","lat":"31.184886793","category":"257","category_name":"中餐厅","address":"闵行区虹井路751号(近黄桦路)"},{"poiid":"B2094654D569A5FE4692","title":"上海宝京精品酒店","lon":"121.3714","lat":"31.18723","category":"250","category_name":"公园户外","address":"长宁区延安西路3300号(程家桥路虹井路之间)"},{"poiid":"B2094750D664A2F84592","title":"邱记潮汕砂锅粥(虹井路店)","lon":"121.368","lat":"31.1867","category":"72","category_name":"广东菜","address":"闵行区虹井路807号(延安西路口)"},{"poiid":"B2094757D06BA6FA429B","title":"壹柒零羊蝎子特色火锅","lon":"121.372319054","lat":"31.187211793","category":"86","category_name":"火锅店","address":"闵行区程家桥路170号(近延安路)"},{"poiid":"B2094757D66CA5FB449F","title":"上海动物园公交车站","lon":"121.36844118","lat":"31.187005085","category":"38","category_name":"公交车站","address":"上海虹井路"},{"poiid":"B2094757D06AABF94798","title":"来福生煎(虹井路店)","lon":"121.36806","lat":"31.18863","category":"68","category_name":"快餐厅","address":"闵行区虹井路892号(近延安西路)"},{"poiid":"B2094757D069A1F84092","title":"包旺锅贴(程家桥路店)","lon":"121.37243156","lat":"31.188730883","category":"68","category_name":"快餐厅","address":"闵行区程家桥路56号(近虹桥路)"},{"poiid":"B2094757D66FA3FE419A","title":"Sun Cafe &amp; Bakery","lon":"121.36798638","lat":"31.186771381","category":"112","category_name":"糕饼店","address":"长宁区虹井路898号(近虹桥路)"},{"poiid":"B2094757D66CABFA4499","title":"虹桥机场T2航站楼公司分队办公室","lon":"121.36891858","lat":"31.186308572","category":"46","category_name":"楼宇","address":"上海闵行区"},{"poiid":"B2094757D06BA3F44299","title":"布达哈有机素食餐厅 Buddha Hut","lon":"121.368317054","lat":"31.187063793","category":"89","category_name":"中式素餐馆","address":"虹井路866号近延安西路"},{"poiid":"B2094654DB6BA0FD479D","title":"莎芭天妮 虹井路店 SarBarTine","lon":"121.368824054","lat":"31.186016793","category":"112","category_name":"糕饼店","address":"闵行区虹井路878号(近虹桥路)"},{"poiid":"B2094757D66BABFF4099","title":"新招鲜本地鸡窝 黄桦路店","lon":"121.368351","lat":"31.185407","category":"86","category_name":"火锅店","address":"闵行区黄桦路349号(近红松路)"},{"poiid":"B2094654DB6BA1F54398","title":"汉庭快捷(虹桥店)","lon":"121.37427","lat":"31.18721","category":"216","category_name":"经济型连锁酒店","address":"闵行区程家桥路181号延安西路高架南侧(近金汇路程家桥路)"},{"poiid":"B2094654D569A5FE479A","title":"南洋绿都(北门)","lon":"121.3704","lat":"31.18695","category":"47","category_name":"住宅区","address":"延安西路3500号"},{"poiid":"B2094757D16CA2FC4999","title":"嘉丽豪园","lon":"121.37019788","lat":"31.187300446","category":"500","category_name":"未知分类","address":"上海虹井路888弄"},{"poiid":"B2094757D06BA6F8489C","title":"京城一锅羊蝎子火锅","lon":"121.368921054","lat":"31.184934793","category":"86","category_name":"火锅店","address":"闵行区虹井路751号(近延安西路)"},{"poiid":"B2094757D66AA0F84193","title":"银子楼","lon":"121.372053","lat":"31.189044","category":"76","category_name":"上海菜","address":"长宁区程家桥路100号(近延安西路)"},{"poiid":"B2094750D26EABF94393","title":"上海金钱豹大酒店","lon":"121.371025","lat":"31.185379","category":"247","category_name":"餐饮美食","address":"闵行区延安西路3162"},{"poiid":"B2094757D16DAAFA439E","title":"JELO STUDIO","lon":"121.36874","lat":"31.18821","category":"500","category_name":"未知分类","address":"上海长宁区虹井路888弄嘉丽豪园8号504室(近西郊公园)  "},{"poiid":"B2094654DB69A6FA4292","title":"敦煌千子莲足道(虹井路店)","lon":"121.36839","lat":"31.18733","category":"162","category_name":"医院","address":"长宁区虹井路820号三层"},{"poiid":"B2094757D068A0FE449C","title":"龙柏四村","lon":"121.369531","lat":"31.182853","category":"47","category_name":"住宅区","address":"上海闵行区红松路(近兰竹路)"},{"poiid":"B2094757DB6DA5F84698","title":"布丁酒店连锁（上海虹桥机场店）","lon":"121.371323168","lat":"31.190602543","category":"216","category_name":"经济型连锁酒店","address":"长宁区虹桥路2323号(哈密路口)"},{"poiid":"B2094654D569A6FB489E","title":"虹井小区","lon":"121.36918","lat":"31.18647","category":"47","category_name":"住宅区","address":"上海闵行区虹井路788弄"},{"poiid":"B2094757D16FA1FE489D","title":"上海市动物疫病预防控制中心(牧医宠物医院)","lon":"121.366632","lat":"31.188205","category":"162","category_name":"医院","address":"上海市虹井路855弄30号"},{"poiid":"B2094751DA65A4FD4399","title":"酒藏","lon":"121.371378","lat":"31.192276","category":"247","category_name":"餐饮美食","address":"长宁区剑河路(近延安西路)"},{"poiid":"B2094757D16AA7FD499C","title":"一锅两吃","lon":"121.368274586","lat":"31.1882246098","category":"247","category_name":"餐饮美食","address":"上海市长宁区虹井路807号"},{"poiid":"B2094757D164A2FF4593","title":"加拿大落基山脉班芙国家公园","lon":"121.368947586","lat":"31.1860635675","category":"196","category_name":"公园","address":"224 Banff Ave Banff, AB T1L  "},{"poiid":"B2094654D569A6FE459F","title":"华都公寓","lon":"121.371402","lat":"31.189735","category":"47","category_name":"住宅区","address":"黄桦路422弄1-13号"},{"poiid":"B209475DD56DA0FB489C","title":"上海动物园","lon":"121.368179","lat":"31.190324","category":"250","category_name":"公园户外","address":"上海市 虹桥路虹井路"},{"poiid":"B2094757D06AAAF44092","title":"全家便利(虹井路店)","lon":"121.36811","lat":"31.18852","category":"117","category_name":"便民商店/便利店","address":"上海闵行区虹井路890号"},{"poiid":"B2094757D16AA4FD409D","title":"东北饺子王","lon":"121.36710023","lat":"31.189976084","category":"82","category_name":"东北菜","address":"长宁区剑河路2425号(安龙路仙霞路)"},{"poiid":"B2094757D06FA5F9469C","title":"西郊公园","lon":"121.366499424","lat":"31.1906089622","category":"196","category_name":"公园","address":"上海虹桥路"},{"poiid":"B2094757D06FA3FC4599","title":"上海动物园地铁站","lon":"121.36693938","lat":"31.19022555","category":"36","category_name":"地铁站","address":"上海轨道交通 十号线 轨交上海动物园站 10"},{"poiid":"B2094757D069A2F44593","title":"羊家胡同(虹井店)","lon":"121.368635451","lat":"31.1857045772","category":"86","category_name":"火锅店","address":"闵行区虹井路777号(延安西路高架)"},{"poiid":"B2094757D068A1FC439A","title":"竹北海道昆布锅","lon":"121.36858926767","lat":"31.185345447801","category":"86","category_name":"火锅店","address":"闵行区虹井路771号(近黄桦路)"},{"poiid":"B2094757D06FA5F5469B","title":"顽皮家族宠物医院(虹桥路总店)","lon":"121.36548934","lat":"31.190155323","category":"162","category_name":"医院","address":"长宁区虹桥路2393号(近动物园)"},{"poiid":"B2094655D36CA5FE499D","title":"程家桥路","lon":"121.37315","lat":"31.18759","category":"38","category_name":"公交车站","address":""},{"poiid":"B2094757D068A3F94999","title":"阿勇鲁肉饭(虹井路店)","lon":"121.36877","lat":"31.18573","category":"91","category_name":"台湾菜","address":"闵行区虹井路803号(近延安西路)"},{"poiid":"B2094757D06FA4FF4699","title":"虹桥花市","lon":"121.37098312","lat":"31.1843542105","category":"249","category_name":"购物服务","address":"闵行区虹井路718号(近金汇路)"},{"poiid":"B2094654D569AAFC429C","title":"阿山饭店","lon":"121.36647159056","lat":"31.189958417134","category":"76","category_name":"上海菜","address":"长宁区虹桥路2378号(近动物园)"},{"poiid":"B2094757D068A6FE489F","title":"虹井路","lon":"121.36887359","lat":"31.185691833","category":"500","category_name":"未知分类","address":"上海闵行区虹井路"},{"poiid":"B2094750D268A6FE429B","title":"金钱豹 延安西路店","lon":"121.37327828084","lat":"31.187941439535","category":"268","category_name":"自助","address":"长宁区延安西路3162号(近虹中路)"},{"poiid":"B2094757D068A7F5499E","title":"豪皇鲍翅 闵行店","lon":"121.37267990904","lat":"31.187658879487","category":"247","category_name":"餐饮美食","address":"闵行区程家桥路175号(近延安西路)"},{"poiid":"B2094654D569AAFC4293","title":"皇朝别墅","lon":"121.3645","lat":"31.18718","category":"47","category_name":"住宅区","address":"长宁区虹桥路2388号(近虹井路)"},{"poiid":"B2094757D068A1FC459E","title":"天鹅轩","lon":"121.36951","lat":"31.1903","category":"75","category_name":"浙江菜","address":"长宁区虹桥路2395号(近虹井路)查看地图"},{"poiid":"B2094757D069A7FA4092","title":"来兴潮菜(虹井路店)","lon":"121.36900329","lat":"31.186100006","category":"72","category_name":"广东菜","address":"闵行区虹井路789号(近延安西路)"},{"poiid":"B2094654D569A6FE479A","title":"兰奇餐厅 Frankie's Place","lon":"121.3683557893","lat":"31.185284080682","category":"110","category_name":"其他亚洲菜","address":"闵行区黄桦路546号(近虹井路)"},{"poiid":"B2094757D168A2F4429D","title":"六井品位料理","lon":"121.37132058","lat":"31.1877376","category":"95","category_name":"日本料理","address":"长宁区延安西路3300号(近虹井路)"},{"poiid":"B2094757D66BA4F5419C","title":"pizzasun","lon":"121.36725256124","lat":"31.189778276359","category":"94","category_name":"西餐厅","address":"长宁区虹井路989号(近虹桥路)"},{"poiid":"B2094757D06AA0FB4099","title":"人民公社农家菜","lon":"121.37031","lat":"31.19103","category":"87","category_name":"特色／地方风味餐厅","address":"长宁区哈密路2028号(近虹桥路)"},{"poiid":"B2094654DB65A1FF409E","title":"聚点小龙虾 虹井路店","lon":"121.368713054","lat":"31.184886793","category":"257","category_name":"中餐厅","address":"闵行区虹井路751号(近黄桦路)"},{"poiid":"B2094654D569A5FE4692","title":"上海宝京精品酒店","lon":"121.3714","lat":"31.18723","category":"250","category_name":"公园户外","address":"长宁区延安西路3300号(程家桥路虹井路之间)"},{"poiid":"B2094750D664A2F84592","title":"邱记潮汕砂锅粥(虹井路店)","lon":"121.368","lat":"31.1867","category":"72","category_name":"广东菜","address":"闵行区虹井路807号(延安西路口)"},{"poiid":"B2094757D06BA6FA429B","title":"壹柒零羊蝎子特色火锅","lon":"121.372319054","lat":"31.187211793","category":"86","category_name":"火锅店","address":"闵行区程家桥路170号(近延安路)"},{"poiid":"B2094757D66CA5FB449F","title":"上海动物园公交车站","lon":"121.36844118","lat":"31.187005085","category":"38","category_name":"公交车站","address":"上海虹井路"},{"poiid":"B2094757D06AABF94798","title":"来福生煎(虹井路店)","lon":"121.36806","lat":"31.18863","category":"68","category_name":"快餐厅","address":"闵行区虹井路892号(近延安西路)"},{"poiid":"B2094757D069A1F84092","title":"包旺锅贴(程家桥路店)","lon":"121.37243156","lat":"31.188730883","category":"68","category_name":"快餐厅","address":"闵行区程家桥路56号(近虹桥路)"},{"poiid":"B2094757D66FA3FE419A","title":"Sun Cafe &amp; Bakery","lon":"121.36798638","lat":"31.186771381","category":"112","category_name":"糕饼店","address":"长宁区虹井路898号(近虹桥路)"},{"poiid":"B2094757D66CABFA4499","title":"虹桥机场T2航站楼公司分队办公室","lon":"121.36891858","lat":"31.186308572","category":"46","category_name":"楼宇","address":"上海闵行区"},{"poiid":"B2094757D06BA3F44299","title":"布达哈有机素食餐厅 Buddha Hut","lon":"121.368317054","lat":"31.187063793","category":"89","category_name":"中式素餐馆","address":"虹井路866号近延安西路"},{"poiid":"B2094654DB6BA0FD479D","title":"莎芭天妮 虹井路店 SarBarTine","lon":"121.368824054","lat":"31.186016793","category":"112","category_name":"糕饼店","address":"闵行区虹井路878号(近虹桥路)"},{"poiid":"B2094757D66BABFF4099","title":"新招鲜本地鸡窝 黄桦路店","lon":"121.368351","lat":"31.185407","category":"86","category_name":"火锅店","address":"闵行区黄桦路349号(近红松路)"},{"poiid":"B2094654DB6BA1F54398","title":"汉庭快捷(虹桥店)","lon":"121.37427","lat":"31.18721","category":"216","category_name":"经济型连锁酒店","address":"闵行区程家桥路181号延安西路高架南侧(近金汇路程家桥路)"},{"poiid":"B2094654D569A5FE479A","title":"南洋绿都(北门)","lon":"121.3704","lat":"31.18695","category":"47","category_name":"住宅区","address":"延安西路3500号"},{"poiid":"B2094757D16CA2FC4999","title":"嘉丽豪园","lon":"121.37019788","lat":"31.187300446","category":"500","category_name":"未知分类","address":"上海虹井路888弄"},{"poiid":"B2094757D06BA6F8489C","title":"京城一锅羊蝎子火锅","lon":"121.368921054","lat":"31.184934793","category":"86","category_name":"火锅店","address":"闵行区虹井路751号(近延安西路)"},{"poiid":"B2094757D66AA0F84193","title":"银子楼","lon":"121.372053","lat":"31.189044","category":"76","category_name":"上海菜","address":"长宁区程家桥路100号(近延安西路)"},{"poiid":"B2094750D26EABF94393","title":"上海金钱豹大酒店","lon":"121.371025","lat":"31.185379","category":"247","category_name":"餐饮美食","address":"闵行区延安西路3162"},{"poiid":"B2094757D16DAAFA439E","title":"JELO STUDIO","lon":"121.36874","lat":"31.18821","category":"500","category_name":"未知分类","address":"上海长宁区虹井路888弄嘉丽豪园8号504室(近西郊公园)  "},{"poiid":"B2094654DB69A6FA4292","title":"敦煌千子莲足道(虹井路店)","lon":"121.36839","lat":"31.18733","category":"162","category_name":"医院","address":"长宁区虹井路820号三层"},{"poiid":"B2094757D068A0FE449C","title":"龙柏四村","lon":"121.369531","lat":"31.182853","category":"47","category_name":"住宅区","address":"上海闵行区红松路(近兰竹路)"},{"poiid":"B2094757DB6DA5F84698","title":"布丁酒店连锁（上海虹桥机场店）","lon":"121.371323168","lat":"31.190602543","category":"216","category_name":"经济型连锁酒店","address":"长宁区虹桥路2323号(哈密路口)"},{"poiid":"B2094654D569A6FB489E","title":"虹井小区","lon":"121.36918","lat":"31.18647","category":"47","category_name":"住宅区","address":"上海闵行区虹井路788弄"},{"poiid":"B2094757D16FA1FE489D","title":"上海市动物疫病预防控制中心(牧医宠物医院)","lon":"121.366632","lat":"31.188205","category":"162","category_name":"医院","address":"上海市虹井路855弄30号"},{"poiid":"B2094751DA65A4FD4399","title":"酒藏","lon":"121.371378","lat":"31.192276","category":"247","category_name":"餐饮美食","address":"长宁区剑河路(近延安西路)"},{"poiid":"B2094757D16AA7FD499C","title":"一锅两吃","lon":"121.368274586","lat":"31.1882246098","category":"247","category_name":"餐饮美食","address":"上海市长宁区虹井路807号"},{"poiid":"B2094757D164A2FF4593","title":"加拿大落基山脉班芙国家公园","lon":"121.368947586","lat":"31.1860635675","category":"196","category_name":"公园","address":"224 Banff Ave Banff, AB T1L  "},{"poiid":"B2094654D569A6FE459F","title":"华都公寓","lon":"121.371402","lat":"31.189735","category":"47","category_name":"住宅区","address":"黄桦路422弄1-13号"},{"poiid":"B209475DD56DA0FB489C","title":"上海动物园","lon":"121.368179","lat":"31.190324","category":"250","category_name":"公园户外","address":"上海市 虹桥路虹井路"},{"poiid":"B2094757D06AAAF44092","title":"全家便利(虹井路店)","lon":"121.36811","lat":"31.18852","category":"117","category_name":"便民商店/便利店","address":"上海闵行区虹井路890号"},{"poiid":"B2094757D16AA4FD409D","title":"东北饺子王","lon":"121.36710023","lat":"31.189976084","category":"82","category_name":"东北菜","address":"长宁区剑河路2425号(安龙路仙霞路)"}]