[{"poiid":"B2094654DA6EA7FF409A","title":"大肠面","lon":"121.48144","lat":"31.21834","category":"68","category_name":"快餐厅","address":"卢湾区复兴中路59号(吉安路东台路间)"},{"poiid":"B2094757D06FA2FF409B","title":"老西门","lon":"121.483696","lat":"31.219066","category":"250","category_name":"公园户外","address":"上海老西门"},{"poiid":"B2094757D06FA2FC479D","title":"大富贵酒楼(总店)","lon":"121.48569","lat":"31.21763","category":"76","category_name":"上海菜","address":"黄浦区中华路1409号(近梦花街)"},{"poiid":"B2094753D76FAAFA449C","title":"上海滩国泰旗舰店","lon":"121.466011","lat":"31.216125","category":"249","category_name":"购物服务","address":"淮海中路868号"},{"poiid":"B209475CD564A7F84292","title":"上海滩新天地店","lon":"121.47463","lat":"31.22164","category":"119","category_name":"商场","address":"\"太仓路181弄新天地北里15号\r\n\""},{"poiid":"B209475CD564A7F8439E","title":"上海滩中信泰富店","lon":"121.45602","lat":"31.22851","category":"119","category_name":"商场","address":"\"南京西路1168号中信泰富广场，店铺号221.\r\n\""},{"poiid":"B209475CD564A7F84392","title":"上海滩浦东香格里拉店","lon":"121.50058","lat":"31.23634","category":"119","category_name":"商场","address":"浦东富成路33号香格里拉酒店内大堂层"},{"poiid":"B2094655D269AAFA479B","title":"大马头茶餐厅","lon":"121.48304","lat":"31.21943","category":"72","category_name":"广东菜","address":"黄浦区西藏南路567号(近复兴东路)"},{"poiid":"B2094757D06EAAFB489E","title":"老西门地铁站","lon":"121.483699","lat":"31.219058","category":"36","category_name":"地铁站","address":"上海轨道交通 八号线 十号线 轨交老西门站 8 10"},{"poiid":"B2094757D06AA4FD419D","title":"格澜国际大酒店","lon":"121.482429538","lat":"31.2197208762","category":"76","category_name":"上海菜","address":"黄浦区西藏南路567号(近复兴中路)"},{"poiid":"B2094655D36CA1F4439B","title":"老西门","lon":"121.4842","lat":"31.22057","category":"38","category_name":"公交车站","address":"西藏南路方浜西路"},{"poiid":"B2094654DA6EA7F84999","title":"易买得(老西门店)","lon":"121.48337","lat":"31.21698","category":"118","category_name":"超级市场","address":"黄浦区西藏南路666号(西藏南路肇周路)"},{"poiid":"B2094757D06FA5F4489E","title":"西北狼烧烤(文庙店)","lon":"121.48861","lat":"31.21764","category":"68","category_name":"快餐厅","address":"黄浦区文庙路184号(近学前街)"},{"poiid":"B2094757D06FA3FE499D","title":"松屋 西藏南路店","lon":"121.481204","lat":"31.224029","category":"95","category_name":"日本料理","address":"黄浦区西藏南路279号弘基西门町(近淮海中路)"},{"poiid":"B2094757D06FA6F84999","title":"黄浦中心","lon":"121.48331828","lat":"31.220969198","category":"46","category_name":"楼宇","address":"上海市黄浦区中华路1600号"},{"poiid":"B2094757D068A4F94499","title":"肯德基(老西门)","lon":"121.484913738","lat":"31.2175647302","category":"68","category_name":"快餐厅","address":"上海老西门易买得"},{"poiid":"B2094757D068A2FB4299","title":"老西门(人民路方浜中路)站","lon":"121.484038664","lat":"31.2210625482","category":"38","category_name":"公交车站","address":"上海黄浦区人民路(11,220,135,736,920,911路)"},{"poiid":"B2094757D064A7F54093","title":"usher OMG world tour","lon":"121.48348473","lat":"31.219800077","category":"500","category_name":"未知分类","address":"上海梅赛德斯•奔驰文化演艺中心"},{"poiid":"B2094757D069A2F94192","title":"黄浦区卫生学校","lon":"121.48621995","lat":"31.217713083","category":"54","category_name":"职业技术学校","address":"上海梦花街234号"},{"poiid":"B2094655D26AA0FA4092","title":"地铁老西门站","lon":"121.48323","lat":"31.21837","category":"36","category_name":"地铁站","address":""},{"poiid":"B2094757D06FA5FA469D","title":"85度C(中华店)","lon":"121.485302479","lat":"31.2188424225","category":"112","category_name":"糕饼店","address":"黄浦区中华路1463号(近老西门)"},{"poiid":"B2094757D16DA3F84499","title":"黄浦区民政局","lon":"121.48325573","lat":"31.218233044","category":"500","category_name":"未知分类","address":"上海市黄浦区中华路1011号"},{"poiid":"B2094757D069A2F84099","title":"黄浦众鑫城","lon":"121.48293","lat":"31.219999","category":"47","category_name":"住宅区","address":"上海黄浦区西藏南路555弄"},{"poiid":"B2094757D468A0FF4099","title":"杰克的酒窝","lon":"121.483278","lat":"31.21809","category":"260","category_name":"其他","address":"黄浦区肇周路76号(近东台路)"},{"poiid":"B2094757D064A2FC499A","title":"红灯笼馄饨店","lon":"121.48712","lat":"31.22022","category":"68","category_name":"快餐厅","address":"黄浦区复兴东路959弄1-5号(近公交24路老西门站)"},{"poiid":"B2094757D069A3FB459A","title":"中华路复兴东路","lon":"121.4847201","lat":"31.219632484","category":"500","category_name":"未知分类","address":"上海中华路复兴东路"},{"poiid":"B2094757D16DAAFC4598","title":"黄浦区妇幼保健所","lon":"121.4852","lat":"31.21922","category":"162","category_name":"医院","address":"上海黄浦区中华路1525号4楼(复兴东路口)  "},{"poiid":"B2094655D265A0F8459E","title":"老西门茶商场","lon":"121.48403","lat":"31.21944","category":"119","category_name":"商场","address":"复兴东路1121"},{"poiid":"B2094757D169A7FA409E","title":"和平饭店华懋阁","lon":"121.48424073","lat":"31.219877079","category":"247","category_name":"餐饮美食","address":"上海黄浦区南京东路20号和平饭店9F"},{"poiid":"B2094654DB69A0F94298","title":"沈家花园(黄浦店)","lon":"121.48304","lat":"31.21943","category":"47","category_name":"住宅区","address":"黄浦区西藏南路567号"},{"poiid":"B2094655D36DA7FE449B","title":"肇周路老西门","lon":"121.48302","lat":"31.21724","category":"38","category_name":"公交车站","address":""},{"poiid":"B2094655D268A0F94398","title":"面包新语(西藏南路)","lon":"121.48355","lat":"31.21705","category":"112","category_name":"糕饼店","address":"黄浦区西藏南路666号易买得1楼(近肇周路)"},{"poiid":"B2094757D66EA2F8429D","title":"黄浦区豫园卫生服务中心","lon":"121.48427073","lat":"31.219771077","category":"500","category_name":"未知分类","address":"上海中华路1525号"},{"poiid":"B2094654DB6AA6FE419C","title":"永乐电器(老西门店)","lon":"121.4857","lat":"31.21824","category":"138","category_name":"家电电子卖场","address":"上海市黄浦区中华路1415号(近复兴东路口)"},{"poiid":"B2094654DA6EA7FE4999","title":"国际广场A座","lon":"121.4829","lat":"31.21762","category":"46","category_name":"楼宇","address":"上海东台路279号"},{"poiid":"B2094655D26FAAF5479B","title":"黄浦区红十字老年护理医院","lon":"121.48498","lat":"31.21949","category":"162","category_name":"医院","address":"中华路1495"},{"poiid":"B2094654DA6EA7F8499E","title":"永乐生活电器老西门二店","lon":"121.48336","lat":"31.21698","category":"138","category_name":"家电电子卖场","address":"上海市黄浦区西藏南路666号"},{"poiid":"B2094654DA6EA5FF4199","title":"纯香园","lon":"121.48476","lat":"31.22209","category":"76","category_name":"上海菜","address":"黄浦区方浜中路772号(近人民路)"},{"poiid":"B2094654DA6EA7FE499F","title":"国际广场B座","lon":"121.4827","lat":"31.21805","category":"46","category_name":"楼宇","address":"东台路277"},{"poiid":"B2094654DB65AAFB409D","title":"东来顺火锅 西藏南路店","lon":"121.48289696163","lat":"31.219269974767","category":"86","category_name":"火锅店","address":"西藏南路567号沈家花园1楼近复兴中路"},{"poiid":"B2094655D265ABFC469B","title":"方中排档","lon":"121.48421","lat":"31.22172","category":"257","category_name":"中餐厅","address":"方浜中路776-780"},{"poiid":"B2094654DA6EA5FC449F","title":"豫园街道社区卫生服务中心","lon":"121.48484","lat":"31.21977","category":"162","category_name":"医院","address":"黄浦区中华路1525号(近复兴中路)"},{"poiid":"B2094757D464A0F4479F","title":"乐乐新疆风味餐厅","lon":"121.482229054","lat":"31.218332793","category":"90","category_name":"清真餐馆","address":"卢湾区东台路272号(近复兴中路)"},{"poiid":"B2094655D36CA6FF429C","title":"复兴东路中华路","lon":"121.48464","lat":"31.21963","category":"38","category_name":"公交车站","address":""},{"poiid":"B2094655D26AA0FB449A","title":"爵士俱乐部","lon":"121.48304","lat":"31.21943","category":"247","category_name":"餐饮美食","address":"黄浦区西藏南路567号3楼(近复兴东路)"},{"poiid":"B2094750D76CA0FA4593","title":"AHA!果留仙(老西门店)","lon":"121.484","lat":"31.2172","category":"67","category_name":"甜品店","address":"黄浦区西藏南路666号易买得A09号商铺(近肇周路)"},{"poiid":"B2094753D268A4FC419B","title":"东方明珠","lon":"121.48706","lat":"31.220684","category":"500","category_name":"未知分类","address":"上海市 浦东区"},{"poiid":"B2094757D169A5F9439D","title":"Adidas奥特莱斯店","lon":"121.48414073","lat":"31.219683075","category":"500","category_name":"未知分类","address":"上海市青浦奥特莱斯品牌直销中心"},{"poiid":"B2094757D165A7F4499A","title":"大方美食","lon":"121.48523173","lat":"31.221756119","category":"76","category_name":"上海菜","address":"黄浦区大方弄"},{"poiid":"B2094757D66AA4FE429F","title":"越涛酒家","lon":"121.48645","lat":"31.21834","category":"68","category_name":"快餐厅","address":"卢湾区顺昌路387号(近合肥路)"},{"poiid":"B2094654DA6EA7FF409A","title":"大肠面","lon":"121.48144","lat":"31.21834","category":"68","category_name":"快餐厅","address":"卢湾区复兴中路59号(吉安路东台路间)"},{"poiid":"B2094757D06FA2FF409B","title":"老西门","lon":"121.483696","lat":"31.219066","category":"250","category_name":"公园户外","address":"上海老西门"},{"poiid":"B2094757D06FA2FC479D","title":"大富贵酒楼(总店)","lon":"121.48569","lat":"31.21763","category":"76","category_name":"上海菜","address":"黄浦区中华路1409号(近梦花街)"},{"poiid":"B2094753D76FAAFA449C","title":"上海滩国泰旗舰店","lon":"121.466011","lat":"31.216125","category":"249","category_name":"购物服务","address":"淮海中路868号"},{"poiid":"B209475CD564A7F84292","title":"上海滩新天地店","lon":"121.47463","lat":"31.22164","category":"119","category_name":"商场","address":"\"太仓路181弄新天地北里15号\r\n\""},{"poiid":"B209475CD564A7F8439E","title":"上海滩中信泰富店","lon":"121.45602","lat":"31.22851","category":"119","category_name":"商场","address":"\"南京西路1168号中信泰富广场，店铺号221.\r\n\""},{"poiid":"B209475CD564A7F84392","title":"上海滩浦东香格里拉店","lon":"121.50058","lat":"31.23634","category":"119","category_name":"商场","address":"浦东富成路33号香格里拉酒店内大堂层"},{"poiid":"B2094655D269AAFA479B","title":"大马头茶餐厅","lon":"121.48304","lat":"31.21943","category":"72","category_name":"广东菜","address":"黄浦区西藏南路567号(近复兴东路)"},{"poiid":"B2094757D06EAAFB489E","title":"老西门地铁站","lon":"121.483699","lat":"31.219058","category":"36","category_name":"地铁站","address":"上海轨道交通 八号线 十号线 轨交老西门站 8 10"},{"poiid":"B2094757D06AA4FD419D","title":"格澜国际大酒店","lon":"121.482429538","lat":"31.2197208762","category":"76","category_name":"上海菜","address":"黄浦区西藏南路567号(近复兴中路)"},{"poiid":"B2094655D36CA1F4439B","title":"老西门","lon":"121.4842","lat":"31.22057","category":"38","category_name":"公交车站","address":"西藏南路方浜西路"},{"poiid":"B2094654DA6EA7F84999","title":"易买得(老西门店)","lon":"121.48337","lat":"31.21698","category":"118","category_name":"超级市场","address":"黄浦区西藏南路666号(西藏南路肇周路)"},{"poiid":"B2094757D06FA5F4489E","title":"西北狼烧烤(文庙店)","lon":"121.48861","lat":"31.21764","category":"68","category_name":"快餐厅","address":"黄浦区文庙路184号(近学前街)"},{"poiid":"B2094757D06FA3FE499D","title":"松屋 西藏南路店","lon":"121.481204","lat":"31.224029","category":"95","category_name":"日本料理","address":"黄浦区西藏南路279号弘基西门町(近淮海中路)"},{"poiid":"B2094757D06FA6F84999","title":"黄浦中心","lon":"121.48331828","lat":"31.220969198","category":"46","category_name":"楼宇","address":"上海市黄浦区中华路1600号"},{"poiid":"B2094757D068A4F94499","title":"肯德基(老西门)","lon":"121.484913738","lat":"31.2175647302","category":"68","category_name":"快餐厅","address":"上海老西门易买得"},{"poiid":"B2094757D068A2FB4299","title":"老西门(人民路方浜中路)站","lon":"121.484038664","lat":"31.2210625482","category":"38","category_name":"公交车站","address":"上海黄浦区人民路(11,220,135,736,920,911路)"},{"poiid":"B2094757D064A7F54093","title":"usher OMG world tour","lon":"121.48348473","lat":"31.219800077","category":"500","category_name":"未知分类","address":"上海梅赛德斯•奔驰文化演艺中心"},{"poiid":"B2094757D069A2F94192","title":"黄浦区卫生学校","lon":"121.48621995","lat":"31.217713083","category":"54","category_name":"职业技术学校","address":"上海梦花街234号"},{"poiid":"B2094655D26AA0FA4092","title":"地铁老西门站","lon":"121.48323","lat":"31.21837","category":"36","category_name":"地铁站","address":""},{"poiid":"B2094757D06FA5FA469D","title":"85度C(中华店)","lon":"121.485302479","lat":"31.2188424225","category":"112","category_name":"糕饼店","address":"黄浦区中华路1463号(近老西门)"},{"poiid":"B2094757D16DA3F84499","title":"黄浦区民政局","lon":"121.48325573","lat":"31.218233044","category":"500","category_name":"未知分类","address":"上海市黄浦区中华路1011号"},{"poiid":"B2094757D069A2F84099","title":"黄浦众鑫城","lon":"121.48293","lat":"31.219999","category":"47","category_name":"住宅区","address":"上海黄浦区西藏南路555弄"},{"poiid":"B2094757D468A0FF4099","title":"杰克的酒窝","lon":"121.483278","lat":"31.21809","category":"260","category_name":"其他","address":"黄浦区肇周路76号(近东台路)"},{"poiid":"B2094757D064A2FC499A","title":"红灯笼馄饨店","lon":"121.48712","lat":"31.22022","category":"68","category_name":"快餐厅","address":"黄浦区复兴东路959弄1-5号(近公交24路老西门站)"},{"poiid":"B2094757D069A3FB459A","title":"中华路复兴东路","lon":"121.4847201","lat":"31.219632484","category":"500","category_name":"未知分类","address":"上海中华路复兴东路"},{"poiid":"B2094757D16DAAFC4598","title":"黄浦区妇幼保健所","lon":"121.4852","lat":"31.21922","category":"162","category_name":"医院","address":"上海黄浦区中华路1525号4楼(复兴东路口)  "},{"poiid":"B2094655D265A0F8459E","title":"老西门茶商场","lon":"121.48403","lat":"31.21944","category":"119","category_name":"商场","address":"复兴东路1121"},{"poiid":"B2094757D169A7FA409E","title":"和平饭店华懋阁","lon":"121.48424073","lat":"31.219877079","category":"247","category_name":"餐饮美食","address":"上海黄浦区南京东路20号和平饭店9F"},{"poiid":"B2094654DB69A0F94298","title":"沈家花园(黄浦店)","lon":"121.48304","lat":"31.21943","category":"47","category_name":"住宅区","address":"黄浦区西藏南路567号"},{"poiid":"B2094655D36DA7FE449B","title":"肇周路老西门","lon":"121.48302","lat":"31.21724","category":"38","category_name":"公交车站","address":""},{"poiid":"B2094655D268A0F94398","title":"面包新语(西藏南路)","lon":"121.48355","lat":"31.21705","category":"112","category_name":"糕饼店","address":"黄浦区西藏南路666号易买得1楼(近肇周路)"},{"poiid":"B2094757D66EA2F8429D","title":"黄浦区豫园卫生服务中心","lon":"121.48427073","lat":"31.219771077","category":"500","category_name":"未知分类","address":"上海中华路1525号"},{"poiid":"B2094654DB6AA6FE419C","title":"永乐电器(老西门店)","lon":"121.4857","lat":"31.21824","category":"138","category_name":"家电电子卖场","address":"上海市黄浦区中华路1415号(近复兴东路口)"},{"poiid":"B2094654DA6EA7FE4999","title":"国际广场A座","lon":"121.4829","lat":"31.21762","category":"46","category_name":"楼宇","address":"上海东台路279号"},{"poiid":"B2094655D26FAAF5479B","title":"黄浦区红十字老年护理医院","lon":"121.48498","lat":"31.21949","category":"162","category_name":"医院","address":"中华路1495"},{"poiid":"B2094654DA6EA7F8499E","title":"永乐生活电器老西门二店","lon":"121.48336","lat":"31.21698","category":"138","category_name":"家电电子卖场","address":"上海市黄浦区西藏南路666号"},{"poiid":"B2094654DA6EA5FF4199","title":"纯香园","lon":"121.48476","lat":"31.22209","category":"76","category_name":"上海菜","address":"黄浦区方浜中路772号(近人民路)"},{"poiid":"B2094654DA6EA7FE499F","title":"国际广场B座","lon":"121.4827","lat":"31.21805","category":"46","category_name":"楼宇","address":"东台路277"},{"poiid":"B2094654DB65AAFB409D","title":"东来顺火锅 西藏南路店","lon":"121.48289696163","lat":"31.219269974767","category":"86","category_name":"火锅店","address":"西藏南路567号沈家花园1楼近复兴中路"},{"poiid":"B2094655D265ABFC469B","title":"方中排档","lon":"121.48421","lat":"31.22172","category":"257","category_name":"中餐厅","address":"方浜中路776-780"},{"poiid":"B2094654DA6EA5FC449F","title":"豫园街道社区卫生服务中心","lon":"121.48484","lat":"31.21977","category":"162","category_name":"医院","address":"黄浦区中华路1525号(近复兴中路)"},{"poiid":"B2094757D464A0F4479F","title":"乐乐新疆风味餐厅","lon":"121.482229054","lat":"31.218332793","category":"90","category_name":"清真餐馆","address":"卢湾区东台路272号(近复兴中路)"},{"poiid":"B2094655D36CA6FF429C","title":"复兴东路中华路","lon":"121.48464","lat":"31.21963","category":"38","category_name":"公交车站","address":""},{"poiid":"B2094655D26AA0FB449A","title":"爵士俱乐部","lon":"121.48304","lat":"31.21943","category":"247","category_name":"餐饮美食","address":"黄浦区西藏南路567号3楼(近复兴东路)"},{"poiid":"B2094750D76CA0FA4593","title":"AHA!果留仙(老西门店)","lon":"121.484","lat":"31.2172","category":"67","category_name":"甜品店","address":"黄浦区西藏南路666号易买得A09号商铺(近肇周路)"},{"poiid":"B2094753D268A4FC419B","title":"东方明珠","lon":"121.48706","lat":"31.220684","category":"500","category_name":"未知分类","address":"上海市 浦东区"},{"poiid":"B2094757D169A5F9439D","title":"Adidas奥特莱斯店","lon":"121.48414073","lat":"31.219683075","category":"500","category_name":"未知分类","address":"上海市青浦奥特莱斯品牌直销中心"},{"poiid":"B2094757D165A7F4499A","title":"大方美食","lon":"121.48523173","lat":"31.221756119","category":"76","category_name":"上海菜","address":"黄浦区大方弄"},{"poiid":"B2094757D66AA4FE429F","title":"越涛酒家","lon":"121.48645","lat":"31.21834","category":"68","category_name":"快餐厅","address":"卢湾区顺昌路387号(近合肥路)"},{"poiid":"B2094654DA6EA7FF409A","title":"大肠面","lon":"121.48144","lat":"31.21834","category":"68","category_name":"快餐厅","address":"卢湾区复兴中路59号(吉安路东台路间)"},{"poiid":"B2094757D06FA2FF409B","title":"老西门","lon":"121.483696","lat":"31.219066","category":"250","category_name":"公园户外","address":"上海老西门"},{"poiid":"B2094757D06FA2FC479D","title":"大富贵酒楼(总店)","lon":"121.48569","lat":"31.21763","category":"76","category_name":"上海菜","address":"黄浦区中华路1409号(近梦花街)"},{"poiid":"B2094753D76FAAFA449C","title":"上海滩国泰旗舰店","lon":"121.466011","lat":"31.216125","category":"249","category_name":"购物服务","address":"淮海中路868号"},{"poiid":"B209475CD564A7F84292","title":"上海滩新天地店","lon":"121.47463","lat":"31.22164","category":"119","category_name":"商场","address":"\"太仓路181弄新天地北里15号\r\n\""},{"poiid":"B209475CD564A7F8439E","title":"上海滩中信泰富店","lon":"121.45602","lat":"31.22851","category":"119","category_name":"商场","address":"\"南京西路1168号中信泰富广场，店铺号221.\r\n\""},{"poiid":"B209475CD564A7F84392","title":"上海滩浦东香格里拉店","lon":"121.50058","lat":"31.23634","category":"119","category_name":"商场","address":"浦东富成路33号香格里拉酒店内大堂层"},{"poiid":"B2094655D269AAFA479B","title":"大马头茶餐厅","lon":"121.48304","lat":"31.21943","category":"72","category_name":"广东菜","address":"黄浦区西藏南路567号(近复兴东路)"},{"poiid":"B2094757D06EAAFB489E","title":"老西门地铁站","lon":"121.483699","lat":"31.219058","category":"36","category_name":"地铁站","address":"上海轨道交通 八号线 十号线 轨交老西门站 8 10"},{"poiid":"B2094757D06AA4FD419D","title":"格澜国际大酒店","lon":"121.482429538","lat":"31.2197208762","category":"76","category_name":"上海菜","address":"黄浦区西藏南路567号(近复兴中路)"},{"poiid":"B2094655D36CA1F4439B","title":"老西门","lon":"121.4842","lat":"31.22057","category":"38","category_name":"公交车站","address":"西藏南路方浜西路"},{"poiid":"B2094654DA6EA7F84999","title":"易买得(老西门店)","lon":"121.48337","lat":"31.21698","category":"118","category_name":"超级市场","address":"黄浦区西藏南路666号(西藏南路肇周路)"},{"poiid":"B2094757D06FA5F4489E","title":"西北狼烧烤(文庙店)","lon":"121.48861","lat":"31.21764","category":"68","category_name":"快餐厅","address":"黄浦区文庙路184号(近学前街)"},{"poiid":"B2094757D06FA3FE499D","title":"松屋 西藏南路店","lon":"121.481204","lat":"31.224029","category":"95","category_name":"日本料理","address":"黄浦区西藏南路279号弘基西门町(近淮海中路)"},{"poiid":"B2094757D06FA6F84999","title":"黄浦中心","lon":"121.48331828","lat":"31.220969198","category":"46","category_name":"楼宇","address":"上海市黄浦区中华路1600号"},{"poiid":"B2094757D068A4F94499","title":"肯德基(老西门)","lon":"121.484913738","lat":"31.2175647302","category":"68","category_name":"快餐厅","address":"上海老西门易买得"},{"poiid":"B2094757D068A2FB4299","title":"老西门(人民路方浜中路)站","lon":"121.484038664","lat":"31.2210625482","category":"38","category_name":"公交车站","address":"上海黄浦区人民路(11,220,135,736,920,911路)"},{"poiid":"B2094757D064A7F54093","title":"usher OMG world tour","lon":"121.48348473","lat":"31.219800077","category":"500","category_name":"未知分类","address":"上海梅赛德斯•奔驰文化演艺中心"},{"poiid":"B2094757D069A2F94192","title":"黄浦区卫生学校","lon":"121.48621995","lat":"31.217713083","category":"54","category_name":"职业技术学校","address":"上海梦花街234号"},{"poiid":"B2094655D26AA0FA4092","title":"地铁老西门站","lon":"121.48323","lat":"31.21837","category":"36","category_name":"地铁站","address":""},{"poiid":"B2094757D06FA5FA469D","title":"85度C(中华店)","lon":"121.485302479","lat":"31.2188424225","category":"112","category_name":"糕饼店","address":"黄浦区中华路1463号(近老西门)"},{"poiid":"B2094757D16DA3F84499","title":"黄浦区民政局","lon":"121.48325573","lat":"31.218233044","category":"500","category_name":"未知分类","address":"上海市黄浦区中华路1011号"},{"poiid":"B2094757D069A2F84099","title":"黄浦众鑫城","lon":"121.48293","lat":"31.219999","category":"47","category_name":"住宅区","address":"上海黄浦区西藏南路555弄"},{"poiid":"B2094757D468A0FF4099","title":"杰克的酒窝","lon":"121.483278","lat":"31.21809","category":"260","category_name":"其他","address":"黄浦区肇周路76号(近东台路)"},{"poiid":"B2094757D064A2FC499A","title":"红灯笼馄饨店","lon":"121.48712","lat":"31.22022","category":"68","category_name":"快餐厅","address":"黄浦区复兴东路959弄1-5号(近公交24路老西门站)"},{"poiid":"B2094757D069A3FB459A","title":"中华路复兴东路","lon":"121.4847201","lat":"31.219632484","category":"500","category_name":"未知分类","address":"上海中华路复兴东路"},{"poiid":"B2094757D16DAAFC4598","title":"黄浦区妇幼保健所","lon":"121.4852","lat":"31.21922","category":"162","category_name":"医院","address":"上海黄浦区中华路1525号4楼(复兴东路口)  "},{"poiid":"B2094655D265A0F8459E","title":"老西门茶商场","lon":"121.48403","lat":"31.21944","category":"119","category_name":"商场","address":"复兴东路1121"},{"poiid":"B2094757D169A7FA409E","title":"和平饭店华懋阁","lon":"121.48424073","lat":"31.219877079","category":"247","category_name":"餐饮美食","address":"上海黄浦区南京东路20号和平饭店9F"},{"poiid":"B2094654DB69A0F94298","title":"沈家花园(黄浦店)","lon":"121.48304","lat":"31.21943","category":"47","category_name":"住宅区","address":"黄浦区西藏南路567号"},{"poiid":"B2094655D36DA7FE449B","title":"肇周路老西门","lon":"121.48302","lat":"31.21724","category":"38","category_name":"公交车站","address":""},{"poiid":"B2094655D268A0F94398","title":"面包新语(西藏南路)","lon":"121.48355","lat":"31.21705","category":"112","category_name":"糕饼店","address":"黄浦区西藏南路666号易买得1楼(近肇周路)"},{"poiid":"B2094757D66EA2F8429D","title":"黄浦区豫园卫生服务中心","lon":"121.48427073","lat":"31.219771077","category":"500","category_name":"未知分类","address":"上海中华路1525号"},{"poiid":"B2094654DB6AA6FE419C","title":"永乐电器(老西门店)","lon":"121.4857","lat":"31.21824","category":"138","category_name":"家电电子卖场","address":"上海市黄浦区中华路1415号(近复兴东路口)"},{"poiid":"B2094654DA6EA7FE4999","title":"国际广场A座","lon":"121.4829","lat":"31.21762","category":"46","category_name":"楼宇","address":"上海东台路279号"},{"poiid":"B2094655D26FAAF5479B","title":"黄浦区红十字老年护理医院","lon":"121.48498","lat":"31.21949","category":"162","category_name":"医院","address":"中华路1495"},{"poiid":"B2094654DA6EA7F8499E","title":"永乐生活电器老西门二店","lon":"121.48336","lat":"31.21698","category":"138","category_name":"家电电子卖场","address":"上海市黄浦区西藏南路666号"},{"poiid":"B2094654DA6EA5FF4199","title":"纯香园","lon":"121.48476","lat":"31.22209","category":"76","category_name":"上海菜","address":"黄浦区方浜中路772号(近人民路)"},{"poiid":"B2094654DA6EA7FE499F","title":"国际广场B座","lon":"121.4827","lat":"31.21805","category":"46","category_name":"楼宇","address":"东台路277"},{"poiid":"B2094654DB65AAFB409D","title":"东来顺火锅 西藏南路店","lon":"121.48289696163","lat":"31.219269974767","category":"86","category_name":"火锅店","address":"西藏南路567号沈家花园1楼近复兴中路"},{"poiid":"B2094655D265ABFC469B","title":"方中排档","lon":"121.48421","lat":"31.22172","category":"257","category_name":"中餐厅","address":"方浜中路776-780"},{"poiid":"B2094654DA6EA5FC449F","title":"豫园街道社区卫生服务中心","lon":"121.48484","lat":"31.21977","category":"162","category_name":"医院","address":"黄浦区中华路1525号(近复兴中路)"},{"poiid":"B2094757D464A0F4479F","title":"乐乐新疆风味餐厅","lon":"121.482229054","lat":"31.218332793","category":"90","category_name":"清真餐馆","address":"卢湾区东台路272号(近复兴中路)"},{"poiid":"B2094655D36CA6FF429C","title":"复兴东路中华路","lon":"121.48464","lat":"31.21963","category":"38","category_name":"公交车站","address":""},{"poiid":"B2094655D26AA0FB449A","title":"爵士俱乐部","lon":"121.48304","lat":"31.21943","category":"247","category_name":"餐饮美食","address":"黄浦区西藏南路567号3楼(近复兴东路)"},{"poiid":"B2094750D76CA0FA4593","title":"AHA!果留仙(老西门店)","lon":"121.484","lat":"31.2172","category":"67","category_name":"甜品店","address":"黄浦区西藏南路666号易买得A09号商铺(近肇周路)"},{"poiid":"B2094753D268A4FC419B","title":"东方明珠","lon":"121.48706","lat":"31.220684","category":"500","category_name":"未知分类","address":"上海市 浦东区"},{"poiid":"B2094757D169A5F9439D","title":"Adidas奥特莱斯店","lon":"121.48414073","lat":"31.219683075","category":"500","category_name":"未知分类","address":"上海市青浦奥特莱斯品牌直销中心"},{"poiid":"B2094757D165A7F4499A","title":"大方美食","lon":"121.48523173","lat":"31.221756119","category":"76","category_name":"上海菜","address":"黄浦区大方弄"},{"poiid":"B2094757D66AA4FE429F","title":"越涛酒家","lon":"121.48645","lat":"31.21834","category":"68","category_name":"快餐厅","address":"卢湾区顺昌路387号(近合肥路)"},{"poiid":"B2094654DA6EA7FF409A","title":"大肠面","lon":"121.48144","lat":"31.21834","category":"68","category_name":"快餐厅","address":"卢湾区复兴中路59号(吉安路东台路间)"},{"poiid":"B2094757D06FA2FF409B","title":"老西门","lon":"121.483696","lat":"31.219066","category":"250","category_name":"公园户外","address":"上海老西门"},{"poiid":"B2094757D06FA2FC479D","title":"大富贵酒楼(总店)","lon":"121.48569","lat":"31.21763","category":"76","category_name":"上海菜","address":"黄浦区中华路1409号(近梦花街)"},{"poiid":"B2094753D76FAAFA449C","title":"上海滩国泰旗舰店","lon":"121.466011","lat":"31.216125","category":"249","category_name":"购物服务","address":"淮海中路868号"},{"poiid":"B209475CD564A7F84292","title":"上海滩新天地店","lon":"121.47463","lat":"31.22164","category":"119","category_name":"商场","address":"\"太仓路181弄新天地北里15号\r\n\""},{"poiid":"B209475CD564A7F8439E","title":"上海滩中信泰富店","lon":"121.45602","lat":"31.22851","category":"119","category_name":"商场","address":"\"南京西路1168号中信泰富广场，店铺号221.\r\n\""},{"poiid":"B209475CD564A7F84392","title":"上海滩浦东香格里拉店","lon":"121.50058","lat":"31.23634","category":"119","category_name":"商场","address":"浦东富成路33号香格里拉酒店内大堂层"},{"poiid":"B2094655D269AAFA479B","title":"大马头茶餐厅","lon":"121.48304","lat":"31.21943","category":"72","category_name":"广东菜","address":"黄浦区西藏南路567号(近复兴东路)"},{"poiid":"B2094757D06EAAFB489E","title":"老西门地铁站","lon":"121.483699","lat":"31.219058","category":"36","category_name":"地铁站","address":"上海轨道交通 八号线 十号线 轨交老西门站 8 10"},{"poiid":"B2094757D06AA4FD419D","title":"格澜国际大酒店","lon":"121.482429538","lat":"31.2197208762","category":"76","category_name":"上海菜","address":"黄浦区西藏南路567号(近复兴中路)"},{"poiid":"B2094655D36CA1F4439B","title":"老西门","lon":"121.4842","lat":"31.22057","category":"38","category_name":"公交车站","address":"西藏南路方浜西路"},{"poiid":"B2094654DA6EA7F84999","title":"易买得(老西门店)","lon":"121.48337","lat":"31.21698","category":"118","category_name":"超级市场","address":"黄浦区西藏南路666号(西藏南路肇周路)"},{"poiid":"B2094757D06FA5F4489E","title":"西北狼烧烤(文庙店)","lon":"121.48861","lat":"31.21764","category":"68","category_name":"快餐厅","address":"黄浦区文庙路184号(近学前街)"},{"poiid":"B2094757D06FA3FE499D","title":"松屋 西藏南路店","lon":"121.481204","lat":"31.224029","category":"95","category_name":"日本料理","address":"黄浦区西藏南路279号弘基西门町(近淮海中路)"},{"poiid":"B2094757D06FA6F84999","title":"黄浦中心","lon":"121.48331828","lat":"31.220969198","category":"46","category_name":"楼宇","address":"上海市黄浦区中华路1600号"},{"poiid":"B2094757D068A4F94499","title":"肯德基(老西门)","lon":"121.484913738","lat":"31.2175647302","category":"68","category_name":"快餐厅","address":"上海老西门易买得"},{"poiid":"B2094757D068A2FB4299","title":"老西门(人民路方浜中路)站","lon":"121.484038664","lat":"31.2210625482","category":"38","category_name":"公交车站","address":"上海黄浦区人民路(11,220,135,736,920,911路)"},{"poiid":"B2094757D064A7F54093","title":"usher OMG world tour","lon":"121.48348473","lat":"31.219800077","category":"500","category_name":"未知分类","address":"上海梅赛德斯•奔驰文化演艺中心"},{"poiid":"B2094757D069A2F94192","title":"黄浦区卫生学校","lon":"121.48621995","lat":"31.217713083","category":"54","category_name":"职业技术学校","address":"上海梦花街234号"},{"poiid":"B2094655D26AA0FA4092","title":"地铁老西门站","lon":"121.48323","lat":"31.21837","category":"36","category_name":"地铁站","address":""},{"poiid":"B2094757D06FA5FA469D","title":"85度C(中华店)","lon":"121.485302479","lat":"31.2188424225","category":"112","category_name":"糕饼店","address":"黄浦区中华路1463号(近老西门)"},{"poiid":"B2094757D16DA3F84499","title":"黄浦区民政局","lon":"121.48325573","lat":"31.218233044","category":"500","category_name":"未知分类","address":"上海市黄浦区中华路1011号"},{"poiid":"B2094757D069A2F84099","title":"黄浦众鑫城","lon":"121.48293","lat":"31.219999","category":"47","category_name":"住宅区","address":"上海黄浦区西藏南路555弄"},{"poiid":"B2094757D468A0FF4099","title":"杰克的酒窝","lon":"121.483278","lat":"31.21809","category":"260","category_name":"其他","address":"黄浦区肇周路76号(近东台路)"},{"poiid":"B2094757D064A2FC499A","title":"红灯笼馄饨店","lon":"121.48712","lat":"31.22022","category":"68","category_name":"快餐厅","address":"黄浦区复兴东路959弄1-5号(近公交24路老西门站)"},{"poiid":"B2094757D069A3FB459A","title":"中华路复兴东路","lon":"121.4847201","lat":"31.219632484","category":"500","category_name":"未知分类","address":"上海中华路复兴东路"},{"poiid":"B2094757D16DAAFC4598","title":"黄浦区妇幼保健所","lon":"121.4852","lat":"31.21922","category":"162","category_name":"医院","address":"上海黄浦区中华路1525号4楼(复兴东路口)  "},{"poiid":"B2094655D265A0F8459E","title":"老西门茶商场","lon":"121.48403","lat":"31.21944","category":"119","category_name":"商场","address":"复兴东路1121"},{"poiid":"B2094757D169A7FA409E","title":"和平饭店华懋阁","lon":"121.48424073","lat":"31.219877079","category":"247","category_name":"餐饮美食","address":"上海黄浦区南京东路20号和平饭店9F"},{"poiid":"B2094654DB69A0F94298","title":"沈家花园(黄浦店)","lon":"121.48304","lat":"31.21943","category":"47","category_name":"住宅区","address":"黄浦区西藏南路567号"},{"poiid":"B2094655D36DA7FE449B","title":"肇周路老西门","lon":"121.48302","lat":"31.21724","category":"38","category_name":"公交车站","address":""},{"poiid":"B2094655D268A0F94398","title":"面包新语(西藏南路)","lon":"121.48355","lat":"31.21705","category":"112","category_name":"糕饼店","address":"黄浦区西藏南路666号易买得1楼(近肇周路)"},{"poiid":"B2094757D66EA2F8429D","title":"黄浦区豫园卫生服务中心","lon":"121.48427073","lat":"31.219771077","category":"500","category_name":"未知分类","address":"上海中华路1525号"},{"poiid":"B2094654DB6AA6FE419C","title":"永乐电器(老西门店)","lon":"121.4857","lat":"31.21824","category":"138","category_name":"家电电子卖场","address":"上海市黄浦区中华路1415号(近复兴东路口)"},{"poiid":"B2094654DA6EA7FE4999","title":"国际广场A座","lon":"121.4829","lat":"31.21762","category":"46","category_name":"楼宇","address":"上海东台路279号"},{"poiid":"B2094655D26FAAF5479B","title":"黄浦区红十字老年护理医院","lon":"121.48498","lat":"31.21949","category":"162","category_name":"医院","address":"中华路1495"},{"poiid":"B2094654DA6EA7F8499E","title":"永乐生活电器老西门二店","lon":"121.48336","lat":"31.21698","category":"138","category_name":"家电电子卖场","address":"上海市黄浦区西藏南路666号"},{"poiid":"B2094654DA6EA5FF4199","title":"纯香园","lon":"121.48476","lat":"31.22209","category":"76","category_name":"上海菜","address":"黄浦区方浜中路772号(近人民路)"},{"poiid":"B2094654DA6EA7FE499F","title":"国际广场B座","lon":"121.4827","lat":"31.21805","category":"46","category_name":"楼宇","address":"东台路277"},{"poiid":"B2094654DB65AAFB409D","title":"东来顺火锅 西藏南路店","lon":"121.48289696163","lat":"31.219269974767","category":"86","category_name":"火锅店","address":"西藏南路567号沈家花园1楼近复兴中路"},{"poiid":"B2094655D265ABFC469B","title":"方中排档","lon":"121.48421","lat":"31.22172","category":"257","category_name":"中餐厅","address":"方浜中路776-780"},{"poiid":"B2094654DA6EA5FC449F","title":"豫园街道社区卫生服务中心","lon":"121.48484","lat":"31.21977","category":"162","category_name":"医院","address":"黄浦区中华路1525号(近复兴中路)"},{"poiid":"B2094757D464A0F4479F","title":"乐乐新疆风味餐厅","lon":"121.482229054","lat":"31.218332793","category":"90","category_name":"清真餐馆","address":"卢湾区东台路272号(近复兴中路)"},{"poiid":"B2094655D36CA6FF429C","title":"复兴东路中华路","lon":"121.48464","lat":"31.21963","category":"38","category_name":"公交车站","address":""},{"poiid":"B2094655D26AA0FB449A","title":"爵士俱乐部","lon":"121.48304","lat":"31.21943","category":"247","category_name":"餐饮美食","address":"黄浦区西藏南路567号3楼(近复兴东路)"},{"poiid":"B2094750D76CA0FA4593","title":"AHA!果留仙(老西门店)","lon":"121.484","lat":"31.2172","category":"67","category_name":"甜品店","address":"黄浦区西藏南路666号易买得A09号商铺(近肇周路)"},{"poiid":"B2094753D268A4FC419B","title":"东方明珠","lon":"121.48706","lat":"31.220684","category":"500","category_name":"未知分类","address":"上海市 浦东区"},{"poiid":"B2094757D169A5F9439D","title":"Adidas奥特莱斯店","lon":"121.48414073","lat":"31.219683075","category":"500","category_name":"未知分类","address":"上海市青浦奥特莱斯品牌直销中心"},{"poiid":"B2094757D165A7F4499A","title":"大方美食","lon":"121.48523173","lat":"31.221756119","category":"76","category_name":"上海菜","address":"黄浦区大方弄"},{"poiid":"B2094757D66AA4FE429F","title":"越涛酒家","lon":"121.48645","lat":"31.21834","category":"68","category_name":"快餐厅","address":"卢湾区顺昌路387号(近合肥路)"}]