[{"poiid":"B2094655D36CA4FE419E","title":"爱博家园","lon":"121.3085","lat":"31.20903","category":"38","category_name":"公交车站","address":"上海宁虹路"},{"poiid":"B2094757D069A7FB469B","title":"上海虹桥金古源豪生大酒店","lon":"121.30384826","lat":"31.200029373","category":"217","category_name":"旅馆招待所","address":"闵行区华翔路1989号(近虹桥机场)"},{"poiid":"B2094757D06FA1FB4492","title":"爱博家园二村","lon":"121.30612546","lat":"31.211087243","category":"47","category_name":"住宅区","address":"上海宁虹路申滨路"},{"poiid":"B2094757D068A1FC4698","title":"爱博五村","lon":"121.30659063","lat":"31.211500932","category":"252","category_name":"楼宇机构","address":"上海市闵行区天山西路申滨路"},{"poiid":"B2094757D068A4FB409C","title":"小钱龙虾馆","lon":"121.2986","lat":"31.20417","category":"87","category_name":"特色／地方风味餐厅","address":"闵行区诸翟镇纪翟南路(联华路口)"},{"poiid":"B2094757D16AA0F5409A","title":"虹桥火车站到达P9停车场","lon":"121.31151396","lat":"31.2037302886","category":"22","category_name":"火车站","address":"上海虹桥火车站到达P9停车场"},{"poiid":"B2094757D068A3FA4899","title":"诸翟","lon":"121.2920234","lat":"31.2088904","category":"500","category_name":"未知分类","address":"上海闵行区纪翟路保乐路"},{"poiid":"B2094757D068A4F8459F","title":"爱博三村","lon":"121.312302","lat":"31.20901","category":"47","category_name":"住宅区","address":"上海申滨路1058弄"},{"poiid":"B2094757D06FA5FB4992","title":"爱博一村","lon":"121.31182566","lat":"31.204816359","category":"500","category_name":"未知分类","address":"上海闵行区宁虹路1101弄"},{"poiid":"B2094757D068A4F9469F","title":"上海香港花园","lon":"121.30042","lat":"31.203123","category":"47","category_name":"住宅区","address":"上海市闵行区北翟路5188号"},{"poiid":"B2094757D16BA4F84098","title":"汉庭快捷酒店虹桥枢纽二店","lon":"121.30279656","lat":"31.208728344","category":"217","category_name":"旅馆招待所","address":"老北翟路4800号(天山西路华翔路口)"},{"poiid":"B2094757D06FA5FE409F","title":"麦当劳(华漕得来速店)","lon":"121.29202","lat":"31.20865","category":"68","category_name":"快餐厅","address":"长宁区纪翟路335弄19号(保乐路口)"},{"poiid":"B2094757D068A0F94599","title":"西郊九韵城","lon":"121.301","lat":"31.2173","category":"500","category_name":"未知分类","address":"上海闵行区繁兴路300弄"},{"poiid":"B2094753DA6FA7F94092","title":"上海虹桥机场T2航站楼","lon":"121.306015","lat":"31.207004","category":"500","category_name":"未知分类","address":"上海市 上海虹桥机场"},{"poiid":"B2094757D06FA4FB4092","title":"大润发(华漕店)","lon":"121.30579811","lat":"31.203054714","category":"118","category_name":"超级市场","address":"闵行区华漕镇繁兴路399弄2号(保乐路繁兴路)"},{"poiid":"B2094757D06AAAF4429D","title":"宁虹路申滨路","lon":"121.308636937","lat":"31.2083389931","category":"500","category_name":"未知分类","address":"上海闵行区宁虹路申滨路"},{"poiid":"B2094655D265A2FE459E","title":"上海外国语大学闵行实验学校","lon":"121.30887","lat":"31.20327","category":"55","category_name":"中学","address":""},{"poiid":"B2094655D36CA2F54692","title":"申滨路宁虹路","lon":"121.30657","lat":"31.20995","category":"38","category_name":"公交车站","address":""},{"poiid":"B2094757D168A4F94592","title":"味千拉面(淞虹路店)","lon":"121.30630556","lat":"31.210007221","category":"247","category_name":"餐饮美食","address":"上海地铁二号线淞虹路站旁休闲广场一楼"},{"poiid":"B2094752D265A7FE469B","title":"上海虹桥火车站","lon":"121.303641","lat":"31.213892","category":"500","category_name":"未知分类","address":null},{"poiid":"B2094654D56AA7FD4192","title":"零点音乐茶座","lon":"121.30536","lat":"31.21159","category":"66","category_name":"茶艺馆","address":""},{"poiid":"B2094655D26FA1FD429C","title":"金碧花园","lon":"121.30725","lat":"31.20914","category":"47","category_name":"住宅区","address":""},{"poiid":"B2094750D76DA6FC409C","title":"丽国饭店","lon":"121.31","lat":"31.2101","category":"76","category_name":"上海菜","address":"长宁区申滨路爱博三村会所附近(近宁虹路)"},{"poiid":"B2094757D66EA5FD4093","title":"焱盛记猪肚鸡","lon":"121.29929","lat":"31.20749","category":"86","category_name":"火锅店","address":"闵行区老北翟路4800号(近华翔路)"},{"poiid":"B2094750D16AA2FE4198","title":"尚古酒店","lon":"121.3129","lat":"31.20919","category":"76","category_name":"上海菜","address":"闵行区宁虹路1199号(近申滨路)"},{"poiid":"B2094654D56AA0FC479C","title":"老东北饺子馆","lon":"121.30489","lat":"31.21008","category":"87","category_name":"特色／地方风味餐厅","address":"老北翟路"},{"poiid":"B2094655D36CA0F5499B","title":"华翔路北翟路","lon":"121.30332","lat":"31.20803","category":"38","category_name":"公交车站","address":"上海杨家巷柴塘北"},{"poiid":"B2094757D66CA5F84792","title":"闵行23路公交","lon":"121.30825","lat":"31.20912","category":"500","category_name":"未知分类","address":"上海爱博家园"},{"poiid":"B2094654D56AA7FA4392","title":"川菜馆(老北翟路)","lon":"121.30641","lat":"31.21177","category":"71","category_name":"四川菜","address":""},{"poiid":"B209475CD26EA1F4469F","title":"西郊百联购物中心","lon":"121.304901","lat":"31.210512","category":"500","category_name":"未知分类","address":"上海市 仙霞西路88号百联西郊购物中心(近剑河路)"},{"poiid":"B2094654D56AABFC429C","title":"新家弄村","lon":"121.30284","lat":"31.21079","category":"47","category_name":"住宅区","address":""},{"poiid":"B2094655D36CA0F54998","title":"华翔路北翟路(临时站)","lon":"121.3033","lat":"31.20815","category":"38","category_name":"公交车站","address":""},{"poiid":"B2094654D56AABFC489F","title":"西郊河畔家园","lon":"121.29105","lat":"31.211727","category":"47","category_name":"住宅区","address":"上海市闵行区繁兴路469弄"},{"poiid":"B2094757D06BA5FE4392","title":"味千拉面","lon":"121.29274476","lat":"31.210320327","category":"95","category_name":"日本料理","address":"闵行区繁兴路399弄2号1楼商店街5号商铺(保乐路纪翟路)"},{"poiid":"B209475CD56AAAF54292","title":"人民广场","lon":"121.302825","lat":"31.210794","category":"500","category_name":"未知分类","address":"上海市 南京南路"},{"poiid":"B2094757D16DAAF94598","title":"焱盛记药膳猪肚鸡","lon":"121.30402256","lat":"31.2072711633","category":"247","category_name":"餐饮美食","address":"上海闵行区老北翟路4800号(天山西路华翔路交口)"},{"poiid":"B2094757D169A0FE409A","title":"上海机场(集团)公司实业投资管理有限公司","lon":"121.30955256","lat":"31.2132702899","category":"263","category_name":"公司","address":"上海长宁区空港一路288号"},{"poiid":"B2094655D265A3FB409C","title":"爱博二村(3号门)","lon":"121.30737","lat":"31.20524","category":"47","category_name":"住宅区","address":""},{"poiid":"B2094757D66DA5FF439D","title":"中环高架","lon":"121.31004656","lat":"31.207013157","category":"500","category_name":"未知分类","address":"上海市闵行区天山西路"},{"poiid":"B2094757D16DA1F4449B","title":"烧烤一条街","lon":"121.310501","lat":"31.208877","category":"500","category_name":"未知分类","address":"上海宁虹路爱博小区"},{"poiid":"B2094757D568A5FE459E","title":"上海市闵行区华漕爱博幼儿园","lon":"121.31048882","lat":"31.20514323","category":"57","category_name":"幼儿园","address":"中国上海市闵行区"},{"poiid":"B2094654D56AA7FD429C","title":"兰州正宗牛肉拉面(华翔路)","lon":"121.30336","lat":"31.21262","category":"90","category_name":"清真餐馆","address":""},{"poiid":"B2094654D56AA7FD429D","title":"好大丸(华翔路)","lon":"121.30329","lat":"31.21266","category":"257","category_name":"中餐厅","address":""},{"poiid":"B2094654D56AA7F9479D","title":"重庆火锅城","lon":"121.30329","lat":"31.21278","category":"86","category_name":"火锅店","address":""},{"poiid":"B2094757D164ABFA459C","title":"城市超市(诸翟店)","lon":"121.30106956","lat":"31.209555211","category":"118","category_name":"超级市场","address":"闵行区纪翟路550号华漕国际生活社区万科红郡别墅西翼(诸新路运乐路)"},{"poiid":"B2094654D56AA6FB419F","title":"紫薇新村","lon":"121.29767","lat":"31.202496","category":"47","category_name":"住宅区","address":"北翟路5120弄"},{"poiid":"B2094654D56AABFE4199","title":"犇羴鱻饮食店","lon":"121.30108","lat":"31.20917","category":"257","category_name":"中餐厅","address":""},{"poiid":"B2094757D16AA1F84892","title":"诸翟大润发康师傅私房牛肉面","lon":"121.29778476","lat":"31.210149124","category":"500","category_name":"未知分类","address":"上海诸翟大润发"},{"poiid":"B2094655D264A1FD489F","title":"爱博一村(西门)","lon":"121.30989","lat":"31.20514","category":"47","category_name":"住宅区","address":""},{"poiid":"B2094654DB6BA0FB419C","title":"上海西庭网球俱乐部和公寓","lon":"121.2937959746","lat":"31.206637571572","category":"47","category_name":"住宅区","address":"金丰路555弄"},{"poiid":"B2094655D36CA4FE419E","title":"爱博家园","lon":"121.3085","lat":"31.20903","category":"38","category_name":"公交车站","address":"上海宁虹路"},{"poiid":"B2094757D069A7FB469B","title":"上海虹桥金古源豪生大酒店","lon":"121.30384826","lat":"31.200029373","category":"217","category_name":"旅馆招待所","address":"闵行区华翔路1989号(近虹桥机场)"},{"poiid":"B2094757D06FA1FB4492","title":"爱博家园二村","lon":"121.30612546","lat":"31.211087243","category":"47","category_name":"住宅区","address":"上海宁虹路申滨路"},{"poiid":"B2094757D068A1FC4698","title":"爱博五村","lon":"121.30659063","lat":"31.211500932","category":"252","category_name":"楼宇机构","address":"上海市闵行区天山西路申滨路"},{"poiid":"B2094757D068A4FB409C","title":"小钱龙虾馆","lon":"121.2986","lat":"31.20417","category":"87","category_name":"特色／地方风味餐厅","address":"闵行区诸翟镇纪翟南路(联华路口)"},{"poiid":"B2094757D16AA0F5409A","title":"虹桥火车站到达P9停车场","lon":"121.31151396","lat":"31.2037302886","category":"22","category_name":"火车站","address":"上海虹桥火车站到达P9停车场"},{"poiid":"B2094757D068A3FA4899","title":"诸翟","lon":"121.2920234","lat":"31.2088904","category":"500","category_name":"未知分类","address":"上海闵行区纪翟路保乐路"},{"poiid":"B2094757D068A4F8459F","title":"爱博三村","lon":"121.312302","lat":"31.20901","category":"47","category_name":"住宅区","address":"上海申滨路1058弄"},{"poiid":"B2094757D06FA5FB4992","title":"爱博一村","lon":"121.31182566","lat":"31.204816359","category":"500","category_name":"未知分类","address":"上海闵行区宁虹路1101弄"},{"poiid":"B2094757D068A4F9469F","title":"上海香港花园","lon":"121.30042","lat":"31.203123","category":"47","category_name":"住宅区","address":"上海市闵行区北翟路5188号"},{"poiid":"B2094757D16BA4F84098","title":"汉庭快捷酒店虹桥枢纽二店","lon":"121.30279656","lat":"31.208728344","category":"217","category_name":"旅馆招待所","address":"老北翟路4800号(天山西路华翔路口)"},{"poiid":"B2094757D06FA5FE409F","title":"麦当劳(华漕得来速店)","lon":"121.29202","lat":"31.20865","category":"68","category_name":"快餐厅","address":"长宁区纪翟路335弄19号(保乐路口)"},{"poiid":"B2094757D068A0F94599","title":"西郊九韵城","lon":"121.301","lat":"31.2173","category":"500","category_name":"未知分类","address":"上海闵行区繁兴路300弄"},{"poiid":"B2094753DA6FA7F94092","title":"上海虹桥机场T2航站楼","lon":"121.306015","lat":"31.207004","category":"500","category_name":"未知分类","address":"上海市 上海虹桥机场"},{"poiid":"B2094757D06FA4FB4092","title":"大润发(华漕店)","lon":"121.30579811","lat":"31.203054714","category":"118","category_name":"超级市场","address":"闵行区华漕镇繁兴路399弄2号(保乐路繁兴路)"},{"poiid":"B2094757D06AAAF4429D","title":"宁虹路申滨路","lon":"121.308636937","lat":"31.2083389931","category":"500","category_name":"未知分类","address":"上海闵行区宁虹路申滨路"},{"poiid":"B2094655D265A2FE459E","title":"上海外国语大学闵行实验学校","lon":"121.30887","lat":"31.20327","category":"55","category_name":"中学","address":""},{"poiid":"B2094655D36CA2F54692","title":"申滨路宁虹路","lon":"121.30657","lat":"31.20995","category":"38","category_name":"公交车站","address":""},{"poiid":"B2094757D168A4F94592","title":"味千拉面(淞虹路店)","lon":"121.30630556","lat":"31.210007221","category":"247","category_name":"餐饮美食","address":"上海地铁二号线淞虹路站旁休闲广场一楼"},{"poiid":"B2094752D265A7FE469B","title":"上海虹桥火车站","lon":"121.303641","lat":"31.213892","category":"500","category_name":"未知分类","address":null},{"poiid":"B2094654D56AA7FD4192","title":"零点音乐茶座","lon":"121.30536","lat":"31.21159","category":"66","category_name":"茶艺馆","address":""},{"poiid":"B2094655D26FA1FD429C","title":"金碧花园","lon":"121.30725","lat":"31.20914","category":"47","category_name":"住宅区","address":""},{"poiid":"B2094750D76DA6FC409C","title":"丽国饭店","lon":"121.31","lat":"31.2101","category":"76","category_name":"上海菜","address":"长宁区申滨路爱博三村会所附近(近宁虹路)"},{"poiid":"B2094757D66EA5FD4093","title":"焱盛记猪肚鸡","lon":"121.29929","lat":"31.20749","category":"86","category_name":"火锅店","address":"闵行区老北翟路4800号(近华翔路)"},{"poiid":"B2094750D16AA2FE4198","title":"尚古酒店","lon":"121.3129","lat":"31.20919","category":"76","category_name":"上海菜","address":"闵行区宁虹路1199号(近申滨路)"},{"poiid":"B2094654D56AA0FC479C","title":"老东北饺子馆","lon":"121.30489","lat":"31.21008","category":"87","category_name":"特色／地方风味餐厅","address":"老北翟路"},{"poiid":"B2094655D36CA0F5499B","title":"华翔路北翟路","lon":"121.30332","lat":"31.20803","category":"38","category_name":"公交车站","address":"上海杨家巷柴塘北"},{"poiid":"B2094757D66CA5F84792","title":"闵行23路公交","lon":"121.30825","lat":"31.20912","category":"500","category_name":"未知分类","address":"上海爱博家园"},{"poiid":"B2094654D56AA7FA4392","title":"川菜馆(老北翟路)","lon":"121.30641","lat":"31.21177","category":"71","category_name":"四川菜","address":""},{"poiid":"B209475CD26EA1F4469F","title":"西郊百联购物中心","lon":"121.304901","lat":"31.210512","category":"500","category_name":"未知分类","address":"上海市 仙霞西路88号百联西郊购物中心(近剑河路)"},{"poiid":"B2094654D56AABFC429C","title":"新家弄村","lon":"121.30284","lat":"31.21079","category":"47","category_name":"住宅区","address":""},{"poiid":"B2094655D36CA0F54998","title":"华翔路北翟路(临时站)","lon":"121.3033","lat":"31.20815","category":"38","category_name":"公交车站","address":""},{"poiid":"B2094654D56AABFC489F","title":"西郊河畔家园","lon":"121.29105","lat":"31.211727","category":"47","category_name":"住宅区","address":"上海市闵行区繁兴路469弄"},{"poiid":"B2094757D06BA5FE4392","title":"味千拉面","lon":"121.29274476","lat":"31.210320327","category":"95","category_name":"日本料理","address":"闵行区繁兴路399弄2号1楼商店街5号商铺(保乐路纪翟路)"},{"poiid":"B209475CD56AAAF54292","title":"人民广场","lon":"121.302825","lat":"31.210794","category":"500","category_name":"未知分类","address":"上海市 南京南路"},{"poiid":"B2094757D16DAAF94598","title":"焱盛记药膳猪肚鸡","lon":"121.30402256","lat":"31.2072711633","category":"247","category_name":"餐饮美食","address":"上海闵行区老北翟路4800号(天山西路华翔路交口)"},{"poiid":"B2094757D169A0FE409A","title":"上海机场(集团)公司实业投资管理有限公司","lon":"121.30955256","lat":"31.2132702899","category":"263","category_name":"公司","address":"上海长宁区空港一路288号"},{"poiid":"B2094655D265A3FB409C","title":"爱博二村(3号门)","lon":"121.30737","lat":"31.20524","category":"47","category_name":"住宅区","address":""},{"poiid":"B2094757D66DA5FF439D","title":"中环高架","lon":"121.31004656","lat":"31.207013157","category":"500","category_name":"未知分类","address":"上海市闵行区天山西路"},{"poiid":"B2094757D16DA1F4449B","title":"烧烤一条街","lon":"121.310501","lat":"31.208877","category":"500","category_name":"未知分类","address":"上海宁虹路爱博小区"},{"poiid":"B2094757D568A5FE459E","title":"上海市闵行区华漕爱博幼儿园","lon":"121.31048882","lat":"31.20514323","category":"57","category_name":"幼儿园","address":"中国上海市闵行区"},{"poiid":"B2094654D56AA7FD429C","title":"兰州正宗牛肉拉面(华翔路)","lon":"121.30336","lat":"31.21262","category":"90","category_name":"清真餐馆","address":""},{"poiid":"B2094654D56AA7FD429D","title":"好大丸(华翔路)","lon":"121.30329","lat":"31.21266","category":"257","category_name":"中餐厅","address":""},{"poiid":"B2094654D56AA7F9479D","title":"重庆火锅城","lon":"121.30329","lat":"31.21278","category":"86","category_name":"火锅店","address":""},{"poiid":"B2094757D164ABFA459C","title":"城市超市(诸翟店)","lon":"121.30106956","lat":"31.209555211","category":"118","category_name":"超级市场","address":"闵行区纪翟路550号华漕国际生活社区万科红郡别墅西翼(诸新路运乐路)"},{"poiid":"B2094654D56AA6FB419F","title":"紫薇新村","lon":"121.29767","lat":"31.202496","category":"47","category_name":"住宅区","address":"北翟路5120弄"},{"poiid":"B2094654D56AABFE4199","title":"犇羴鱻饮食店","lon":"121.30108","lat":"31.20917","category":"257","category_name":"中餐厅","address":""},{"poiid":"B2094757D16AA1F84892","title":"诸翟大润发康师傅私房牛肉面","lon":"121.29778476","lat":"31.210149124","category":"500","category_name":"未知分类","address":"上海诸翟大润发"},{"poiid":"B2094655D264A1FD489F","title":"爱博一村(西门)","lon":"121.30989","lat":"31.20514","category":"47","category_name":"住宅区","address":""},{"poiid":"B2094654DB6BA0FB419C","title":"上海西庭网球俱乐部和公寓","lon":"121.2937959746","lat":"31.206637571572","category":"47","category_name":"住宅区","address":"金丰路555弄"},{"poiid":"B2094655D36CA4FE419E","title":"爱博家园","lon":"121.3085","lat":"31.20903","category":"38","category_name":"公交车站","address":"上海宁虹路"},{"poiid":"B2094757D069A7FB469B","title":"上海虹桥金古源豪生大酒店","lon":"121.30384826","lat":"31.200029373","category":"217","category_name":"旅馆招待所","address":"闵行区华翔路1989号(近虹桥机场)"},{"poiid":"B2094757D06FA1FB4492","title":"爱博家园二村","lon":"121.30612546","lat":"31.211087243","category":"47","category_name":"住宅区","address":"上海宁虹路申滨路"},{"poiid":"B2094757D068A1FC4698","title":"爱博五村","lon":"121.30659063","lat":"31.211500932","category":"252","category_name":"楼宇机构","address":"上海市闵行区天山西路申滨路"},{"poiid":"B2094757D068A4FB409C","title":"小钱龙虾馆","lon":"121.2986","lat":"31.20417","category":"87","category_name":"特色／地方风味餐厅","address":"闵行区诸翟镇纪翟南路(联华路口)"},{"poiid":"B2094757D16AA0F5409A","title":"虹桥火车站到达P9停车场","lon":"121.31151396","lat":"31.2037302886","category":"22","category_name":"火车站","address":"上海虹桥火车站到达P9停车场"},{"poiid":"B2094757D068A3FA4899","title":"诸翟","lon":"121.2920234","lat":"31.2088904","category":"500","category_name":"未知分类","address":"上海闵行区纪翟路保乐路"},{"poiid":"B2094757D068A4F8459F","title":"爱博三村","lon":"121.312302","lat":"31.20901","category":"47","category_name":"住宅区","address":"上海申滨路1058弄"},{"poiid":"B2094757D06FA5FB4992","title":"爱博一村","lon":"121.31182566","lat":"31.204816359","category":"500","category_name":"未知分类","address":"上海闵行区宁虹路1101弄"},{"poiid":"B2094757D068A4F9469F","title":"上海香港花园","lon":"121.30042","lat":"31.203123","category":"47","category_name":"住宅区","address":"上海市闵行区北翟路5188号"},{"poiid":"B2094757D16BA4F84098","title":"汉庭快捷酒店虹桥枢纽二店","lon":"121.30279656","lat":"31.208728344","category":"217","category_name":"旅馆招待所","address":"老北翟路4800号(天山西路华翔路口)"},{"poiid":"B2094757D06FA5FE409F","title":"麦当劳(华漕得来速店)","lon":"121.29202","lat":"31.20865","category":"68","category_name":"快餐厅","address":"长宁区纪翟路335弄19号(保乐路口)"},{"poiid":"B2094757D068A0F94599","title":"西郊九韵城","lon":"121.301","lat":"31.2173","category":"500","category_name":"未知分类","address":"上海闵行区繁兴路300弄"},{"poiid":"B2094753DA6FA7F94092","title":"上海虹桥机场T2航站楼","lon":"121.306015","lat":"31.207004","category":"500","category_name":"未知分类","address":"上海市 上海虹桥机场"},{"poiid":"B2094757D06FA4FB4092","title":"大润发(华漕店)","lon":"121.30579811","lat":"31.203054714","category":"118","category_name":"超级市场","address":"闵行区华漕镇繁兴路399弄2号(保乐路繁兴路)"},{"poiid":"B2094757D06AAAF4429D","title":"宁虹路申滨路","lon":"121.308636937","lat":"31.2083389931","category":"500","category_name":"未知分类","address":"上海闵行区宁虹路申滨路"},{"poiid":"B2094655D265A2FE459E","title":"上海外国语大学闵行实验学校","lon":"121.30887","lat":"31.20327","category":"55","category_name":"中学","address":""},{"poiid":"B2094655D36CA2F54692","title":"申滨路宁虹路","lon":"121.30657","lat":"31.20995","category":"38","category_name":"公交车站","address":""},{"poiid":"B2094757D168A4F94592","title":"味千拉面(淞虹路店)","lon":"121.30630556","lat":"31.210007221","category":"247","category_name":"餐饮美食","address":"上海地铁二号线淞虹路站旁休闲广场一楼"},{"poiid":"B2094752D265A7FE469B","title":"上海虹桥火车站","lon":"121.303641","lat":"31.213892","category":"500","category_name":"未知分类","address":null},{"poiid":"B2094654D56AA7FD4192","title":"零点音乐茶座","lon":"121.30536","lat":"31.21159","category":"66","category_name":"茶艺馆","address":""},{"poiid":"B2094655D26FA1FD429C","title":"金碧花园","lon":"121.30725","lat":"31.20914","category":"47","category_name":"住宅区","address":""},{"poiid":"B2094750D76DA6FC409C","title":"丽国饭店","lon":"121.31","lat":"31.2101","category":"76","category_name":"上海菜","address":"长宁区申滨路爱博三村会所附近(近宁虹路)"},{"poiid":"B2094757D66EA5FD4093","title":"焱盛记猪肚鸡","lon":"121.29929","lat":"31.20749","category":"86","category_name":"火锅店","address":"闵行区老北翟路4800号(近华翔路)"},{"poiid":"B2094750D16AA2FE4198","title":"尚古酒店","lon":"121.3129","lat":"31.20919","category":"76","category_name":"上海菜","address":"闵行区宁虹路1199号(近申滨路)"},{"poiid":"B2094654D56AA0FC479C","title":"老东北饺子馆","lon":"121.30489","lat":"31.21008","category":"87","category_name":"特色／地方风味餐厅","address":"老北翟路"},{"poiid":"B2094655D36CA0F5499B","title":"华翔路北翟路","lon":"121.30332","lat":"31.20803","category":"38","category_name":"公交车站","address":"上海杨家巷柴塘北"},{"poiid":"B2094757D66CA5F84792","title":"闵行23路公交","lon":"121.30825","lat":"31.20912","category":"500","category_name":"未知分类","address":"上海爱博家园"},{"poiid":"B2094654D56AA7FA4392","title":"川菜馆(老北翟路)","lon":"121.30641","lat":"31.21177","category":"71","category_name":"四川菜","address":""},{"poiid":"B209475CD26EA1F4469F","title":"西郊百联购物中心","lon":"121.304901","lat":"31.210512","category":"500","category_name":"未知分类","address":"上海市 仙霞西路88号百联西郊购物中心(近剑河路)"},{"poiid":"B2094654D56AABFC429C","title":"新家弄村","lon":"121.30284","lat":"31.21079","category":"47","category_name":"住宅区","address":""},{"poiid":"B2094655D36CA0F54998","title":"华翔路北翟路(临时站)","lon":"121.3033","lat":"31.20815","category":"38","category_name":"公交车站","address":""},{"poiid":"B2094654D56AABFC489F","title":"西郊河畔家园","lon":"121.29105","lat":"31.211727","category":"47","category_name":"住宅区","address":"上海市闵行区繁兴路469弄"},{"poiid":"B2094757D06BA5FE4392","title":"味千拉面","lon":"121.29274476","lat":"31.210320327","category":"95","category_name":"日本料理","address":"闵行区繁兴路399弄2号1楼商店街5号商铺(保乐路纪翟路)"},{"poiid":"B209475CD56AAAF54292","title":"人民广场","lon":"121.302825","lat":"31.210794","category":"500","category_name":"未知分类","address":"上海市 南京南路"},{"poiid":"B2094757D16DAAF94598","title":"焱盛记药膳猪肚鸡","lon":"121.30402256","lat":"31.2072711633","category":"247","category_name":"餐饮美食","address":"上海闵行区老北翟路4800号(天山西路华翔路交口)"},{"poiid":"B2094757D169A0FE409A","title":"上海机场(集团)公司实业投资管理有限公司","lon":"121.30955256","lat":"31.2132702899","category":"263","category_name":"公司","address":"上海长宁区空港一路288号"},{"poiid":"B2094655D265A3FB409C","title":"爱博二村(3号门)","lon":"121.30737","lat":"31.20524","category":"47","category_name":"住宅区","address":""},{"poiid":"B2094757D66DA5FF439D","title":"中环高架","lon":"121.31004656","lat":"31.207013157","category":"500","category_name":"未知分类","address":"上海市闵行区天山西路"},{"poiid":"B2094757D16DA1F4449B","title":"烧烤一条街","lon":"121.310501","lat":"31.208877","category":"500","category_name":"未知分类","address":"上海宁虹路爱博小区"},{"poiid":"B2094757D568A5FE459E","title":"上海市闵行区华漕爱博幼儿园","lon":"121.31048882","lat":"31.20514323","category":"57","category_name":"幼儿园","address":"中国上海市闵行区"},{"poiid":"B2094654D56AA7FD429C","title":"兰州正宗牛肉拉面(华翔路)","lon":"121.30336","lat":"31.21262","category":"90","category_name":"清真餐馆","address":""},{"poiid":"B2094654D56AA7FD429D","title":"好大丸(华翔路)","lon":"121.30329","lat":"31.21266","category":"257","category_name":"中餐厅","address":""},{"poiid":"B2094654D56AA7F9479D","title":"重庆火锅城","lon":"121.30329","lat":"31.21278","category":"86","category_name":"火锅店","address":""},{"poiid":"B2094757D164ABFA459C","title":"城市超市(诸翟店)","lon":"121.30106956","lat":"31.209555211","category":"118","category_name":"超级市场","address":"闵行区纪翟路550号华漕国际生活社区万科红郡别墅西翼(诸新路运乐路)"},{"poiid":"B2094654D56AA6FB419F","title":"紫薇新村","lon":"121.29767","lat":"31.202496","category":"47","category_name":"住宅区","address":"北翟路5120弄"},{"poiid":"B2094654D56AABFE4199","title":"犇羴鱻饮食店","lon":"121.30108","lat":"31.20917","category":"257","category_name":"中餐厅","address":""},{"poiid":"B2094757D16AA1F84892","title":"诸翟大润发康师傅私房牛肉面","lon":"121.29778476","lat":"31.210149124","category":"500","category_name":"未知分类","address":"上海诸翟大润发"},{"poiid":"B2094655D264A1FD489F","title":"爱博一村(西门)","lon":"121.30989","lat":"31.20514","category":"47","category_name":"住宅区","address":""},{"poiid":"B2094654DB6BA0FB419C","title":"上海西庭网球俱乐部和公寓","lon":"121.2937959746","lat":"31.206637571572","category":"47","category_name":"住宅区","address":"金丰路555弄"},{"poiid":"B2094655D36CA4FE419E","title":"爱博家园","lon":"121.3085","lat":"31.20903","category":"38","category_name":"公交车站","address":"上海宁虹路"},{"poiid":"B2094757D069A7FB469B","title":"上海虹桥金古源豪生大酒店","lon":"121.30384826","lat":"31.200029373","category":"217","category_name":"旅馆招待所","address":"闵行区华翔路1989号(近虹桥机场)"},{"poiid":"B2094757D06FA1FB4492","title":"爱博家园二村","lon":"121.30612546","lat":"31.211087243","category":"47","category_name":"住宅区","address":"上海宁虹路申滨路"},{"poiid":"B2094757D068A1FC4698","title":"爱博五村","lon":"121.30659063","lat":"31.211500932","category":"252","category_name":"楼宇机构","address":"上海市闵行区天山西路申滨路"},{"poiid":"B2094757D068A4FB409C","title":"小钱龙虾馆","lon":"121.2986","lat":"31.20417","category":"87","category_name":"特色／地方风味餐厅","address":"闵行区诸翟镇纪翟南路(联华路口)"},{"poiid":"B2094757D16AA0F5409A","title":"虹桥火车站到达P9停车场","lon":"121.31151396","lat":"31.2037302886","category":"22","category_name":"火车站","address":"上海虹桥火车站到达P9停车场"},{"poiid":"B2094757D068A3FA4899","title":"诸翟","lon":"121.2920234","lat":"31.2088904","category":"500","category_name":"未知分类","address":"上海闵行区纪翟路保乐路"},{"poiid":"B2094757D068A4F8459F","title":"爱博三村","lon":"121.312302","lat":"31.20901","category":"47","category_name":"住宅区","address":"上海申滨路1058弄"},{"poiid":"B2094757D06FA5FB4992","title":"爱博一村","lon":"121.31182566","lat":"31.204816359","category":"500","category_name":"未知分类","address":"上海闵行区宁虹路1101弄"},{"poiid":"B2094757D068A4F9469F","title":"上海香港花园","lon":"121.30042","lat":"31.203123","category":"47","category_name":"住宅区","address":"上海市闵行区北翟路5188号"},{"poiid":"B2094757D16BA4F84098","title":"汉庭快捷酒店虹桥枢纽二店","lon":"121.30279656","lat":"31.208728344","category":"217","category_name":"旅馆招待所","address":"老北翟路4800号(天山西路华翔路口)"},{"poiid":"B2094757D06FA5FE409F","title":"麦当劳(华漕得来速店)","lon":"121.29202","lat":"31.20865","category":"68","category_name":"快餐厅","address":"长宁区纪翟路335弄19号(保乐路口)"},{"poiid":"B2094757D068A0F94599","title":"西郊九韵城","lon":"121.301","lat":"31.2173","category":"500","category_name":"未知分类","address":"上海闵行区繁兴路300弄"},{"poiid":"B2094753DA6FA7F94092","title":"上海虹桥机场T2航站楼","lon":"121.306015","lat":"31.207004","category":"500","category_name":"未知分类","address":"上海市 上海虹桥机场"},{"poiid":"B2094757D06FA4FB4092","title":"大润发(华漕店)","lon":"121.30579811","lat":"31.203054714","category":"118","category_name":"超级市场","address":"闵行区华漕镇繁兴路399弄2号(保乐路繁兴路)"},{"poiid":"B2094757D06AAAF4429D","title":"宁虹路申滨路","lon":"121.308636937","lat":"31.2083389931","category":"500","category_name":"未知分类","address":"上海闵行区宁虹路申滨路"},{"poiid":"B2094655D265A2FE459E","title":"上海外国语大学闵行实验学校","lon":"121.30887","lat":"31.20327","category":"55","category_name":"中学","address":""},{"poiid":"B2094655D36CA2F54692","title":"申滨路宁虹路","lon":"121.30657","lat":"31.20995","category":"38","category_name":"公交车站","address":""},{"poiid":"B2094757D168A4F94592","title":"味千拉面(淞虹路店)","lon":"121.30630556","lat":"31.210007221","category":"247","category_name":"餐饮美食","address":"上海地铁二号线淞虹路站旁休闲广场一楼"},{"poiid":"B2094752D265A7FE469B","title":"上海虹桥火车站","lon":"121.303641","lat":"31.213892","category":"500","category_name":"未知分类","address":null},{"poiid":"B2094654D56AA7FD4192","title":"零点音乐茶座","lon":"121.30536","lat":"31.21159","category":"66","category_name":"茶艺馆","address":""},{"poiid":"B2094655D26FA1FD429C","title":"金碧花园","lon":"121.30725","lat":"31.20914","category":"47","category_name":"住宅区","address":""},{"poiid":"B2094750D76DA6FC409C","title":"丽国饭店","lon":"121.31","lat":"31.2101","category":"76","category_name":"上海菜","address":"长宁区申滨路爱博三村会所附近(近宁虹路)"},{"poiid":"B2094757D66EA5FD4093","title":"焱盛记猪肚鸡","lon":"121.29929","lat":"31.20749","category":"86","category_name":"火锅店","address":"闵行区老北翟路4800号(近华翔路)"},{"poiid":"B2094750D16AA2FE4198","title":"尚古酒店","lon":"121.3129","lat":"31.20919","category":"76","category_name":"上海菜","address":"闵行区宁虹路1199号(近申滨路)"},{"poiid":"B2094654D56AA0FC479C","title":"老东北饺子馆","lon":"121.30489","lat":"31.21008","category":"87","category_name":"特色／地方风味餐厅","address":"老北翟路"},{"poiid":"B2094655D36CA0F5499B","title":"华翔路北翟路","lon":"121.30332","lat":"31.20803","category":"38","category_name":"公交车站","address":"上海杨家巷柴塘北"},{"poiid":"B2094757D66CA5F84792","title":"闵行23路公交","lon":"121.30825","lat":"31.20912","category":"500","category_name":"未知分类","address":"上海爱博家园"},{"poiid":"B2094654D56AA7FA4392","title":"川菜馆(老北翟路)","lon":"121.30641","lat":"31.21177","category":"71","category_name":"四川菜","address":""},{"poiid":"B209475CD26EA1F4469F","title":"西郊百联购物中心","lon":"121.304901","lat":"31.210512","category":"500","category_name":"未知分类","address":"上海市 仙霞西路88号百联西郊购物中心(近剑河路)"},{"poiid":"B2094654D56AABFC429C","title":"新家弄村","lon":"121.30284","lat":"31.21079","category":"47","category_name":"住宅区","address":""},{"poiid":"B2094655D36CA0F54998","title":"华翔路北翟路(临时站)","lon":"121.3033","lat":"31.20815","category":"38","category_name":"公交车站","address":""},{"poiid":"B2094654D56AABFC489F","title":"西郊河畔家园","lon":"121.29105","lat":"31.211727","category":"47","category_name":"住宅区","address":"上海市闵行区繁兴路469弄"},{"poiid":"B2094757D06BA5FE4392","title":"味千拉面","lon":"121.29274476","lat":"31.210320327","category":"95","category_name":"日本料理","address":"闵行区繁兴路399弄2号1楼商店街5号商铺(保乐路纪翟路)"},{"poiid":"B209475CD56AAAF54292","title":"人民广场","lon":"121.302825","lat":"31.210794","category":"500","category_name":"未知分类","address":"上海市 南京南路"},{"poiid":"B2094757D16DAAF94598","title":"焱盛记药膳猪肚鸡","lon":"121.30402256","lat":"31.2072711633","category":"247","category_name":"餐饮美食","address":"上海闵行区老北翟路4800号(天山西路华翔路交口)"},{"poiid":"B2094757D169A0FE409A","title":"上海机场(集团)公司实业投资管理有限公司","lon":"121.30955256","lat":"31.2132702899","category":"263","category_name":"公司","address":"上海长宁区空港一路288号"},{"poiid":"B2094655D265A3FB409C","title":"爱博二村(3号门)","lon":"121.30737","lat":"31.20524","category":"47","category_name":"住宅区","address":""},{"poiid":"B2094757D66DA5FF439D","title":"中环高架","lon":"121.31004656","lat":"31.207013157","category":"500","category_name":"未知分类","address":"上海市闵行区天山西路"},{"poiid":"B2094757D16DA1F4449B","title":"烧烤一条街","lon":"121.310501","lat":"31.208877","category":"500","category_name":"未知分类","address":"上海宁虹路爱博小区"},{"poiid":"B2094757D568A5FE459E","title":"上海市闵行区华漕爱博幼儿园","lon":"121.31048882","lat":"31.20514323","category":"57","category_name":"幼儿园","address":"中国上海市闵行区"},{"poiid":"B2094654D56AA7FD429C","title":"兰州正宗牛肉拉面(华翔路)","lon":"121.30336","lat":"31.21262","category":"90","category_name":"清真餐馆","address":""},{"poiid":"B2094654D56AA7FD429D","title":"好大丸(华翔路)","lon":"121.30329","lat":"31.21266","category":"257","category_name":"中餐厅","address":""},{"poiid":"B2094654D56AA7F9479D","title":"重庆火锅城","lon":"121.30329","lat":"31.21278","category":"86","category_name":"火锅店","address":""},{"poiid":"B2094757D164ABFA459C","title":"城市超市(诸翟店)","lon":"121.30106956","lat":"31.209555211","category":"118","category_name":"超级市场","address":"闵行区纪翟路550号华漕国际生活社区万科红郡别墅西翼(诸新路运乐路)"},{"poiid":"B2094654D56AA6FB419F","title":"紫薇新村","lon":"121.29767","lat":"31.202496","category":"47","category_name":"住宅区","address":"北翟路5120弄"},{"poiid":"B2094654D56AABFE4199","title":"犇羴鱻饮食店","lon":"121.30108","lat":"31.20917","category":"257","category_name":"中餐厅","address":""},{"poiid":"B2094757D16AA1F84892","title":"诸翟大润发康师傅私房牛肉面","lon":"121.29778476","lat":"31.210149124","category":"500","category_name":"未知分类","address":"上海诸翟大润发"},{"poiid":"B2094655D264A1FD489F","title":"爱博一村(西门)","lon":"121.30989","lat":"31.20514","category":"47","category_name":"住宅区","address":""},{"poiid":"B2094654DB6BA0FB419C","title":"上海西庭网球俱乐部和公寓","lon":"121.2937959746","lat":"31.206637571572","category":"47","category_name":"住宅区","address":"金丰路555弄"}]