[{"poiid":"B2094757D06FA2F5419E","title":"卜蜂莲花(杨高中路店)","lon":"121.55548","lat":"31.23029","category":"118","category_name":"超级市场","address":"浦东新区杨高中路2128号"},{"poiid":"B2094654DB6BAAFC469E","title":"正大生活馆","lon":"121.55447874603271","lat":"31.231048348101393","category":"119","category_name":"商场","address":"上海浦东新区杨高中路2128号"},{"poiid":"B2094757DA6EA4F5469B","title":"鲜芋仙(正大生活馆店)","lon":"121.553948000001","lat":"31.2307359999998","category":"67","category_name":"甜品店","address":"浦东新区杨高中路2128号卜蜂莲花1楼"},{"poiid":"B2094654DB6BAAFC499A","title":"证大五道口广场","lon":"121.55026","lat":"31.22629","category":"45","category_name":"产业园区","address":"浦东新区民生路1199弄"},{"poiid":"B2094757DB6EA5FC429D","title":"蓝枪鱼酒吧","lon":"121.55625","lat":"31.229569","category":"172","category_name":"酒吧","address":"浦东新区芳甸路199号大拇指广场17号(近丁香路)"},{"poiid":"B2094757D06AA3F9489A","title":"进才中学北校苗圃校区","lon":"121.554034588","lat":"31.2350048018","category":"55","category_name":"中学","address":"上海苗圃路555号"},{"poiid":"B2094654DB6BAAFC469D","title":"一茶一坐 杨高店","lon":"121.554856054","lat":"31.230660793","category":"260","category_name":"其他","address":"浦东新区杨高中路2128号正大生活馆内(近四方路)"},{"poiid":"B2094757D06FA6FB4098","title":"上海信息大厦","lon":"121.558","lat":"31.2303","category":"46","category_name":"楼宇","address":"朝阳亚运村北炎黄艺术馆旁"},{"poiid":"B2094757D068A6F4449C","title":"味千拉面(杨高中路店)","lon":"121.55448","lat":"31.23052","category":"68","category_name":"快餐厅","address":"上海浦东新区杨高中路2128号卜蜂莲花超市1楼正大生活馆内(近芳甸路)"},{"poiid":"B2094757D069AAFC409F","title":"阿香米线(杨高中路店)","lon":"121.554282","lat":"31.230963","category":"68","category_name":"快餐厅","address":"浦东新区杨高中路2128号正大生活馆内(近四方路)"},{"poiid":"B2094757D064A7FA479B","title":"盱眙倪氏龙虾","lon":"121.55591","lat":"31.23737","category":"68","category_name":"快餐厅","address":"浦东新区羽山路983号(南洋泾路羽山路)"},{"poiid":"B2094654DA69A2F44998","title":"联洋花园","lon":"121.55357","lat":"31.227642","category":"47","category_name":"住宅区","address":"丁香路901弄"},{"poiid":"B2094757D069AAFC429F","title":"百春原南味粉面","lon":"121.55412673","lat":"31.231033317","category":"68","category_name":"快餐厅","address":"浦东新区杨高中路2128号正大生活馆1楼(世纪公园)"},{"poiid":"B2094654DB64A6FB4293","title":"汉庭快捷(联洋店)","lon":"121.55742","lat":"31.23176","category":"216","category_name":"经济型连锁酒店","address":"上海市浦东新区杨高中路2108号(近芳甸路)"},{"poiid":"B2094757D464A4FE4293","title":"萨莉亚 杨高中路店","lon":"121.55471","lat":"31.230562","category":"94","category_name":"西餐厅","address":"浦东新区杨高中路2128号正大生活馆内(近四方路)"},{"poiid":"B2094757D069A6FF499B","title":"苗圃路张扬路","lon":"121.550906","lat":"31.237402","category":"500","category_name":"未知分类","address":"上海苗圃路张扬路"},{"poiid":"B2094750D76EABFD439B","title":"K Cafe&Zakka","lon":"121.553","lat":"31.2336","category":"260","category_name":"其他","address":"浦东新区苗圃路596号(近羽山路)"},{"poiid":"B2094655D26DA6F84899","title":"肯德基 杨高中路店 KFC","lon":"121.554856054","lat":"31.230660793","category":"68","category_name":"快餐厅","address":"浦东新区杨高中路2128号正大生活馆内(近四方路)"},{"poiid":"B2094751D264ABFE499A","title":"CoCo壱番屋","lon":"121.55394","lat":"31.23073","category":"95","category_name":"日本料理","address":"浦东新区杨高中路2128号正大生活馆1楼(近四方路)"},{"poiid":"B2094654DA69A2FB499F","title":"灵山大楼","lon":"121.55115","lat":"31.23171","category":"46","category_name":"楼宇","address":"灵山路800号"},{"poiid":"B2094655D26BA0FC4198","title":"上海交通大学医学院附属仁济医院北院","lon":"121.55102","lat":"31.23343","category":"162","category_name":"医院","address":"浦东新区灵山路(巨野路口)"},{"poiid":"B2094757D069A3F8499C","title":"阿迪达斯折扣店(正大生活馆店)","lon":"121.55447","lat":"31.23052","category":"140","category_name":"体育用品店","address":"浦东新区杨高中路2128号正大生活馆内(近四方路)"},{"poiid":"B2094757D06BA2FA409E","title":"杨高中路","lon":"121.554208","lat":"31.230798","category":"500","category_name":"未知分类","address":"上海杨高中路"},{"poiid":"B2094757D168A4FF4793","title":"洋泾社区卫生服务中心","lon":"121.55239573","lat":"31.232482348","category":"500","category_name":"未知分类","address":"浦东新区灵山路885号(近四方路)"},{"poiid":"B2094757D165A7FF479C","title":"易初莲花","lon":"121.551837738","lat":"31.2341403834","category":"249","category_name":"购物服务","address":"上海市浦东新区杨高中路"},{"poiid":"B2094654DA69A2F4469B","title":"新城海上名园","lon":"121.55189","lat":"31.23035","category":"47","category_name":"住宅区","address":"上海市浦东新区四方路98号"},{"poiid":"B2094757D568ABFC4993","title":"上海浦东慈善医院","lon":"121.55197862","lat":"31.23285075","category":"162","category_name":"医院","address":"灵山路885"},{"poiid":"B2094654DA69A3FE499F","title":"汇商大厦","lon":"121.556","lat":"31.2309","category":"46","category_name":"楼宇","address":"上海浦东新区民生路1286号"},{"poiid":"B2094757D465A5F4429A","title":"唐恩都乐 杨高中路店 Dunkin Donuts","lon":"121.55398","lat":"31.2309","category":"67","category_name":"甜品店","address":"浦东新区杨高中路2128号正大生活馆内(近四方路)"},{"poiid":"B2094757DA69A3F94099","title":"卜蜂莲花Lotus-上海","lon":"121.55538","lat":"31.231","category":"67","category_name":"甜品店","address":"浦东新区杨高中路2128号正大广场内(近芳甸路)"},{"poiid":"B2094757D069A2FA4299","title":"盘古烤肉 正大生活馆店","lon":"121.554844054","lat":"31.230679793","category":"257","category_name":"中餐厅","address":"浦东新区杨高中路2128号正大生活馆内(近四方路)"},{"poiid":"B2094753D76CA6F94899","title":"上海科技馆","lon":"121.552764","lat":"31.231647","category":"500","category_name":"未知分类","address":"上海市 上海科技馆"},{"poiid":"B2094654DA69A2F44098","title":"冠镭中心","lon":"121.55293","lat":"31.23257","category":"46","category_name":"楼宇","address":"灵山路958号"},{"poiid":"B2094654DA69A2FB499C","title":"克丽缇娜No.17773","lon":"121.55147","lat":"31.232","category":"148","category_name":"美容美发店","address":"灵山路826号"},{"poiid":"B2094752D66BA1FD4999","title":"世纪大道地铁站","lon":"121.548349","lat":"31.234841","category":"36","category_name":"地铁站","address":"东方路世纪大道"},{"poiid":"B2094750DA68A6FA499B","title":"新石器烤肉","lon":"121.554046","lat":"31.231174","category":"247","category_name":"餐饮美食","address":null},{"poiid":"B2094751D56EA0F9419D","title":"Baskin Robbins(正大生活广场店)","lon":"121.5547","lat":"31.23105","category":"113","category_name":"冷饮店","address":"浦东新区杨高中路2128号正大生活馆1楼(近芳甸路)"},{"poiid":"B2094757D46FAAFB459E","title":"永和豆浆 易初莲花店","lon":"121.554856054","lat":"31.230660793","category":"68","category_name":"快餐厅","address":"杨高中路2128号易初莲花超市1楼正大生活馆近南洋泾路"},{"poiid":"B2094751D564A1FA4192","title":"竹若","lon":"121.555084","lat":"31.229161","category":"247","category_name":"餐饮美食","address":"浦东新区芳甸路199弄大拇指广场51号(近丁香路)"},{"poiid":"B2094655D26DA1FE409F","title":"舟渔人家","lon":"121.55686","lat":"31.23268","category":"75","category_name":"浙江菜","address":"浦东新区杨高中路2108号汉庭宾馆后面(南洋泾路口)"},{"poiid":"B209475DD26AAAFA4193","title":"上海万信国际酒店","lon":"121.554107","lat":"31.232679","category":"500","category_name":"未知分类","address":"上海市 陆家嘴店"},{"poiid":"B2094655D26DA1FD469D","title":"申舟明林苑(西大门)","lon":"121.55138","lat":"31.23196","category":"47","category_name":"住宅区","address":"灵山路858弄1-4号"},{"poiid":"B2094757D068ABF44399","title":"盛南易初莲花(杨高中路店)","lon":"121.555391","lat":"31.231002","category":"118","category_name":"超级市场","address":"上海浦东新区杨高中路2128号"},{"poiid":"B2094655D268A0FF4599","title":"灵山大楼(北门)","lon":"121.55091","lat":"31.23179","category":"47","category_name":"住宅区","address":"灵山路800"},{"poiid":"B2094654DB69A4FE4699","title":"屈臣氏(杨高南路店)","lon":"121.55421","lat":"31.23079","category":"118","category_name":"超级市场","address":"浦东新区杨高中路2128号易初莲花1楼"},{"poiid":"B2094752D06BA4FC4598","title":"御龙湾会所","lon":"121.55264","lat":"31.233034","category":"247","category_name":"餐饮美食","address":"杨高中路2112号"},{"poiid":"B2094757D068A5FD4893","title":"联洋社区","lon":"121.55323028","lat":"31.226751327","category":"47","category_name":"住宅区","address":"上海丁香路"},{"poiid":"B2094753DA68A1FC4299","title":"上海新国际博览中心","lon":"121.553657","lat":"31.231733","category":"500","category_name":"未知分类","address":"上海市 龙阳路2345号"},{"poiid":"B2094757D66EA4FB419F","title":"爱乐游","lon":"121.55596167","lat":"31.230761073","category":"500","category_name":"未知分类","address":"上海杨高中路卜蜂莲花"},{"poiid":"B2094757D465A6F8469B","title":"争鲜回转寿司 杨高中路店","lon":"121.554856054","lat":"31.230660793","category":"247","category_name":"餐饮美食","address":"浦东新区杨高中路2128号正大生活馆内(近四方路)"},{"poiid":"B2094757D06FA2F5419E","title":"卜蜂莲花(杨高中路店)","lon":"121.55548","lat":"31.23029","category":"118","category_name":"超级市场","address":"浦东新区杨高中路2128号"},{"poiid":"B2094654DB6BAAFC469E","title":"正大生活馆","lon":"121.55447874603271","lat":"31.231048348101393","category":"119","category_name":"商场","address":"上海浦东新区杨高中路2128号"},{"poiid":"B2094757DA6EA4F5469B","title":"鲜芋仙(正大生活馆店)","lon":"121.553948000001","lat":"31.2307359999998","category":"67","category_name":"甜品店","address":"浦东新区杨高中路2128号卜蜂莲花1楼"},{"poiid":"B2094654DB6BAAFC499A","title":"证大五道口广场","lon":"121.55026","lat":"31.22629","category":"45","category_name":"产业园区","address":"浦东新区民生路1199弄"},{"poiid":"B2094757DB6EA5FC429D","title":"蓝枪鱼酒吧","lon":"121.55625","lat":"31.229569","category":"172","category_name":"酒吧","address":"浦东新区芳甸路199号大拇指广场17号(近丁香路)"},{"poiid":"B2094757D06AA3F9489A","title":"进才中学北校苗圃校区","lon":"121.554034588","lat":"31.2350048018","category":"55","category_name":"中学","address":"上海苗圃路555号"},{"poiid":"B2094654DB6BAAFC469D","title":"一茶一坐 杨高店","lon":"121.554856054","lat":"31.230660793","category":"260","category_name":"其他","address":"浦东新区杨高中路2128号正大生活馆内(近四方路)"},{"poiid":"B2094757D06FA6FB4098","title":"上海信息大厦","lon":"121.558","lat":"31.2303","category":"46","category_name":"楼宇","address":"朝阳亚运村北炎黄艺术馆旁"},{"poiid":"B2094757D068A6F4449C","title":"味千拉面(杨高中路店)","lon":"121.55448","lat":"31.23052","category":"68","category_name":"快餐厅","address":"上海浦东新区杨高中路2128号卜蜂莲花超市1楼正大生活馆内(近芳甸路)"},{"poiid":"B2094757D069AAFC409F","title":"阿香米线(杨高中路店)","lon":"121.554282","lat":"31.230963","category":"68","category_name":"快餐厅","address":"浦东新区杨高中路2128号正大生活馆内(近四方路)"},{"poiid":"B2094757D064A7FA479B","title":"盱眙倪氏龙虾","lon":"121.55591","lat":"31.23737","category":"68","category_name":"快餐厅","address":"浦东新区羽山路983号(南洋泾路羽山路)"},{"poiid":"B2094654DA69A2F44998","title":"联洋花园","lon":"121.55357","lat":"31.227642","category":"47","category_name":"住宅区","address":"丁香路901弄"},{"poiid":"B2094757D069AAFC429F","title":"百春原南味粉面","lon":"121.55412673","lat":"31.231033317","category":"68","category_name":"快餐厅","address":"浦东新区杨高中路2128号正大生活馆1楼(世纪公园)"},{"poiid":"B2094654DB64A6FB4293","title":"汉庭快捷(联洋店)","lon":"121.55742","lat":"31.23176","category":"216","category_name":"经济型连锁酒店","address":"上海市浦东新区杨高中路2108号(近芳甸路)"},{"poiid":"B2094757D464A4FE4293","title":"萨莉亚 杨高中路店","lon":"121.55471","lat":"31.230562","category":"94","category_name":"西餐厅","address":"浦东新区杨高中路2128号正大生活馆内(近四方路)"},{"poiid":"B2094757D069A6FF499B","title":"苗圃路张扬路","lon":"121.550906","lat":"31.237402","category":"500","category_name":"未知分类","address":"上海苗圃路张扬路"},{"poiid":"B2094750D76EABFD439B","title":"K Cafe&Zakka","lon":"121.553","lat":"31.2336","category":"260","category_name":"其他","address":"浦东新区苗圃路596号(近羽山路)"},{"poiid":"B2094655D26DA6F84899","title":"肯德基 杨高中路店 KFC","lon":"121.554856054","lat":"31.230660793","category":"68","category_name":"快餐厅","address":"浦东新区杨高中路2128号正大生活馆内(近四方路)"},{"poiid":"B2094751D264ABFE499A","title":"CoCo壱番屋","lon":"121.55394","lat":"31.23073","category":"95","category_name":"日本料理","address":"浦东新区杨高中路2128号正大生活馆1楼(近四方路)"},{"poiid":"B2094654DA69A2FB499F","title":"灵山大楼","lon":"121.55115","lat":"31.23171","category":"46","category_name":"楼宇","address":"灵山路800号"},{"poiid":"B2094655D26BA0FC4198","title":"上海交通大学医学院附属仁济医院北院","lon":"121.55102","lat":"31.23343","category":"162","category_name":"医院","address":"浦东新区灵山路(巨野路口)"},{"poiid":"B2094757D069A3F8499C","title":"阿迪达斯折扣店(正大生活馆店)","lon":"121.55447","lat":"31.23052","category":"140","category_name":"体育用品店","address":"浦东新区杨高中路2128号正大生活馆内(近四方路)"},{"poiid":"B2094757D06BA2FA409E","title":"杨高中路","lon":"121.554208","lat":"31.230798","category":"500","category_name":"未知分类","address":"上海杨高中路"},{"poiid":"B2094757D168A4FF4793","title":"洋泾社区卫生服务中心","lon":"121.55239573","lat":"31.232482348","category":"500","category_name":"未知分类","address":"浦东新区灵山路885号(近四方路)"},{"poiid":"B2094757D165A7FF479C","title":"易初莲花","lon":"121.551837738","lat":"31.2341403834","category":"249","category_name":"购物服务","address":"上海市浦东新区杨高中路"},{"poiid":"B2094654DA69A2F4469B","title":"新城海上名园","lon":"121.55189","lat":"31.23035","category":"47","category_name":"住宅区","address":"上海市浦东新区四方路98号"},{"poiid":"B2094757D568ABFC4993","title":"上海浦东慈善医院","lon":"121.55197862","lat":"31.23285075","category":"162","category_name":"医院","address":"灵山路885"},{"poiid":"B2094654DA69A3FE499F","title":"汇商大厦","lon":"121.556","lat":"31.2309","category":"46","category_name":"楼宇","address":"上海浦东新区民生路1286号"},{"poiid":"B2094757D465A5F4429A","title":"唐恩都乐 杨高中路店 Dunkin Donuts","lon":"121.55398","lat":"31.2309","category":"67","category_name":"甜品店","address":"浦东新区杨高中路2128号正大生活馆内(近四方路)"},{"poiid":"B2094757DA69A3F94099","title":"卜蜂莲花Lotus-上海","lon":"121.55538","lat":"31.231","category":"67","category_name":"甜品店","address":"浦东新区杨高中路2128号正大广场内(近芳甸路)"},{"poiid":"B2094757D069A2FA4299","title":"盘古烤肉 正大生活馆店","lon":"121.554844054","lat":"31.230679793","category":"257","category_name":"中餐厅","address":"浦东新区杨高中路2128号正大生活馆内(近四方路)"},{"poiid":"B2094753D76CA6F94899","title":"上海科技馆","lon":"121.552764","lat":"31.231647","category":"500","category_name":"未知分类","address":"上海市 上海科技馆"},{"poiid":"B2094654DA69A2F44098","title":"冠镭中心","lon":"121.55293","lat":"31.23257","category":"46","category_name":"楼宇","address":"灵山路958号"},{"poiid":"B2094654DA69A2FB499C","title":"克丽缇娜No.17773","lon":"121.55147","lat":"31.232","category":"148","category_name":"美容美发店","address":"灵山路826号"},{"poiid":"B2094752D66BA1FD4999","title":"世纪大道地铁站","lon":"121.548349","lat":"31.234841","category":"36","category_name":"地铁站","address":"东方路世纪大道"},{"poiid":"B2094750DA68A6FA499B","title":"新石器烤肉","lon":"121.554046","lat":"31.231174","category":"247","category_name":"餐饮美食","address":null},{"poiid":"B2094751D56EA0F9419D","title":"Baskin Robbins(正大生活广场店)","lon":"121.5547","lat":"31.23105","category":"113","category_name":"冷饮店","address":"浦东新区杨高中路2128号正大生活馆1楼(近芳甸路)"},{"poiid":"B2094757D46FAAFB459E","title":"永和豆浆 易初莲花店","lon":"121.554856054","lat":"31.230660793","category":"68","category_name":"快餐厅","address":"杨高中路2128号易初莲花超市1楼正大生活馆近南洋泾路"},{"poiid":"B2094751D564A1FA4192","title":"竹若","lon":"121.555084","lat":"31.229161","category":"247","category_name":"餐饮美食","address":"浦东新区芳甸路199弄大拇指广场51号(近丁香路)"},{"poiid":"B2094655D26DA1FE409F","title":"舟渔人家","lon":"121.55686","lat":"31.23268","category":"75","category_name":"浙江菜","address":"浦东新区杨高中路2108号汉庭宾馆后面(南洋泾路口)"},{"poiid":"B209475DD26AAAFA4193","title":"上海万信国际酒店","lon":"121.554107","lat":"31.232679","category":"500","category_name":"未知分类","address":"上海市 陆家嘴店"},{"poiid":"B2094655D26DA1FD469D","title":"申舟明林苑(西大门)","lon":"121.55138","lat":"31.23196","category":"47","category_name":"住宅区","address":"灵山路858弄1-4号"},{"poiid":"B2094757D068ABF44399","title":"盛南易初莲花(杨高中路店)","lon":"121.555391","lat":"31.231002","category":"118","category_name":"超级市场","address":"上海浦东新区杨高中路2128号"},{"poiid":"B2094655D268A0FF4599","title":"灵山大楼(北门)","lon":"121.55091","lat":"31.23179","category":"47","category_name":"住宅区","address":"灵山路800"},{"poiid":"B2094654DB69A4FE4699","title":"屈臣氏(杨高南路店)","lon":"121.55421","lat":"31.23079","category":"118","category_name":"超级市场","address":"浦东新区杨高中路2128号易初莲花1楼"},{"poiid":"B2094752D06BA4FC4598","title":"御龙湾会所","lon":"121.55264","lat":"31.233034","category":"247","category_name":"餐饮美食","address":"杨高中路2112号"},{"poiid":"B2094757D068A5FD4893","title":"联洋社区","lon":"121.55323028","lat":"31.226751327","category":"47","category_name":"住宅区","address":"上海丁香路"},{"poiid":"B2094753DA68A1FC4299","title":"上海新国际博览中心","lon":"121.553657","lat":"31.231733","category":"500","category_name":"未知分类","address":"上海市 龙阳路2345号"},{"poiid":"B2094757D66EA4FB419F","title":"爱乐游","lon":"121.55596167","lat":"31.230761073","category":"500","category_name":"未知分类","address":"上海杨高中路卜蜂莲花"},{"poiid":"B2094757D465A6F8469B","title":"争鲜回转寿司 杨高中路店","lon":"121.554856054","lat":"31.230660793","category":"247","category_name":"餐饮美食","address":"浦东新区杨高中路2128号正大生活馆内(近四方路)"},{"poiid":"B2094757D06FA2F5419E","title":"卜蜂莲花(杨高中路店)","lon":"121.55548","lat":"31.23029","category":"118","category_name":"超级市场","address":"浦东新区杨高中路2128号"},{"poiid":"B2094654DB6BAAFC469E","title":"正大生活馆","lon":"121.55447874603271","lat":"31.231048348101393","category":"119","category_name":"商场","address":"上海浦东新区杨高中路2128号"},{"poiid":"B2094757DA6EA4F5469B","title":"鲜芋仙(正大生活馆店)","lon":"121.553948000001","lat":"31.2307359999998","category":"67","category_name":"甜品店","address":"浦东新区杨高中路2128号卜蜂莲花1楼"},{"poiid":"B2094654DB6BAAFC499A","title":"证大五道口广场","lon":"121.55026","lat":"31.22629","category":"45","category_name":"产业园区","address":"浦东新区民生路1199弄"},{"poiid":"B2094757DB6EA5FC429D","title":"蓝枪鱼酒吧","lon":"121.55625","lat":"31.229569","category":"172","category_name":"酒吧","address":"浦东新区芳甸路199号大拇指广场17号(近丁香路)"},{"poiid":"B2094757D06AA3F9489A","title":"进才中学北校苗圃校区","lon":"121.554034588","lat":"31.2350048018","category":"55","category_name":"中学","address":"上海苗圃路555号"},{"poiid":"B2094654DB6BAAFC469D","title":"一茶一坐 杨高店","lon":"121.554856054","lat":"31.230660793","category":"260","category_name":"其他","address":"浦东新区杨高中路2128号正大生活馆内(近四方路)"},{"poiid":"B2094757D06FA6FB4098","title":"上海信息大厦","lon":"121.558","lat":"31.2303","category":"46","category_name":"楼宇","address":"朝阳亚运村北炎黄艺术馆旁"},{"poiid":"B2094757D068A6F4449C","title":"味千拉面(杨高中路店)","lon":"121.55448","lat":"31.23052","category":"68","category_name":"快餐厅","address":"上海浦东新区杨高中路2128号卜蜂莲花超市1楼正大生活馆内(近芳甸路)"},{"poiid":"B2094757D069AAFC409F","title":"阿香米线(杨高中路店)","lon":"121.554282","lat":"31.230963","category":"68","category_name":"快餐厅","address":"浦东新区杨高中路2128号正大生活馆内(近四方路)"},{"poiid":"B2094757D064A7FA479B","title":"盱眙倪氏龙虾","lon":"121.55591","lat":"31.23737","category":"68","category_name":"快餐厅","address":"浦东新区羽山路983号(南洋泾路羽山路)"},{"poiid":"B2094654DA69A2F44998","title":"联洋花园","lon":"121.55357","lat":"31.227642","category":"47","category_name":"住宅区","address":"丁香路901弄"},{"poiid":"B2094757D069AAFC429F","title":"百春原南味粉面","lon":"121.55412673","lat":"31.231033317","category":"68","category_name":"快餐厅","address":"浦东新区杨高中路2128号正大生活馆1楼(世纪公园)"},{"poiid":"B2094654DB64A6FB4293","title":"汉庭快捷(联洋店)","lon":"121.55742","lat":"31.23176","category":"216","category_name":"经济型连锁酒店","address":"上海市浦东新区杨高中路2108号(近芳甸路)"},{"poiid":"B2094757D464A4FE4293","title":"萨莉亚 杨高中路店","lon":"121.55471","lat":"31.230562","category":"94","category_name":"西餐厅","address":"浦东新区杨高中路2128号正大生活馆内(近四方路)"},{"poiid":"B2094757D069A6FF499B","title":"苗圃路张扬路","lon":"121.550906","lat":"31.237402","category":"500","category_name":"未知分类","address":"上海苗圃路张扬路"},{"poiid":"B2094750D76EABFD439B","title":"K Cafe&Zakka","lon":"121.553","lat":"31.2336","category":"260","category_name":"其他","address":"浦东新区苗圃路596号(近羽山路)"},{"poiid":"B2094655D26DA6F84899","title":"肯德基 杨高中路店 KFC","lon":"121.554856054","lat":"31.230660793","category":"68","category_name":"快餐厅","address":"浦东新区杨高中路2128号正大生活馆内(近四方路)"},{"poiid":"B2094751D264ABFE499A","title":"CoCo壱番屋","lon":"121.55394","lat":"31.23073","category":"95","category_name":"日本料理","address":"浦东新区杨高中路2128号正大生活馆1楼(近四方路)"},{"poiid":"B2094654DA69A2FB499F","title":"灵山大楼","lon":"121.55115","lat":"31.23171","category":"46","category_name":"楼宇","address":"灵山路800号"},{"poiid":"B2094655D26BA0FC4198","title":"上海交通大学医学院附属仁济医院北院","lon":"121.55102","lat":"31.23343","category":"162","category_name":"医院","address":"浦东新区灵山路(巨野路口)"},{"poiid":"B2094757D069A3F8499C","title":"阿迪达斯折扣店(正大生活馆店)","lon":"121.55447","lat":"31.23052","category":"140","category_name":"体育用品店","address":"浦东新区杨高中路2128号正大生活馆内(近四方路)"},{"poiid":"B2094757D06BA2FA409E","title":"杨高中路","lon":"121.554208","lat":"31.230798","category":"500","category_name":"未知分类","address":"上海杨高中路"},{"poiid":"B2094757D168A4FF4793","title":"洋泾社区卫生服务中心","lon":"121.55239573","lat":"31.232482348","category":"500","category_name":"未知分类","address":"浦东新区灵山路885号(近四方路)"},{"poiid":"B2094757D165A7FF479C","title":"易初莲花","lon":"121.551837738","lat":"31.2341403834","category":"249","category_name":"购物服务","address":"上海市浦东新区杨高中路"},{"poiid":"B2094654DA69A2F4469B","title":"新城海上名园","lon":"121.55189","lat":"31.23035","category":"47","category_name":"住宅区","address":"上海市浦东新区四方路98号"},{"poiid":"B2094757D568ABFC4993","title":"上海浦东慈善医院","lon":"121.55197862","lat":"31.23285075","category":"162","category_name":"医院","address":"灵山路885"},{"poiid":"B2094654DA69A3FE499F","title":"汇商大厦","lon":"121.556","lat":"31.2309","category":"46","category_name":"楼宇","address":"上海浦东新区民生路1286号"},{"poiid":"B2094757D465A5F4429A","title":"唐恩都乐 杨高中路店 Dunkin Donuts","lon":"121.55398","lat":"31.2309","category":"67","category_name":"甜品店","address":"浦东新区杨高中路2128号正大生活馆内(近四方路)"},{"poiid":"B2094757DA69A3F94099","title":"卜蜂莲花Lotus-上海","lon":"121.55538","lat":"31.231","category":"67","category_name":"甜品店","address":"浦东新区杨高中路2128号正大广场内(近芳甸路)"},{"poiid":"B2094757D069A2FA4299","title":"盘古烤肉 正大生活馆店","lon":"121.554844054","lat":"31.230679793","category":"257","category_name":"中餐厅","address":"浦东新区杨高中路2128号正大生活馆内(近四方路)"},{"poiid":"B2094753D76CA6F94899","title":"上海科技馆","lon":"121.552764","lat":"31.231647","category":"500","category_name":"未知分类","address":"上海市 上海科技馆"},{"poiid":"B2094654DA69A2F44098","title":"冠镭中心","lon":"121.55293","lat":"31.23257","category":"46","category_name":"楼宇","address":"灵山路958号"},{"poiid":"B2094654DA69A2FB499C","title":"克丽缇娜No.17773","lon":"121.55147","lat":"31.232","category":"148","category_name":"美容美发店","address":"灵山路826号"},{"poiid":"B2094752D66BA1FD4999","title":"世纪大道地铁站","lon":"121.548349","lat":"31.234841","category":"36","category_name":"地铁站","address":"东方路世纪大道"},{"poiid":"B2094750DA68A6FA499B","title":"新石器烤肉","lon":"121.554046","lat":"31.231174","category":"247","category_name":"餐饮美食","address":null},{"poiid":"B2094751D56EA0F9419D","title":"Baskin Robbins(正大生活广场店)","lon":"121.5547","lat":"31.23105","category":"113","category_name":"冷饮店","address":"浦东新区杨高中路2128号正大生活馆1楼(近芳甸路)"},{"poiid":"B2094757D46FAAFB459E","title":"永和豆浆 易初莲花店","lon":"121.554856054","lat":"31.230660793","category":"68","category_name":"快餐厅","address":"杨高中路2128号易初莲花超市1楼正大生活馆近南洋泾路"},{"poiid":"B2094751D564A1FA4192","title":"竹若","lon":"121.555084","lat":"31.229161","category":"247","category_name":"餐饮美食","address":"浦东新区芳甸路199弄大拇指广场51号(近丁香路)"},{"poiid":"B2094655D26DA1FE409F","title":"舟渔人家","lon":"121.55686","lat":"31.23268","category":"75","category_name":"浙江菜","address":"浦东新区杨高中路2108号汉庭宾馆后面(南洋泾路口)"},{"poiid":"B209475DD26AAAFA4193","title":"上海万信国际酒店","lon":"121.554107","lat":"31.232679","category":"500","category_name":"未知分类","address":"上海市 陆家嘴店"},{"poiid":"B2094655D26DA1FD469D","title":"申舟明林苑(西大门)","lon":"121.55138","lat":"31.23196","category":"47","category_name":"住宅区","address":"灵山路858弄1-4号"},{"poiid":"B2094757D068ABF44399","title":"盛南易初莲花(杨高中路店)","lon":"121.555391","lat":"31.231002","category":"118","category_name":"超级市场","address":"上海浦东新区杨高中路2128号"},{"poiid":"B2094655D268A0FF4599","title":"灵山大楼(北门)","lon":"121.55091","lat":"31.23179","category":"47","category_name":"住宅区","address":"灵山路800"},{"poiid":"B2094654DB69A4FE4699","title":"屈臣氏(杨高南路店)","lon":"121.55421","lat":"31.23079","category":"118","category_name":"超级市场","address":"浦东新区杨高中路2128号易初莲花1楼"},{"poiid":"B2094752D06BA4FC4598","title":"御龙湾会所","lon":"121.55264","lat":"31.233034","category":"247","category_name":"餐饮美食","address":"杨高中路2112号"},{"poiid":"B2094757D068A5FD4893","title":"联洋社区","lon":"121.55323028","lat":"31.226751327","category":"47","category_name":"住宅区","address":"上海丁香路"},{"poiid":"B2094753DA68A1FC4299","title":"上海新国际博览中心","lon":"121.553657","lat":"31.231733","category":"500","category_name":"未知分类","address":"上海市 龙阳路2345号"},{"poiid":"B2094757D66EA4FB419F","title":"爱乐游","lon":"121.55596167","lat":"31.230761073","category":"500","category_name":"未知分类","address":"上海杨高中路卜蜂莲花"},{"poiid":"B2094757D465A6F8469B","title":"争鲜回转寿司 杨高中路店","lon":"121.554856054","lat":"31.230660793","category":"247","category_name":"餐饮美食","address":"浦东新区杨高中路2128号正大生活馆内(近四方路)"},{"poiid":"B2094757D06FA2F5419E","title":"卜蜂莲花(杨高中路店)","lon":"121.55548","lat":"31.23029","category":"118","category_name":"超级市场","address":"浦东新区杨高中路2128号"},{"poiid":"B2094654DB6BAAFC469E","title":"正大生活馆","lon":"121.55447874603271","lat":"31.231048348101393","category":"119","category_name":"商场","address":"上海浦东新区杨高中路2128号"},{"poiid":"B2094757DA6EA4F5469B","title":"鲜芋仙(正大生活馆店)","lon":"121.553948000001","lat":"31.2307359999998","category":"67","category_name":"甜品店","address":"浦东新区杨高中路2128号卜蜂莲花1楼"},{"poiid":"B2094654DB6BAAFC499A","title":"证大五道口广场","lon":"121.55026","lat":"31.22629","category":"45","category_name":"产业园区","address":"浦东新区民生路1199弄"},{"poiid":"B2094757DB6EA5FC429D","title":"蓝枪鱼酒吧","lon":"121.55625","lat":"31.229569","category":"172","category_name":"酒吧","address":"浦东新区芳甸路199号大拇指广场17号(近丁香路)"},{"poiid":"B2094757D06AA3F9489A","title":"进才中学北校苗圃校区","lon":"121.554034588","lat":"31.2350048018","category":"55","category_name":"中学","address":"上海苗圃路555号"},{"poiid":"B2094654DB6BAAFC469D","title":"一茶一坐 杨高店","lon":"121.554856054","lat":"31.230660793","category":"260","category_name":"其他","address":"浦东新区杨高中路2128号正大生活馆内(近四方路)"},{"poiid":"B2094757D06FA6FB4098","title":"上海信息大厦","lon":"121.558","lat":"31.2303","category":"46","category_name":"楼宇","address":"朝阳亚运村北炎黄艺术馆旁"},{"poiid":"B2094757D068A6F4449C","title":"味千拉面(杨高中路店)","lon":"121.55448","lat":"31.23052","category":"68","category_name":"快餐厅","address":"上海浦东新区杨高中路2128号卜蜂莲花超市1楼正大生活馆内(近芳甸路)"},{"poiid":"B2094757D069AAFC409F","title":"阿香米线(杨高中路店)","lon":"121.554282","lat":"31.230963","category":"68","category_name":"快餐厅","address":"浦东新区杨高中路2128号正大生活馆内(近四方路)"},{"poiid":"B2094757D064A7FA479B","title":"盱眙倪氏龙虾","lon":"121.55591","lat":"31.23737","category":"68","category_name":"快餐厅","address":"浦东新区羽山路983号(南洋泾路羽山路)"},{"poiid":"B2094654DA69A2F44998","title":"联洋花园","lon":"121.55357","lat":"31.227642","category":"47","category_name":"住宅区","address":"丁香路901弄"},{"poiid":"B2094757D069AAFC429F","title":"百春原南味粉面","lon":"121.55412673","lat":"31.231033317","category":"68","category_name":"快餐厅","address":"浦东新区杨高中路2128号正大生活馆1楼(世纪公园)"},{"poiid":"B2094654DB64A6FB4293","title":"汉庭快捷(联洋店)","lon":"121.55742","lat":"31.23176","category":"216","category_name":"经济型连锁酒店","address":"上海市浦东新区杨高中路2108号(近芳甸路)"},{"poiid":"B2094757D464A4FE4293","title":"萨莉亚 杨高中路店","lon":"121.55471","lat":"31.230562","category":"94","category_name":"西餐厅","address":"浦东新区杨高中路2128号正大生活馆内(近四方路)"},{"poiid":"B2094757D069A6FF499B","title":"苗圃路张扬路","lon":"121.550906","lat":"31.237402","category":"500","category_name":"未知分类","address":"上海苗圃路张扬路"},{"poiid":"B2094750D76EABFD439B","title":"K Cafe&Zakka","lon":"121.553","lat":"31.2336","category":"260","category_name":"其他","address":"浦东新区苗圃路596号(近羽山路)"},{"poiid":"B2094655D26DA6F84899","title":"肯德基 杨高中路店 KFC","lon":"121.554856054","lat":"31.230660793","category":"68","category_name":"快餐厅","address":"浦东新区杨高中路2128号正大生活馆内(近四方路)"},{"poiid":"B2094751D264ABFE499A","title":"CoCo壱番屋","lon":"121.55394","lat":"31.23073","category":"95","category_name":"日本料理","address":"浦东新区杨高中路2128号正大生活馆1楼(近四方路)"},{"poiid":"B2094654DA69A2FB499F","title":"灵山大楼","lon":"121.55115","lat":"31.23171","category":"46","category_name":"楼宇","address":"灵山路800号"},{"poiid":"B2094655D26BA0FC4198","title":"上海交通大学医学院附属仁济医院北院","lon":"121.55102","lat":"31.23343","category":"162","category_name":"医院","address":"浦东新区灵山路(巨野路口)"},{"poiid":"B2094757D069A3F8499C","title":"阿迪达斯折扣店(正大生活馆店)","lon":"121.55447","lat":"31.23052","category":"140","category_name":"体育用品店","address":"浦东新区杨高中路2128号正大生活馆内(近四方路)"},{"poiid":"B2094757D06BA2FA409E","title":"杨高中路","lon":"121.554208","lat":"31.230798","category":"500","category_name":"未知分类","address":"上海杨高中路"},{"poiid":"B2094757D168A4FF4793","title":"洋泾社区卫生服务中心","lon":"121.55239573","lat":"31.232482348","category":"500","category_name":"未知分类","address":"浦东新区灵山路885号(近四方路)"},{"poiid":"B2094757D165A7FF479C","title":"易初莲花","lon":"121.551837738","lat":"31.2341403834","category":"249","category_name":"购物服务","address":"上海市浦东新区杨高中路"},{"poiid":"B2094654DA69A2F4469B","title":"新城海上名园","lon":"121.55189","lat":"31.23035","category":"47","category_name":"住宅区","address":"上海市浦东新区四方路98号"},{"poiid":"B2094757D568ABFC4993","title":"上海浦东慈善医院","lon":"121.55197862","lat":"31.23285075","category":"162","category_name":"医院","address":"灵山路885"},{"poiid":"B2094654DA69A3FE499F","title":"汇商大厦","lon":"121.556","lat":"31.2309","category":"46","category_name":"楼宇","address":"上海浦东新区民生路1286号"},{"poiid":"B2094757D465A5F4429A","title":"唐恩都乐 杨高中路店 Dunkin Donuts","lon":"121.55398","lat":"31.2309","category":"67","category_name":"甜品店","address":"浦东新区杨高中路2128号正大生活馆内(近四方路)"},{"poiid":"B2094757DA69A3F94099","title":"卜蜂莲花Lotus-上海","lon":"121.55538","lat":"31.231","category":"67","category_name":"甜品店","address":"浦东新区杨高中路2128号正大广场内(近芳甸路)"},{"poiid":"B2094757D069A2FA4299","title":"盘古烤肉 正大生活馆店","lon":"121.554844054","lat":"31.230679793","category":"257","category_name":"中餐厅","address":"浦东新区杨高中路2128号正大生活馆内(近四方路)"},{"poiid":"B2094753D76CA6F94899","title":"上海科技馆","lon":"121.552764","lat":"31.231647","category":"500","category_name":"未知分类","address":"上海市 上海科技馆"},{"poiid":"B2094654DA69A2F44098","title":"冠镭中心","lon":"121.55293","lat":"31.23257","category":"46","category_name":"楼宇","address":"灵山路958号"},{"poiid":"B2094654DA69A2FB499C","title":"克丽缇娜No.17773","lon":"121.55147","lat":"31.232","category":"148","category_name":"美容美发店","address":"灵山路826号"},{"poiid":"B2094752D66BA1FD4999","title":"世纪大道地铁站","lon":"121.548349","lat":"31.234841","category":"36","category_name":"地铁站","address":"东方路世纪大道"},{"poiid":"B2094750DA68A6FA499B","title":"新石器烤肉","lon":"121.554046","lat":"31.231174","category":"247","category_name":"餐饮美食","address":null},{"poiid":"B2094751D56EA0F9419D","title":"Baskin Robbins(正大生活广场店)","lon":"121.5547","lat":"31.23105","category":"113","category_name":"冷饮店","address":"浦东新区杨高中路2128号正大生活馆1楼(近芳甸路)"},{"poiid":"B2094757D46FAAFB459E","title":"永和豆浆 易初莲花店","lon":"121.554856054","lat":"31.230660793","category":"68","category_name":"快餐厅","address":"杨高中路2128号易初莲花超市1楼正大生活馆近南洋泾路"},{"poiid":"B2094751D564A1FA4192","title":"竹若","lon":"121.555084","lat":"31.229161","category":"247","category_name":"餐饮美食","address":"浦东新区芳甸路199弄大拇指广场51号(近丁香路)"},{"poiid":"B2094655D26DA1FE409F","title":"舟渔人家","lon":"121.55686","lat":"31.23268","category":"75","category_name":"浙江菜","address":"浦东新区杨高中路2108号汉庭宾馆后面(南洋泾路口)"},{"poiid":"B209475DD26AAAFA4193","title":"上海万信国际酒店","lon":"121.554107","lat":"31.232679","category":"500","category_name":"未知分类","address":"上海市 陆家嘴店"},{"poiid":"B2094655D26DA1FD469D","title":"申舟明林苑(西大门)","lon":"121.55138","lat":"31.23196","category":"47","category_name":"住宅区","address":"灵山路858弄1-4号"},{"poiid":"B2094757D068ABF44399","title":"盛南易初莲花(杨高中路店)","lon":"121.555391","lat":"31.231002","category":"118","category_name":"超级市场","address":"上海浦东新区杨高中路2128号"},{"poiid":"B2094655D268A0FF4599","title":"灵山大楼(北门)","lon":"121.55091","lat":"31.23179","category":"47","category_name":"住宅区","address":"灵山路800"},{"poiid":"B2094654DB69A4FE4699","title":"屈臣氏(杨高南路店)","lon":"121.55421","lat":"31.23079","category":"118","category_name":"超级市场","address":"浦东新区杨高中路2128号易初莲花1楼"},{"poiid":"B2094752D06BA4FC4598","title":"御龙湾会所","lon":"121.55264","lat":"31.233034","category":"247","category_name":"餐饮美食","address":"杨高中路2112号"},{"poiid":"B2094757D068A5FD4893","title":"联洋社区","lon":"121.55323028","lat":"31.226751327","category":"47","category_name":"住宅区","address":"上海丁香路"},{"poiid":"B2094753DA68A1FC4299","title":"上海新国际博览中心","lon":"121.553657","lat":"31.231733","category":"500","category_name":"未知分类","address":"上海市 龙阳路2345号"},{"poiid":"B2094757D66EA4FB419F","title":"爱乐游","lon":"121.55596167","lat":"31.230761073","category":"500","category_name":"未知分类","address":"上海杨高中路卜蜂莲花"},{"poiid":"B2094757D465A6F8469B","title":"争鲜回转寿司 杨高中路店","lon":"121.554856054","lat":"31.230660793","category":"247","category_name":"餐饮美食","address":"浦东新区杨高中路2128号正大生活馆内(近四方路)"}]