[{"poiid":"B2094757D06EAAFF499E","title":"查餐厅(思南路店)","lon":"121.466037406","lat":"31.2186370109","category":"72","category_name":"广东菜","address":"卢湾区思南路30-4号(淮海中路南昌路间)"},{"poiid":"B2094757D06EAAF9409F","title":"阿娘面","lon":"121.46655","lat":"31.21757","category":"68","category_name":"快餐厅","address":"卢湾区思南路36号(近南昌路)"},{"poiid":"B2094757D06EAAFC4893","title":"hoF(思南路店)","lon":"121.46590428","lat":"31.218748659","category":"260","category_name":"其他","address":"卢湾区思南路30-1号(近淮海中路)"},{"poiid":"B2094753D76FAAFA449C","title":"上海滩国泰旗舰店","lon":"121.466011","lat":"31.216125","category":"249","category_name":"购物服务","address":"淮海中路868号"},{"poiid":"B209475CD564A7F84292","title":"上海滩新天地店","lon":"121.47463","lat":"31.22164","category":"119","category_name":"商场","address":"\"太仓路181弄新天地北里15号\r\n\""},{"poiid":"B209475CD564A7F8439E","title":"上海滩中信泰富店","lon":"121.45602","lat":"31.22851","category":"119","category_name":"商场","address":"\"南京西路1168号中信泰富广场，店铺号221.\r\n\""},{"poiid":"B2094757D06EAAFB449E","title":"Brick","lon":"121.466325054","lat":"31.218668793","category":"94","category_name":"西餐厅","address":"卢湾区思南路30号(近淮海中路)"},{"poiid":"B2094757D465A3F8479C","title":"白木屋 淮海店","lon":"121.46436","lat":"31.21862","category":"247","category_name":"餐饮美食","address":"卢湾区淮海中路775号新华联大厦西楼6楼(近瑞金二路)"},{"poiid":"B2094750DB6DA4F8499B","title":"Nike品牌体验店","lon":"121.46498963760382","lat":"31.219067199579417","category":"119","category_name":"商场","address":"卢湾区淮海中路717号(近思南路)"},{"poiid":"B2094757D065AAFB4999","title":"麦当劳","lon":"121.464319","lat":"31.218628","category":"68","category_name":"快餐厅","address":"卢湾区淮海中路755号新华联商厦B1楼(近瑞金二路)"},{"poiid":"B2094757D06FA1FA4593","title":"原庐餐厅","lon":"121.46624973","lat":"31.218654053","category":"260","category_name":"其他","address":"卢湾区思南路30号3楼(近淮海中路)"},{"poiid":"B2094757D069A2FF4999","title":"利苑酒家(淮海中路店)","lon":"121.464202","lat":"31.218259","category":"72","category_name":"广东菜","address":"淮海中路755号东方商厦淮海店(新华联大厦)6楼近瑞金二路"},{"poiid":"B2094655D269ABFB469D","title":"东方商厦淮海店","lon":"121.46442","lat":"31.21864","category":"247","category_name":"餐饮美食","address":"卢湾区淮海中路755号新华联商厦内(近瑞金二路)"},{"poiid":"B2094750DA6EA1FD449E","title":"蜀公馆成都老火锅","lon":"121.465324","lat":"31.217531","category":"86","category_name":"火锅店","address":"卢湾区淮海中路776号锦江淮海大厦1楼(近瑞金一路)"},{"poiid":"B2094757D06BA3F8479E","title":"en Shanghai","lon":"121.466050985","lat":"31.218367954","category":"95","category_name":"日本料理","address":"卢湾区思南路30号南2楼(近南昌路)"},{"poiid":"B2094757D068A4FF489F","title":"帕夏土耳其餐厅","lon":"121.46559","lat":"31.21756","category":"94","category_name":"西餐厅","address":"卢湾区南昌路262号(近瑞金二路)"},{"poiid":"B2094750DB6FA4F54399","title":"NIKE淮海路旗舰店","lon":"121.464332","lat":"31.218704","category":"249","category_name":"购物服务","address":null},{"poiid":"B2094757D068ABFD449F","title":"南昌路","lon":"121.46371047","lat":"31.217465104","category":"260","category_name":"其他","address":"上海徐汇区南昌路"},{"poiid":"B2094752DB6BA3F9459B","title":"上海文化广场剧院","lon":"121.465729","lat":"31.215866","category":"500","category_name":"未知分类","address":"上海市 上海市复兴中路597号"},{"poiid":"B2094757D06FA5F94599","title":"上海弄堂餐厅","lon":"121.4663","lat":"31.21856","category":"75","category_name":"浙江菜","address":"卢湾区思南路8号(近淮海中路)"},{"poiid":"B2094753D565A2FA469A","title":"贝克街221B","lon":"121.465248","lat":"31.21626","category":"47","category_name":"住宅区","address":"上海市 卢湾区瑞金二路50号"},{"poiid":"B209475CD76CA4FC489F","title":"the CAFE KACAO","lon":"121.46556","lat":"31.216766","category":"500","category_name":"未知分类","address":"上海市 思南路8号"},{"poiid":"B2094757D16EA1FF449A","title":"香啡缤(思南公馆)","lon":"121.466178738","lat":"31.2163040034","category":"260","category_name":"其他","address":"卢湾区思南路55号思南公馆26B号楼1楼(近复兴中路)"},{"poiid":"B2094757D068A1FB489E","title":"La Vida","lon":"121.46538","lat":"31.21665","category":"94","category_name":"西餐厅","address":"卢湾区陕西南路402号(近复兴中路)"},{"poiid":"B2094757D06FABFE479D","title":"神田烧肉(淮海店)","lon":"121.46357","lat":"31.21842","category":"269","category_name":"烧烤","address":"卢湾区淮海中路776号锦江淮海大厦2楼(近瑞金一路)"},{"poiid":"B2094757D46EABFA4092","title":"味千拉面 华狮广场店","lon":"121.464080054","lat":"31.218709793","category":"95","category_name":"日本料理","address":"卢湾区淮海中路688号华狮购物中心内(近思南路)"},{"poiid":"B2094757D068A2FB459C","title":"仁清 南昌路店 NINSEI JAPANESE DININGBAR","lon":"121.4639582539","lat":"31.217281624639","category":"95","category_name":"日本料理","address":"卢湾区南昌路125号(近瑞金二路)"},{"poiid":"B2094655D26AA2FB4598","title":"伊藤家瑞金店","lon":"121.46369","lat":"31.21796","category":"95","category_name":"日本料理","address":"卢湾区瑞金二路24号(近淮海中路)"},{"poiid":"B2094757D06FA0F8459A","title":"FIRDOWS restaurant","lon":"121.46603973","lat":"31.21849705","category":"94","category_name":"西餐厅","address":"卢湾区思南路30号南4楼(近淮海中路)"},{"poiid":"B2094757D069A2FA439A","title":"燕云楼(科学会堂店)","lon":"121.46657","lat":"31.21766","category":"260","category_name":"其他","address":"卢湾区思南路31号5楼(南昌路口)"},{"poiid":"B209475CD769A2FC4899","title":"咖咖奥咖啡店（淮海店）","lon":"121.466003","lat":"31.2187","category":"500","category_name":"未知分类","address":"上海市 上海市思南路8号"},{"poiid":"B2094757D464A7FC479A","title":"麒麟宫酒家","lon":"121.46456723123","lat":"31.216548649768","category":"76","category_name":"上海菜","address":"卢湾区瑞金二路75号(近南昌路)"},{"poiid":"B2094757D165A4F94993","title":"玄香馆","lon":"121.466019738","lat":"31.2183720474","category":"247","category_name":"餐饮美食","address":"上海市卢湾区思南路30／32号南栋三楼"},{"poiid":"B2094750D16AA1F4479A","title":"壹•火锅 The One Hotpot","lon":"121.465843","lat":"31.216817","category":"247","category_name":"餐饮美食","address":"复兴中路535号(思南公馆30号)"},{"poiid":"B2094757D06FABFC4298","title":"食尚食屋 华狮店 YOI-TEKO","lon":"121.465295054","lat":"31.219463793","category":"95","category_name":"日本料理","address":"卢湾区淮海中路688号华狮购物中心B1楼04单元(近思南路)"},{"poiid":"B2094655D264A5FC499E","title":"阿面娘","lon":"121.46647","lat":"31.21768","category":"257","category_name":"中餐厅","address":"思南路36-1临"},{"poiid":"B2094654DA6DABF9419D","title":"思南路幼儿园","lon":"121.46619","lat":"31.21685","category":"57","category_name":"幼儿园","address":"卢湾区皋兰路11号(近思南路)"},{"poiid":"B2094750D36FA3FE499D","title":"阿宝家海鲜烧烤","lon":"121.464195","lat":"31.217658","category":"68","category_name":"快餐厅","address":"卢湾区南昌路256号(近瑞金二路)"},{"poiid":"B209475CD76CA0F8459F","title":"优衣库上海旗舰店","lon":"121.465209","lat":"31.218311","category":"500","category_name":"未知分类","address":"上海市 淮海中路887号"},{"poiid":"B2094654DA6DABF4429E","title":"市气功研究所医疗门诊部","lon":"121.46537","lat":"31.21799","category":"162","category_name":"医院","address":"卢湾区南昌路220号(瑞金二路与思南路间)"},{"poiid":"B209475CDA64A1FE489C","title":"the cafe kacao","lon":"121.465904","lat":"31.219303","category":"500","category_name":"未知分类","address":"上海市 思南路18号"},{"poiid":"B2094750D768AAFE4592","title":"老大昌(瑞金二路店)","lon":"121.464","lat":"31.2176","category":"67","category_name":"甜品店","address":"卢湾区瑞金二路43号(近南昌路)"},{"poiid":"B2094753D46BA1FD439E","title":"楓の私廚料理","lon":"121.465393","lat":"31.216409","category":"247","category_name":"餐饮美食","address":"上海市 淮海中路816弄內58號"},{"poiid":"B2094753D26BA3FA409A","title":"思南公馆","lon":"121.466143","lat":"31.216217","category":"500","category_name":"未知分类","address":"上海市 复兴中路思南路"},{"poiid":"B2094757D66EA6FA429C","title":"新华联","lon":"121.46542073","lat":"31.219096062","category":"500","category_name":"未知分类","address":"上海市淮海中路755至775号"},{"poiid":"B2094757D16DA3F5449D","title":"松坂烤肉","lon":"121.46526336","lat":"31.216856002","category":"247","category_name":"餐饮美食","address":"上海老锦江内"},{"poiid":"B2094752D064A1F44993","title":"极食","lon":"121.465766","lat":"31.218774","category":"247","category_name":"餐饮美食","address":"淮海中路K11"},{"poiid":"B2094757DB6CA7FA449A","title":"The public","lon":"121.46378539382","lat":"31.21790492755346","category":"249","category_name":"购物服务","address":"思南路复兴西路"},{"poiid":"B2094654DB69A7FD449D","title":"南昌184特色咸烤蟹店","lon":"121.466330054","lat":"31.218071793","category":"68","category_name":"快餐厅","address":"卢湾区南昌路184号(近思南路)"},{"poiid":"B2094757D164A7F5479B","title":"上海皋兰路东正教教堂","lon":"121.46599565","lat":"31.216691602","category":"245","category_name":"教堂","address":"上海卢湾区皋兰路16号"},{"poiid":"B2094757D06EAAFF499E","title":"查餐厅(思南路店)","lon":"121.466037406","lat":"31.2186370109","category":"72","category_name":"广东菜","address":"卢湾区思南路30-4号(淮海中路南昌路间)"},{"poiid":"B2094757D06EAAF9409F","title":"阿娘面","lon":"121.46655","lat":"31.21757","category":"68","category_name":"快餐厅","address":"卢湾区思南路36号(近南昌路)"},{"poiid":"B2094757D06EAAFC4893","title":"hoF(思南路店)","lon":"121.46590428","lat":"31.218748659","category":"260","category_name":"其他","address":"卢湾区思南路30-1号(近淮海中路)"},{"poiid":"B2094753D76FAAFA449C","title":"上海滩国泰旗舰店","lon":"121.466011","lat":"31.216125","category":"249","category_name":"购物服务","address":"淮海中路868号"},{"poiid":"B209475CD564A7F84292","title":"上海滩新天地店","lon":"121.47463","lat":"31.22164","category":"119","category_name":"商场","address":"\"太仓路181弄新天地北里15号\r\n\""},{"poiid":"B209475CD564A7F8439E","title":"上海滩中信泰富店","lon":"121.45602","lat":"31.22851","category":"119","category_name":"商场","address":"\"南京西路1168号中信泰富广场，店铺号221.\r\n\""},{"poiid":"B2094757D06EAAFB449E","title":"Brick","lon":"121.466325054","lat":"31.218668793","category":"94","category_name":"西餐厅","address":"卢湾区思南路30号(近淮海中路)"},{"poiid":"B2094757D465A3F8479C","title":"白木屋 淮海店","lon":"121.46436","lat":"31.21862","category":"247","category_name":"餐饮美食","address":"卢湾区淮海中路775号新华联大厦西楼6楼(近瑞金二路)"},{"poiid":"B2094750DB6DA4F8499B","title":"Nike品牌体验店","lon":"121.46498963760382","lat":"31.219067199579417","category":"119","category_name":"商场","address":"卢湾区淮海中路717号(近思南路)"},{"poiid":"B2094757D065AAFB4999","title":"麦当劳","lon":"121.464319","lat":"31.218628","category":"68","category_name":"快餐厅","address":"卢湾区淮海中路755号新华联商厦B1楼(近瑞金二路)"},{"poiid":"B2094757D06FA1FA4593","title":"原庐餐厅","lon":"121.46624973","lat":"31.218654053","category":"260","category_name":"其他","address":"卢湾区思南路30号3楼(近淮海中路)"},{"poiid":"B2094757D069A2FF4999","title":"利苑酒家(淮海中路店)","lon":"121.464202","lat":"31.218259","category":"72","category_name":"广东菜","address":"淮海中路755号东方商厦淮海店(新华联大厦)6楼近瑞金二路"},{"poiid":"B2094655D269ABFB469D","title":"东方商厦淮海店","lon":"121.46442","lat":"31.21864","category":"247","category_name":"餐饮美食","address":"卢湾区淮海中路755号新华联商厦内(近瑞金二路)"},{"poiid":"B2094750DA6EA1FD449E","title":"蜀公馆成都老火锅","lon":"121.465324","lat":"31.217531","category":"86","category_name":"火锅店","address":"卢湾区淮海中路776号锦江淮海大厦1楼(近瑞金一路)"},{"poiid":"B2094757D06BA3F8479E","title":"en Shanghai","lon":"121.466050985","lat":"31.218367954","category":"95","category_name":"日本料理","address":"卢湾区思南路30号南2楼(近南昌路)"},{"poiid":"B2094757D068A4FF489F","title":"帕夏土耳其餐厅","lon":"121.46559","lat":"31.21756","category":"94","category_name":"西餐厅","address":"卢湾区南昌路262号(近瑞金二路)"},{"poiid":"B2094750DB6FA4F54399","title":"NIKE淮海路旗舰店","lon":"121.464332","lat":"31.218704","category":"249","category_name":"购物服务","address":null},{"poiid":"B2094757D068ABFD449F","title":"南昌路","lon":"121.46371047","lat":"31.217465104","category":"260","category_name":"其他","address":"上海徐汇区南昌路"},{"poiid":"B2094752DB6BA3F9459B","title":"上海文化广场剧院","lon":"121.465729","lat":"31.215866","category":"500","category_name":"未知分类","address":"上海市 上海市复兴中路597号"},{"poiid":"B2094757D06FA5F94599","title":"上海弄堂餐厅","lon":"121.4663","lat":"31.21856","category":"75","category_name":"浙江菜","address":"卢湾区思南路8号(近淮海中路)"},{"poiid":"B2094753D565A2FA469A","title":"贝克街221B","lon":"121.465248","lat":"31.21626","category":"47","category_name":"住宅区","address":"上海市 卢湾区瑞金二路50号"},{"poiid":"B209475CD76CA4FC489F","title":"the CAFE KACAO","lon":"121.46556","lat":"31.216766","category":"500","category_name":"未知分类","address":"上海市 思南路8号"},{"poiid":"B2094757D16EA1FF449A","title":"香啡缤(思南公馆)","lon":"121.466178738","lat":"31.2163040034","category":"260","category_name":"其他","address":"卢湾区思南路55号思南公馆26B号楼1楼(近复兴中路)"},{"poiid":"B2094757D068A1FB489E","title":"La Vida","lon":"121.46538","lat":"31.21665","category":"94","category_name":"西餐厅","address":"卢湾区陕西南路402号(近复兴中路)"},{"poiid":"B2094757D06FABFE479D","title":"神田烧肉(淮海店)","lon":"121.46357","lat":"31.21842","category":"269","category_name":"烧烤","address":"卢湾区淮海中路776号锦江淮海大厦2楼(近瑞金一路)"},{"poiid":"B2094757D46EABFA4092","title":"味千拉面 华狮广场店","lon":"121.464080054","lat":"31.218709793","category":"95","category_name":"日本料理","address":"卢湾区淮海中路688号华狮购物中心内(近思南路)"},{"poiid":"B2094757D068A2FB459C","title":"仁清 南昌路店 NINSEI JAPANESE DININGBAR","lon":"121.4639582539","lat":"31.217281624639","category":"95","category_name":"日本料理","address":"卢湾区南昌路125号(近瑞金二路)"},{"poiid":"B2094655D26AA2FB4598","title":"伊藤家瑞金店","lon":"121.46369","lat":"31.21796","category":"95","category_name":"日本料理","address":"卢湾区瑞金二路24号(近淮海中路)"},{"poiid":"B2094757D06FA0F8459A","title":"FIRDOWS restaurant","lon":"121.46603973","lat":"31.21849705","category":"94","category_name":"西餐厅","address":"卢湾区思南路30号南4楼(近淮海中路)"},{"poiid":"B2094757D069A2FA439A","title":"燕云楼(科学会堂店)","lon":"121.46657","lat":"31.21766","category":"260","category_name":"其他","address":"卢湾区思南路31号5楼(南昌路口)"},{"poiid":"B209475CD769A2FC4899","title":"咖咖奥咖啡店（淮海店）","lon":"121.466003","lat":"31.2187","category":"500","category_name":"未知分类","address":"上海市 上海市思南路8号"},{"poiid":"B2094757D464A7FC479A","title":"麒麟宫酒家","lon":"121.46456723123","lat":"31.216548649768","category":"76","category_name":"上海菜","address":"卢湾区瑞金二路75号(近南昌路)"},{"poiid":"B2094757D165A4F94993","title":"玄香馆","lon":"121.466019738","lat":"31.2183720474","category":"247","category_name":"餐饮美食","address":"上海市卢湾区思南路30／32号南栋三楼"},{"poiid":"B2094750D16AA1F4479A","title":"壹•火锅 The One Hotpot","lon":"121.465843","lat":"31.216817","category":"247","category_name":"餐饮美食","address":"复兴中路535号(思南公馆30号)"},{"poiid":"B2094757D06FABFC4298","title":"食尚食屋 华狮店 YOI-TEKO","lon":"121.465295054","lat":"31.219463793","category":"95","category_name":"日本料理","address":"卢湾区淮海中路688号华狮购物中心B1楼04单元(近思南路)"},{"poiid":"B2094655D264A5FC499E","title":"阿面娘","lon":"121.46647","lat":"31.21768","category":"257","category_name":"中餐厅","address":"思南路36-1临"},{"poiid":"B2094654DA6DABF9419D","title":"思南路幼儿园","lon":"121.46619","lat":"31.21685","category":"57","category_name":"幼儿园","address":"卢湾区皋兰路11号(近思南路)"},{"poiid":"B2094750D36FA3FE499D","title":"阿宝家海鲜烧烤","lon":"121.464195","lat":"31.217658","category":"68","category_name":"快餐厅","address":"卢湾区南昌路256号(近瑞金二路)"},{"poiid":"B209475CD76CA0F8459F","title":"优衣库上海旗舰店","lon":"121.465209","lat":"31.218311","category":"500","category_name":"未知分类","address":"上海市 淮海中路887号"},{"poiid":"B2094654DA6DABF4429E","title":"市气功研究所医疗门诊部","lon":"121.46537","lat":"31.21799","category":"162","category_name":"医院","address":"卢湾区南昌路220号(瑞金二路与思南路间)"},{"poiid":"B209475CDA64A1FE489C","title":"the cafe kacao","lon":"121.465904","lat":"31.219303","category":"500","category_name":"未知分类","address":"上海市 思南路18号"},{"poiid":"B2094750D768AAFE4592","title":"老大昌(瑞金二路店)","lon":"121.464","lat":"31.2176","category":"67","category_name":"甜品店","address":"卢湾区瑞金二路43号(近南昌路)"},{"poiid":"B2094753D46BA1FD439E","title":"楓の私廚料理","lon":"121.465393","lat":"31.216409","category":"247","category_name":"餐饮美食","address":"上海市 淮海中路816弄內58號"},{"poiid":"B2094753D26BA3FA409A","title":"思南公馆","lon":"121.466143","lat":"31.216217","category":"500","category_name":"未知分类","address":"上海市 复兴中路思南路"},{"poiid":"B2094757D66EA6FA429C","title":"新华联","lon":"121.46542073","lat":"31.219096062","category":"500","category_name":"未知分类","address":"上海市淮海中路755至775号"},{"poiid":"B2094757D16DA3F5449D","title":"松坂烤肉","lon":"121.46526336","lat":"31.216856002","category":"247","category_name":"餐饮美食","address":"上海老锦江内"},{"poiid":"B2094752D064A1F44993","title":"极食","lon":"121.465766","lat":"31.218774","category":"247","category_name":"餐饮美食","address":"淮海中路K11"},{"poiid":"B2094757DB6CA7FA449A","title":"The public","lon":"121.46378539382","lat":"31.21790492755346","category":"249","category_name":"购物服务","address":"思南路复兴西路"},{"poiid":"B2094654DB69A7FD449D","title":"南昌184特色咸烤蟹店","lon":"121.466330054","lat":"31.218071793","category":"68","category_name":"快餐厅","address":"卢湾区南昌路184号(近思南路)"},{"poiid":"B2094757D164A7F5479B","title":"上海皋兰路东正教教堂","lon":"121.46599565","lat":"31.216691602","category":"245","category_name":"教堂","address":"上海卢湾区皋兰路16号"},{"poiid":"B2094757D06EAAFF499E","title":"查餐厅(思南路店)","lon":"121.466037406","lat":"31.2186370109","category":"72","category_name":"广东菜","address":"卢湾区思南路30-4号(淮海中路南昌路间)"},{"poiid":"B2094757D06EAAF9409F","title":"阿娘面","lon":"121.46655","lat":"31.21757","category":"68","category_name":"快餐厅","address":"卢湾区思南路36号(近南昌路)"},{"poiid":"B2094757D06EAAFC4893","title":"hoF(思南路店)","lon":"121.46590428","lat":"31.218748659","category":"260","category_name":"其他","address":"卢湾区思南路30-1号(近淮海中路)"},{"poiid":"B2094753D76FAAFA449C","title":"上海滩国泰旗舰店","lon":"121.466011","lat":"31.216125","category":"249","category_name":"购物服务","address":"淮海中路868号"},{"poiid":"B209475CD564A7F84292","title":"上海滩新天地店","lon":"121.47463","lat":"31.22164","category":"119","category_name":"商场","address":"\"太仓路181弄新天地北里15号\r\n\""},{"poiid":"B209475CD564A7F8439E","title":"上海滩中信泰富店","lon":"121.45602","lat":"31.22851","category":"119","category_name":"商场","address":"\"南京西路1168号中信泰富广场，店铺号221.\r\n\""},{"poiid":"B2094757D06EAAFB449E","title":"Brick","lon":"121.466325054","lat":"31.218668793","category":"94","category_name":"西餐厅","address":"卢湾区思南路30号(近淮海中路)"},{"poiid":"B2094757D465A3F8479C","title":"白木屋 淮海店","lon":"121.46436","lat":"31.21862","category":"247","category_name":"餐饮美食","address":"卢湾区淮海中路775号新华联大厦西楼6楼(近瑞金二路)"},{"poiid":"B2094750DB6DA4F8499B","title":"Nike品牌体验店","lon":"121.46498963760382","lat":"31.219067199579417","category":"119","category_name":"商场","address":"卢湾区淮海中路717号(近思南路)"},{"poiid":"B2094757D065AAFB4999","title":"麦当劳","lon":"121.464319","lat":"31.218628","category":"68","category_name":"快餐厅","address":"卢湾区淮海中路755号新华联商厦B1楼(近瑞金二路)"},{"poiid":"B2094757D06FA1FA4593","title":"原庐餐厅","lon":"121.46624973","lat":"31.218654053","category":"260","category_name":"其他","address":"卢湾区思南路30号3楼(近淮海中路)"},{"poiid":"B2094757D069A2FF4999","title":"利苑酒家(淮海中路店)","lon":"121.464202","lat":"31.218259","category":"72","category_name":"广东菜","address":"淮海中路755号东方商厦淮海店(新华联大厦)6楼近瑞金二路"},{"poiid":"B2094655D269ABFB469D","title":"东方商厦淮海店","lon":"121.46442","lat":"31.21864","category":"247","category_name":"餐饮美食","address":"卢湾区淮海中路755号新华联商厦内(近瑞金二路)"},{"poiid":"B2094750DA6EA1FD449E","title":"蜀公馆成都老火锅","lon":"121.465324","lat":"31.217531","category":"86","category_name":"火锅店","address":"卢湾区淮海中路776号锦江淮海大厦1楼(近瑞金一路)"},{"poiid":"B2094757D06BA3F8479E","title":"en Shanghai","lon":"121.466050985","lat":"31.218367954","category":"95","category_name":"日本料理","address":"卢湾区思南路30号南2楼(近南昌路)"},{"poiid":"B2094757D068A4FF489F","title":"帕夏土耳其餐厅","lon":"121.46559","lat":"31.21756","category":"94","category_name":"西餐厅","address":"卢湾区南昌路262号(近瑞金二路)"},{"poiid":"B2094750DB6FA4F54399","title":"NIKE淮海路旗舰店","lon":"121.464332","lat":"31.218704","category":"249","category_name":"购物服务","address":null},{"poiid":"B2094757D068ABFD449F","title":"南昌路","lon":"121.46371047","lat":"31.217465104","category":"260","category_name":"其他","address":"上海徐汇区南昌路"},{"poiid":"B2094752DB6BA3F9459B","title":"上海文化广场剧院","lon":"121.465729","lat":"31.215866","category":"500","category_name":"未知分类","address":"上海市 上海市复兴中路597号"},{"poiid":"B2094757D06FA5F94599","title":"上海弄堂餐厅","lon":"121.4663","lat":"31.21856","category":"75","category_name":"浙江菜","address":"卢湾区思南路8号(近淮海中路)"},{"poiid":"B2094753D565A2FA469A","title":"贝克街221B","lon":"121.465248","lat":"31.21626","category":"47","category_name":"住宅区","address":"上海市 卢湾区瑞金二路50号"},{"poiid":"B209475CD76CA4FC489F","title":"the CAFE KACAO","lon":"121.46556","lat":"31.216766","category":"500","category_name":"未知分类","address":"上海市 思南路8号"},{"poiid":"B2094757D16EA1FF449A","title":"香啡缤(思南公馆)","lon":"121.466178738","lat":"31.2163040034","category":"260","category_name":"其他","address":"卢湾区思南路55号思南公馆26B号楼1楼(近复兴中路)"},{"poiid":"B2094757D068A1FB489E","title":"La Vida","lon":"121.46538","lat":"31.21665","category":"94","category_name":"西餐厅","address":"卢湾区陕西南路402号(近复兴中路)"},{"poiid":"B2094757D06FABFE479D","title":"神田烧肉(淮海店)","lon":"121.46357","lat":"31.21842","category":"269","category_name":"烧烤","address":"卢湾区淮海中路776号锦江淮海大厦2楼(近瑞金一路)"},{"poiid":"B2094757D46EABFA4092","title":"味千拉面 华狮广场店","lon":"121.464080054","lat":"31.218709793","category":"95","category_name":"日本料理","address":"卢湾区淮海中路688号华狮购物中心内(近思南路)"},{"poiid":"B2094757D068A2FB459C","title":"仁清 南昌路店 NINSEI JAPANESE DININGBAR","lon":"121.4639582539","lat":"31.217281624639","category":"95","category_name":"日本料理","address":"卢湾区南昌路125号(近瑞金二路)"},{"poiid":"B2094655D26AA2FB4598","title":"伊藤家瑞金店","lon":"121.46369","lat":"31.21796","category":"95","category_name":"日本料理","address":"卢湾区瑞金二路24号(近淮海中路)"},{"poiid":"B2094757D06FA0F8459A","title":"FIRDOWS restaurant","lon":"121.46603973","lat":"31.21849705","category":"94","category_name":"西餐厅","address":"卢湾区思南路30号南4楼(近淮海中路)"},{"poiid":"B2094757D069A2FA439A","title":"燕云楼(科学会堂店)","lon":"121.46657","lat":"31.21766","category":"260","category_name":"其他","address":"卢湾区思南路31号5楼(南昌路口)"},{"poiid":"B209475CD769A2FC4899","title":"咖咖奥咖啡店（淮海店）","lon":"121.466003","lat":"31.2187","category":"500","category_name":"未知分类","address":"上海市 上海市思南路8号"},{"poiid":"B2094757D464A7FC479A","title":"麒麟宫酒家","lon":"121.46456723123","lat":"31.216548649768","category":"76","category_name":"上海菜","address":"卢湾区瑞金二路75号(近南昌路)"},{"poiid":"B2094757D165A4F94993","title":"玄香馆","lon":"121.466019738","lat":"31.2183720474","category":"247","category_name":"餐饮美食","address":"上海市卢湾区思南路30／32号南栋三楼"},{"poiid":"B2094750D16AA1F4479A","title":"壹•火锅 The One Hotpot","lon":"121.465843","lat":"31.216817","category":"247","category_name":"餐饮美食","address":"复兴中路535号(思南公馆30号)"},{"poiid":"B2094757D06FABFC4298","title":"食尚食屋 华狮店 YOI-TEKO","lon":"121.465295054","lat":"31.219463793","category":"95","category_name":"日本料理","address":"卢湾区淮海中路688号华狮购物中心B1楼04单元(近思南路)"},{"poiid":"B2094655D264A5FC499E","title":"阿面娘","lon":"121.46647","lat":"31.21768","category":"257","category_name":"中餐厅","address":"思南路36-1临"},{"poiid":"B2094654DA6DABF9419D","title":"思南路幼儿园","lon":"121.46619","lat":"31.21685","category":"57","category_name":"幼儿园","address":"卢湾区皋兰路11号(近思南路)"},{"poiid":"B2094750D36FA3FE499D","title":"阿宝家海鲜烧烤","lon":"121.464195","lat":"31.217658","category":"68","category_name":"快餐厅","address":"卢湾区南昌路256号(近瑞金二路)"},{"poiid":"B209475CD76CA0F8459F","title":"优衣库上海旗舰店","lon":"121.465209","lat":"31.218311","category":"500","category_name":"未知分类","address":"上海市 淮海中路887号"},{"poiid":"B2094654DA6DABF4429E","title":"市气功研究所医疗门诊部","lon":"121.46537","lat":"31.21799","category":"162","category_name":"医院","address":"卢湾区南昌路220号(瑞金二路与思南路间)"},{"poiid":"B209475CDA64A1FE489C","title":"the cafe kacao","lon":"121.465904","lat":"31.219303","category":"500","category_name":"未知分类","address":"上海市 思南路18号"},{"poiid":"B2094750D768AAFE4592","title":"老大昌(瑞金二路店)","lon":"121.464","lat":"31.2176","category":"67","category_name":"甜品店","address":"卢湾区瑞金二路43号(近南昌路)"},{"poiid":"B2094753D46BA1FD439E","title":"楓の私廚料理","lon":"121.465393","lat":"31.216409","category":"247","category_name":"餐饮美食","address":"上海市 淮海中路816弄內58號"},{"poiid":"B2094753D26BA3FA409A","title":"思南公馆","lon":"121.466143","lat":"31.216217","category":"500","category_name":"未知分类","address":"上海市 复兴中路思南路"},{"poiid":"B2094757D66EA6FA429C","title":"新华联","lon":"121.46542073","lat":"31.219096062","category":"500","category_name":"未知分类","address":"上海市淮海中路755至775号"},{"poiid":"B2094757D16DA3F5449D","title":"松坂烤肉","lon":"121.46526336","lat":"31.216856002","category":"247","category_name":"餐饮美食","address":"上海老锦江内"},{"poiid":"B2094752D064A1F44993","title":"极食","lon":"121.465766","lat":"31.218774","category":"247","category_name":"餐饮美食","address":"淮海中路K11"},{"poiid":"B2094757DB6CA7FA449A","title":"The public","lon":"121.46378539382","lat":"31.21790492755346","category":"249","category_name":"购物服务","address":"思南路复兴西路"},{"poiid":"B2094654DB69A7FD449D","title":"南昌184特色咸烤蟹店","lon":"121.466330054","lat":"31.218071793","category":"68","category_name":"快餐厅","address":"卢湾区南昌路184号(近思南路)"},{"poiid":"B2094757D164A7F5479B","title":"上海皋兰路东正教教堂","lon":"121.46599565","lat":"31.216691602","category":"245","category_name":"教堂","address":"上海卢湾区皋兰路16号"},{"poiid":"B2094757D06EAAFF499E","title":"查餐厅(思南路店)","lon":"121.466037406","lat":"31.2186370109","category":"72","category_name":"广东菜","address":"卢湾区思南路30-4号(淮海中路南昌路间)"},{"poiid":"B2094757D06EAAF9409F","title":"阿娘面","lon":"121.46655","lat":"31.21757","category":"68","category_name":"快餐厅","address":"卢湾区思南路36号(近南昌路)"},{"poiid":"B2094757D06EAAFC4893","title":"hoF(思南路店)","lon":"121.46590428","lat":"31.218748659","category":"260","category_name":"其他","address":"卢湾区思南路30-1号(近淮海中路)"},{"poiid":"B2094753D76FAAFA449C","title":"上海滩国泰旗舰店","lon":"121.466011","lat":"31.216125","category":"249","category_name":"购物服务","address":"淮海中路868号"},{"poiid":"B209475CD564A7F84292","title":"上海滩新天地店","lon":"121.47463","lat":"31.22164","category":"119","category_name":"商场","address":"\"太仓路181弄新天地北里15号\r\n\""},{"poiid":"B209475CD564A7F8439E","title":"上海滩中信泰富店","lon":"121.45602","lat":"31.22851","category":"119","category_name":"商场","address":"\"南京西路1168号中信泰富广场，店铺号221.\r\n\""},{"poiid":"B2094757D06EAAFB449E","title":"Brick","lon":"121.466325054","lat":"31.218668793","category":"94","category_name":"西餐厅","address":"卢湾区思南路30号(近淮海中路)"},{"poiid":"B2094757D465A3F8479C","title":"白木屋 淮海店","lon":"121.46436","lat":"31.21862","category":"247","category_name":"餐饮美食","address":"卢湾区淮海中路775号新华联大厦西楼6楼(近瑞金二路)"},{"poiid":"B2094750DB6DA4F8499B","title":"Nike品牌体验店","lon":"121.46498963760382","lat":"31.219067199579417","category":"119","category_name":"商场","address":"卢湾区淮海中路717号(近思南路)"},{"poiid":"B2094757D065AAFB4999","title":"麦当劳","lon":"121.464319","lat":"31.218628","category":"68","category_name":"快餐厅","address":"卢湾区淮海中路755号新华联商厦B1楼(近瑞金二路)"},{"poiid":"B2094757D06FA1FA4593","title":"原庐餐厅","lon":"121.46624973","lat":"31.218654053","category":"260","category_name":"其他","address":"卢湾区思南路30号3楼(近淮海中路)"},{"poiid":"B2094757D069A2FF4999","title":"利苑酒家(淮海中路店)","lon":"121.464202","lat":"31.218259","category":"72","category_name":"广东菜","address":"淮海中路755号东方商厦淮海店(新华联大厦)6楼近瑞金二路"},{"poiid":"B2094655D269ABFB469D","title":"东方商厦淮海店","lon":"121.46442","lat":"31.21864","category":"247","category_name":"餐饮美食","address":"卢湾区淮海中路755号新华联商厦内(近瑞金二路)"},{"poiid":"B2094750DA6EA1FD449E","title":"蜀公馆成都老火锅","lon":"121.465324","lat":"31.217531","category":"86","category_name":"火锅店","address":"卢湾区淮海中路776号锦江淮海大厦1楼(近瑞金一路)"},{"poiid":"B2094757D06BA3F8479E","title":"en Shanghai","lon":"121.466050985","lat":"31.218367954","category":"95","category_name":"日本料理","address":"卢湾区思南路30号南2楼(近南昌路)"},{"poiid":"B2094757D068A4FF489F","title":"帕夏土耳其餐厅","lon":"121.46559","lat":"31.21756","category":"94","category_name":"西餐厅","address":"卢湾区南昌路262号(近瑞金二路)"},{"poiid":"B2094750DB6FA4F54399","title":"NIKE淮海路旗舰店","lon":"121.464332","lat":"31.218704","category":"249","category_name":"购物服务","address":null},{"poiid":"B2094757D068ABFD449F","title":"南昌路","lon":"121.46371047","lat":"31.217465104","category":"260","category_name":"其他","address":"上海徐汇区南昌路"},{"poiid":"B2094752DB6BA3F9459B","title":"上海文化广场剧院","lon":"121.465729","lat":"31.215866","category":"500","category_name":"未知分类","address":"上海市 上海市复兴中路597号"},{"poiid":"B2094757D06FA5F94599","title":"上海弄堂餐厅","lon":"121.4663","lat":"31.21856","category":"75","category_name":"浙江菜","address":"卢湾区思南路8号(近淮海中路)"},{"poiid":"B2094753D565A2FA469A","title":"贝克街221B","lon":"121.465248","lat":"31.21626","category":"47","category_name":"住宅区","address":"上海市 卢湾区瑞金二路50号"},{"poiid":"B209475CD76CA4FC489F","title":"the CAFE KACAO","lon":"121.46556","lat":"31.216766","category":"500","category_name":"未知分类","address":"上海市 思南路8号"},{"poiid":"B2094757D16EA1FF449A","title":"香啡缤(思南公馆)","lon":"121.466178738","lat":"31.2163040034","category":"260","category_name":"其他","address":"卢湾区思南路55号思南公馆26B号楼1楼(近复兴中路)"},{"poiid":"B2094757D068A1FB489E","title":"La Vida","lon":"121.46538","lat":"31.21665","category":"94","category_name":"西餐厅","address":"卢湾区陕西南路402号(近复兴中路)"},{"poiid":"B2094757D06FABFE479D","title":"神田烧肉(淮海店)","lon":"121.46357","lat":"31.21842","category":"269","category_name":"烧烤","address":"卢湾区淮海中路776号锦江淮海大厦2楼(近瑞金一路)"},{"poiid":"B2094757D46EABFA4092","title":"味千拉面 华狮广场店","lon":"121.464080054","lat":"31.218709793","category":"95","category_name":"日本料理","address":"卢湾区淮海中路688号华狮购物中心内(近思南路)"},{"poiid":"B2094757D068A2FB459C","title":"仁清 南昌路店 NINSEI JAPANESE DININGBAR","lon":"121.4639582539","lat":"31.217281624639","category":"95","category_name":"日本料理","address":"卢湾区南昌路125号(近瑞金二路)"},{"poiid":"B2094655D26AA2FB4598","title":"伊藤家瑞金店","lon":"121.46369","lat":"31.21796","category":"95","category_name":"日本料理","address":"卢湾区瑞金二路24号(近淮海中路)"},{"poiid":"B2094757D06FA0F8459A","title":"FIRDOWS restaurant","lon":"121.46603973","lat":"31.21849705","category":"94","category_name":"西餐厅","address":"卢湾区思南路30号南4楼(近淮海中路)"},{"poiid":"B2094757D069A2FA439A","title":"燕云楼(科学会堂店)","lon":"121.46657","lat":"31.21766","category":"260","category_name":"其他","address":"卢湾区思南路31号5楼(南昌路口)"},{"poiid":"B209475CD769A2FC4899","title":"咖咖奥咖啡店（淮海店）","lon":"121.466003","lat":"31.2187","category":"500","category_name":"未知分类","address":"上海市 上海市思南路8号"},{"poiid":"B2094757D464A7FC479A","title":"麒麟宫酒家","lon":"121.46456723123","lat":"31.216548649768","category":"76","category_name":"上海菜","address":"卢湾区瑞金二路75号(近南昌路)"},{"poiid":"B2094757D165A4F94993","title":"玄香馆","lon":"121.466019738","lat":"31.2183720474","category":"247","category_name":"餐饮美食","address":"上海市卢湾区思南路30／32号南栋三楼"},{"poiid":"B2094750D16AA1F4479A","title":"壹•火锅 The One Hotpot","lon":"121.465843","lat":"31.216817","category":"247","category_name":"餐饮美食","address":"复兴中路535号(思南公馆30号)"},{"poiid":"B2094757D06FABFC4298","title":"食尚食屋 华狮店 YOI-TEKO","lon":"121.465295054","lat":"31.219463793","category":"95","category_name":"日本料理","address":"卢湾区淮海中路688号华狮购物中心B1楼04单元(近思南路)"},{"poiid":"B2094655D264A5FC499E","title":"阿面娘","lon":"121.46647","lat":"31.21768","category":"257","category_name":"中餐厅","address":"思南路36-1临"},{"poiid":"B2094654DA6DABF9419D","title":"思南路幼儿园","lon":"121.46619","lat":"31.21685","category":"57","category_name":"幼儿园","address":"卢湾区皋兰路11号(近思南路)"},{"poiid":"B2094750D36FA3FE499D","title":"阿宝家海鲜烧烤","lon":"121.464195","lat":"31.217658","category":"68","category_name":"快餐厅","address":"卢湾区南昌路256号(近瑞金二路)"},{"poiid":"B209475CD76CA0F8459F","title":"优衣库上海旗舰店","lon":"121.465209","lat":"31.218311","category":"500","category_name":"未知分类","address":"上海市 淮海中路887号"},{"poiid":"B2094654DA6DABF4429E","title":"市气功研究所医疗门诊部","lon":"121.46537","lat":"31.21799","category":"162","category_name":"医院","address":"卢湾区南昌路220号(瑞金二路与思南路间)"},{"poiid":"B209475CDA64A1FE489C","title":"the cafe kacao","lon":"121.465904","lat":"31.219303","category":"500","category_name":"未知分类","address":"上海市 思南路18号"},{"poiid":"B2094750D768AAFE4592","title":"老大昌(瑞金二路店)","lon":"121.464","lat":"31.2176","category":"67","category_name":"甜品店","address":"卢湾区瑞金二路43号(近南昌路)"},{"poiid":"B2094753D46BA1FD439E","title":"楓の私廚料理","lon":"121.465393","lat":"31.216409","category":"247","category_name":"餐饮美食","address":"上海市 淮海中路816弄內58號"},{"poiid":"B2094753D26BA3FA409A","title":"思南公馆","lon":"121.466143","lat":"31.216217","category":"500","category_name":"未知分类","address":"上海市 复兴中路思南路"},{"poiid":"B2094757D66EA6FA429C","title":"新华联","lon":"121.46542073","lat":"31.219096062","category":"500","category_name":"未知分类","address":"上海市淮海中路755至775号"},{"poiid":"B2094757D16DA3F5449D","title":"松坂烤肉","lon":"121.46526336","lat":"31.216856002","category":"247","category_name":"餐饮美食","address":"上海老锦江内"},{"poiid":"B2094752D064A1F44993","title":"极食","lon":"121.465766","lat":"31.218774","category":"247","category_name":"餐饮美食","address":"淮海中路K11"},{"poiid":"B2094757DB6CA7FA449A","title":"The public","lon":"121.46378539382","lat":"31.21790492755346","category":"249","category_name":"购物服务","address":"思南路复兴西路"},{"poiid":"B2094654DB69A7FD449D","title":"南昌184特色咸烤蟹店","lon":"121.466330054","lat":"31.218071793","category":"68","category_name":"快餐厅","address":"卢湾区南昌路184号(近思南路)"},{"poiid":"B2094757D164A7F5479B","title":"上海皋兰路东正教教堂","lon":"121.46599565","lat":"31.216691602","category":"245","category_name":"教堂","address":"上海卢湾区皋兰路16号"},{"poiid":"B2094757D06EAAFF499E","title":"查餐厅(思南路店)","lon":"121.466037406","lat":"31.2186370109","category":"72","category_name":"广东菜","address":"卢湾区思南路30-4号(淮海中路南昌路间)"},{"poiid":"B2094757D06EAAF9409F","title":"阿娘面","lon":"121.46655","lat":"31.21757","category":"68","category_name":"快餐厅","address":"卢湾区思南路36号(近南昌路)"},{"poiid":"B2094757D06EAAFC4893","title":"hoF(思南路店)","lon":"121.46590428","lat":"31.218748659","category":"260","category_name":"其他","address":"卢湾区思南路30-1号(近淮海中路)"},{"poiid":"B2094753D76FAAFA449C","title":"上海滩国泰旗舰店","lon":"121.466011","lat":"31.216125","category":"249","category_name":"购物服务","address":"淮海中路868号"},{"poiid":"B209475CD564A7F84292","title":"上海滩新天地店","lon":"121.47463","lat":"31.22164","category":"119","category_name":"商场","address":"\"太仓路181弄新天地北里15号\r\n\""},{"poiid":"B209475CD564A7F8439E","title":"上海滩中信泰富店","lon":"121.45602","lat":"31.22851","category":"119","category_name":"商场","address":"\"南京西路1168号中信泰富广场，店铺号221.\r\n\""},{"poiid":"B2094757D06EAAFB449E","title":"Brick","lon":"121.466325054","lat":"31.218668793","category":"94","category_name":"西餐厅","address":"卢湾区思南路30号(近淮海中路)"},{"poiid":"B2094757D465A3F8479C","title":"白木屋 淮海店","lon":"121.46436","lat":"31.21862","category":"247","category_name":"餐饮美食","address":"卢湾区淮海中路775号新华联大厦西楼6楼(近瑞金二路)"},{"poiid":"B2094750DB6DA4F8499B","title":"Nike品牌体验店","lon":"121.46498963760382","lat":"31.219067199579417","category":"119","category_name":"商场","address":"卢湾区淮海中路717号(近思南路)"},{"poiid":"B2094757D065AAFB4999","title":"麦当劳","lon":"121.464319","lat":"31.218628","category":"68","category_name":"快餐厅","address":"卢湾区淮海中路755号新华联商厦B1楼(近瑞金二路)"},{"poiid":"B2094757D06FA1FA4593","title":"原庐餐厅","lon":"121.46624973","lat":"31.218654053","category":"260","category_name":"其他","address":"卢湾区思南路30号3楼(近淮海中路)"},{"poiid":"B2094757D069A2FF4999","title":"利苑酒家(淮海中路店)","lon":"121.464202","lat":"31.218259","category":"72","category_name":"广东菜","address":"淮海中路755号东方商厦淮海店(新华联大厦)6楼近瑞金二路"},{"poiid":"B2094655D269ABFB469D","title":"东方商厦淮海店","lon":"121.46442","lat":"31.21864","category":"247","category_name":"餐饮美食","address":"卢湾区淮海中路755号新华联商厦内(近瑞金二路)"},{"poiid":"B2094750DA6EA1FD449E","title":"蜀公馆成都老火锅","lon":"121.465324","lat":"31.217531","category":"86","category_name":"火锅店","address":"卢湾区淮海中路776号锦江淮海大厦1楼(近瑞金一路)"},{"poiid":"B2094757D06BA3F8479E","title":"en Shanghai","lon":"121.466050985","lat":"31.218367954","category":"95","category_name":"日本料理","address":"卢湾区思南路30号南2楼(近南昌路)"},{"poiid":"B2094757D068A4FF489F","title":"帕夏土耳其餐厅","lon":"121.46559","lat":"31.21756","category":"94","category_name":"西餐厅","address":"卢湾区南昌路262号(近瑞金二路)"},{"poiid":"B2094750DB6FA4F54399","title":"NIKE淮海路旗舰店","lon":"121.464332","lat":"31.218704","category":"249","category_name":"购物服务","address":null},{"poiid":"B2094757D068ABFD449F","title":"南昌路","lon":"121.46371047","lat":"31.217465104","category":"260","category_name":"其他","address":"上海徐汇区南昌路"},{"poiid":"B2094752DB6BA3F9459B","title":"上海文化广场剧院","lon":"121.465729","lat":"31.215866","category":"500","category_name":"未知分类","address":"上海市 上海市复兴中路597号"},{"poiid":"B2094757D06FA5F94599","title":"上海弄堂餐厅","lon":"121.4663","lat":"31.21856","category":"75","category_name":"浙江菜","address":"卢湾区思南路8号(近淮海中路)"},{"poiid":"B2094753D565A2FA469A","title":"贝克街221B","lon":"121.465248","lat":"31.21626","category":"47","category_name":"住宅区","address":"上海市 卢湾区瑞金二路50号"},{"poiid":"B209475CD76CA4FC489F","title":"the CAFE KACAO","lon":"121.46556","lat":"31.216766","category":"500","category_name":"未知分类","address":"上海市 思南路8号"},{"poiid":"B2094757D16EA1FF449A","title":"香啡缤(思南公馆)","lon":"121.466178738","lat":"31.2163040034","category":"260","category_name":"其他","address":"卢湾区思南路55号思南公馆26B号楼1楼(近复兴中路)"},{"poiid":"B2094757D068A1FB489E","title":"La Vida","lon":"121.46538","lat":"31.21665","category":"94","category_name":"西餐厅","address":"卢湾区陕西南路402号(近复兴中路)"},{"poiid":"B2094757D06FABFE479D","title":"神田烧肉(淮海店)","lon":"121.46357","lat":"31.21842","category":"269","category_name":"烧烤","address":"卢湾区淮海中路776号锦江淮海大厦2楼(近瑞金一路)"},{"poiid":"B2094757D46EABFA4092","title":"味千拉面 华狮广场店","lon":"121.464080054","lat":"31.218709793","category":"95","category_name":"日本料理","address":"卢湾区淮海中路688号华狮购物中心内(近思南路)"},{"poiid":"B2094757D068A2FB459C","title":"仁清 南昌路店 NINSEI JAPANESE DININGBAR","lon":"121.4639582539","lat":"31.217281624639","category":"95","category_name":"日本料理","address":"卢湾区南昌路125号(近瑞金二路)"},{"poiid":"B2094655D26AA2FB4598","title":"伊藤家瑞金店","lon":"121.46369","lat":"31.21796","category":"95","category_name":"日本料理","address":"卢湾区瑞金二路24号(近淮海中路)"},{"poiid":"B2094757D06FA0F8459A","title":"FIRDOWS restaurant","lon":"121.46603973","lat":"31.21849705","category":"94","category_name":"西餐厅","address":"卢湾区思南路30号南4楼(近淮海中路)"},{"poiid":"B2094757D069A2FA439A","title":"燕云楼(科学会堂店)","lon":"121.46657","lat":"31.21766","category":"260","category_name":"其他","address":"卢湾区思南路31号5楼(南昌路口)"},{"poiid":"B209475CD769A2FC4899","title":"咖咖奥咖啡店（淮海店）","lon":"121.466003","lat":"31.2187","category":"500","category_name":"未知分类","address":"上海市 上海市思南路8号"},{"poiid":"B2094757D464A7FC479A","title":"麒麟宫酒家","lon":"121.46456723123","lat":"31.216548649768","category":"76","category_name":"上海菜","address":"卢湾区瑞金二路75号(近南昌路)"},{"poiid":"B2094757D165A4F94993","title":"玄香馆","lon":"121.466019738","lat":"31.2183720474","category":"247","category_name":"餐饮美食","address":"上海市卢湾区思南路30／32号南栋三楼"},{"poiid":"B2094750D16AA1F4479A","title":"壹•火锅 The One Hotpot","lon":"121.465843","lat":"31.216817","category":"247","category_name":"餐饮美食","address":"复兴中路535号(思南公馆30号)"},{"poiid":"B2094757D06FABFC4298","title":"食尚食屋 华狮店 YOI-TEKO","lon":"121.465295054","lat":"31.219463793","category":"95","category_name":"日本料理","address":"卢湾区淮海中路688号华狮购物中心B1楼04单元(近思南路)"},{"poiid":"B2094655D264A5FC499E","title":"阿面娘","lon":"121.46647","lat":"31.21768","category":"257","category_name":"中餐厅","address":"思南路36-1临"},{"poiid":"B2094654DA6DABF9419D","title":"思南路幼儿园","lon":"121.46619","lat":"31.21685","category":"57","category_name":"幼儿园","address":"卢湾区皋兰路11号(近思南路)"},{"poiid":"B2094750D36FA3FE499D","title":"阿宝家海鲜烧烤","lon":"121.464195","lat":"31.217658","category":"68","category_name":"快餐厅","address":"卢湾区南昌路256号(近瑞金二路)"},{"poiid":"B209475CD76CA0F8459F","title":"优衣库上海旗舰店","lon":"121.465209","lat":"31.218311","category":"500","category_name":"未知分类","address":"上海市 淮海中路887号"},{"poiid":"B2094654DA6DABF4429E","title":"市气功研究所医疗门诊部","lon":"121.46537","lat":"31.21799","category":"162","category_name":"医院","address":"卢湾区南昌路220号(瑞金二路与思南路间)"},{"poiid":"B209475CDA64A1FE489C","title":"the cafe kacao","lon":"121.465904","lat":"31.219303","category":"500","category_name":"未知分类","address":"上海市 思南路18号"},{"poiid":"B2094750D768AAFE4592","title":"老大昌(瑞金二路店)","lon":"121.464","lat":"31.2176","category":"67","category_name":"甜品店","address":"卢湾区瑞金二路43号(近南昌路)"},{"poiid":"B2094753D46BA1FD439E","title":"楓の私廚料理","lon":"121.465393","lat":"31.216409","category":"247","category_name":"餐饮美食","address":"上海市 淮海中路816弄內58號"},{"poiid":"B2094753D26BA3FA409A","title":"思南公馆","lon":"121.466143","lat":"31.216217","category":"500","category_name":"未知分类","address":"上海市 复兴中路思南路"},{"poiid":"B2094757D66EA6FA429C","title":"新华联","lon":"121.46542073","lat":"31.219096062","category":"500","category_name":"未知分类","address":"上海市淮海中路755至775号"},{"poiid":"B2094757D16DA3F5449D","title":"松坂烤肉","lon":"121.46526336","lat":"31.216856002","category":"247","category_name":"餐饮美食","address":"上海老锦江内"},{"poiid":"B2094752D064A1F44993","title":"极食","lon":"121.465766","lat":"31.218774","category":"247","category_name":"餐饮美食","address":"淮海中路K11"},{"poiid":"B2094757DB6CA7FA449A","title":"The public","lon":"121.46378539382","lat":"31.21790492755346","category":"249","category_name":"购物服务","address":"思南路复兴西路"},{"poiid":"B2094654DB69A7FD449D","title":"南昌184特色咸烤蟹店","lon":"121.466330054","lat":"31.218071793","category":"68","category_name":"快餐厅","address":"卢湾区南昌路184号(近思南路)"},{"poiid":"B2094757D164A7F5479B","title":"上海皋兰路东正教教堂","lon":"121.46599565","lat":"31.216691602","category":"245","category_name":"教堂","address":"上海卢湾区皋兰路16号"}]