[{"poiid":"B2094757D06EAAF54993","title":"海上国际影城(莘庄龙之梦店)","lon":"121.377693","lat":"31.108143","category":"178","category_name":"电影院","address":"闵行区沪闵路6088号莘庄凯德龙之梦购物中心4楼(近莘建路)"},{"poiid":"B2094757D16FA0FD469D","title":"沪昆高速G60","lon":"121.36597752","lat":"31.115891405","category":"500","category_name":"未知分类","address":"上海沪昆高速公路"},{"poiid":"B2094757D068A6FD489E","title":"婚姻登记处(闵行区登记处)","lon":"121.37253","lat":"31.11989","category":"46","category_name":"楼宇","address":"闵行区七莘路750号(近疏影路)查看地图"},{"poiid":"B2094654DB69A7FA499A","title":"莘映象(林水美地苑)","lon":"121.35954","lat":"31.11794","category":"47","category_name":"住宅区","address":"闵行区疏影路1188弄"},{"poiid":"B2094757D06FA0FC489F","title":"乐购(莘庄店)","lon":"121.371923558","lat":"31.1191778748","category":"118","category_name":"超级市场","address":"闵行区七莘路695号(近疏影路)"},{"poiid":"B2094654DA64AAF9489B","title":"中国田径协会上海莘庄训练基地","lon":"121.37189","lat":"31.11602","category":"220","category_name":"运动场所","address":"莘东路589"},{"poiid":"B2094757D068A4FC4198","title":"东苑新天地","lon":"121.36942","lat":"31.11961","category":"47","category_name":"住宅区","address":"上海市闵行区疏影路711弄"},{"poiid":"B2094655D26BA2F44193","title":"七莘路疏影路","lon":"121.37181","lat":"31.12036","category":"38","category_name":"公交车站","address":""},{"poiid":"B2094757D16CABF44298","title":"上海康城大浪湾道","lon":"121.355036857","lat":"31.1083595294","category":"500","category_name":"未知分类","address":"上海莘松路958弄"},{"poiid":"B2094654DA64A6FB4493","title":"上海春申驾驶员教考中心考试场","lon":"121.35346","lat":"31.11372","category":"192","category_name":"驾校","address":"疏影路1315号"},{"poiid":"B2094757D068A4FD4399","title":"宝安新苑","lon":"121.3656761","lat":"31.1196766","category":"47","category_name":"住宅区","address":"上海闵行区疏影路789弄"},{"poiid":"B2094654DA64A4FB4998","title":"富林苑·西区","lon":"121.3619","lat":"31.11721","category":"47","category_name":"住宅区","address":"中春路5839弄"},{"poiid":"B2094757D068A2FF4092","title":"上海康城北门","lon":"121.35871887","lat":"31.108922958","category":"48","category_name":"楼宇大门","address":"上海莘北路莘福路"},{"poiid":"B2094757D06FAAFF419F","title":"富林苑中区(富林四季)","lon":"121.3597706","lat":"31.1179871","category":"252","category_name":"楼宇机构","address":"上海市闵行区疏影路999弄"},{"poiid":"B2094757D068A4F44793","title":"小锦江","lon":"121.37249","lat":"31.11302","category":"76","category_name":"上海菜","address":"闵行区莘北路181号绿梅宾馆内(莘北路莘凌路)"},{"poiid":"B2094757D469A5F9459D","title":"富林酒家","lon":"121.362046","lat":"31.119261","category":"68","category_name":"快餐厅","address":"闵行区疏影路986号(东闸路疏影路)"},{"poiid":"B2094750DB6EA3FF449D","title":"上海市闵行区 虹桥火车站","lon":"121.35923","lat":"31.114316","category":"500","category_name":"未知分类","address":null},{"poiid":"B2094655D26FA3F5449D","title":"新家园西湖苑小区(东北门)","lon":"121.3637","lat":"31.11369","category":"47","category_name":"住宅区","address":"西环路777弄1-90号"},{"poiid":"B2094757D069A0FC439C","title":"绿梅二村","lon":"121.368906","lat":"31.114986662","category":"252","category_name":"楼宇机构","address":"上海闵行区莘凌路285弄"},{"poiid":"B2094757D66CA5F9419C","title":"上海电视大学(闵一分校)","lon":"121.371278157","lat":"31.1168037985","category":"253","category_name":"校园生活","address":"上海闵行区莘庄镇莘北路100号"},{"poiid":"B2094757D16AA6FA4999","title":"疏影路7O4b车站","lon":"121.361199018","lat":"31.1191016451","category":"38","category_name":"公交车站","address":"上海闵行区疏影路(近中春路)"},{"poiid":"B2094757D068A7FE459B","title":"东湖花园","lon":"121.36282","lat":"31.119347","category":"47","category_name":"住宅区","address":"上海市闵行区疏影路1020弄"},{"poiid":"B2094757D06FA2FE4998","title":"市南供电分公司莘北基地","lon":"121.368751","lat":"31.112585","category":"46","category_name":"楼宇","address":"上海闵行区莘北路268号"},{"poiid":"B2094757D069A4FE489C","title":"金城绿苑","lon":"121.3665","lat":"31.111883","category":"47","category_name":"住宅区","address":"上海莘北路398弄"},{"poiid":"B2094757D16FA3FB4199","title":"莘北线","lon":"121.36292456","lat":"31.113850679","category":"38","category_name":"公交车站","address":"上海南辅路西环路----北莘泾"},{"poiid":"B2094757D66BA6F9469A","title":"肯德基 七莘店 KFC","lon":"121.37111207398","lat":"31.121717168481","category":"68","category_name":"快餐厅","address":"闵行区七莘路695号(近疏影路)"},{"poiid":"B2094654DA64A2F8479A","title":"新家园西湖苑小区","lon":"121.3636","lat":"31.11358","category":"47","category_name":"住宅区","address":"莘庄镇"},{"poiid":"B2094757D16EA7FE4999","title":"莘庄第三幼儿园","lon":"121.362657557","lat":"31.1200417633","category":"57","category_name":"幼儿园","address":"上海市闵行区中春路5899号"},{"poiid":"B2094757D068A4F4439B","title":"上海电大闵一分校","lon":"121.37315368","lat":"31.114286422","category":"52","category_name":"高等院校","address":"上海莘北路100号"},{"poiid":"B2094654DA64A1FD489F","title":"宝安新苑枫逸人家","lon":"121.36496","lat":"31.1187","category":"47","category_name":"住宅区","address":"疏影路789弄"},{"poiid":"B2094654DA64A2F8449A","title":"西环公寓","lon":"121.36396","lat":"31.112606","category":"47","category_name":"住宅区","address":"西环公寓位于闵行西环路,莘北路"},{"poiid":"B2094654DA64A1FB4298","title":"华联超市NO.1667","lon":"121.36383","lat":"31.11936","category":"118","category_name":"超级市场","address":"疏影路978至982号"},{"poiid":"B2094654DA64A1FD4498","title":"西湖苑阅览室","lon":"121.36171","lat":"31.11339","category":"181","category_name":"图书馆","address":"西湖苑48号"},{"poiid":"B2094757D165AAFD4792","title":"疏影路麻辣烫","lon":"121.36658","lat":"31.11646","category":"247","category_name":"餐饮美食","address":"上海闵行区疏影路(近东闸路)  "},{"poiid":"B2094757D168A6FD459F","title":"七宝体育公园","lon":"121.366530857","lat":"31.1193097487","category":"196","category_name":"公园","address":"上海新镇路近中谊路"},{"poiid":"B2094654DB69ABFF499E","title":"农工商超市(莘庄店)","lon":"121.36412","lat":"31.11273","category":"118","category_name":"超级市场","address":"闵行区莘庄西环路281号(莘谭路西环路)"},{"poiid":"B2094655D26FA3F4469B","title":"上海理工大学","lon":"121.37014","lat":"31.11311","category":"671","category_name":"高校中心点","address":"上海市军工路516号"},{"poiid":"B2094757D16EA1FE4799","title":"日出茶太(莘庄乐购店)","lon":"121.36389872","lat":"31.119122664","category":"500","category_name":"未知分类","address":"上海闵行区七莘路695号"},{"poiid":"B2094757D465A5FB479D","title":"乐中乐邻家菜","lon":"121.366822","lat":"31.12009","category":"76","category_name":"上海菜","address":"闵行区疏影路792号(近莘庄乐购)"},{"poiid":"B2094752D164A2F8489C","title":"莘松小学","lon":"121.357385","lat":"31.116921","category":"56","category_name":"小学","address":"东闸路"},{"poiid":"B2094757D568A5F9449C","title":"恒泰生活广场","lon":"121.364","lat":"31.1058","category":"201","category_name":"城市广场","address":"莘松路1000号"},{"poiid":"B2094757D66FA1FE4099","title":"上海市第二体育学院","lon":"121.36450005","lat":"31.11389934","category":"500","category_name":"未知分类","address":"上海市莘东路589号"},{"poiid":"B2094750D56DA0FE4493","title":"鼎正宗烤鱼","lon":"121.366676","lat":"31.119895","category":"68","category_name":"快餐厅","address":"闵行区疏影路800号(近七莘路)"},{"poiid":"B2094757D064A1F94793","title":"富林苑","lon":"121.3662193","lat":"31.1198661","category":"252","category_name":"楼宇机构","address":"上海市闵行区中春路5839弄"},{"poiid":"B2094752DA68ABFE499E","title":"浦东新区","lon":"121.35863","lat":"31.11379","category":"500","category_name":"未知分类","address":"上海市 正大广场"},{"poiid":"B2094757D469A1F5489E","title":"梦香村 莘庄店","lon":"121.3717665","lat":"31.1205809","category":"76","category_name":"上海菜","address":"闵行区七莘路765弄8号楼(疏影路口)"},{"poiid":"B2094654DA64A1FD499A","title":"东吴新村","lon":"121.36523","lat":"31.120438","category":"47","category_name":"住宅区","address":"疏影路800弄"},{"poiid":"B2094655D36DA1FB4392","title":"西湖苑","lon":"121.3658","lat":"31.1113","category":"38","category_name":"公交车站","address":"上海西环路777弄"},{"poiid":"B2094757D66CA5F8429B","title":"盛武肥牛","lon":"121.371816857","lat":"31.1200057626","category":"86","category_name":"火锅店","address":"闵行区七莘路765弄3号(近莘庄乐购)"},{"poiid":"B2094757D66CA3F94393","title":"金球驾校","lon":"121.35621715","lat":"31.116661995","category":"253","category_name":"校园生活","address":"上海淀南路"},{"poiid":"B2094757D06EAAF54993","title":"海上国际影城(莘庄龙之梦店)","lon":"121.377693","lat":"31.108143","category":"178","category_name":"电影院","address":"闵行区沪闵路6088号莘庄凯德龙之梦购物中心4楼(近莘建路)"},{"poiid":"B2094757D16FA0FD469D","title":"沪昆高速G60","lon":"121.36597752","lat":"31.115891405","category":"500","category_name":"未知分类","address":"上海沪昆高速公路"},{"poiid":"B2094757D068A6FD489E","title":"婚姻登记处(闵行区登记处)","lon":"121.37253","lat":"31.11989","category":"46","category_name":"楼宇","address":"闵行区七莘路750号(近疏影路)查看地图"},{"poiid":"B2094654DB69A7FA499A","title":"莘映象(林水美地苑)","lon":"121.35954","lat":"31.11794","category":"47","category_name":"住宅区","address":"闵行区疏影路1188弄"},{"poiid":"B2094757D06FA0FC489F","title":"乐购(莘庄店)","lon":"121.371923558","lat":"31.1191778748","category":"118","category_name":"超级市场","address":"闵行区七莘路695号(近疏影路)"},{"poiid":"B2094654DA64AAF9489B","title":"中国田径协会上海莘庄训练基地","lon":"121.37189","lat":"31.11602","category":"220","category_name":"运动场所","address":"莘东路589"},{"poiid":"B2094757D068A4FC4198","title":"东苑新天地","lon":"121.36942","lat":"31.11961","category":"47","category_name":"住宅区","address":"上海市闵行区疏影路711弄"},{"poiid":"B2094655D26BA2F44193","title":"七莘路疏影路","lon":"121.37181","lat":"31.12036","category":"38","category_name":"公交车站","address":""},{"poiid":"B2094757D16CABF44298","title":"上海康城大浪湾道","lon":"121.355036857","lat":"31.1083595294","category":"500","category_name":"未知分类","address":"上海莘松路958弄"},{"poiid":"B2094654DA64A6FB4493","title":"上海春申驾驶员教考中心考试场","lon":"121.35346","lat":"31.11372","category":"192","category_name":"驾校","address":"疏影路1315号"},{"poiid":"B2094757D068A4FD4399","title":"宝安新苑","lon":"121.3656761","lat":"31.1196766","category":"47","category_name":"住宅区","address":"上海闵行区疏影路789弄"},{"poiid":"B2094654DA64A4FB4998","title":"富林苑·西区","lon":"121.3619","lat":"31.11721","category":"47","category_name":"住宅区","address":"中春路5839弄"},{"poiid":"B2094757D068A2FF4092","title":"上海康城北门","lon":"121.35871887","lat":"31.108922958","category":"48","category_name":"楼宇大门","address":"上海莘北路莘福路"},{"poiid":"B2094757D06FAAFF419F","title":"富林苑中区(富林四季)","lon":"121.3597706","lat":"31.1179871","category":"252","category_name":"楼宇机构","address":"上海市闵行区疏影路999弄"},{"poiid":"B2094757D068A4F44793","title":"小锦江","lon":"121.37249","lat":"31.11302","category":"76","category_name":"上海菜","address":"闵行区莘北路181号绿梅宾馆内(莘北路莘凌路)"},{"poiid":"B2094757D469A5F9459D","title":"富林酒家","lon":"121.362046","lat":"31.119261","category":"68","category_name":"快餐厅","address":"闵行区疏影路986号(东闸路疏影路)"},{"poiid":"B2094750DB6EA3FF449D","title":"上海市闵行区 虹桥火车站","lon":"121.35923","lat":"31.114316","category":"500","category_name":"未知分类","address":null},{"poiid":"B2094655D26FA3F5449D","title":"新家园西湖苑小区(东北门)","lon":"121.3637","lat":"31.11369","category":"47","category_name":"住宅区","address":"西环路777弄1-90号"},{"poiid":"B2094757D069A0FC439C","title":"绿梅二村","lon":"121.368906","lat":"31.114986662","category":"252","category_name":"楼宇机构","address":"上海闵行区莘凌路285弄"},{"poiid":"B2094757D66CA5F9419C","title":"上海电视大学(闵一分校)","lon":"121.371278157","lat":"31.1168037985","category":"253","category_name":"校园生活","address":"上海闵行区莘庄镇莘北路100号"},{"poiid":"B2094757D16AA6FA4999","title":"疏影路7O4b车站","lon":"121.361199018","lat":"31.1191016451","category":"38","category_name":"公交车站","address":"上海闵行区疏影路(近中春路)"},{"poiid":"B2094757D068A7FE459B","title":"东湖花园","lon":"121.36282","lat":"31.119347","category":"47","category_name":"住宅区","address":"上海市闵行区疏影路1020弄"},{"poiid":"B2094757D06FA2FE4998","title":"市南供电分公司莘北基地","lon":"121.368751","lat":"31.112585","category":"46","category_name":"楼宇","address":"上海闵行区莘北路268号"},{"poiid":"B2094757D069A4FE489C","title":"金城绿苑","lon":"121.3665","lat":"31.111883","category":"47","category_name":"住宅区","address":"上海莘北路398弄"},{"poiid":"B2094757D16FA3FB4199","title":"莘北线","lon":"121.36292456","lat":"31.113850679","category":"38","category_name":"公交车站","address":"上海南辅路西环路----北莘泾"},{"poiid":"B2094757D66BA6F9469A","title":"肯德基 七莘店 KFC","lon":"121.37111207398","lat":"31.121717168481","category":"68","category_name":"快餐厅","address":"闵行区七莘路695号(近疏影路)"},{"poiid":"B2094654DA64A2F8479A","title":"新家园西湖苑小区","lon":"121.3636","lat":"31.11358","category":"47","category_name":"住宅区","address":"莘庄镇"},{"poiid":"B2094757D16EA7FE4999","title":"莘庄第三幼儿园","lon":"121.362657557","lat":"31.1200417633","category":"57","category_name":"幼儿园","address":"上海市闵行区中春路5899号"},{"poiid":"B2094757D068A4F4439B","title":"上海电大闵一分校","lon":"121.37315368","lat":"31.114286422","category":"52","category_name":"高等院校","address":"上海莘北路100号"},{"poiid":"B2094654DA64A1FD489F","title":"宝安新苑枫逸人家","lon":"121.36496","lat":"31.1187","category":"47","category_name":"住宅区","address":"疏影路789弄"},{"poiid":"B2094654DA64A2F8449A","title":"西环公寓","lon":"121.36396","lat":"31.112606","category":"47","category_name":"住宅区","address":"西环公寓位于闵行西环路,莘北路"},{"poiid":"B2094654DA64A1FB4298","title":"华联超市NO.1667","lon":"121.36383","lat":"31.11936","category":"118","category_name":"超级市场","address":"疏影路978至982号"},{"poiid":"B2094654DA64A1FD4498","title":"西湖苑阅览室","lon":"121.36171","lat":"31.11339","category":"181","category_name":"图书馆","address":"西湖苑48号"},{"poiid":"B2094757D165AAFD4792","title":"疏影路麻辣烫","lon":"121.36658","lat":"31.11646","category":"247","category_name":"餐饮美食","address":"上海闵行区疏影路(近东闸路)  "},{"poiid":"B2094757D168A6FD459F","title":"七宝体育公园","lon":"121.366530857","lat":"31.1193097487","category":"196","category_name":"公园","address":"上海新镇路近中谊路"},{"poiid":"B2094654DB69ABFF499E","title":"农工商超市(莘庄店)","lon":"121.36412","lat":"31.11273","category":"118","category_name":"超级市场","address":"闵行区莘庄西环路281号(莘谭路西环路)"},{"poiid":"B2094655D26FA3F4469B","title":"上海理工大学","lon":"121.37014","lat":"31.11311","category":"671","category_name":"高校中心点","address":"上海市军工路516号"},{"poiid":"B2094757D16EA1FE4799","title":"日出茶太(莘庄乐购店)","lon":"121.36389872","lat":"31.119122664","category":"500","category_name":"未知分类","address":"上海闵行区七莘路695号"},{"poiid":"B2094757D465A5FB479D","title":"乐中乐邻家菜","lon":"121.366822","lat":"31.12009","category":"76","category_name":"上海菜","address":"闵行区疏影路792号(近莘庄乐购)"},{"poiid":"B2094752D164A2F8489C","title":"莘松小学","lon":"121.357385","lat":"31.116921","category":"56","category_name":"小学","address":"东闸路"},{"poiid":"B2094757D568A5F9449C","title":"恒泰生活广场","lon":"121.364","lat":"31.1058","category":"201","category_name":"城市广场","address":"莘松路1000号"},{"poiid":"B2094757D66FA1FE4099","title":"上海市第二体育学院","lon":"121.36450005","lat":"31.11389934","category":"500","category_name":"未知分类","address":"上海市莘东路589号"},{"poiid":"B2094750D56DA0FE4493","title":"鼎正宗烤鱼","lon":"121.366676","lat":"31.119895","category":"68","category_name":"快餐厅","address":"闵行区疏影路800号(近七莘路)"},{"poiid":"B2094757D064A1F94793","title":"富林苑","lon":"121.3662193","lat":"31.1198661","category":"252","category_name":"楼宇机构","address":"上海市闵行区中春路5839弄"},{"poiid":"B2094752DA68ABFE499E","title":"浦东新区","lon":"121.35863","lat":"31.11379","category":"500","category_name":"未知分类","address":"上海市 正大广场"},{"poiid":"B2094757D469A1F5489E","title":"梦香村 莘庄店","lon":"121.3717665","lat":"31.1205809","category":"76","category_name":"上海菜","address":"闵行区七莘路765弄8号楼(疏影路口)"},{"poiid":"B2094654DA64A1FD499A","title":"东吴新村","lon":"121.36523","lat":"31.120438","category":"47","category_name":"住宅区","address":"疏影路800弄"},{"poiid":"B2094655D36DA1FB4392","title":"西湖苑","lon":"121.3658","lat":"31.1113","category":"38","category_name":"公交车站","address":"上海西环路777弄"},{"poiid":"B2094757D66CA5F8429B","title":"盛武肥牛","lon":"121.371816857","lat":"31.1200057626","category":"86","category_name":"火锅店","address":"闵行区七莘路765弄3号(近莘庄乐购)"},{"poiid":"B2094757D66CA3F94393","title":"金球驾校","lon":"121.35621715","lat":"31.116661995","category":"253","category_name":"校园生活","address":"上海淀南路"},{"poiid":"B2094757D06EAAF54993","title":"海上国际影城(莘庄龙之梦店)","lon":"121.377693","lat":"31.108143","category":"178","category_name":"电影院","address":"闵行区沪闵路6088号莘庄凯德龙之梦购物中心4楼(近莘建路)"},{"poiid":"B2094757D16FA0FD469D","title":"沪昆高速G60","lon":"121.36597752","lat":"31.115891405","category":"500","category_name":"未知分类","address":"上海沪昆高速公路"},{"poiid":"B2094757D068A6FD489E","title":"婚姻登记处(闵行区登记处)","lon":"121.37253","lat":"31.11989","category":"46","category_name":"楼宇","address":"闵行区七莘路750号(近疏影路)查看地图"},{"poiid":"B2094654DB69A7FA499A","title":"莘映象(林水美地苑)","lon":"121.35954","lat":"31.11794","category":"47","category_name":"住宅区","address":"闵行区疏影路1188弄"},{"poiid":"B2094757D06FA0FC489F","title":"乐购(莘庄店)","lon":"121.371923558","lat":"31.1191778748","category":"118","category_name":"超级市场","address":"闵行区七莘路695号(近疏影路)"},{"poiid":"B2094654DA64AAF9489B","title":"中国田径协会上海莘庄训练基地","lon":"121.37189","lat":"31.11602","category":"220","category_name":"运动场所","address":"莘东路589"},{"poiid":"B2094757D068A4FC4198","title":"东苑新天地","lon":"121.36942","lat":"31.11961","category":"47","category_name":"住宅区","address":"上海市闵行区疏影路711弄"},{"poiid":"B2094655D26BA2F44193","title":"七莘路疏影路","lon":"121.37181","lat":"31.12036","category":"38","category_name":"公交车站","address":""},{"poiid":"B2094757D16CABF44298","title":"上海康城大浪湾道","lon":"121.355036857","lat":"31.1083595294","category":"500","category_name":"未知分类","address":"上海莘松路958弄"},{"poiid":"B2094654DA64A6FB4493","title":"上海春申驾驶员教考中心考试场","lon":"121.35346","lat":"31.11372","category":"192","category_name":"驾校","address":"疏影路1315号"},{"poiid":"B2094757D068A4FD4399","title":"宝安新苑","lon":"121.3656761","lat":"31.1196766","category":"47","category_name":"住宅区","address":"上海闵行区疏影路789弄"},{"poiid":"B2094654DA64A4FB4998","title":"富林苑·西区","lon":"121.3619","lat":"31.11721","category":"47","category_name":"住宅区","address":"中春路5839弄"},{"poiid":"B2094757D068A2FF4092","title":"上海康城北门","lon":"121.35871887","lat":"31.108922958","category":"48","category_name":"楼宇大门","address":"上海莘北路莘福路"},{"poiid":"B2094757D06FAAFF419F","title":"富林苑中区(富林四季)","lon":"121.3597706","lat":"31.1179871","category":"252","category_name":"楼宇机构","address":"上海市闵行区疏影路999弄"},{"poiid":"B2094757D068A4F44793","title":"小锦江","lon":"121.37249","lat":"31.11302","category":"76","category_name":"上海菜","address":"闵行区莘北路181号绿梅宾馆内(莘北路莘凌路)"},{"poiid":"B2094757D469A5F9459D","title":"富林酒家","lon":"121.362046","lat":"31.119261","category":"68","category_name":"快餐厅","address":"闵行区疏影路986号(东闸路疏影路)"},{"poiid":"B2094750DB6EA3FF449D","title":"上海市闵行区 虹桥火车站","lon":"121.35923","lat":"31.114316","category":"500","category_name":"未知分类","address":null},{"poiid":"B2094655D26FA3F5449D","title":"新家园西湖苑小区(东北门)","lon":"121.3637","lat":"31.11369","category":"47","category_name":"住宅区","address":"西环路777弄1-90号"},{"poiid":"B2094757D069A0FC439C","title":"绿梅二村","lon":"121.368906","lat":"31.114986662","category":"252","category_name":"楼宇机构","address":"上海闵行区莘凌路285弄"},{"poiid":"B2094757D66CA5F9419C","title":"上海电视大学(闵一分校)","lon":"121.371278157","lat":"31.1168037985","category":"253","category_name":"校园生活","address":"上海闵行区莘庄镇莘北路100号"},{"poiid":"B2094757D16AA6FA4999","title":"疏影路7O4b车站","lon":"121.361199018","lat":"31.1191016451","category":"38","category_name":"公交车站","address":"上海闵行区疏影路(近中春路)"},{"poiid":"B2094757D068A7FE459B","title":"东湖花园","lon":"121.36282","lat":"31.119347","category":"47","category_name":"住宅区","address":"上海市闵行区疏影路1020弄"},{"poiid":"B2094757D06FA2FE4998","title":"市南供电分公司莘北基地","lon":"121.368751","lat":"31.112585","category":"46","category_name":"楼宇","address":"上海闵行区莘北路268号"},{"poiid":"B2094757D069A4FE489C","title":"金城绿苑","lon":"121.3665","lat":"31.111883","category":"47","category_name":"住宅区","address":"上海莘北路398弄"},{"poiid":"B2094757D16FA3FB4199","title":"莘北线","lon":"121.36292456","lat":"31.113850679","category":"38","category_name":"公交车站","address":"上海南辅路西环路----北莘泾"},{"poiid":"B2094757D66BA6F9469A","title":"肯德基 七莘店 KFC","lon":"121.37111207398","lat":"31.121717168481","category":"68","category_name":"快餐厅","address":"闵行区七莘路695号(近疏影路)"},{"poiid":"B2094654DA64A2F8479A","title":"新家园西湖苑小区","lon":"121.3636","lat":"31.11358","category":"47","category_name":"住宅区","address":"莘庄镇"},{"poiid":"B2094757D16EA7FE4999","title":"莘庄第三幼儿园","lon":"121.362657557","lat":"31.1200417633","category":"57","category_name":"幼儿园","address":"上海市闵行区中春路5899号"},{"poiid":"B2094757D068A4F4439B","title":"上海电大闵一分校","lon":"121.37315368","lat":"31.114286422","category":"52","category_name":"高等院校","address":"上海莘北路100号"},{"poiid":"B2094654DA64A1FD489F","title":"宝安新苑枫逸人家","lon":"121.36496","lat":"31.1187","category":"47","category_name":"住宅区","address":"疏影路789弄"},{"poiid":"B2094654DA64A2F8449A","title":"西环公寓","lon":"121.36396","lat":"31.112606","category":"47","category_name":"住宅区","address":"西环公寓位于闵行西环路,莘北路"},{"poiid":"B2094654DA64A1FB4298","title":"华联超市NO.1667","lon":"121.36383","lat":"31.11936","category":"118","category_name":"超级市场","address":"疏影路978至982号"},{"poiid":"B2094654DA64A1FD4498","title":"西湖苑阅览室","lon":"121.36171","lat":"31.11339","category":"181","category_name":"图书馆","address":"西湖苑48号"},{"poiid":"B2094757D165AAFD4792","title":"疏影路麻辣烫","lon":"121.36658","lat":"31.11646","category":"247","category_name":"餐饮美食","address":"上海闵行区疏影路(近东闸路)  "},{"poiid":"B2094757D168A6FD459F","title":"七宝体育公园","lon":"121.366530857","lat":"31.1193097487","category":"196","category_name":"公园","address":"上海新镇路近中谊路"},{"poiid":"B2094654DB69ABFF499E","title":"农工商超市(莘庄店)","lon":"121.36412","lat":"31.11273","category":"118","category_name":"超级市场","address":"闵行区莘庄西环路281号(莘谭路西环路)"},{"poiid":"B2094655D26FA3F4469B","title":"上海理工大学","lon":"121.37014","lat":"31.11311","category":"671","category_name":"高校中心点","address":"上海市军工路516号"},{"poiid":"B2094757D16EA1FE4799","title":"日出茶太(莘庄乐购店)","lon":"121.36389872","lat":"31.119122664","category":"500","category_name":"未知分类","address":"上海闵行区七莘路695号"},{"poiid":"B2094757D465A5FB479D","title":"乐中乐邻家菜","lon":"121.366822","lat":"31.12009","category":"76","category_name":"上海菜","address":"闵行区疏影路792号(近莘庄乐购)"},{"poiid":"B2094752D164A2F8489C","title":"莘松小学","lon":"121.357385","lat":"31.116921","category":"56","category_name":"小学","address":"东闸路"},{"poiid":"B2094757D568A5F9449C","title":"恒泰生活广场","lon":"121.364","lat":"31.1058","category":"201","category_name":"城市广场","address":"莘松路1000号"},{"poiid":"B2094757D66FA1FE4099","title":"上海市第二体育学院","lon":"121.36450005","lat":"31.11389934","category":"500","category_name":"未知分类","address":"上海市莘东路589号"},{"poiid":"B2094750D56DA0FE4493","title":"鼎正宗烤鱼","lon":"121.366676","lat":"31.119895","category":"68","category_name":"快餐厅","address":"闵行区疏影路800号(近七莘路)"},{"poiid":"B2094757D064A1F94793","title":"富林苑","lon":"121.3662193","lat":"31.1198661","category":"252","category_name":"楼宇机构","address":"上海市闵行区中春路5839弄"},{"poiid":"B2094752DA68ABFE499E","title":"浦东新区","lon":"121.35863","lat":"31.11379","category":"500","category_name":"未知分类","address":"上海市 正大广场"},{"poiid":"B2094757D469A1F5489E","title":"梦香村 莘庄店","lon":"121.3717665","lat":"31.1205809","category":"76","category_name":"上海菜","address":"闵行区七莘路765弄8号楼(疏影路口)"},{"poiid":"B2094654DA64A1FD499A","title":"东吴新村","lon":"121.36523","lat":"31.120438","category":"47","category_name":"住宅区","address":"疏影路800弄"},{"poiid":"B2094655D36DA1FB4392","title":"西湖苑","lon":"121.3658","lat":"31.1113","category":"38","category_name":"公交车站","address":"上海西环路777弄"},{"poiid":"B2094757D66CA5F8429B","title":"盛武肥牛","lon":"121.371816857","lat":"31.1200057626","category":"86","category_name":"火锅店","address":"闵行区七莘路765弄3号(近莘庄乐购)"},{"poiid":"B2094757D66CA3F94393","title":"金球驾校","lon":"121.35621715","lat":"31.116661995","category":"253","category_name":"校园生活","address":"上海淀南路"},{"poiid":"B2094757D06EAAF54993","title":"海上国际影城(莘庄龙之梦店)","lon":"121.377693","lat":"31.108143","category":"178","category_name":"电影院","address":"闵行区沪闵路6088号莘庄凯德龙之梦购物中心4楼(近莘建路)"},{"poiid":"B2094757D16FA0FD469D","title":"沪昆高速G60","lon":"121.36597752","lat":"31.115891405","category":"500","category_name":"未知分类","address":"上海沪昆高速公路"},{"poiid":"B2094757D068A6FD489E","title":"婚姻登记处(闵行区登记处)","lon":"121.37253","lat":"31.11989","category":"46","category_name":"楼宇","address":"闵行区七莘路750号(近疏影路)查看地图"},{"poiid":"B2094654DB69A7FA499A","title":"莘映象(林水美地苑)","lon":"121.35954","lat":"31.11794","category":"47","category_name":"住宅区","address":"闵行区疏影路1188弄"},{"poiid":"B2094757D06FA0FC489F","title":"乐购(莘庄店)","lon":"121.371923558","lat":"31.1191778748","category":"118","category_name":"超级市场","address":"闵行区七莘路695号(近疏影路)"},{"poiid":"B2094654DA64AAF9489B","title":"中国田径协会上海莘庄训练基地","lon":"121.37189","lat":"31.11602","category":"220","category_name":"运动场所","address":"莘东路589"},{"poiid":"B2094757D068A4FC4198","title":"东苑新天地","lon":"121.36942","lat":"31.11961","category":"47","category_name":"住宅区","address":"上海市闵行区疏影路711弄"},{"poiid":"B2094655D26BA2F44193","title":"七莘路疏影路","lon":"121.37181","lat":"31.12036","category":"38","category_name":"公交车站","address":""},{"poiid":"B2094757D16CABF44298","title":"上海康城大浪湾道","lon":"121.355036857","lat":"31.1083595294","category":"500","category_name":"未知分类","address":"上海莘松路958弄"},{"poiid":"B2094654DA64A6FB4493","title":"上海春申驾驶员教考中心考试场","lon":"121.35346","lat":"31.11372","category":"192","category_name":"驾校","address":"疏影路1315号"},{"poiid":"B2094757D068A4FD4399","title":"宝安新苑","lon":"121.3656761","lat":"31.1196766","category":"47","category_name":"住宅区","address":"上海闵行区疏影路789弄"},{"poiid":"B2094654DA64A4FB4998","title":"富林苑·西区","lon":"121.3619","lat":"31.11721","category":"47","category_name":"住宅区","address":"中春路5839弄"},{"poiid":"B2094757D068A2FF4092","title":"上海康城北门","lon":"121.35871887","lat":"31.108922958","category":"48","category_name":"楼宇大门","address":"上海莘北路莘福路"},{"poiid":"B2094757D06FAAFF419F","title":"富林苑中区(富林四季)","lon":"121.3597706","lat":"31.1179871","category":"252","category_name":"楼宇机构","address":"上海市闵行区疏影路999弄"},{"poiid":"B2094757D068A4F44793","title":"小锦江","lon":"121.37249","lat":"31.11302","category":"76","category_name":"上海菜","address":"闵行区莘北路181号绿梅宾馆内(莘北路莘凌路)"},{"poiid":"B2094757D469A5F9459D","title":"富林酒家","lon":"121.362046","lat":"31.119261","category":"68","category_name":"快餐厅","address":"闵行区疏影路986号(东闸路疏影路)"},{"poiid":"B2094750DB6EA3FF449D","title":"上海市闵行区 虹桥火车站","lon":"121.35923","lat":"31.114316","category":"500","category_name":"未知分类","address":null},{"poiid":"B2094655D26FA3F5449D","title":"新家园西湖苑小区(东北门)","lon":"121.3637","lat":"31.11369","category":"47","category_name":"住宅区","address":"西环路777弄1-90号"},{"poiid":"B2094757D069A0FC439C","title":"绿梅二村","lon":"121.368906","lat":"31.114986662","category":"252","category_name":"楼宇机构","address":"上海闵行区莘凌路285弄"},{"poiid":"B2094757D66CA5F9419C","title":"上海电视大学(闵一分校)","lon":"121.371278157","lat":"31.1168037985","category":"253","category_name":"校园生活","address":"上海闵行区莘庄镇莘北路100号"},{"poiid":"B2094757D16AA6FA4999","title":"疏影路7O4b车站","lon":"121.361199018","lat":"31.1191016451","category":"38","category_name":"公交车站","address":"上海闵行区疏影路(近中春路)"},{"poiid":"B2094757D068A7FE459B","title":"东湖花园","lon":"121.36282","lat":"31.119347","category":"47","category_name":"住宅区","address":"上海市闵行区疏影路1020弄"},{"poiid":"B2094757D06FA2FE4998","title":"市南供电分公司莘北基地","lon":"121.368751","lat":"31.112585","category":"46","category_name":"楼宇","address":"上海闵行区莘北路268号"},{"poiid":"B2094757D069A4FE489C","title":"金城绿苑","lon":"121.3665","lat":"31.111883","category":"47","category_name":"住宅区","address":"上海莘北路398弄"},{"poiid":"B2094757D16FA3FB4199","title":"莘北线","lon":"121.36292456","lat":"31.113850679","category":"38","category_name":"公交车站","address":"上海南辅路西环路----北莘泾"},{"poiid":"B2094757D66BA6F9469A","title":"肯德基 七莘店 KFC","lon":"121.37111207398","lat":"31.121717168481","category":"68","category_name":"快餐厅","address":"闵行区七莘路695号(近疏影路)"},{"poiid":"B2094654DA64A2F8479A","title":"新家园西湖苑小区","lon":"121.3636","lat":"31.11358","category":"47","category_name":"住宅区","address":"莘庄镇"},{"poiid":"B2094757D16EA7FE4999","title":"莘庄第三幼儿园","lon":"121.362657557","lat":"31.1200417633","category":"57","category_name":"幼儿园","address":"上海市闵行区中春路5899号"},{"poiid":"B2094757D068A4F4439B","title":"上海电大闵一分校","lon":"121.37315368","lat":"31.114286422","category":"52","category_name":"高等院校","address":"上海莘北路100号"},{"poiid":"B2094654DA64A1FD489F","title":"宝安新苑枫逸人家","lon":"121.36496","lat":"31.1187","category":"47","category_name":"住宅区","address":"疏影路789弄"},{"poiid":"B2094654DA64A2F8449A","title":"西环公寓","lon":"121.36396","lat":"31.112606","category":"47","category_name":"住宅区","address":"西环公寓位于闵行西环路,莘北路"},{"poiid":"B2094654DA64A1FB4298","title":"华联超市NO.1667","lon":"121.36383","lat":"31.11936","category":"118","category_name":"超级市场","address":"疏影路978至982号"},{"poiid":"B2094654DA64A1FD4498","title":"西湖苑阅览室","lon":"121.36171","lat":"31.11339","category":"181","category_name":"图书馆","address":"西湖苑48号"},{"poiid":"B2094757D165AAFD4792","title":"疏影路麻辣烫","lon":"121.36658","lat":"31.11646","category":"247","category_name":"餐饮美食","address":"上海闵行区疏影路(近东闸路)  "},{"poiid":"B2094757D168A6FD459F","title":"七宝体育公园","lon":"121.366530857","lat":"31.1193097487","category":"196","category_name":"公园","address":"上海新镇路近中谊路"},{"poiid":"B2094654DB69ABFF499E","title":"农工商超市(莘庄店)","lon":"121.36412","lat":"31.11273","category":"118","category_name":"超级市场","address":"闵行区莘庄西环路281号(莘谭路西环路)"},{"poiid":"B2094655D26FA3F4469B","title":"上海理工大学","lon":"121.37014","lat":"31.11311","category":"671","category_name":"高校中心点","address":"上海市军工路516号"},{"poiid":"B2094757D16EA1FE4799","title":"日出茶太(莘庄乐购店)","lon":"121.36389872","lat":"31.119122664","category":"500","category_name":"未知分类","address":"上海闵行区七莘路695号"},{"poiid":"B2094757D465A5FB479D","title":"乐中乐邻家菜","lon":"121.366822","lat":"31.12009","category":"76","category_name":"上海菜","address":"闵行区疏影路792号(近莘庄乐购)"},{"poiid":"B2094752D164A2F8489C","title":"莘松小学","lon":"121.357385","lat":"31.116921","category":"56","category_name":"小学","address":"东闸路"},{"poiid":"B2094757D568A5F9449C","title":"恒泰生活广场","lon":"121.364","lat":"31.1058","category":"201","category_name":"城市广场","address":"莘松路1000号"},{"poiid":"B2094757D66FA1FE4099","title":"上海市第二体育学院","lon":"121.36450005","lat":"31.11389934","category":"500","category_name":"未知分类","address":"上海市莘东路589号"},{"poiid":"B2094750D56DA0FE4493","title":"鼎正宗烤鱼","lon":"121.366676","lat":"31.119895","category":"68","category_name":"快餐厅","address":"闵行区疏影路800号(近七莘路)"},{"poiid":"B2094757D064A1F94793","title":"富林苑","lon":"121.3662193","lat":"31.1198661","category":"252","category_name":"楼宇机构","address":"上海市闵行区中春路5839弄"},{"poiid":"B2094752DA68ABFE499E","title":"浦东新区","lon":"121.35863","lat":"31.11379","category":"500","category_name":"未知分类","address":"上海市 正大广场"},{"poiid":"B2094757D469A1F5489E","title":"梦香村 莘庄店","lon":"121.3717665","lat":"31.1205809","category":"76","category_name":"上海菜","address":"闵行区七莘路765弄8号楼(疏影路口)"},{"poiid":"B2094654DA64A1FD499A","title":"东吴新村","lon":"121.36523","lat":"31.120438","category":"47","category_name":"住宅区","address":"疏影路800弄"},{"poiid":"B2094655D36DA1FB4392","title":"西湖苑","lon":"121.3658","lat":"31.1113","category":"38","category_name":"公交车站","address":"上海西环路777弄"},{"poiid":"B2094757D66CA5F8429B","title":"盛武肥牛","lon":"121.371816857","lat":"31.1200057626","category":"86","category_name":"火锅店","address":"闵行区七莘路765弄3号(近莘庄乐购)"},{"poiid":"B2094757D66CA3F94393","title":"金球驾校","lon":"121.35621715","lat":"31.116661995","category":"253","category_name":"校园生活","address":"上海淀南路"}]