[{"poiid":"B2094654DA6AA3FE479D","title":"上海浦东游泳馆","lon":"121.50572","lat":"31.18856","category":"231","category_name":"游泳馆","address":"浦东新区浦东南路3669号"},{"poiid":"B2094757D66FA6FB419F","title":"高科西路地铁站","lon":"121.509704","lat":"31.185786","category":"36","category_name":"地铁站","address":"上海轨道交通 六号线 七号线 轨交高科西路站 6 7"},{"poiid":"B2094757D06FA7FA4093","title":"浦东游泳馆新羽毛球馆","lon":"121.505721806","lat":"31.1885572023","category":"220","category_name":"运动场所","address":"浦东新区浦东南路3669号浦东游泳馆南门内(近沂林路)"},{"poiid":"B2094757D06FA7F44493","title":"浦东新区社会保险事业管理中心","lon":"121.50377231","lat":"31.185200481","category":"260","category_name":"其他","address":"上海浦东南路浦东南路3993号"},{"poiid":"B2094655D268A2FE4592","title":"上海市实验学校","lon":"121.50804","lat":"31.18301","category":"55","category_name":"中学","address":"浦东新区东明路300号(近齐河路)"},{"poiid":"B2094757D068A7FF4098","title":"一阳轩(高科西路店)","lon":"121.50404073","lat":"31.184218214","category":"72","category_name":"广东菜","address":"浦东新区世博园区高科西路551号6楼(近云莲路)"},{"poiid":"B2094654DA68A6FA4993","title":"浦东长途汽车客运总站","lon":"121.50264","lat":"31.18449","category":"35","category_name":"长途汽车站","address":"浦东新区浦东南路3843号(近莲南路)"},{"poiid":"B2094757D065A0FB499D","title":"丰华园","lon":"121.51013573","lat":"31.188650414","category":"500","category_name":"未知分类","address":"上海市浦东新区东方路"},{"poiid":"B2094757D06BA5FA439C","title":"高科西路","lon":"121.50241873","lat":"31.183264299","category":"260","category_name":"其他","address":"上海高科西路"},{"poiid":"B2094757D068ABFD4493","title":"肯德基 KFC (浦东南路店)","lon":"121.502871552","lat":"31.1837174917","category":"68","category_name":"快餐厅","address":"浦东新区浦东南路3843号(高科西路口)"},{"poiid":"B2094757D069A5F94598","title":"博爱家园","lon":"121.51139","lat":"31.184074","category":"500","category_name":"未知分类","address":"上海市浦东新区东明路355弄1号"},{"poiid":"B2094757D06FABF4499F","title":"上南花苑","lon":"121.50368","lat":"31.180952","category":"47","category_name":"住宅区","address":"上海浦东新区齐河路257-259弄"},{"poiid":"B2094757D06BAAF4449E","title":"味千拉面(齐河路)","lon":"121.503808738","lat":"31.1803422377","category":"95","category_name":"日本料理","address":"上海浦东新区齐河路258号(沃尔玛齐河店楼下街面)"},{"poiid":"B2094654DA6AA3FE4599","title":"宏博坊海鲜大酒楼","lon":"121.50926","lat":"31.18887","category":"88","category_name":"海鲜酒楼","address":"浦东新区东方路3641号(近临沂路)"},{"poiid":"B2094757D068A1FE409C","title":"星特利台球俱乐部(齐河路一店)","lon":"121.50717773","lat":"31.180657244","category":"171","category_name":"台球厅","address":"上海浦东新区齐河路300号  "},{"poiid":"B2094750D164ABFC4099","title":"三林体育中心","lon":"121.506317","lat":"31.182468","category":"250","category_name":"公园户外","address":"云莲路齐河路"},{"poiid":"B2094655D26AA0F9479A","title":"地铁高科西路站","lon":"121.50979","lat":"31.18557","category":"36","category_name":"地铁站","address":""},{"poiid":"B2094654DA6AA2F8459C","title":"上南花苑西苑","lon":"121.50429","lat":"31.18305","category":"47","category_name":"住宅区","address":"浦东南路3885弄"},{"poiid":"B2094757D068A3F4409A","title":"西藏南路隧道","lon":"121.50355886","lat":"31.184528366","category":"260","category_name":"其他","address":"上海西藏南路隧道"},{"poiid":"B2094757D069A3FF459A","title":"临沂公园","lon":"121.50754","lat":"31.18913","category":"196","category_name":"公园","address":"浦东新区东方路3683号(近浦东南路)"},{"poiid":"B2094750D768A7FD4098","title":"喜阁亭","lon":"121.505","lat":"31.1849","category":"76","category_name":"上海菜","address":"浦东新区高科西路611号(近东明路)"},{"poiid":"B2094655D26EA5FC4198","title":"星巴克(中融店)","lon":"121.5019","lat":"31.18414","category":"65","category_name":"咖啡厅","address":"浦东新区浦东南路1068号中融国际商城1楼"},{"poiid":"B2094757D064A0F9499F","title":"瀚锦苑","lon":"121.505","lat":"31.1852","category":"252","category_name":"楼宇机构","address":"上海浦东新区洪山路1889弄"},{"poiid":"B2094757DA65A5F54792","title":"如家快捷酒店（上海高科西路世博园店）","lon":"121.510296464","lat":"31.185361774","category":"216","category_name":"经济型连锁酒店","address":"上海市浦东新区高科西路726号"},{"poiid":"B2094750D164A3FB499D","title":"上海浦东世博星程精品金尚酒店","lon":"121.504245140487","lat":"31.1846108567224","category":"214","category_name":"四星级宾馆","address":"上海浦东新区高科西路551号"},{"poiid":"B2094757D06AA6FF409C","title":"东明苑","lon":"121.51119","lat":"31.183407","category":"47","category_name":"住宅区","address":"东明苑位于浦东南码头路1186弄130支弄35,34,33号"},{"poiid":"B2094654DA68A6FB409C","title":"上电实业大厦","lon":"121.50438","lat":"31.18473","category":"46","category_name":"楼宇","address":"高科西路551"},{"poiid":"B2094655D36DA6FD429C","title":"高科西路","lon":"121.50978","lat":"31.1858","category":"38","category_name":"公交车站","address":""},{"poiid":"B2094655D26BA2F54599","title":"浦东南路高科西路","lon":"121.5028","lat":"31.18555","category":"38","category_name":"公交车站","address":""},{"poiid":"B2094753D468A4F94699","title":"三林游泳馆","lon":"121.505798","lat":"31.182657","category":"220","category_name":"运动场所","address":"上海市 云莲路201号（三林体育中心内）"},{"poiid":"B2094654DA6AA3FE4798","title":"天意洲家园","lon":"121.50825","lat":"31.187544","category":"47","category_name":"住宅区","address":"上海市浦东新区栖山路1876弄"},{"poiid":"B2094757D16CA3F9499D","title":"尚电大厦","lon":"121.504388738","lat":"31.1842683212","category":"252","category_name":"楼宇机构","address":"上海浦东高科西路551号"},{"poiid":"B2094654DA6AA2F8459E","title":"上海大众长江汽车销售服务有限公司","lon":"121.50459","lat":"31.18395","category":"158","category_name":"汽车销售","address":"浦东新区白莲泾毛家宅1号(高科西路云莲路)"},{"poiid":"B2094655D265A0FD499B","title":"上海歌城中融店","lon":"121.5019","lat":"31.18414","category":"170","category_name":"KTV","address":"浦东南路1078号中融国际商场7层"},{"poiid":"B2094753D66DA6FF489F","title":"上海世博金尚精品酒店","lon":"121.504431","lat":"31.184956","category":"214","category_name":"四星级宾馆","address":"高科西路551号"},{"poiid":"B2094757D06BA5F94799","title":"顾惠面馆","lon":"121.50215","lat":"31.18312","category":"68","category_name":"快餐厅","address":"浦东新区浦东南路3903号(近云台路)"},{"poiid":"B2094654DA6AA2F8459D","title":"上南花苑东苑","lon":"121.50611","lat":"31.18307","category":"47","category_name":"住宅区","address":"云莲路101弄"},{"poiid":"B2094757D06AABFD449F","title":"中国馆班车2线","lon":"121.507145","lat":"31.187262","category":"38","category_name":"公交车站","address":"白莲泾路浦东南路—上海南站(北广场)"},{"poiid":"B2094655D26EA3F9429D","title":"东瑞公寓","lon":"121.50574","lat":"31.183533","category":"47","category_name":"住宅区","address":"云莲路95弄1-4号"},{"poiid":"B2094753D56AA1FD449E","title":"飞扬滑冰场","lon":"121.506721","lat":"31.181941","category":"220","category_name":"运动场所","address":"上海市 齐河路471号"},{"poiid":"B2094655D26BA3FB449E","title":"久斯台球天地","lon":"121.50573","lat":"31.18856","category":"171","category_name":"台球厅","address":"浦东新区浦东南路3669号浦东游泳馆2楼(近东方路)"},{"poiid":"B2094655D26DA1FB4498","title":"东瑞公寓(西门)","lon":"121.50537","lat":"31.18336","category":"47","category_name":"住宅区","address":"云莲路95弄1-4号"},{"poiid":"B2094655D265A1F5479A","title":"小尾羊(浦东南路店)","lon":"121.50168","lat":"31.18385","category":"86","category_name":"火锅店","address":"浦东南路2100号(塘桥路口)"},{"poiid":"B2094757D16FA2FE469B","title":"上海长途汽车站白莲泾站","lon":"121.503100552","lat":"31.183725491","category":"500","category_name":"未知分类","address":"上海浦东南路3843号"},{"poiid":"B2094753D165A0F5429A","title":"陆家嘴","lon":"121.508857","lat":"31.184705","category":"500","category_name":"未知分类","address":"上海市 陆家嘴"},{"poiid":"B2094655D26DA7FB409F","title":"上南花苑东苑(西门)","lon":"121.50537","lat":"31.18278","category":"47","category_name":"住宅区","address":"云莲路101弄"},{"poiid":"B2094655D265A1FE469C","title":"钱柜(浦东旗舰店)","lon":"121.50189","lat":"31.18413","category":"170","category_name":"KTV","address":"浦东南路1118号上海湾国际大厦B1层"},{"poiid":"B2094655D26AA7FA469C","title":"G&A健身俱乐部浦东店","lon":"121.50573","lat":"31.18856","category":"247","category_name":"餐饮美食","address":"浦东新区浦东南路3669号浦东游泳馆3楼"},{"poiid":"B2094757D068A0F54099","title":"昌里东路南码头路","lon":"121.511899738","lat":"31.1840343163","category":"500","category_name":"未知分类","address":"上海昌里东路南码头路1136弄"},{"poiid":"B2094655D268ABFC4892","title":"上南花园西苑(东一门)","lon":"121.50505","lat":"31.18278","category":"47","category_name":"住宅区","address":"浦东南路3885弄"},{"poiid":"B2094654DA6AA3FE479D","title":"上海浦东游泳馆","lon":"121.50572","lat":"31.18856","category":"231","category_name":"游泳馆","address":"浦东新区浦东南路3669号"},{"poiid":"B2094757D66FA6FB419F","title":"高科西路地铁站","lon":"121.509704","lat":"31.185786","category":"36","category_name":"地铁站","address":"上海轨道交通 六号线 七号线 轨交高科西路站 6 7"},{"poiid":"B2094757D06FA7FA4093","title":"浦东游泳馆新羽毛球馆","lon":"121.505721806","lat":"31.1885572023","category":"220","category_name":"运动场所","address":"浦东新区浦东南路3669号浦东游泳馆南门内(近沂林路)"},{"poiid":"B2094757D06FA7F44493","title":"浦东新区社会保险事业管理中心","lon":"121.50377231","lat":"31.185200481","category":"260","category_name":"其他","address":"上海浦东南路浦东南路3993号"},{"poiid":"B2094655D268A2FE4592","title":"上海市实验学校","lon":"121.50804","lat":"31.18301","category":"55","category_name":"中学","address":"浦东新区东明路300号(近齐河路)"},{"poiid":"B2094757D068A7FF4098","title":"一阳轩(高科西路店)","lon":"121.50404073","lat":"31.184218214","category":"72","category_name":"广东菜","address":"浦东新区世博园区高科西路551号6楼(近云莲路)"},{"poiid":"B2094654DA68A6FA4993","title":"浦东长途汽车客运总站","lon":"121.50264","lat":"31.18449","category":"35","category_name":"长途汽车站","address":"浦东新区浦东南路3843号(近莲南路)"},{"poiid":"B2094757D065A0FB499D","title":"丰华园","lon":"121.51013573","lat":"31.188650414","category":"500","category_name":"未知分类","address":"上海市浦东新区东方路"},{"poiid":"B2094757D06BA5FA439C","title":"高科西路","lon":"121.50241873","lat":"31.183264299","category":"260","category_name":"其他","address":"上海高科西路"},{"poiid":"B2094757D068ABFD4493","title":"肯德基 KFC (浦东南路店)","lon":"121.502871552","lat":"31.1837174917","category":"68","category_name":"快餐厅","address":"浦东新区浦东南路3843号(高科西路口)"},{"poiid":"B2094757D069A5F94598","title":"博爱家园","lon":"121.51139","lat":"31.184074","category":"500","category_name":"未知分类","address":"上海市浦东新区东明路355弄1号"},{"poiid":"B2094757D06FABF4499F","title":"上南花苑","lon":"121.50368","lat":"31.180952","category":"47","category_name":"住宅区","address":"上海浦东新区齐河路257-259弄"},{"poiid":"B2094757D06BAAF4449E","title":"味千拉面(齐河路)","lon":"121.503808738","lat":"31.1803422377","category":"95","category_name":"日本料理","address":"上海浦东新区齐河路258号(沃尔玛齐河店楼下街面)"},{"poiid":"B2094654DA6AA3FE4599","title":"宏博坊海鲜大酒楼","lon":"121.50926","lat":"31.18887","category":"88","category_name":"海鲜酒楼","address":"浦东新区东方路3641号(近临沂路)"},{"poiid":"B2094757D068A1FE409C","title":"星特利台球俱乐部(齐河路一店)","lon":"121.50717773","lat":"31.180657244","category":"171","category_name":"台球厅","address":"上海浦东新区齐河路300号  "},{"poiid":"B2094750D164ABFC4099","title":"三林体育中心","lon":"121.506317","lat":"31.182468","category":"250","category_name":"公园户外","address":"云莲路齐河路"},{"poiid":"B2094655D26AA0F9479A","title":"地铁高科西路站","lon":"121.50979","lat":"31.18557","category":"36","category_name":"地铁站","address":""},{"poiid":"B2094654DA6AA2F8459C","title":"上南花苑西苑","lon":"121.50429","lat":"31.18305","category":"47","category_name":"住宅区","address":"浦东南路3885弄"},{"poiid":"B2094757D068A3F4409A","title":"西藏南路隧道","lon":"121.50355886","lat":"31.184528366","category":"260","category_name":"其他","address":"上海西藏南路隧道"},{"poiid":"B2094757D069A3FF459A","title":"临沂公园","lon":"121.50754","lat":"31.18913","category":"196","category_name":"公园","address":"浦东新区东方路3683号(近浦东南路)"},{"poiid":"B2094750D768A7FD4098","title":"喜阁亭","lon":"121.505","lat":"31.1849","category":"76","category_name":"上海菜","address":"浦东新区高科西路611号(近东明路)"},{"poiid":"B2094655D26EA5FC4198","title":"星巴克(中融店)","lon":"121.5019","lat":"31.18414","category":"65","category_name":"咖啡厅","address":"浦东新区浦东南路1068号中融国际商城1楼"},{"poiid":"B2094757D064A0F9499F","title":"瀚锦苑","lon":"121.505","lat":"31.1852","category":"252","category_name":"楼宇机构","address":"上海浦东新区洪山路1889弄"},{"poiid":"B2094757DA65A5F54792","title":"如家快捷酒店（上海高科西路世博园店）","lon":"121.510296464","lat":"31.185361774","category":"216","category_name":"经济型连锁酒店","address":"上海市浦东新区高科西路726号"},{"poiid":"B2094750D164A3FB499D","title":"上海浦东世博星程精品金尚酒店","lon":"121.504245140487","lat":"31.1846108567224","category":"214","category_name":"四星级宾馆","address":"上海浦东新区高科西路551号"},{"poiid":"B2094757D06AA6FF409C","title":"东明苑","lon":"121.51119","lat":"31.183407","category":"47","category_name":"住宅区","address":"东明苑位于浦东南码头路1186弄130支弄35,34,33号"},{"poiid":"B2094654DA68A6FB409C","title":"上电实业大厦","lon":"121.50438","lat":"31.18473","category":"46","category_name":"楼宇","address":"高科西路551"},{"poiid":"B2094655D36DA6FD429C","title":"高科西路","lon":"121.50978","lat":"31.1858","category":"38","category_name":"公交车站","address":""},{"poiid":"B2094655D26BA2F54599","title":"浦东南路高科西路","lon":"121.5028","lat":"31.18555","category":"38","category_name":"公交车站","address":""},{"poiid":"B2094753D468A4F94699","title":"三林游泳馆","lon":"121.505798","lat":"31.182657","category":"220","category_name":"运动场所","address":"上海市 云莲路201号（三林体育中心内）"},{"poiid":"B2094654DA6AA3FE4798","title":"天意洲家园","lon":"121.50825","lat":"31.187544","category":"47","category_name":"住宅区","address":"上海市浦东新区栖山路1876弄"},{"poiid":"B2094757D16CA3F9499D","title":"尚电大厦","lon":"121.504388738","lat":"31.1842683212","category":"252","category_name":"楼宇机构","address":"上海浦东高科西路551号"},{"poiid":"B2094654DA6AA2F8459E","title":"上海大众长江汽车销售服务有限公司","lon":"121.50459","lat":"31.18395","category":"158","category_name":"汽车销售","address":"浦东新区白莲泾毛家宅1号(高科西路云莲路)"},{"poiid":"B2094655D265A0FD499B","title":"上海歌城中融店","lon":"121.5019","lat":"31.18414","category":"170","category_name":"KTV","address":"浦东南路1078号中融国际商场7层"},{"poiid":"B2094753D66DA6FF489F","title":"上海世博金尚精品酒店","lon":"121.504431","lat":"31.184956","category":"214","category_name":"四星级宾馆","address":"高科西路551号"},{"poiid":"B2094757D06BA5F94799","title":"顾惠面馆","lon":"121.50215","lat":"31.18312","category":"68","category_name":"快餐厅","address":"浦东新区浦东南路3903号(近云台路)"},{"poiid":"B2094654DA6AA2F8459D","title":"上南花苑东苑","lon":"121.50611","lat":"31.18307","category":"47","category_name":"住宅区","address":"云莲路101弄"},{"poiid":"B2094757D06AABFD449F","title":"中国馆班车2线","lon":"121.507145","lat":"31.187262","category":"38","category_name":"公交车站","address":"白莲泾路浦东南路—上海南站(北广场)"},{"poiid":"B2094655D26EA3F9429D","title":"东瑞公寓","lon":"121.50574","lat":"31.183533","category":"47","category_name":"住宅区","address":"云莲路95弄1-4号"},{"poiid":"B2094753D56AA1FD449E","title":"飞扬滑冰场","lon":"121.506721","lat":"31.181941","category":"220","category_name":"运动场所","address":"上海市 齐河路471号"},{"poiid":"B2094655D26BA3FB449E","title":"久斯台球天地","lon":"121.50573","lat":"31.18856","category":"171","category_name":"台球厅","address":"浦东新区浦东南路3669号浦东游泳馆2楼(近东方路)"},{"poiid":"B2094655D26DA1FB4498","title":"东瑞公寓(西门)","lon":"121.50537","lat":"31.18336","category":"47","category_name":"住宅区","address":"云莲路95弄1-4号"},{"poiid":"B2094655D265A1F5479A","title":"小尾羊(浦东南路店)","lon":"121.50168","lat":"31.18385","category":"86","category_name":"火锅店","address":"浦东南路2100号(塘桥路口)"},{"poiid":"B2094757D16FA2FE469B","title":"上海长途汽车站白莲泾站","lon":"121.503100552","lat":"31.183725491","category":"500","category_name":"未知分类","address":"上海浦东南路3843号"},{"poiid":"B2094753D165A0F5429A","title":"陆家嘴","lon":"121.508857","lat":"31.184705","category":"500","category_name":"未知分类","address":"上海市 陆家嘴"},{"poiid":"B2094655D26DA7FB409F","title":"上南花苑东苑(西门)","lon":"121.50537","lat":"31.18278","category":"47","category_name":"住宅区","address":"云莲路101弄"},{"poiid":"B2094655D265A1FE469C","title":"钱柜(浦东旗舰店)","lon":"121.50189","lat":"31.18413","category":"170","category_name":"KTV","address":"浦东南路1118号上海湾国际大厦B1层"},{"poiid":"B2094655D26AA7FA469C","title":"G&A健身俱乐部浦东店","lon":"121.50573","lat":"31.18856","category":"247","category_name":"餐饮美食","address":"浦东新区浦东南路3669号浦东游泳馆3楼"},{"poiid":"B2094757D068A0F54099","title":"昌里东路南码头路","lon":"121.511899738","lat":"31.1840343163","category":"500","category_name":"未知分类","address":"上海昌里东路南码头路1136弄"},{"poiid":"B2094655D268ABFC4892","title":"上南花园西苑(东一门)","lon":"121.50505","lat":"31.18278","category":"47","category_name":"住宅区","address":"浦东南路3885弄"},{"poiid":"B2094654DA6AA3FE479D","title":"上海浦东游泳馆","lon":"121.50572","lat":"31.18856","category":"231","category_name":"游泳馆","address":"浦东新区浦东南路3669号"},{"poiid":"B2094757D66FA6FB419F","title":"高科西路地铁站","lon":"121.509704","lat":"31.185786","category":"36","category_name":"地铁站","address":"上海轨道交通 六号线 七号线 轨交高科西路站 6 7"},{"poiid":"B2094757D06FA7FA4093","title":"浦东游泳馆新羽毛球馆","lon":"121.505721806","lat":"31.1885572023","category":"220","category_name":"运动场所","address":"浦东新区浦东南路3669号浦东游泳馆南门内(近沂林路)"},{"poiid":"B2094757D06FA7F44493","title":"浦东新区社会保险事业管理中心","lon":"121.50377231","lat":"31.185200481","category":"260","category_name":"其他","address":"上海浦东南路浦东南路3993号"},{"poiid":"B2094655D268A2FE4592","title":"上海市实验学校","lon":"121.50804","lat":"31.18301","category":"55","category_name":"中学","address":"浦东新区东明路300号(近齐河路)"},{"poiid":"B2094757D068A7FF4098","title":"一阳轩(高科西路店)","lon":"121.50404073","lat":"31.184218214","category":"72","category_name":"广东菜","address":"浦东新区世博园区高科西路551号6楼(近云莲路)"},{"poiid":"B2094654DA68A6FA4993","title":"浦东长途汽车客运总站","lon":"121.50264","lat":"31.18449","category":"35","category_name":"长途汽车站","address":"浦东新区浦东南路3843号(近莲南路)"},{"poiid":"B2094757D065A0FB499D","title":"丰华园","lon":"121.51013573","lat":"31.188650414","category":"500","category_name":"未知分类","address":"上海市浦东新区东方路"},{"poiid":"B2094757D06BA5FA439C","title":"高科西路","lon":"121.50241873","lat":"31.183264299","category":"260","category_name":"其他","address":"上海高科西路"},{"poiid":"B2094757D068ABFD4493","title":"肯德基 KFC (浦东南路店)","lon":"121.502871552","lat":"31.1837174917","category":"68","category_name":"快餐厅","address":"浦东新区浦东南路3843号(高科西路口)"},{"poiid":"B2094757D069A5F94598","title":"博爱家园","lon":"121.51139","lat":"31.184074","category":"500","category_name":"未知分类","address":"上海市浦东新区东明路355弄1号"},{"poiid":"B2094757D06FABF4499F","title":"上南花苑","lon":"121.50368","lat":"31.180952","category":"47","category_name":"住宅区","address":"上海浦东新区齐河路257-259弄"},{"poiid":"B2094757D06BAAF4449E","title":"味千拉面(齐河路)","lon":"121.503808738","lat":"31.1803422377","category":"95","category_name":"日本料理","address":"上海浦东新区齐河路258号(沃尔玛齐河店楼下街面)"},{"poiid":"B2094654DA6AA3FE4599","title":"宏博坊海鲜大酒楼","lon":"121.50926","lat":"31.18887","category":"88","category_name":"海鲜酒楼","address":"浦东新区东方路3641号(近临沂路)"},{"poiid":"B2094757D068A1FE409C","title":"星特利台球俱乐部(齐河路一店)","lon":"121.50717773","lat":"31.180657244","category":"171","category_name":"台球厅","address":"上海浦东新区齐河路300号  "},{"poiid":"B2094750D164ABFC4099","title":"三林体育中心","lon":"121.506317","lat":"31.182468","category":"250","category_name":"公园户外","address":"云莲路齐河路"},{"poiid":"B2094655D26AA0F9479A","title":"地铁高科西路站","lon":"121.50979","lat":"31.18557","category":"36","category_name":"地铁站","address":""},{"poiid":"B2094654DA6AA2F8459C","title":"上南花苑西苑","lon":"121.50429","lat":"31.18305","category":"47","category_name":"住宅区","address":"浦东南路3885弄"},{"poiid":"B2094757D068A3F4409A","title":"西藏南路隧道","lon":"121.50355886","lat":"31.184528366","category":"260","category_name":"其他","address":"上海西藏南路隧道"},{"poiid":"B2094757D069A3FF459A","title":"临沂公园","lon":"121.50754","lat":"31.18913","category":"196","category_name":"公园","address":"浦东新区东方路3683号(近浦东南路)"},{"poiid":"B2094750D768A7FD4098","title":"喜阁亭","lon":"121.505","lat":"31.1849","category":"76","category_name":"上海菜","address":"浦东新区高科西路611号(近东明路)"},{"poiid":"B2094655D26EA5FC4198","title":"星巴克(中融店)","lon":"121.5019","lat":"31.18414","category":"65","category_name":"咖啡厅","address":"浦东新区浦东南路1068号中融国际商城1楼"},{"poiid":"B2094757D064A0F9499F","title":"瀚锦苑","lon":"121.505","lat":"31.1852","category":"252","category_name":"楼宇机构","address":"上海浦东新区洪山路1889弄"},{"poiid":"B2094757DA65A5F54792","title":"如家快捷酒店（上海高科西路世博园店）","lon":"121.510296464","lat":"31.185361774","category":"216","category_name":"经济型连锁酒店","address":"上海市浦东新区高科西路726号"},{"poiid":"B2094750D164A3FB499D","title":"上海浦东世博星程精品金尚酒店","lon":"121.504245140487","lat":"31.1846108567224","category":"214","category_name":"四星级宾馆","address":"上海浦东新区高科西路551号"},{"poiid":"B2094757D06AA6FF409C","title":"东明苑","lon":"121.51119","lat":"31.183407","category":"47","category_name":"住宅区","address":"东明苑位于浦东南码头路1186弄130支弄35,34,33号"},{"poiid":"B2094654DA68A6FB409C","title":"上电实业大厦","lon":"121.50438","lat":"31.18473","category":"46","category_name":"楼宇","address":"高科西路551"},{"poiid":"B2094655D36DA6FD429C","title":"高科西路","lon":"121.50978","lat":"31.1858","category":"38","category_name":"公交车站","address":""},{"poiid":"B2094655D26BA2F54599","title":"浦东南路高科西路","lon":"121.5028","lat":"31.18555","category":"38","category_name":"公交车站","address":""},{"poiid":"B2094753D468A4F94699","title":"三林游泳馆","lon":"121.505798","lat":"31.182657","category":"220","category_name":"运动场所","address":"上海市 云莲路201号（三林体育中心内）"},{"poiid":"B2094654DA6AA3FE4798","title":"天意洲家园","lon":"121.50825","lat":"31.187544","category":"47","category_name":"住宅区","address":"上海市浦东新区栖山路1876弄"},{"poiid":"B2094757D16CA3F9499D","title":"尚电大厦","lon":"121.504388738","lat":"31.1842683212","category":"252","category_name":"楼宇机构","address":"上海浦东高科西路551号"},{"poiid":"B2094654DA6AA2F8459E","title":"上海大众长江汽车销售服务有限公司","lon":"121.50459","lat":"31.18395","category":"158","category_name":"汽车销售","address":"浦东新区白莲泾毛家宅1号(高科西路云莲路)"},{"poiid":"B2094655D265A0FD499B","title":"上海歌城中融店","lon":"121.5019","lat":"31.18414","category":"170","category_name":"KTV","address":"浦东南路1078号中融国际商场7层"},{"poiid":"B2094753D66DA6FF489F","title":"上海世博金尚精品酒店","lon":"121.504431","lat":"31.184956","category":"214","category_name":"四星级宾馆","address":"高科西路551号"},{"poiid":"B2094757D06BA5F94799","title":"顾惠面馆","lon":"121.50215","lat":"31.18312","category":"68","category_name":"快餐厅","address":"浦东新区浦东南路3903号(近云台路)"},{"poiid":"B2094654DA6AA2F8459D","title":"上南花苑东苑","lon":"121.50611","lat":"31.18307","category":"47","category_name":"住宅区","address":"云莲路101弄"},{"poiid":"B2094757D06AABFD449F","title":"中国馆班车2线","lon":"121.507145","lat":"31.187262","category":"38","category_name":"公交车站","address":"白莲泾路浦东南路—上海南站(北广场)"},{"poiid":"B2094655D26EA3F9429D","title":"东瑞公寓","lon":"121.50574","lat":"31.183533","category":"47","category_name":"住宅区","address":"云莲路95弄1-4号"},{"poiid":"B2094753D56AA1FD449E","title":"飞扬滑冰场","lon":"121.506721","lat":"31.181941","category":"220","category_name":"运动场所","address":"上海市 齐河路471号"},{"poiid":"B2094655D26BA3FB449E","title":"久斯台球天地","lon":"121.50573","lat":"31.18856","category":"171","category_name":"台球厅","address":"浦东新区浦东南路3669号浦东游泳馆2楼(近东方路)"},{"poiid":"B2094655D26DA1FB4498","title":"东瑞公寓(西门)","lon":"121.50537","lat":"31.18336","category":"47","category_name":"住宅区","address":"云莲路95弄1-4号"},{"poiid":"B2094655D265A1F5479A","title":"小尾羊(浦东南路店)","lon":"121.50168","lat":"31.18385","category":"86","category_name":"火锅店","address":"浦东南路2100号(塘桥路口)"},{"poiid":"B2094757D16FA2FE469B","title":"上海长途汽车站白莲泾站","lon":"121.503100552","lat":"31.183725491","category":"500","category_name":"未知分类","address":"上海浦东南路3843号"},{"poiid":"B2094753D165A0F5429A","title":"陆家嘴","lon":"121.508857","lat":"31.184705","category":"500","category_name":"未知分类","address":"上海市 陆家嘴"},{"poiid":"B2094655D26DA7FB409F","title":"上南花苑东苑(西门)","lon":"121.50537","lat":"31.18278","category":"47","category_name":"住宅区","address":"云莲路101弄"},{"poiid":"B2094655D265A1FE469C","title":"钱柜(浦东旗舰店)","lon":"121.50189","lat":"31.18413","category":"170","category_name":"KTV","address":"浦东南路1118号上海湾国际大厦B1层"},{"poiid":"B2094655D26AA7FA469C","title":"G&A健身俱乐部浦东店","lon":"121.50573","lat":"31.18856","category":"247","category_name":"餐饮美食","address":"浦东新区浦东南路3669号浦东游泳馆3楼"},{"poiid":"B2094757D068A0F54099","title":"昌里东路南码头路","lon":"121.511899738","lat":"31.1840343163","category":"500","category_name":"未知分类","address":"上海昌里东路南码头路1136弄"},{"poiid":"B2094655D268ABFC4892","title":"上南花园西苑(东一门)","lon":"121.50505","lat":"31.18278","category":"47","category_name":"住宅区","address":"浦东南路3885弄"},{"poiid":"B2094654DA6AA3FE479D","title":"上海浦东游泳馆","lon":"121.50572","lat":"31.18856","category":"231","category_name":"游泳馆","address":"浦东新区浦东南路3669号"},{"poiid":"B2094757D66FA6FB419F","title":"高科西路地铁站","lon":"121.509704","lat":"31.185786","category":"36","category_name":"地铁站","address":"上海轨道交通 六号线 七号线 轨交高科西路站 6 7"},{"poiid":"B2094757D06FA7FA4093","title":"浦东游泳馆新羽毛球馆","lon":"121.505721806","lat":"31.1885572023","category":"220","category_name":"运动场所","address":"浦东新区浦东南路3669号浦东游泳馆南门内(近沂林路)"},{"poiid":"B2094757D06FA7F44493","title":"浦东新区社会保险事业管理中心","lon":"121.50377231","lat":"31.185200481","category":"260","category_name":"其他","address":"上海浦东南路浦东南路3993号"},{"poiid":"B2094655D268A2FE4592","title":"上海市实验学校","lon":"121.50804","lat":"31.18301","category":"55","category_name":"中学","address":"浦东新区东明路300号(近齐河路)"},{"poiid":"B2094757D068A7FF4098","title":"一阳轩(高科西路店)","lon":"121.50404073","lat":"31.184218214","category":"72","category_name":"广东菜","address":"浦东新区世博园区高科西路551号6楼(近云莲路)"},{"poiid":"B2094654DA68A6FA4993","title":"浦东长途汽车客运总站","lon":"121.50264","lat":"31.18449","category":"35","category_name":"长途汽车站","address":"浦东新区浦东南路3843号(近莲南路)"},{"poiid":"B2094757D065A0FB499D","title":"丰华园","lon":"121.51013573","lat":"31.188650414","category":"500","category_name":"未知分类","address":"上海市浦东新区东方路"},{"poiid":"B2094757D06BA5FA439C","title":"高科西路","lon":"121.50241873","lat":"31.183264299","category":"260","category_name":"其他","address":"上海高科西路"},{"poiid":"B2094757D068ABFD4493","title":"肯德基 KFC (浦东南路店)","lon":"121.502871552","lat":"31.1837174917","category":"68","category_name":"快餐厅","address":"浦东新区浦东南路3843号(高科西路口)"},{"poiid":"B2094757D069A5F94598","title":"博爱家园","lon":"121.51139","lat":"31.184074","category":"500","category_name":"未知分类","address":"上海市浦东新区东明路355弄1号"},{"poiid":"B2094757D06FABF4499F","title":"上南花苑","lon":"121.50368","lat":"31.180952","category":"47","category_name":"住宅区","address":"上海浦东新区齐河路257-259弄"},{"poiid":"B2094757D06BAAF4449E","title":"味千拉面(齐河路)","lon":"121.503808738","lat":"31.1803422377","category":"95","category_name":"日本料理","address":"上海浦东新区齐河路258号(沃尔玛齐河店楼下街面)"},{"poiid":"B2094654DA6AA3FE4599","title":"宏博坊海鲜大酒楼","lon":"121.50926","lat":"31.18887","category":"88","category_name":"海鲜酒楼","address":"浦东新区东方路3641号(近临沂路)"},{"poiid":"B2094757D068A1FE409C","title":"星特利台球俱乐部(齐河路一店)","lon":"121.50717773","lat":"31.180657244","category":"171","category_name":"台球厅","address":"上海浦东新区齐河路300号  "},{"poiid":"B2094750D164ABFC4099","title":"三林体育中心","lon":"121.506317","lat":"31.182468","category":"250","category_name":"公园户外","address":"云莲路齐河路"},{"poiid":"B2094655D26AA0F9479A","title":"地铁高科西路站","lon":"121.50979","lat":"31.18557","category":"36","category_name":"地铁站","address":""},{"poiid":"B2094654DA6AA2F8459C","title":"上南花苑西苑","lon":"121.50429","lat":"31.18305","category":"47","category_name":"住宅区","address":"浦东南路3885弄"},{"poiid":"B2094757D068A3F4409A","title":"西藏南路隧道","lon":"121.50355886","lat":"31.184528366","category":"260","category_name":"其他","address":"上海西藏南路隧道"},{"poiid":"B2094757D069A3FF459A","title":"临沂公园","lon":"121.50754","lat":"31.18913","category":"196","category_name":"公园","address":"浦东新区东方路3683号(近浦东南路)"},{"poiid":"B2094750D768A7FD4098","title":"喜阁亭","lon":"121.505","lat":"31.1849","category":"76","category_name":"上海菜","address":"浦东新区高科西路611号(近东明路)"},{"poiid":"B2094655D26EA5FC4198","title":"星巴克(中融店)","lon":"121.5019","lat":"31.18414","category":"65","category_name":"咖啡厅","address":"浦东新区浦东南路1068号中融国际商城1楼"},{"poiid":"B2094757D064A0F9499F","title":"瀚锦苑","lon":"121.505","lat":"31.1852","category":"252","category_name":"楼宇机构","address":"上海浦东新区洪山路1889弄"},{"poiid":"B2094757DA65A5F54792","title":"如家快捷酒店（上海高科西路世博园店）","lon":"121.510296464","lat":"31.185361774","category":"216","category_name":"经济型连锁酒店","address":"上海市浦东新区高科西路726号"},{"poiid":"B2094750D164A3FB499D","title":"上海浦东世博星程精品金尚酒店","lon":"121.504245140487","lat":"31.1846108567224","category":"214","category_name":"四星级宾馆","address":"上海浦东新区高科西路551号"},{"poiid":"B2094757D06AA6FF409C","title":"东明苑","lon":"121.51119","lat":"31.183407","category":"47","category_name":"住宅区","address":"东明苑位于浦东南码头路1186弄130支弄35,34,33号"},{"poiid":"B2094654DA68A6FB409C","title":"上电实业大厦","lon":"121.50438","lat":"31.18473","category":"46","category_name":"楼宇","address":"高科西路551"},{"poiid":"B2094655D36DA6FD429C","title":"高科西路","lon":"121.50978","lat":"31.1858","category":"38","category_name":"公交车站","address":""},{"poiid":"B2094655D26BA2F54599","title":"浦东南路高科西路","lon":"121.5028","lat":"31.18555","category":"38","category_name":"公交车站","address":""},{"poiid":"B2094753D468A4F94699","title":"三林游泳馆","lon":"121.505798","lat":"31.182657","category":"220","category_name":"运动场所","address":"上海市 云莲路201号（三林体育中心内）"},{"poiid":"B2094654DA6AA3FE4798","title":"天意洲家园","lon":"121.50825","lat":"31.187544","category":"47","category_name":"住宅区","address":"上海市浦东新区栖山路1876弄"},{"poiid":"B2094757D16CA3F9499D","title":"尚电大厦","lon":"121.504388738","lat":"31.1842683212","category":"252","category_name":"楼宇机构","address":"上海浦东高科西路551号"},{"poiid":"B2094654DA6AA2F8459E","title":"上海大众长江汽车销售服务有限公司","lon":"121.50459","lat":"31.18395","category":"158","category_name":"汽车销售","address":"浦东新区白莲泾毛家宅1号(高科西路云莲路)"},{"poiid":"B2094655D265A0FD499B","title":"上海歌城中融店","lon":"121.5019","lat":"31.18414","category":"170","category_name":"KTV","address":"浦东南路1078号中融国际商场7层"},{"poiid":"B2094753D66DA6FF489F","title":"上海世博金尚精品酒店","lon":"121.504431","lat":"31.184956","category":"214","category_name":"四星级宾馆","address":"高科西路551号"},{"poiid":"B2094757D06BA5F94799","title":"顾惠面馆","lon":"121.50215","lat":"31.18312","category":"68","category_name":"快餐厅","address":"浦东新区浦东南路3903号(近云台路)"},{"poiid":"B2094654DA6AA2F8459D","title":"上南花苑东苑","lon":"121.50611","lat":"31.18307","category":"47","category_name":"住宅区","address":"云莲路101弄"},{"poiid":"B2094757D06AABFD449F","title":"中国馆班车2线","lon":"121.507145","lat":"31.187262","category":"38","category_name":"公交车站","address":"白莲泾路浦东南路—上海南站(北广场)"},{"poiid":"B2094655D26EA3F9429D","title":"东瑞公寓","lon":"121.50574","lat":"31.183533","category":"47","category_name":"住宅区","address":"云莲路95弄1-4号"},{"poiid":"B2094753D56AA1FD449E","title":"飞扬滑冰场","lon":"121.506721","lat":"31.181941","category":"220","category_name":"运动场所","address":"上海市 齐河路471号"},{"poiid":"B2094655D26BA3FB449E","title":"久斯台球天地","lon":"121.50573","lat":"31.18856","category":"171","category_name":"台球厅","address":"浦东新区浦东南路3669号浦东游泳馆2楼(近东方路)"},{"poiid":"B2094655D26DA1FB4498","title":"东瑞公寓(西门)","lon":"121.50537","lat":"31.18336","category":"47","category_name":"住宅区","address":"云莲路95弄1-4号"},{"poiid":"B2094655D265A1F5479A","title":"小尾羊(浦东南路店)","lon":"121.50168","lat":"31.18385","category":"86","category_name":"火锅店","address":"浦东南路2100号(塘桥路口)"},{"poiid":"B2094757D16FA2FE469B","title":"上海长途汽车站白莲泾站","lon":"121.503100552","lat":"31.183725491","category":"500","category_name":"未知分类","address":"上海浦东南路3843号"},{"poiid":"B2094753D165A0F5429A","title":"陆家嘴","lon":"121.508857","lat":"31.184705","category":"500","category_name":"未知分类","address":"上海市 陆家嘴"},{"poiid":"B2094655D26DA7FB409F","title":"上南花苑东苑(西门)","lon":"121.50537","lat":"31.18278","category":"47","category_name":"住宅区","address":"云莲路101弄"},{"poiid":"B2094655D265A1FE469C","title":"钱柜(浦东旗舰店)","lon":"121.50189","lat":"31.18413","category":"170","category_name":"KTV","address":"浦东南路1118号上海湾国际大厦B1层"},{"poiid":"B2094655D26AA7FA469C","title":"G&A健身俱乐部浦东店","lon":"121.50573","lat":"31.18856","category":"247","category_name":"餐饮美食","address":"浦东新区浦东南路3669号浦东游泳馆3楼"},{"poiid":"B2094757D068A0F54099","title":"昌里东路南码头路","lon":"121.511899738","lat":"31.1840343163","category":"500","category_name":"未知分类","address":"上海昌里东路南码头路1136弄"},{"poiid":"B2094655D268ABFC4892","title":"上南花园西苑(东一门)","lon":"121.50505","lat":"31.18278","category":"47","category_name":"住宅区","address":"浦东南路3885弄"}]