[{"poiid":"B2094654D564AAFC4998","title":"国泰电影院","lon":"121.46139","lat":"31.21795","category":"178","category_name":"电影院","address":"卢湾区淮海中路870号(茂名南路口)"},{"poiid":"B2094654D564AAFD4492","title":"新锦江大酒店","lon":"121.46285","lat":"31.22076","category":"213","category_name":"五星级宾馆","address":"卢湾区长乐路161号(近瑞金一路)"},{"poiid":"B2094757D06FA3FC4998","title":"锦江饭店","lon":"121.46181369957924","lat":"31.21876480002918","category":"214","category_name":"四星级宾馆","address":"卢湾区茂名南路59号(近长乐路)"},{"poiid":"B2094753D76FAAFA449C","title":"上海滩国泰旗舰店","lon":"121.466011","lat":"31.216125","category":"249","category_name":"购物服务","address":"淮海中路868号"},{"poiid":"B209475CD564A7F84292","title":"上海滩新天地店","lon":"121.47463","lat":"31.22164","category":"119","category_name":"商场","address":"\"太仓路181弄新天地北里15号\r\n\""},{"poiid":"B209475CD564A7F8439E","title":"上海滩中信泰富店","lon":"121.45602","lat":"31.22851","category":"119","category_name":"商场","address":"\"南京西路1168号中信泰富广场，店铺号221.\r\n\""},{"poiid":"B2094757D06EAAFF439D","title":"新旺茶餐厅(长乐店)","lon":"121.4619","lat":"31.22067","category":"72","category_name":"广东菜","address":"卢湾区长乐路175号(茂名南路瑞金一路间)"},{"poiid":"B2094757D06EABF54593","title":"十面埋伏 Seafood Noodle","lon":"121.46235","lat":"31.22113","category":"75","category_name":"浙江菜","address":"卢湾区长乐路352号(近瑞金一路)"},{"poiid":"B2094757D06FA2FD439F","title":"红房子西菜馆","lon":"121.46237","lat":"31.21747","category":"94","category_name":"西餐厅","address":"卢湾区淮海中路845号(近茂名南路)"},{"poiid":"B2094757D06FA2F94693","title":"淮海中路","lon":"121.463470459","lat":"31.2209300995","category":"36","category_name":"地铁站","address":"卢湾区淮海中路"},{"poiid":"B2094655D26AA1FF429C","title":"避风塘长乐店","lon":"121.46154","lat":"31.22081","category":"66","category_name":"茶艺馆","address":"卢湾区长乐路175号(近茂名南路)"},{"poiid":"B2094654DB64A5FD409D","title":"苏浙汇","lon":"121.46125","lat":"31.21837","category":"76","category_name":"上海菜","address":"卢湾区茂名南路127号(近淮海路)"},{"poiid":"B2094757D06EAAF84093","title":"Citta'享咖(淮海中路店)","lon":"121.4627","lat":"31.2178","category":"65","category_name":"咖啡厅","address":"上海卢湾区淮海中路835号(近茂名南路近国泰电影院)  "},{"poiid":"B2094757D06FA7F44099","title":"锦江小礼堂","lon":"121.46134988","lat":"31.220052989","category":"217","category_name":"旅馆招待所","address":"卢湾区茂名南路59号"},{"poiid":"B2094757D069A0F9479A","title":"天都里印度餐厅","lon":"121.461","lat":"31.22016","category":"102","category_name":"印度风味","address":"卢湾区茂名南路59号锦江饭店南楼大堂(近长乐路)"},{"poiid":"B2094655D26BA3FB4792","title":"晶采轩新锦江店","lon":"121.46284","lat":"31.22075","category":"72","category_name":"广东菜","address":"卢湾区长乐路161号新锦江大酒店3楼(近瑞金一路)"},{"poiid":"B2094757D66FA1F5419A","title":"新锦江","lon":"121.463139738","lat":"31.2208961012","category":"500","category_name":"未知分类","address":"上海市卢湾区茂名南路"},{"poiid":"B2094757D06FA0FF439B","title":"宝寿司(瑞金一路店)","lon":"121.46346173","lat":"31.219720076","category":"95","category_name":"日本料理","address":"卢湾区瑞金一路159号(近淮海中路)"},{"poiid":"B2094757D06FAAF9489A","title":"向明中学","lon":"121.4638","lat":"31.22031","category":"55","category_name":"中学","address":"上海卢湾区瑞金一路151号(近长乐路)  "},{"poiid":"B2094757D06FAAFE4392","title":"万藏(长乐路店)","lon":"121.46223","lat":"31.22084","category":"95","category_name":"日本料理","address":"卢湾区长乐路344号1楼(近瑞金一路)"},{"poiid":"B2094757D068A6F4469F","title":"Jimmy's Kitchen","lon":"121.46307273","lat":"31.220327089","category":"94","category_name":"西餐厅","address":"卢湾区茂名南路59号锦北楼1楼(长乐路)"},{"poiid":"B2094750DB6FA4F54399","title":"NIKE淮海路旗舰店","lon":"121.464332","lat":"31.218704","category":"249","category_name":"购物服务","address":null},{"poiid":"B2094757D16DA7FF4798","title":"Kee Club","lon":"121.4625799","lat":"31.218268724","category":"260","category_name":"其他","address":"卢湾区淮海中路796号3-4楼(近瑞金一路)"},{"poiid":"B2094757D66BABF84899","title":"美丽岛 Isola Bella","lon":"121.46196456535","lat":"31.218356786131","category":"47","category_name":"住宅区","address":"淮海中路864号2楼近茂名南路"},{"poiid":"B2094757D069A3FF499E","title":"金辰大酒店","lon":"121.463330525","lat":"31.2181942271","category":"76","category_name":"上海菜","address":"卢湾区淮海中路795-809号(近瑞金一路)"},{"poiid":"B2094757D068A7FC459F","title":"巴黎婚纱(淮海中路店)","lon":"121.46342","lat":"31.21838","category":"249","category_name":"购物服务","address":"上海卢湾区淮海中路780号(近瑞金一路)"},{"poiid":"B2094757D069A3FC449D","title":"8号线人民广场站","lon":"121.46167173","lat":"31.217903037","category":"36","category_name":"地铁站","address":"上海市黄浦区"},{"poiid":"B2094654DB64A5F54099","title":"松阪烤肉","lon":"121.46118","lat":"31.21912","category":"87","category_name":"特色／地方风味餐厅","address":"卢湾区茂名南路59号锦江宾馆美食街(近长乐路)"},{"poiid":"B2094757DB6FA4F9469A","title":"白木屋","lon":"121.4612600956912","lat":"31.21832756200628","category":"500","category_name":"未知分类","address":"东湖路30号2楼近淮海中路"},{"poiid":"B2094757D068A0FF4893","title":"锦庐 The Chinoise Story","lon":"121.46073413098","lat":"31.220246592787","category":"247","category_name":"餐饮美食","address":"卢湾区茂名南路59号锦江饭店锦北楼(近长乐路)"},{"poiid":"B2094757D06FABFE479D","title":"神田烧肉(淮海店)","lon":"121.46357","lat":"31.21842","category":"269","category_name":"烧烤","address":"卢湾区淮海中路776号锦江淮海大厦2楼(近瑞金一路)"},{"poiid":"B2094757D068A5FD4498","title":"小南国烧烤(卢湾店)","lon":"121.46287","lat":"31.22073","category":"269","category_name":"烧烤","address":"卢湾区长乐路161号新锦江大酒店3楼(近瑞金一路)"},{"poiid":"B2094757D46EABFA4092","title":"味千拉面 华狮广场店","lon":"121.464080054","lat":"31.218709793","category":"95","category_name":"日本料理","address":"卢湾区淮海中路688号华狮购物中心内(近思南路)"},{"poiid":"B2094655D26AA2FB4598","title":"伊藤家瑞金店","lon":"121.46369","lat":"31.21796","category":"95","category_name":"日本料理","address":"卢湾区瑞金二路24号(近淮海中路)"},{"poiid":"B2094757D068A0FC409C","title":"梅园村锦梅食府","lon":"121.460920662","lat":"31.2202856175","category":"74","category_name":"江苏菜","address":"卢湾区茂名南路59号老锦江食街内(近长乐路)"},{"poiid":"B2094752D764A6F54798","title":"蜀公馆成都老火锅(淮海中路店)","lon":"121.46319151","lat":"31.21869215","category":"247","category_name":"餐饮美食","address":"卢湾区淮海中路776号锦江淮海大厦1楼(近瑞金一路)"},{"poiid":"B2094750D565AAFA489A","title":"江南","lon":"121.462814","lat":"31.220983","category":"260","category_name":"其他","address":"卢湾区长乐路348号(近瑞金一路)"},{"poiid":"B2094655D265AAFB459F","title":"锦江北楼","lon":"121.46145","lat":"31.22079","category":"46","category_name":"楼宇","address":"长乐路175"},{"poiid":"B2094757D068ABFB439A","title":"鹿港小镇家常菜","lon":"121.46185","lat":"31.22081","category":"76","category_name":"上海菜","address":"卢湾区长乐路350号(近瑞金一路)"},{"poiid":"B2094757D068A0FA419C","title":"赛美蓉(Semillon Cafe&amp;Lounge)","lon":"121.46311","lat":"31.22048","category":"247","category_name":"餐饮美食","address":"上海卢湾区长乐路161号新锦江大酒店1楼(近瑞金一路)"},{"poiid":"B2094757D06FAAFD409C","title":"红宝石(瑞金二店)","lon":"121.46374","lat":"31.21908","category":"67","category_name":"甜品店","address":"卢湾区瑞金一路128号(近淮海中路)"},{"poiid":"B2094757D464AAFB4492","title":"丰裕生煎 瑞金一路店","lon":"121.463617054","lat":"31.219189793","category":"68","category_name":"快餐厅","address":"卢湾区瑞金一路142号旁(近淮海中路)"},{"poiid":"B2094655D26BA3F8469F","title":"鸭王淮海店","lon":"121.46302","lat":"31.21864","category":"260","category_name":"其他","address":"卢湾区淮海中路786号4楼(近瑞金一路)"},{"poiid":"B2094757D464ABF4449C","title":"享咖 淮海中路店 Citta'","lon":"121.462261054","lat":"31.217926793","category":"65","category_name":"咖啡厅","address":"淮海中路837号近茂名南路"},{"poiid":"B2094752D76CA3FD4393","title":"tap coffee","lon":"121.461437","lat":"31.21855","category":"247","category_name":"餐饮美食","address":"南昌路150号"},{"poiid":"B2094655D36CA0F5419D","title":"淮海中路瑞金二路","lon":"121.46333","lat":"31.2186","category":"38","category_name":"公交车站","address":""},{"poiid":"B2094655D26FA3F84792","title":"巴黎婚纱上海旗舰店","lon":"121.46315","lat":"31.21865","category":"248","category_name":"生活娱乐","address":"上海卢湾区淮海中路780号"},{"poiid":"B2094757D66DA1F8479F","title":"锦梅食府","lon":"121.461082738","lat":"31.2191440639","category":"247","category_name":"餐饮美食","address":"上海市静安区陕西南路"},{"poiid":"B2094753D165A4FB419C","title":"星巴克（人民坊店）","lon":"121.462263","lat":"31.218097","category":"500","category_name":"未知分类","address":"上海市 淮海中路"},{"poiid":"B2094757D06FA5FF449E","title":"宜芝多(淮海精品店)","lon":"121.46244049","lat":"31.218528747","category":"112","category_name":"糕饼店","address":"卢湾区淮海中路843号(近茂名南路)"},{"poiid":"B2094654D564AAFC4998","title":"国泰电影院","lon":"121.46139","lat":"31.21795","category":"178","category_name":"电影院","address":"卢湾区淮海中路870号(茂名南路口)"},{"poiid":"B2094654D564AAFD4492","title":"新锦江大酒店","lon":"121.46285","lat":"31.22076","category":"213","category_name":"五星级宾馆","address":"卢湾区长乐路161号(近瑞金一路)"},{"poiid":"B2094757D06FA3FC4998","title":"锦江饭店","lon":"121.46181369957924","lat":"31.21876480002918","category":"214","category_name":"四星级宾馆","address":"卢湾区茂名南路59号(近长乐路)"},{"poiid":"B2094753D76FAAFA449C","title":"上海滩国泰旗舰店","lon":"121.466011","lat":"31.216125","category":"249","category_name":"购物服务","address":"淮海中路868号"},{"poiid":"B209475CD564A7F84292","title":"上海滩新天地店","lon":"121.47463","lat":"31.22164","category":"119","category_name":"商场","address":"\"太仓路181弄新天地北里15号\r\n\""},{"poiid":"B209475CD564A7F8439E","title":"上海滩中信泰富店","lon":"121.45602","lat":"31.22851","category":"119","category_name":"商场","address":"\"南京西路1168号中信泰富广场，店铺号221.\r\n\""},{"poiid":"B2094757D06EAAFF439D","title":"新旺茶餐厅(长乐店)","lon":"121.4619","lat":"31.22067","category":"72","category_name":"广东菜","address":"卢湾区长乐路175号(茂名南路瑞金一路间)"},{"poiid":"B2094757D06EABF54593","title":"十面埋伏 Seafood Noodle","lon":"121.46235","lat":"31.22113","category":"75","category_name":"浙江菜","address":"卢湾区长乐路352号(近瑞金一路)"},{"poiid":"B2094757D06FA2FD439F","title":"红房子西菜馆","lon":"121.46237","lat":"31.21747","category":"94","category_name":"西餐厅","address":"卢湾区淮海中路845号(近茂名南路)"},{"poiid":"B2094757D06FA2F94693","title":"淮海中路","lon":"121.463470459","lat":"31.2209300995","category":"36","category_name":"地铁站","address":"卢湾区淮海中路"},{"poiid":"B2094655D26AA1FF429C","title":"避风塘长乐店","lon":"121.46154","lat":"31.22081","category":"66","category_name":"茶艺馆","address":"卢湾区长乐路175号(近茂名南路)"},{"poiid":"B2094654DB64A5FD409D","title":"苏浙汇","lon":"121.46125","lat":"31.21837","category":"76","category_name":"上海菜","address":"卢湾区茂名南路127号(近淮海路)"},{"poiid":"B2094757D06EAAF84093","title":"Citta'享咖(淮海中路店)","lon":"121.4627","lat":"31.2178","category":"65","category_name":"咖啡厅","address":"上海卢湾区淮海中路835号(近茂名南路近国泰电影院)  "},{"poiid":"B2094757D06FA7F44099","title":"锦江小礼堂","lon":"121.46134988","lat":"31.220052989","category":"217","category_name":"旅馆招待所","address":"卢湾区茂名南路59号"},{"poiid":"B2094757D069A0F9479A","title":"天都里印度餐厅","lon":"121.461","lat":"31.22016","category":"102","category_name":"印度风味","address":"卢湾区茂名南路59号锦江饭店南楼大堂(近长乐路)"},{"poiid":"B2094655D26BA3FB4792","title":"晶采轩新锦江店","lon":"121.46284","lat":"31.22075","category":"72","category_name":"广东菜","address":"卢湾区长乐路161号新锦江大酒店3楼(近瑞金一路)"},{"poiid":"B2094757D66FA1F5419A","title":"新锦江","lon":"121.463139738","lat":"31.2208961012","category":"500","category_name":"未知分类","address":"上海市卢湾区茂名南路"},{"poiid":"B2094757D06FA0FF439B","title":"宝寿司(瑞金一路店)","lon":"121.46346173","lat":"31.219720076","category":"95","category_name":"日本料理","address":"卢湾区瑞金一路159号(近淮海中路)"},{"poiid":"B2094757D06FAAF9489A","title":"向明中学","lon":"121.4638","lat":"31.22031","category":"55","category_name":"中学","address":"上海卢湾区瑞金一路151号(近长乐路)  "},{"poiid":"B2094757D06FAAFE4392","title":"万藏(长乐路店)","lon":"121.46223","lat":"31.22084","category":"95","category_name":"日本料理","address":"卢湾区长乐路344号1楼(近瑞金一路)"},{"poiid":"B2094757D068A6F4469F","title":"Jimmy's Kitchen","lon":"121.46307273","lat":"31.220327089","category":"94","category_name":"西餐厅","address":"卢湾区茂名南路59号锦北楼1楼(长乐路)"},{"poiid":"B2094750DB6FA4F54399","title":"NIKE淮海路旗舰店","lon":"121.464332","lat":"31.218704","category":"249","category_name":"购物服务","address":null},{"poiid":"B2094757D16DA7FF4798","title":"Kee Club","lon":"121.4625799","lat":"31.218268724","category":"260","category_name":"其他","address":"卢湾区淮海中路796号3-4楼(近瑞金一路)"},{"poiid":"B2094757D66BABF84899","title":"美丽岛 Isola Bella","lon":"121.46196456535","lat":"31.218356786131","category":"47","category_name":"住宅区","address":"淮海中路864号2楼近茂名南路"},{"poiid":"B2094757D069A3FF499E","title":"金辰大酒店","lon":"121.463330525","lat":"31.2181942271","category":"76","category_name":"上海菜","address":"卢湾区淮海中路795-809号(近瑞金一路)"},{"poiid":"B2094757D068A7FC459F","title":"巴黎婚纱(淮海中路店)","lon":"121.46342","lat":"31.21838","category":"249","category_name":"购物服务","address":"上海卢湾区淮海中路780号(近瑞金一路)"},{"poiid":"B2094757D069A3FC449D","title":"8号线人民广场站","lon":"121.46167173","lat":"31.217903037","category":"36","category_name":"地铁站","address":"上海市黄浦区"},{"poiid":"B2094654DB64A5F54099","title":"松阪烤肉","lon":"121.46118","lat":"31.21912","category":"87","category_name":"特色／地方风味餐厅","address":"卢湾区茂名南路59号锦江宾馆美食街(近长乐路)"},{"poiid":"B2094757DB6FA4F9469A","title":"白木屋","lon":"121.4612600956912","lat":"31.21832756200628","category":"500","category_name":"未知分类","address":"东湖路30号2楼近淮海中路"},{"poiid":"B2094757D068A0FF4893","title":"锦庐 The Chinoise Story","lon":"121.46073413098","lat":"31.220246592787","category":"247","category_name":"餐饮美食","address":"卢湾区茂名南路59号锦江饭店锦北楼(近长乐路)"},{"poiid":"B2094757D06FABFE479D","title":"神田烧肉(淮海店)","lon":"121.46357","lat":"31.21842","category":"269","category_name":"烧烤","address":"卢湾区淮海中路776号锦江淮海大厦2楼(近瑞金一路)"},{"poiid":"B2094757D068A5FD4498","title":"小南国烧烤(卢湾店)","lon":"121.46287","lat":"31.22073","category":"269","category_name":"烧烤","address":"卢湾区长乐路161号新锦江大酒店3楼(近瑞金一路)"},{"poiid":"B2094757D46EABFA4092","title":"味千拉面 华狮广场店","lon":"121.464080054","lat":"31.218709793","category":"95","category_name":"日本料理","address":"卢湾区淮海中路688号华狮购物中心内(近思南路)"},{"poiid":"B2094655D26AA2FB4598","title":"伊藤家瑞金店","lon":"121.46369","lat":"31.21796","category":"95","category_name":"日本料理","address":"卢湾区瑞金二路24号(近淮海中路)"},{"poiid":"B2094757D068A0FC409C","title":"梅园村锦梅食府","lon":"121.460920662","lat":"31.2202856175","category":"74","category_name":"江苏菜","address":"卢湾区茂名南路59号老锦江食街内(近长乐路)"},{"poiid":"B2094752D764A6F54798","title":"蜀公馆成都老火锅(淮海中路店)","lon":"121.46319151","lat":"31.21869215","category":"247","category_name":"餐饮美食","address":"卢湾区淮海中路776号锦江淮海大厦1楼(近瑞金一路)"},{"poiid":"B2094750D565AAFA489A","title":"江南","lon":"121.462814","lat":"31.220983","category":"260","category_name":"其他","address":"卢湾区长乐路348号(近瑞金一路)"},{"poiid":"B2094655D265AAFB459F","title":"锦江北楼","lon":"121.46145","lat":"31.22079","category":"46","category_name":"楼宇","address":"长乐路175"},{"poiid":"B2094757D068ABFB439A","title":"鹿港小镇家常菜","lon":"121.46185","lat":"31.22081","category":"76","category_name":"上海菜","address":"卢湾区长乐路350号(近瑞金一路)"},{"poiid":"B2094757D068A0FA419C","title":"赛美蓉(Semillon Cafe&amp;Lounge)","lon":"121.46311","lat":"31.22048","category":"247","category_name":"餐饮美食","address":"上海卢湾区长乐路161号新锦江大酒店1楼(近瑞金一路)"},{"poiid":"B2094757D06FAAFD409C","title":"红宝石(瑞金二店)","lon":"121.46374","lat":"31.21908","category":"67","category_name":"甜品店","address":"卢湾区瑞金一路128号(近淮海中路)"},{"poiid":"B2094757D464AAFB4492","title":"丰裕生煎 瑞金一路店","lon":"121.463617054","lat":"31.219189793","category":"68","category_name":"快餐厅","address":"卢湾区瑞金一路142号旁(近淮海中路)"},{"poiid":"B2094655D26BA3F8469F","title":"鸭王淮海店","lon":"121.46302","lat":"31.21864","category":"260","category_name":"其他","address":"卢湾区淮海中路786号4楼(近瑞金一路)"},{"poiid":"B2094757D464ABF4449C","title":"享咖 淮海中路店 Citta'","lon":"121.462261054","lat":"31.217926793","category":"65","category_name":"咖啡厅","address":"淮海中路837号近茂名南路"},{"poiid":"B2094752D76CA3FD4393","title":"tap coffee","lon":"121.461437","lat":"31.21855","category":"247","category_name":"餐饮美食","address":"南昌路150号"},{"poiid":"B2094655D36CA0F5419D","title":"淮海中路瑞金二路","lon":"121.46333","lat":"31.2186","category":"38","category_name":"公交车站","address":""},{"poiid":"B2094655D26FA3F84792","title":"巴黎婚纱上海旗舰店","lon":"121.46315","lat":"31.21865","category":"248","category_name":"生活娱乐","address":"上海卢湾区淮海中路780号"},{"poiid":"B2094757D66DA1F8479F","title":"锦梅食府","lon":"121.461082738","lat":"31.2191440639","category":"247","category_name":"餐饮美食","address":"上海市静安区陕西南路"},{"poiid":"B2094753D165A4FB419C","title":"星巴克（人民坊店）","lon":"121.462263","lat":"31.218097","category":"500","category_name":"未知分类","address":"上海市 淮海中路"},{"poiid":"B2094757D06FA5FF449E","title":"宜芝多(淮海精品店)","lon":"121.46244049","lat":"31.218528747","category":"112","category_name":"糕饼店","address":"卢湾区淮海中路843号(近茂名南路)"},{"poiid":"B2094654D564AAFC4998","title":"国泰电影院","lon":"121.46139","lat":"31.21795","category":"178","category_name":"电影院","address":"卢湾区淮海中路870号(茂名南路口)"},{"poiid":"B2094654D564AAFD4492","title":"新锦江大酒店","lon":"121.46285","lat":"31.22076","category":"213","category_name":"五星级宾馆","address":"卢湾区长乐路161号(近瑞金一路)"},{"poiid":"B2094757D06FA3FC4998","title":"锦江饭店","lon":"121.46181369957924","lat":"31.21876480002918","category":"214","category_name":"四星级宾馆","address":"卢湾区茂名南路59号(近长乐路)"},{"poiid":"B2094753D76FAAFA449C","title":"上海滩国泰旗舰店","lon":"121.466011","lat":"31.216125","category":"249","category_name":"购物服务","address":"淮海中路868号"},{"poiid":"B209475CD564A7F84292","title":"上海滩新天地店","lon":"121.47463","lat":"31.22164","category":"119","category_name":"商场","address":"\"太仓路181弄新天地北里15号\r\n\""},{"poiid":"B209475CD564A7F8439E","title":"上海滩中信泰富店","lon":"121.45602","lat":"31.22851","category":"119","category_name":"商场","address":"\"南京西路1168号中信泰富广场，店铺号221.\r\n\""},{"poiid":"B2094757D06EAAFF439D","title":"新旺茶餐厅(长乐店)","lon":"121.4619","lat":"31.22067","category":"72","category_name":"广东菜","address":"卢湾区长乐路175号(茂名南路瑞金一路间)"},{"poiid":"B2094757D06EABF54593","title":"十面埋伏 Seafood Noodle","lon":"121.46235","lat":"31.22113","category":"75","category_name":"浙江菜","address":"卢湾区长乐路352号(近瑞金一路)"},{"poiid":"B2094757D06FA2FD439F","title":"红房子西菜馆","lon":"121.46237","lat":"31.21747","category":"94","category_name":"西餐厅","address":"卢湾区淮海中路845号(近茂名南路)"},{"poiid":"B2094757D06FA2F94693","title":"淮海中路","lon":"121.463470459","lat":"31.2209300995","category":"36","category_name":"地铁站","address":"卢湾区淮海中路"},{"poiid":"B2094655D26AA1FF429C","title":"避风塘长乐店","lon":"121.46154","lat":"31.22081","category":"66","category_name":"茶艺馆","address":"卢湾区长乐路175号(近茂名南路)"},{"poiid":"B2094654DB64A5FD409D","title":"苏浙汇","lon":"121.46125","lat":"31.21837","category":"76","category_name":"上海菜","address":"卢湾区茂名南路127号(近淮海路)"},{"poiid":"B2094757D06EAAF84093","title":"Citta'享咖(淮海中路店)","lon":"121.4627","lat":"31.2178","category":"65","category_name":"咖啡厅","address":"上海卢湾区淮海中路835号(近茂名南路近国泰电影院)  "},{"poiid":"B2094757D06FA7F44099","title":"锦江小礼堂","lon":"121.46134988","lat":"31.220052989","category":"217","category_name":"旅馆招待所","address":"卢湾区茂名南路59号"},{"poiid":"B2094757D069A0F9479A","title":"天都里印度餐厅","lon":"121.461","lat":"31.22016","category":"102","category_name":"印度风味","address":"卢湾区茂名南路59号锦江饭店南楼大堂(近长乐路)"},{"poiid":"B2094655D26BA3FB4792","title":"晶采轩新锦江店","lon":"121.46284","lat":"31.22075","category":"72","category_name":"广东菜","address":"卢湾区长乐路161号新锦江大酒店3楼(近瑞金一路)"},{"poiid":"B2094757D66FA1F5419A","title":"新锦江","lon":"121.463139738","lat":"31.2208961012","category":"500","category_name":"未知分类","address":"上海市卢湾区茂名南路"},{"poiid":"B2094757D06FA0FF439B","title":"宝寿司(瑞金一路店)","lon":"121.46346173","lat":"31.219720076","category":"95","category_name":"日本料理","address":"卢湾区瑞金一路159号(近淮海中路)"},{"poiid":"B2094757D06FAAF9489A","title":"向明中学","lon":"121.4638","lat":"31.22031","category":"55","category_name":"中学","address":"上海卢湾区瑞金一路151号(近长乐路)  "},{"poiid":"B2094757D06FAAFE4392","title":"万藏(长乐路店)","lon":"121.46223","lat":"31.22084","category":"95","category_name":"日本料理","address":"卢湾区长乐路344号1楼(近瑞金一路)"},{"poiid":"B2094757D068A6F4469F","title":"Jimmy's Kitchen","lon":"121.46307273","lat":"31.220327089","category":"94","category_name":"西餐厅","address":"卢湾区茂名南路59号锦北楼1楼(长乐路)"},{"poiid":"B2094750DB6FA4F54399","title":"NIKE淮海路旗舰店","lon":"121.464332","lat":"31.218704","category":"249","category_name":"购物服务","address":null},{"poiid":"B2094757D16DA7FF4798","title":"Kee Club","lon":"121.4625799","lat":"31.218268724","category":"260","category_name":"其他","address":"卢湾区淮海中路796号3-4楼(近瑞金一路)"},{"poiid":"B2094757D66BABF84899","title":"美丽岛 Isola Bella","lon":"121.46196456535","lat":"31.218356786131","category":"47","category_name":"住宅区","address":"淮海中路864号2楼近茂名南路"},{"poiid":"B2094757D069A3FF499E","title":"金辰大酒店","lon":"121.463330525","lat":"31.2181942271","category":"76","category_name":"上海菜","address":"卢湾区淮海中路795-809号(近瑞金一路)"},{"poiid":"B2094757D068A7FC459F","title":"巴黎婚纱(淮海中路店)","lon":"121.46342","lat":"31.21838","category":"249","category_name":"购物服务","address":"上海卢湾区淮海中路780号(近瑞金一路)"},{"poiid":"B2094757D069A3FC449D","title":"8号线人民广场站","lon":"121.46167173","lat":"31.217903037","category":"36","category_name":"地铁站","address":"上海市黄浦区"},{"poiid":"B2094654DB64A5F54099","title":"松阪烤肉","lon":"121.46118","lat":"31.21912","category":"87","category_name":"特色／地方风味餐厅","address":"卢湾区茂名南路59号锦江宾馆美食街(近长乐路)"},{"poiid":"B2094757DB6FA4F9469A","title":"白木屋","lon":"121.4612600956912","lat":"31.21832756200628","category":"500","category_name":"未知分类","address":"东湖路30号2楼近淮海中路"},{"poiid":"B2094757D068A0FF4893","title":"锦庐 The Chinoise Story","lon":"121.46073413098","lat":"31.220246592787","category":"247","category_name":"餐饮美食","address":"卢湾区茂名南路59号锦江饭店锦北楼(近长乐路)"},{"poiid":"B2094757D06FABFE479D","title":"神田烧肉(淮海店)","lon":"121.46357","lat":"31.21842","category":"269","category_name":"烧烤","address":"卢湾区淮海中路776号锦江淮海大厦2楼(近瑞金一路)"},{"poiid":"B2094757D068A5FD4498","title":"小南国烧烤(卢湾店)","lon":"121.46287","lat":"31.22073","category":"269","category_name":"烧烤","address":"卢湾区长乐路161号新锦江大酒店3楼(近瑞金一路)"},{"poiid":"B2094757D46EABFA4092","title":"味千拉面 华狮广场店","lon":"121.464080054","lat":"31.218709793","category":"95","category_name":"日本料理","address":"卢湾区淮海中路688号华狮购物中心内(近思南路)"},{"poiid":"B2094655D26AA2FB4598","title":"伊藤家瑞金店","lon":"121.46369","lat":"31.21796","category":"95","category_name":"日本料理","address":"卢湾区瑞金二路24号(近淮海中路)"},{"poiid":"B2094757D068A0FC409C","title":"梅园村锦梅食府","lon":"121.460920662","lat":"31.2202856175","category":"74","category_name":"江苏菜","address":"卢湾区茂名南路59号老锦江食街内(近长乐路)"},{"poiid":"B2094752D764A6F54798","title":"蜀公馆成都老火锅(淮海中路店)","lon":"121.46319151","lat":"31.21869215","category":"247","category_name":"餐饮美食","address":"卢湾区淮海中路776号锦江淮海大厦1楼(近瑞金一路)"},{"poiid":"B2094750D565AAFA489A","title":"江南","lon":"121.462814","lat":"31.220983","category":"260","category_name":"其他","address":"卢湾区长乐路348号(近瑞金一路)"},{"poiid":"B2094655D265AAFB459F","title":"锦江北楼","lon":"121.46145","lat":"31.22079","category":"46","category_name":"楼宇","address":"长乐路175"},{"poiid":"B2094757D068ABFB439A","title":"鹿港小镇家常菜","lon":"121.46185","lat":"31.22081","category":"76","category_name":"上海菜","address":"卢湾区长乐路350号(近瑞金一路)"},{"poiid":"B2094757D068A0FA419C","title":"赛美蓉(Semillon Cafe&amp;Lounge)","lon":"121.46311","lat":"31.22048","category":"247","category_name":"餐饮美食","address":"上海卢湾区长乐路161号新锦江大酒店1楼(近瑞金一路)"},{"poiid":"B2094757D06FAAFD409C","title":"红宝石(瑞金二店)","lon":"121.46374","lat":"31.21908","category":"67","category_name":"甜品店","address":"卢湾区瑞金一路128号(近淮海中路)"},{"poiid":"B2094757D464AAFB4492","title":"丰裕生煎 瑞金一路店","lon":"121.463617054","lat":"31.219189793","category":"68","category_name":"快餐厅","address":"卢湾区瑞金一路142号旁(近淮海中路)"},{"poiid":"B2094655D26BA3F8469F","title":"鸭王淮海店","lon":"121.46302","lat":"31.21864","category":"260","category_name":"其他","address":"卢湾区淮海中路786号4楼(近瑞金一路)"},{"poiid":"B2094757D464ABF4449C","title":"享咖 淮海中路店 Citta'","lon":"121.462261054","lat":"31.217926793","category":"65","category_name":"咖啡厅","address":"淮海中路837号近茂名南路"},{"poiid":"B2094752D76CA3FD4393","title":"tap coffee","lon":"121.461437","lat":"31.21855","category":"247","category_name":"餐饮美食","address":"南昌路150号"},{"poiid":"B2094655D36CA0F5419D","title":"淮海中路瑞金二路","lon":"121.46333","lat":"31.2186","category":"38","category_name":"公交车站","address":""},{"poiid":"B2094655D26FA3F84792","title":"巴黎婚纱上海旗舰店","lon":"121.46315","lat":"31.21865","category":"248","category_name":"生活娱乐","address":"上海卢湾区淮海中路780号"},{"poiid":"B2094757D66DA1F8479F","title":"锦梅食府","lon":"121.461082738","lat":"31.2191440639","category":"247","category_name":"餐饮美食","address":"上海市静安区陕西南路"},{"poiid":"B2094753D165A4FB419C","title":"星巴克（人民坊店）","lon":"121.462263","lat":"31.218097","category":"500","category_name":"未知分类","address":"上海市 淮海中路"},{"poiid":"B2094757D06FA5FF449E","title":"宜芝多(淮海精品店)","lon":"121.46244049","lat":"31.218528747","category":"112","category_name":"糕饼店","address":"卢湾区淮海中路843号(近茂名南路)"},{"poiid":"B2094654D564AAFC4998","title":"国泰电影院","lon":"121.46139","lat":"31.21795","category":"178","category_name":"电影院","address":"卢湾区淮海中路870号(茂名南路口)"},{"poiid":"B2094654D564AAFD4492","title":"新锦江大酒店","lon":"121.46285","lat":"31.22076","category":"213","category_name":"五星级宾馆","address":"卢湾区长乐路161号(近瑞金一路)"},{"poiid":"B2094757D06FA3FC4998","title":"锦江饭店","lon":"121.46181369957924","lat":"31.21876480002918","category":"214","category_name":"四星级宾馆","address":"卢湾区茂名南路59号(近长乐路)"},{"poiid":"B2094753D76FAAFA449C","title":"上海滩国泰旗舰店","lon":"121.466011","lat":"31.216125","category":"249","category_name":"购物服务","address":"淮海中路868号"},{"poiid":"B209475CD564A7F84292","title":"上海滩新天地店","lon":"121.47463","lat":"31.22164","category":"119","category_name":"商场","address":"\"太仓路181弄新天地北里15号\r\n\""},{"poiid":"B209475CD564A7F8439E","title":"上海滩中信泰富店","lon":"121.45602","lat":"31.22851","category":"119","category_name":"商场","address":"\"南京西路1168号中信泰富广场，店铺号221.\r\n\""},{"poiid":"B2094757D06EAAFF439D","title":"新旺茶餐厅(长乐店)","lon":"121.4619","lat":"31.22067","category":"72","category_name":"广东菜","address":"卢湾区长乐路175号(茂名南路瑞金一路间)"},{"poiid":"B2094757D06EABF54593","title":"十面埋伏 Seafood Noodle","lon":"121.46235","lat":"31.22113","category":"75","category_name":"浙江菜","address":"卢湾区长乐路352号(近瑞金一路)"},{"poiid":"B2094757D06FA2FD439F","title":"红房子西菜馆","lon":"121.46237","lat":"31.21747","category":"94","category_name":"西餐厅","address":"卢湾区淮海中路845号(近茂名南路)"},{"poiid":"B2094757D06FA2F94693","title":"淮海中路","lon":"121.463470459","lat":"31.2209300995","category":"36","category_name":"地铁站","address":"卢湾区淮海中路"},{"poiid":"B2094655D26AA1FF429C","title":"避风塘长乐店","lon":"121.46154","lat":"31.22081","category":"66","category_name":"茶艺馆","address":"卢湾区长乐路175号(近茂名南路)"},{"poiid":"B2094654DB64A5FD409D","title":"苏浙汇","lon":"121.46125","lat":"31.21837","category":"76","category_name":"上海菜","address":"卢湾区茂名南路127号(近淮海路)"},{"poiid":"B2094757D06EAAF84093","title":"Citta'享咖(淮海中路店)","lon":"121.4627","lat":"31.2178","category":"65","category_name":"咖啡厅","address":"上海卢湾区淮海中路835号(近茂名南路近国泰电影院)  "},{"poiid":"B2094757D06FA7F44099","title":"锦江小礼堂","lon":"121.46134988","lat":"31.220052989","category":"217","category_name":"旅馆招待所","address":"卢湾区茂名南路59号"},{"poiid":"B2094757D069A0F9479A","title":"天都里印度餐厅","lon":"121.461","lat":"31.22016","category":"102","category_name":"印度风味","address":"卢湾区茂名南路59号锦江饭店南楼大堂(近长乐路)"},{"poiid":"B2094655D26BA3FB4792","title":"晶采轩新锦江店","lon":"121.46284","lat":"31.22075","category":"72","category_name":"广东菜","address":"卢湾区长乐路161号新锦江大酒店3楼(近瑞金一路)"},{"poiid":"B2094757D66FA1F5419A","title":"新锦江","lon":"121.463139738","lat":"31.2208961012","category":"500","category_name":"未知分类","address":"上海市卢湾区茂名南路"},{"poiid":"B2094757D06FA0FF439B","title":"宝寿司(瑞金一路店)","lon":"121.46346173","lat":"31.219720076","category":"95","category_name":"日本料理","address":"卢湾区瑞金一路159号(近淮海中路)"},{"poiid":"B2094757D06FAAF9489A","title":"向明中学","lon":"121.4638","lat":"31.22031","category":"55","category_name":"中学","address":"上海卢湾区瑞金一路151号(近长乐路)  "},{"poiid":"B2094757D06FAAFE4392","title":"万藏(长乐路店)","lon":"121.46223","lat":"31.22084","category":"95","category_name":"日本料理","address":"卢湾区长乐路344号1楼(近瑞金一路)"},{"poiid":"B2094757D068A6F4469F","title":"Jimmy's Kitchen","lon":"121.46307273","lat":"31.220327089","category":"94","category_name":"西餐厅","address":"卢湾区茂名南路59号锦北楼1楼(长乐路)"},{"poiid":"B2094750DB6FA4F54399","title":"NIKE淮海路旗舰店","lon":"121.464332","lat":"31.218704","category":"249","category_name":"购物服务","address":null},{"poiid":"B2094757D16DA7FF4798","title":"Kee Club","lon":"121.4625799","lat":"31.218268724","category":"260","category_name":"其他","address":"卢湾区淮海中路796号3-4楼(近瑞金一路)"},{"poiid":"B2094757D66BABF84899","title":"美丽岛 Isola Bella","lon":"121.46196456535","lat":"31.218356786131","category":"47","category_name":"住宅区","address":"淮海中路864号2楼近茂名南路"},{"poiid":"B2094757D069A3FF499E","title":"金辰大酒店","lon":"121.463330525","lat":"31.2181942271","category":"76","category_name":"上海菜","address":"卢湾区淮海中路795-809号(近瑞金一路)"},{"poiid":"B2094757D068A7FC459F","title":"巴黎婚纱(淮海中路店)","lon":"121.46342","lat":"31.21838","category":"249","category_name":"购物服务","address":"上海卢湾区淮海中路780号(近瑞金一路)"},{"poiid":"B2094757D069A3FC449D","title":"8号线人民广场站","lon":"121.46167173","lat":"31.217903037","category":"36","category_name":"地铁站","address":"上海市黄浦区"},{"poiid":"B2094654DB64A5F54099","title":"松阪烤肉","lon":"121.46118","lat":"31.21912","category":"87","category_name":"特色／地方风味餐厅","address":"卢湾区茂名南路59号锦江宾馆美食街(近长乐路)"},{"poiid":"B2094757DB6FA4F9469A","title":"白木屋","lon":"121.4612600956912","lat":"31.21832756200628","category":"500","category_name":"未知分类","address":"东湖路30号2楼近淮海中路"},{"poiid":"B2094757D068A0FF4893","title":"锦庐 The Chinoise Story","lon":"121.46073413098","lat":"31.220246592787","category":"247","category_name":"餐饮美食","address":"卢湾区茂名南路59号锦江饭店锦北楼(近长乐路)"},{"poiid":"B2094757D06FABFE479D","title":"神田烧肉(淮海店)","lon":"121.46357","lat":"31.21842","category":"269","category_name":"烧烤","address":"卢湾区淮海中路776号锦江淮海大厦2楼(近瑞金一路)"},{"poiid":"B2094757D068A5FD4498","title":"小南国烧烤(卢湾店)","lon":"121.46287","lat":"31.22073","category":"269","category_name":"烧烤","address":"卢湾区长乐路161号新锦江大酒店3楼(近瑞金一路)"},{"poiid":"B2094757D46EABFA4092","title":"味千拉面 华狮广场店","lon":"121.464080054","lat":"31.218709793","category":"95","category_name":"日本料理","address":"卢湾区淮海中路688号华狮购物中心内(近思南路)"},{"poiid":"B2094655D26AA2FB4598","title":"伊藤家瑞金店","lon":"121.46369","lat":"31.21796","category":"95","category_name":"日本料理","address":"卢湾区瑞金二路24号(近淮海中路)"},{"poiid":"B2094757D068A0FC409C","title":"梅园村锦梅食府","lon":"121.460920662","lat":"31.2202856175","category":"74","category_name":"江苏菜","address":"卢湾区茂名南路59号老锦江食街内(近长乐路)"},{"poiid":"B2094752D764A6F54798","title":"蜀公馆成都老火锅(淮海中路店)","lon":"121.46319151","lat":"31.21869215","category":"247","category_name":"餐饮美食","address":"卢湾区淮海中路776号锦江淮海大厦1楼(近瑞金一路)"},{"poiid":"B2094750D565AAFA489A","title":"江南","lon":"121.462814","lat":"31.220983","category":"260","category_name":"其他","address":"卢湾区长乐路348号(近瑞金一路)"},{"poiid":"B2094655D265AAFB459F","title":"锦江北楼","lon":"121.46145","lat":"31.22079","category":"46","category_name":"楼宇","address":"长乐路175"},{"poiid":"B2094757D068ABFB439A","title":"鹿港小镇家常菜","lon":"121.46185","lat":"31.22081","category":"76","category_name":"上海菜","address":"卢湾区长乐路350号(近瑞金一路)"},{"poiid":"B2094757D068A0FA419C","title":"赛美蓉(Semillon Cafe&amp;Lounge)","lon":"121.46311","lat":"31.22048","category":"247","category_name":"餐饮美食","address":"上海卢湾区长乐路161号新锦江大酒店1楼(近瑞金一路)"},{"poiid":"B2094757D06FAAFD409C","title":"红宝石(瑞金二店)","lon":"121.46374","lat":"31.21908","category":"67","category_name":"甜品店","address":"卢湾区瑞金一路128号(近淮海中路)"},{"poiid":"B2094757D464AAFB4492","title":"丰裕生煎 瑞金一路店","lon":"121.463617054","lat":"31.219189793","category":"68","category_name":"快餐厅","address":"卢湾区瑞金一路142号旁(近淮海中路)"},{"poiid":"B2094655D26BA3F8469F","title":"鸭王淮海店","lon":"121.46302","lat":"31.21864","category":"260","category_name":"其他","address":"卢湾区淮海中路786号4楼(近瑞金一路)"},{"poiid":"B2094757D464ABF4449C","title":"享咖 淮海中路店 Citta'","lon":"121.462261054","lat":"31.217926793","category":"65","category_name":"咖啡厅","address":"淮海中路837号近茂名南路"},{"poiid":"B2094752D76CA3FD4393","title":"tap coffee","lon":"121.461437","lat":"31.21855","category":"247","category_name":"餐饮美食","address":"南昌路150号"},{"poiid":"B2094655D36CA0F5419D","title":"淮海中路瑞金二路","lon":"121.46333","lat":"31.2186","category":"38","category_name":"公交车站","address":""},{"poiid":"B2094655D26FA3F84792","title":"巴黎婚纱上海旗舰店","lon":"121.46315","lat":"31.21865","category":"248","category_name":"生活娱乐","address":"上海卢湾区淮海中路780号"},{"poiid":"B2094757D66DA1F8479F","title":"锦梅食府","lon":"121.461082738","lat":"31.2191440639","category":"247","category_name":"餐饮美食","address":"上海市静安区陕西南路"},{"poiid":"B2094753D165A4FB419C","title":"星巴克（人民坊店）","lon":"121.462263","lat":"31.218097","category":"500","category_name":"未知分类","address":"上海市 淮海中路"},{"poiid":"B2094757D06FA5FF449E","title":"宜芝多(淮海精品店)","lon":"121.46244049","lat":"31.218528747","category":"112","category_name":"糕饼店","address":"卢湾区淮海中路843号(近茂名南路)"},{"poiid":"B2094654D564AAFC4998","title":"国泰电影院","lon":"121.46139","lat":"31.21795","category":"178","category_name":"电影院","address":"卢湾区淮海中路870号(茂名南路口)"},{"poiid":"B2094654D564AAFD4492","title":"新锦江大酒店","lon":"121.46285","lat":"31.22076","category":"213","category_name":"五星级宾馆","address":"卢湾区长乐路161号(近瑞金一路)"},{"poiid":"B2094757D06FA3FC4998","title":"锦江饭店","lon":"121.46181369957924","lat":"31.21876480002918","category":"214","category_name":"四星级宾馆","address":"卢湾区茂名南路59号(近长乐路)"},{"poiid":"B2094753D76FAAFA449C","title":"上海滩国泰旗舰店","lon":"121.466011","lat":"31.216125","category":"249","category_name":"购物服务","address":"淮海中路868号"},{"poiid":"B209475CD564A7F84292","title":"上海滩新天地店","lon":"121.47463","lat":"31.22164","category":"119","category_name":"商场","address":"\"太仓路181弄新天地北里15号\r\n\""},{"poiid":"B209475CD564A7F8439E","title":"上海滩中信泰富店","lon":"121.45602","lat":"31.22851","category":"119","category_name":"商场","address":"\"南京西路1168号中信泰富广场，店铺号221.\r\n\""},{"poiid":"B2094757D06EAAFF439D","title":"新旺茶餐厅(长乐店)","lon":"121.4619","lat":"31.22067","category":"72","category_name":"广东菜","address":"卢湾区长乐路175号(茂名南路瑞金一路间)"},{"poiid":"B2094757D06EABF54593","title":"十面埋伏 Seafood Noodle","lon":"121.46235","lat":"31.22113","category":"75","category_name":"浙江菜","address":"卢湾区长乐路352号(近瑞金一路)"},{"poiid":"B2094757D06FA2FD439F","title":"红房子西菜馆","lon":"121.46237","lat":"31.21747","category":"94","category_name":"西餐厅","address":"卢湾区淮海中路845号(近茂名南路)"},{"poiid":"B2094757D06FA2F94693","title":"淮海中路","lon":"121.463470459","lat":"31.2209300995","category":"36","category_name":"地铁站","address":"卢湾区淮海中路"},{"poiid":"B2094655D26AA1FF429C","title":"避风塘长乐店","lon":"121.46154","lat":"31.22081","category":"66","category_name":"茶艺馆","address":"卢湾区长乐路175号(近茂名南路)"},{"poiid":"B2094654DB64A5FD409D","title":"苏浙汇","lon":"121.46125","lat":"31.21837","category":"76","category_name":"上海菜","address":"卢湾区茂名南路127号(近淮海路)"},{"poiid":"B2094757D06EAAF84093","title":"Citta'享咖(淮海中路店)","lon":"121.4627","lat":"31.2178","category":"65","category_name":"咖啡厅","address":"上海卢湾区淮海中路835号(近茂名南路近国泰电影院)  "},{"poiid":"B2094757D06FA7F44099","title":"锦江小礼堂","lon":"121.46134988","lat":"31.220052989","category":"217","category_name":"旅馆招待所","address":"卢湾区茂名南路59号"},{"poiid":"B2094757D069A0F9479A","title":"天都里印度餐厅","lon":"121.461","lat":"31.22016","category":"102","category_name":"印度风味","address":"卢湾区茂名南路59号锦江饭店南楼大堂(近长乐路)"},{"poiid":"B2094655D26BA3FB4792","title":"晶采轩新锦江店","lon":"121.46284","lat":"31.22075","category":"72","category_name":"广东菜","address":"卢湾区长乐路161号新锦江大酒店3楼(近瑞金一路)"},{"poiid":"B2094757D66FA1F5419A","title":"新锦江","lon":"121.463139738","lat":"31.2208961012","category":"500","category_name":"未知分类","address":"上海市卢湾区茂名南路"},{"poiid":"B2094757D06FA0FF439B","title":"宝寿司(瑞金一路店)","lon":"121.46346173","lat":"31.219720076","category":"95","category_name":"日本料理","address":"卢湾区瑞金一路159号(近淮海中路)"},{"poiid":"B2094757D06FAAF9489A","title":"向明中学","lon":"121.4638","lat":"31.22031","category":"55","category_name":"中学","address":"上海卢湾区瑞金一路151号(近长乐路)  "},{"poiid":"B2094757D06FAAFE4392","title":"万藏(长乐路店)","lon":"121.46223","lat":"31.22084","category":"95","category_name":"日本料理","address":"卢湾区长乐路344号1楼(近瑞金一路)"},{"poiid":"B2094757D068A6F4469F","title":"Jimmy's Kitchen","lon":"121.46307273","lat":"31.220327089","category":"94","category_name":"西餐厅","address":"卢湾区茂名南路59号锦北楼1楼(长乐路)"},{"poiid":"B2094750DB6FA4F54399","title":"NIKE淮海路旗舰店","lon":"121.464332","lat":"31.218704","category":"249","category_name":"购物服务","address":null},{"poiid":"B2094757D16DA7FF4798","title":"Kee Club","lon":"121.4625799","lat":"31.218268724","category":"260","category_name":"其他","address":"卢湾区淮海中路796号3-4楼(近瑞金一路)"},{"poiid":"B2094757D66BABF84899","title":"美丽岛 Isola Bella","lon":"121.46196456535","lat":"31.218356786131","category":"47","category_name":"住宅区","address":"淮海中路864号2楼近茂名南路"},{"poiid":"B2094757D069A3FF499E","title":"金辰大酒店","lon":"121.463330525","lat":"31.2181942271","category":"76","category_name":"上海菜","address":"卢湾区淮海中路795-809号(近瑞金一路)"},{"poiid":"B2094757D068A7FC459F","title":"巴黎婚纱(淮海中路店)","lon":"121.46342","lat":"31.21838","category":"249","category_name":"购物服务","address":"上海卢湾区淮海中路780号(近瑞金一路)"},{"poiid":"B2094757D069A3FC449D","title":"8号线人民广场站","lon":"121.46167173","lat":"31.217903037","category":"36","category_name":"地铁站","address":"上海市黄浦区"},{"poiid":"B2094654DB64A5F54099","title":"松阪烤肉","lon":"121.46118","lat":"31.21912","category":"87","category_name":"特色／地方风味餐厅","address":"卢湾区茂名南路59号锦江宾馆美食街(近长乐路)"},{"poiid":"B2094757DB6FA4F9469A","title":"白木屋","lon":"121.4612600956912","lat":"31.21832756200628","category":"500","category_name":"未知分类","address":"东湖路30号2楼近淮海中路"},{"poiid":"B2094757D068A0FF4893","title":"锦庐 The Chinoise Story","lon":"121.46073413098","lat":"31.220246592787","category":"247","category_name":"餐饮美食","address":"卢湾区茂名南路59号锦江饭店锦北楼(近长乐路)"},{"poiid":"B2094757D06FABFE479D","title":"神田烧肉(淮海店)","lon":"121.46357","lat":"31.21842","category":"269","category_name":"烧烤","address":"卢湾区淮海中路776号锦江淮海大厦2楼(近瑞金一路)"},{"poiid":"B2094757D068A5FD4498","title":"小南国烧烤(卢湾店)","lon":"121.46287","lat":"31.22073","category":"269","category_name":"烧烤","address":"卢湾区长乐路161号新锦江大酒店3楼(近瑞金一路)"},{"poiid":"B2094757D46EABFA4092","title":"味千拉面 华狮广场店","lon":"121.464080054","lat":"31.218709793","category":"95","category_name":"日本料理","address":"卢湾区淮海中路688号华狮购物中心内(近思南路)"},{"poiid":"B2094655D26AA2FB4598","title":"伊藤家瑞金店","lon":"121.46369","lat":"31.21796","category":"95","category_name":"日本料理","address":"卢湾区瑞金二路24号(近淮海中路)"},{"poiid":"B2094757D068A0FC409C","title":"梅园村锦梅食府","lon":"121.460920662","lat":"31.2202856175","category":"74","category_name":"江苏菜","address":"卢湾区茂名南路59号老锦江食街内(近长乐路)"},{"poiid":"B2094752D764A6F54798","title":"蜀公馆成都老火锅(淮海中路店)","lon":"121.46319151","lat":"31.21869215","category":"247","category_name":"餐饮美食","address":"卢湾区淮海中路776号锦江淮海大厦1楼(近瑞金一路)"},{"poiid":"B2094750D565AAFA489A","title":"江南","lon":"121.462814","lat":"31.220983","category":"260","category_name":"其他","address":"卢湾区长乐路348号(近瑞金一路)"},{"poiid":"B2094655D265AAFB459F","title":"锦江北楼","lon":"121.46145","lat":"31.22079","category":"46","category_name":"楼宇","address":"长乐路175"},{"poiid":"B2094757D068ABFB439A","title":"鹿港小镇家常菜","lon":"121.46185","lat":"31.22081","category":"76","category_name":"上海菜","address":"卢湾区长乐路350号(近瑞金一路)"},{"poiid":"B2094757D068A0FA419C","title":"赛美蓉(Semillon Cafe&amp;Lounge)","lon":"121.46311","lat":"31.22048","category":"247","category_name":"餐饮美食","address":"上海卢湾区长乐路161号新锦江大酒店1楼(近瑞金一路)"},{"poiid":"B2094757D06FAAFD409C","title":"红宝石(瑞金二店)","lon":"121.46374","lat":"31.21908","category":"67","category_name":"甜品店","address":"卢湾区瑞金一路128号(近淮海中路)"},{"poiid":"B2094757D464AAFB4492","title":"丰裕生煎 瑞金一路店","lon":"121.463617054","lat":"31.219189793","category":"68","category_name":"快餐厅","address":"卢湾区瑞金一路142号旁(近淮海中路)"},{"poiid":"B2094655D26BA3F8469F","title":"鸭王淮海店","lon":"121.46302","lat":"31.21864","category":"260","category_name":"其他","address":"卢湾区淮海中路786号4楼(近瑞金一路)"},{"poiid":"B2094757D464ABF4449C","title":"享咖 淮海中路店 Citta'","lon":"121.462261054","lat":"31.217926793","category":"65","category_name":"咖啡厅","address":"淮海中路837号近茂名南路"},{"poiid":"B2094752D76CA3FD4393","title":"tap coffee","lon":"121.461437","lat":"31.21855","category":"247","category_name":"餐饮美食","address":"南昌路150号"},{"poiid":"B2094655D36CA0F5419D","title":"淮海中路瑞金二路","lon":"121.46333","lat":"31.2186","category":"38","category_name":"公交车站","address":""},{"poiid":"B2094655D26FA3F84792","title":"巴黎婚纱上海旗舰店","lon":"121.46315","lat":"31.21865","category":"248","category_name":"生活娱乐","address":"上海卢湾区淮海中路780号"},{"poiid":"B2094757D66DA1F8479F","title":"锦梅食府","lon":"121.461082738","lat":"31.2191440639","category":"247","category_name":"餐饮美食","address":"上海市静安区陕西南路"},{"poiid":"B2094753D165A4FB419C","title":"星巴克（人民坊店）","lon":"121.462263","lat":"31.218097","category":"500","category_name":"未知分类","address":"上海市 淮海中路"},{"poiid":"B2094757D06FA5FF449E","title":"宜芝多(淮海精品店)","lon":"121.46244049","lat":"31.218528747","category":"112","category_name":"糕饼店","address":"卢湾区淮海中路843号(近茂名南路)"}]