[{"poiid":"B2094655D26BA0FD479D","title":"世博洲际酒店","lon":"121.50538","lat":"31.19933","category":"213","category_name":"五星级宾馆","address":"浦东新区雪野路1188号(近南码头路)"},{"poiid":"B2094757D06FA0F8439A","title":"宝莱纳餐厅(世博店)","lon":"121.504113332","lat":"31.1982851473","category":"260","category_name":"其他","address":"浦东新区世博大道555号1-2楼(近雪野路)"},{"poiid":"B2094655D26DA7FA489C","title":"浦南医院","lon":"121.51039","lat":"31.19795","category":"162","category_name":"医院","address":"上海浦东新区浦东南路2400号"},{"poiid":"B2094757D06FA2FB459A","title":"艾福敦酒店 (Eiffelton Riverside Hotel Pudong Shanghai)","lon":"121.509251618","lat":"31.2056334725","category":"217","category_name":"旅馆招待所","address":"浦东新区浦明路1888号(近浦建路)"},{"poiid":"B2094757D06FA1F94793","title":"南码头轮渡","lon":"121.50582772","lat":"31.202802396","category":"260","category_name":"其他","address":"上海浦东新区南码头路1号摆渡口"},{"poiid":"B2094757D06FA7FD4298","title":"薇拉宫邸(浦东店)","lon":"121.50889556","lat":"31.207375193","category":"95","category_name":"日本料理","address":"上海浦明路1888号5号楼"},{"poiid":"B2094757D06FA5F9429C","title":"多利萝玛(Tony Roma's)","lon":"121.5040196","lat":"31.196038751","category":"94","category_name":"西餐厅","address":"浦东新区世博村B地块雪野路1057号B9-101C室(近沂南路)"},{"poiid":"B2094757D065A0FD4493","title":"Bubba's Texas-style BBQ(世博村店)","lon":"121.504977","lat":"31.196236","category":"94","category_name":"西餐厅","address":"浦东新区雪野路240号(近沂南路)"},{"poiid":"B2094757D66CA4FE479B","title":"滨江大道-世博段","lon":"121.502270053","lat":"31.1976926018","category":"500","category_name":"未知分类","address":"上海世博大道沿江段"},{"poiid":"B2094750DB69A3FD4993","title":"镭战大联盟","lon":"121.501408","lat":"31.204725","category":"248","category_name":"生活娱乐","address":"黄浦区外马路1353号(近南浦大桥)"},{"poiid":"B2094757D16DAAF4429E","title":"仙炙轩 世博店 Ambrosia","lon":"121.504652","lat":"31.200724","category":"247","category_name":"餐饮美食","address":"浦东新区世博大道555号4楼(雪野路口)"},{"poiid":"B2094655D26EA2F44199","title":"山城烤鱼浦三店","lon":"121.51065","lat":"31.19831","category":"88","category_name":"海鲜酒楼","address":"浦东新区浦东南路浦南医院附近(近临沂路)"},{"poiid":"B2094654DA68A0FD469D","title":"帝龙海鲜舫","lon":"121.50427282682","lat":"31.206678575885","category":"76","category_name":"上海菜","address":"黄浦区外马路1333号(近南浦大桥)"},{"poiid":"B2094757D068ABFE4999","title":"上海世博东湖公寓酒店","lon":"121.505364591","lat":"31.1967514842","category":"217","category_name":"旅馆招待所","address":"浦东新区雪野路999号"},{"poiid":"B2094757D068ABF8419D","title":"南码头小区","lon":"121.509275732","lat":"31.1982065693","category":"47","category_name":"住宅区","address":"上海浦东南路浦三路"},{"poiid":"B209475CD768A0FF4499","title":"pulupulu主题游戏馆","lon":"121.504699","lat":"31.203042","category":"500","category_name":"未知分类","address":"上海市 苗江路139号"},{"poiid":"B2094654DB6AA6FF419F","title":"南码头渡口","lon":"121.50591","lat":"31.20227","category":"34","category_name":"港口码头","address":""},{"poiid":"B2094757DA6EABFB4999","title":"薇拉宫邸私人婚礼会所(南浦店)","lon":"121.509479","lat":"31.2066410000002","category":"248","category_name":"生活娱乐","address":"浦东新区浦明路1888号5号楼(近南浦大桥)查看地图"},{"poiid":"B2094757D069AAFD4699","title":"东江高尔夫","lon":"121.50941473","lat":"31.205573774","category":"500","category_name":"未知分类","address":"上海市南码头路5号"},{"poiid":"B2094654DB69A7F94299","title":"西三小区","lon":"121.50658","lat":"31.200727","category":"47","category_name":"住宅区","address":"浦东新区西三小区"},{"poiid":"B2094757D064A0F8459B","title":"一一八八 Cafe 1188","lon":"121.505704","lat":"31.2001","category":"247","category_name":"餐饮美食","address":"雪野路1188号世博洲际酒店1楼内近南码头路"},{"poiid":"B2094757D76DA0F4439B","title":"巴赛丽意大利餐厅 Basilico","lon":"121.505704","lat":"31.20014","category":"94","category_name":"西餐厅","address":"浦东新区雪野路1188号世博洲际酒店内(近世博大道)"},{"poiid":"B2094753D76AA6FC499B","title":"宝燕壹号(滨江店)","lon":"121.51101","lat":"31.20368","category":"75","category_name":"浙江菜","address":"上海市浦东新区浦明路1999号云天地美食休闲广场内"},{"poiid":"B2094757D66AA0F8469A","title":"盛会堂","lon":"121.50567","lat":"31.20018","category":"87","category_name":"特色／地方风味餐厅","address":"浦东新区雪野路1188号洲际酒店2楼(南码头渡口)"},{"poiid":"B2094750D16BA1FD409D","title":"虹口足球场","lon":"121.5032644966952","lat":"31.20336783101407","category":"220","category_name":"运动场所","address":null},{"poiid":"B2094654DA6AA3F84898","title":"风味小吃","lon":"121.50752","lat":"31.20025","category":"68","category_name":"快餐厅","address":"浦东新区浦东南路2386号(近胶南路)"},{"poiid":"B2094654DB64A3FF459F","title":"可的","lon":"121.50682","lat":"31.20144","category":"117","category_name":"便民商店/便利店","address":"南码头路47"},{"poiid":"B2094750D66EABFB449D","title":"浦东游泳馆","lon":"121.507072","lat":"31.201353","category":"220","category_name":"运动场所","address":null},{"poiid":"B2094757D06AA6F54493","title":"世博村","lon":"121.50436693","lat":"31.197464102","category":"47","category_name":"住宅区","address":"上海浦东新区雪野路(近沂南路)"},{"poiid":"B2094750D164A5FE499B","title":"富驿商旅酒店上海世博店","lon":"121.5074","lat":"31.2009","category":"216","category_name":"经济型连锁酒店","address":"浦东新区南码头路101号(近东三里桥路)"},{"poiid":"B2094757D66AA0F84999","title":"世博洲际酒店大堂吧 Lobby Lounge","lon":"121.505602","lat":"31.200317","category":"260","category_name":"其他","address":"浦东新区雪野路1188号洲际酒店内(雪野路云台路)"},{"poiid":"B2094757D16AA5FB4998","title":"周南线南码头渡口终点站","lon":"121.505867","lat":"31.202531","category":"500","category_name":"未知分类","address":"上海市浦东新区南码头路世博大道"},{"poiid":"B2094757D168A6FB449E","title":"黄浦区出入境管理办公室","lon":"121.504542738","lat":"31.2036637341","category":"500","category_name":"未知分类","address":"上海市黄浦区陆家浜路88号"},{"poiid":"B2094750D76FA3FC4993","title":"和容轩","lon":"121.511","lat":"31.2056","category":"76","category_name":"上海菜","address":"浦东新区浦明路1888号15号楼3楼(近微山路)"},{"poiid":"B2094753DB68A4FF499F","title":"上海环球金融中心","lon":"121.507179","lat":"31.199951","category":"500","category_name":"未知分类","address":"上海市 上海市陆家嘴"},{"poiid":"B2094750D16AA2FB479C","title":"世博凌睿试驾体验中心","lon":"121.50827","lat":"31.203342","category":"500","category_name":"未知分类","address":"世博大道138号"},{"poiid":"B2094655D26DA7FA4892","title":"桥南玉亭小区","lon":"121.50743","lat":"31.20161","category":"47","category_name":"住宅区","address":"东三街35弄"},{"poiid":"B209475DD66AA7FE429C","title":"Pulupulu主题游戏馆","lon":"121.500289","lat":"31.205091","category":"248","category_name":"生活娱乐","address":"上海市 黄浦区苗江路139号"},{"poiid":"B2094757D16FA3FC4792","title":"丰记码头街","lon":"121.50515423","lat":"31.203827737","category":"500","category_name":"未知分类","address":"上海黄埔区交警违章处理点"},{"poiid":"B2094757D465A5FB4199","title":"方师傅小笼 南码头路店","lon":"121.508044054","lat":"31.199132793","category":"68","category_name":"快餐厅","address":"浦东新区南码头路175号(东三里桥与沂南路间)"},{"poiid":"B2094757D064A6FD4098","title":"南码头路 海博大厦","lon":"121.507323","lat":"31.20091","category":"500","category_name":"未知分类","address":"上海南码头路101号"},{"poiid":"B2094757D66EA7F54698","title":"南浦大桥引桥","lon":"121.50467189","lat":"31.205788251","category":"500","category_name":"未知分类","address":"上海南浦大桥"},{"poiid":"B2094750DB68A2FC4499","title":"浦江.四季 Seasons on the Bund","lon":"121.508255","lat":"31.206165","category":"247","category_name":"餐饮美食","address":"浦东新区浦明路1888弄21号(近东江高尔夫球场)"},{"poiid":"B2094655D26DA1F44999","title":"东三小区","lon":"121.5102","lat":"31.201494","category":"47","category_name":"住宅区","address":"东三街102弄"},{"poiid":"B2094655D268A1FD479E","title":"东三大楼(南门)","lon":"121.50741","lat":"31.20067","category":"47","category_name":"住宅区","address":"南码头路101号"},{"poiid":"B2094655D26FA7FA489B","title":"上海市东方阶梯双语学校","lon":"121.50703","lat":"31.19991","category":"55","category_name":"中学","address":"浦东新区胶南路169号"},{"poiid":"B2094654DA6AA3F8459B","title":"南码头小学","lon":"121.50871","lat":"31.19947","category":"56","category_name":"小学","address":"浦东新区东三里桥路16号(东三里桥路胶南路)"},{"poiid":"B2094655D268A1FA439E","title":"东三大楼","lon":"121.5077","lat":"31.20074","category":"47","category_name":"住宅区","address":"南码头路101号"},{"poiid":"B2094654DA68A0FD4698","title":"海狮大厦","lon":"121.50265","lat":"31.20692","category":"46","category_name":"楼宇","address":"徐汇区田林路300号"},{"poiid":"B2094757D168A4FB4793","title":"43路终点站","lon":"121.505664","lat":"31.20537","category":"38","category_name":"公交车站","address":"上海南浦大桥"},{"poiid":"B2094655D26BA0FD479D","title":"世博洲际酒店","lon":"121.50538","lat":"31.19933","category":"213","category_name":"五星级宾馆","address":"浦东新区雪野路1188号(近南码头路)"},{"poiid":"B2094757D06FA0F8439A","title":"宝莱纳餐厅(世博店)","lon":"121.504113332","lat":"31.1982851473","category":"260","category_name":"其他","address":"浦东新区世博大道555号1-2楼(近雪野路)"},{"poiid":"B2094655D26DA7FA489C","title":"浦南医院","lon":"121.51039","lat":"31.19795","category":"162","category_name":"医院","address":"上海浦东新区浦东南路2400号"},{"poiid":"B2094757D06FA2FB459A","title":"艾福敦酒店 (Eiffelton Riverside Hotel Pudong Shanghai)","lon":"121.509251618","lat":"31.2056334725","category":"217","category_name":"旅馆招待所","address":"浦东新区浦明路1888号(近浦建路)"},{"poiid":"B2094757D06FA1F94793","title":"南码头轮渡","lon":"121.50582772","lat":"31.202802396","category":"260","category_name":"其他","address":"上海浦东新区南码头路1号摆渡口"},{"poiid":"B2094757D06FA7FD4298","title":"薇拉宫邸(浦东店)","lon":"121.50889556","lat":"31.207375193","category":"95","category_name":"日本料理","address":"上海浦明路1888号5号楼"},{"poiid":"B2094757D06FA5F9429C","title":"多利萝玛(Tony Roma's)","lon":"121.5040196","lat":"31.196038751","category":"94","category_name":"西餐厅","address":"浦东新区世博村B地块雪野路1057号B9-101C室(近沂南路)"},{"poiid":"B2094757D065A0FD4493","title":"Bubba's Texas-style BBQ(世博村店)","lon":"121.504977","lat":"31.196236","category":"94","category_name":"西餐厅","address":"浦东新区雪野路240号(近沂南路)"},{"poiid":"B2094757D66CA4FE479B","title":"滨江大道-世博段","lon":"121.502270053","lat":"31.1976926018","category":"500","category_name":"未知分类","address":"上海世博大道沿江段"},{"poiid":"B2094750DB69A3FD4993","title":"镭战大联盟","lon":"121.501408","lat":"31.204725","category":"248","category_name":"生活娱乐","address":"黄浦区外马路1353号(近南浦大桥)"},{"poiid":"B2094757D16DAAF4429E","title":"仙炙轩 世博店 Ambrosia","lon":"121.504652","lat":"31.200724","category":"247","category_name":"餐饮美食","address":"浦东新区世博大道555号4楼(雪野路口)"},{"poiid":"B2094655D26EA2F44199","title":"山城烤鱼浦三店","lon":"121.51065","lat":"31.19831","category":"88","category_name":"海鲜酒楼","address":"浦东新区浦东南路浦南医院附近(近临沂路)"},{"poiid":"B2094654DA68A0FD469D","title":"帝龙海鲜舫","lon":"121.50427282682","lat":"31.206678575885","category":"76","category_name":"上海菜","address":"黄浦区外马路1333号(近南浦大桥)"},{"poiid":"B2094757D068ABFE4999","title":"上海世博东湖公寓酒店","lon":"121.505364591","lat":"31.1967514842","category":"217","category_name":"旅馆招待所","address":"浦东新区雪野路999号"},{"poiid":"B2094757D068ABF8419D","title":"南码头小区","lon":"121.509275732","lat":"31.1982065693","category":"47","category_name":"住宅区","address":"上海浦东南路浦三路"},{"poiid":"B209475CD768A0FF4499","title":"pulupulu主题游戏馆","lon":"121.504699","lat":"31.203042","category":"500","category_name":"未知分类","address":"上海市 苗江路139号"},{"poiid":"B2094654DB6AA6FF419F","title":"南码头渡口","lon":"121.50591","lat":"31.20227","category":"34","category_name":"港口码头","address":""},{"poiid":"B2094757DA6EABFB4999","title":"薇拉宫邸私人婚礼会所(南浦店)","lon":"121.509479","lat":"31.2066410000002","category":"248","category_name":"生活娱乐","address":"浦东新区浦明路1888号5号楼(近南浦大桥)查看地图"},{"poiid":"B2094757D069AAFD4699","title":"东江高尔夫","lon":"121.50941473","lat":"31.205573774","category":"500","category_name":"未知分类","address":"上海市南码头路5号"},{"poiid":"B2094654DB69A7F94299","title":"西三小区","lon":"121.50658","lat":"31.200727","category":"47","category_name":"住宅区","address":"浦东新区西三小区"},{"poiid":"B2094757D064A0F8459B","title":"一一八八 Cafe 1188","lon":"121.505704","lat":"31.2001","category":"247","category_name":"餐饮美食","address":"雪野路1188号世博洲际酒店1楼内近南码头路"},{"poiid":"B2094757D76DA0F4439B","title":"巴赛丽意大利餐厅 Basilico","lon":"121.505704","lat":"31.20014","category":"94","category_name":"西餐厅","address":"浦东新区雪野路1188号世博洲际酒店内(近世博大道)"},{"poiid":"B2094753D76AA6FC499B","title":"宝燕壹号(滨江店)","lon":"121.51101","lat":"31.20368","category":"75","category_name":"浙江菜","address":"上海市浦东新区浦明路1999号云天地美食休闲广场内"},{"poiid":"B2094757D66AA0F8469A","title":"盛会堂","lon":"121.50567","lat":"31.20018","category":"87","category_name":"特色／地方风味餐厅","address":"浦东新区雪野路1188号洲际酒店2楼(南码头渡口)"},{"poiid":"B2094750D16BA1FD409D","title":"虹口足球场","lon":"121.5032644966952","lat":"31.20336783101407","category":"220","category_name":"运动场所","address":null},{"poiid":"B2094654DA6AA3F84898","title":"风味小吃","lon":"121.50752","lat":"31.20025","category":"68","category_name":"快餐厅","address":"浦东新区浦东南路2386号(近胶南路)"},{"poiid":"B2094654DB64A3FF459F","title":"可的","lon":"121.50682","lat":"31.20144","category":"117","category_name":"便民商店/便利店","address":"南码头路47"},{"poiid":"B2094750D66EABFB449D","title":"浦东游泳馆","lon":"121.507072","lat":"31.201353","category":"220","category_name":"运动场所","address":null},{"poiid":"B2094757D06AA6F54493","title":"世博村","lon":"121.50436693","lat":"31.197464102","category":"47","category_name":"住宅区","address":"上海浦东新区雪野路(近沂南路)"},{"poiid":"B2094750D164A5FE499B","title":"富驿商旅酒店上海世博店","lon":"121.5074","lat":"31.2009","category":"216","category_name":"经济型连锁酒店","address":"浦东新区南码头路101号(近东三里桥路)"},{"poiid":"B2094757D66AA0F84999","title":"世博洲际酒店大堂吧 Lobby Lounge","lon":"121.505602","lat":"31.200317","category":"260","category_name":"其他","address":"浦东新区雪野路1188号洲际酒店内(雪野路云台路)"},{"poiid":"B2094757D16AA5FB4998","title":"周南线南码头渡口终点站","lon":"121.505867","lat":"31.202531","category":"500","category_name":"未知分类","address":"上海市浦东新区南码头路世博大道"},{"poiid":"B2094757D168A6FB449E","title":"黄浦区出入境管理办公室","lon":"121.504542738","lat":"31.2036637341","category":"500","category_name":"未知分类","address":"上海市黄浦区陆家浜路88号"},{"poiid":"B2094750D76FA3FC4993","title":"和容轩","lon":"121.511","lat":"31.2056","category":"76","category_name":"上海菜","address":"浦东新区浦明路1888号15号楼3楼(近微山路)"},{"poiid":"B2094753DB68A4FF499F","title":"上海环球金融中心","lon":"121.507179","lat":"31.199951","category":"500","category_name":"未知分类","address":"上海市 上海市陆家嘴"},{"poiid":"B2094750D16AA2FB479C","title":"世博凌睿试驾体验中心","lon":"121.50827","lat":"31.203342","category":"500","category_name":"未知分类","address":"世博大道138号"},{"poiid":"B2094655D26DA7FA4892","title":"桥南玉亭小区","lon":"121.50743","lat":"31.20161","category":"47","category_name":"住宅区","address":"东三街35弄"},{"poiid":"B209475DD66AA7FE429C","title":"Pulupulu主题游戏馆","lon":"121.500289","lat":"31.205091","category":"248","category_name":"生活娱乐","address":"上海市 黄浦区苗江路139号"},{"poiid":"B2094757D16FA3FC4792","title":"丰记码头街","lon":"121.50515423","lat":"31.203827737","category":"500","category_name":"未知分类","address":"上海黄埔区交警违章处理点"},{"poiid":"B2094757D465A5FB4199","title":"方师傅小笼 南码头路店","lon":"121.508044054","lat":"31.199132793","category":"68","category_name":"快餐厅","address":"浦东新区南码头路175号(东三里桥与沂南路间)"},{"poiid":"B2094757D064A6FD4098","title":"南码头路 海博大厦","lon":"121.507323","lat":"31.20091","category":"500","category_name":"未知分类","address":"上海南码头路101号"},{"poiid":"B2094757D66EA7F54698","title":"南浦大桥引桥","lon":"121.50467189","lat":"31.205788251","category":"500","category_name":"未知分类","address":"上海南浦大桥"},{"poiid":"B2094750DB68A2FC4499","title":"浦江.四季 Seasons on the Bund","lon":"121.508255","lat":"31.206165","category":"247","category_name":"餐饮美食","address":"浦东新区浦明路1888弄21号(近东江高尔夫球场)"},{"poiid":"B2094655D26DA1F44999","title":"东三小区","lon":"121.5102","lat":"31.201494","category":"47","category_name":"住宅区","address":"东三街102弄"},{"poiid":"B2094655D268A1FD479E","title":"东三大楼(南门)","lon":"121.50741","lat":"31.20067","category":"47","category_name":"住宅区","address":"南码头路101号"},{"poiid":"B2094655D26FA7FA489B","title":"上海市东方阶梯双语学校","lon":"121.50703","lat":"31.19991","category":"55","category_name":"中学","address":"浦东新区胶南路169号"},{"poiid":"B2094654DA6AA3F8459B","title":"南码头小学","lon":"121.50871","lat":"31.19947","category":"56","category_name":"小学","address":"浦东新区东三里桥路16号(东三里桥路胶南路)"},{"poiid":"B2094655D268A1FA439E","title":"东三大楼","lon":"121.5077","lat":"31.20074","category":"47","category_name":"住宅区","address":"南码头路101号"},{"poiid":"B2094654DA68A0FD4698","title":"海狮大厦","lon":"121.50265","lat":"31.20692","category":"46","category_name":"楼宇","address":"徐汇区田林路300号"},{"poiid":"B2094757D168A4FB4793","title":"43路终点站","lon":"121.505664","lat":"31.20537","category":"38","category_name":"公交车站","address":"上海南浦大桥"},{"poiid":"B2094655D26BA0FD479D","title":"世博洲际酒店","lon":"121.50538","lat":"31.19933","category":"213","category_name":"五星级宾馆","address":"浦东新区雪野路1188号(近南码头路)"},{"poiid":"B2094757D06FA0F8439A","title":"宝莱纳餐厅(世博店)","lon":"121.504113332","lat":"31.1982851473","category":"260","category_name":"其他","address":"浦东新区世博大道555号1-2楼(近雪野路)"},{"poiid":"B2094655D26DA7FA489C","title":"浦南医院","lon":"121.51039","lat":"31.19795","category":"162","category_name":"医院","address":"上海浦东新区浦东南路2400号"},{"poiid":"B2094757D06FA2FB459A","title":"艾福敦酒店 (Eiffelton Riverside Hotel Pudong Shanghai)","lon":"121.509251618","lat":"31.2056334725","category":"217","category_name":"旅馆招待所","address":"浦东新区浦明路1888号(近浦建路)"},{"poiid":"B2094757D06FA1F94793","title":"南码头轮渡","lon":"121.50582772","lat":"31.202802396","category":"260","category_name":"其他","address":"上海浦东新区南码头路1号摆渡口"},{"poiid":"B2094757D06FA7FD4298","title":"薇拉宫邸(浦东店)","lon":"121.50889556","lat":"31.207375193","category":"95","category_name":"日本料理","address":"上海浦明路1888号5号楼"},{"poiid":"B2094757D06FA5F9429C","title":"多利萝玛(Tony Roma's)","lon":"121.5040196","lat":"31.196038751","category":"94","category_name":"西餐厅","address":"浦东新区世博村B地块雪野路1057号B9-101C室(近沂南路)"},{"poiid":"B2094757D065A0FD4493","title":"Bubba's Texas-style BBQ(世博村店)","lon":"121.504977","lat":"31.196236","category":"94","category_name":"西餐厅","address":"浦东新区雪野路240号(近沂南路)"},{"poiid":"B2094757D66CA4FE479B","title":"滨江大道-世博段","lon":"121.502270053","lat":"31.1976926018","category":"500","category_name":"未知分类","address":"上海世博大道沿江段"},{"poiid":"B2094750DB69A3FD4993","title":"镭战大联盟","lon":"121.501408","lat":"31.204725","category":"248","category_name":"生活娱乐","address":"黄浦区外马路1353号(近南浦大桥)"},{"poiid":"B2094757D16DAAF4429E","title":"仙炙轩 世博店 Ambrosia","lon":"121.504652","lat":"31.200724","category":"247","category_name":"餐饮美食","address":"浦东新区世博大道555号4楼(雪野路口)"},{"poiid":"B2094655D26EA2F44199","title":"山城烤鱼浦三店","lon":"121.51065","lat":"31.19831","category":"88","category_name":"海鲜酒楼","address":"浦东新区浦东南路浦南医院附近(近临沂路)"},{"poiid":"B2094654DA68A0FD469D","title":"帝龙海鲜舫","lon":"121.50427282682","lat":"31.206678575885","category":"76","category_name":"上海菜","address":"黄浦区外马路1333号(近南浦大桥)"},{"poiid":"B2094757D068ABFE4999","title":"上海世博东湖公寓酒店","lon":"121.505364591","lat":"31.1967514842","category":"217","category_name":"旅馆招待所","address":"浦东新区雪野路999号"},{"poiid":"B2094757D068ABF8419D","title":"南码头小区","lon":"121.509275732","lat":"31.1982065693","category":"47","category_name":"住宅区","address":"上海浦东南路浦三路"},{"poiid":"B209475CD768A0FF4499","title":"pulupulu主题游戏馆","lon":"121.504699","lat":"31.203042","category":"500","category_name":"未知分类","address":"上海市 苗江路139号"},{"poiid":"B2094654DB6AA6FF419F","title":"南码头渡口","lon":"121.50591","lat":"31.20227","category":"34","category_name":"港口码头","address":""},{"poiid":"B2094757DA6EABFB4999","title":"薇拉宫邸私人婚礼会所(南浦店)","lon":"121.509479","lat":"31.2066410000002","category":"248","category_name":"生活娱乐","address":"浦东新区浦明路1888号5号楼(近南浦大桥)查看地图"},{"poiid":"B2094757D069AAFD4699","title":"东江高尔夫","lon":"121.50941473","lat":"31.205573774","category":"500","category_name":"未知分类","address":"上海市南码头路5号"},{"poiid":"B2094654DB69A7F94299","title":"西三小区","lon":"121.50658","lat":"31.200727","category":"47","category_name":"住宅区","address":"浦东新区西三小区"},{"poiid":"B2094757D064A0F8459B","title":"一一八八 Cafe 1188","lon":"121.505704","lat":"31.2001","category":"247","category_name":"餐饮美食","address":"雪野路1188号世博洲际酒店1楼内近南码头路"},{"poiid":"B2094757D76DA0F4439B","title":"巴赛丽意大利餐厅 Basilico","lon":"121.505704","lat":"31.20014","category":"94","category_name":"西餐厅","address":"浦东新区雪野路1188号世博洲际酒店内(近世博大道)"},{"poiid":"B2094753D76AA6FC499B","title":"宝燕壹号(滨江店)","lon":"121.51101","lat":"31.20368","category":"75","category_name":"浙江菜","address":"上海市浦东新区浦明路1999号云天地美食休闲广场内"},{"poiid":"B2094757D66AA0F8469A","title":"盛会堂","lon":"121.50567","lat":"31.20018","category":"87","category_name":"特色／地方风味餐厅","address":"浦东新区雪野路1188号洲际酒店2楼(南码头渡口)"},{"poiid":"B2094750D16BA1FD409D","title":"虹口足球场","lon":"121.5032644966952","lat":"31.20336783101407","category":"220","category_name":"运动场所","address":null},{"poiid":"B2094654DA6AA3F84898","title":"风味小吃","lon":"121.50752","lat":"31.20025","category":"68","category_name":"快餐厅","address":"浦东新区浦东南路2386号(近胶南路)"},{"poiid":"B2094654DB64A3FF459F","title":"可的","lon":"121.50682","lat":"31.20144","category":"117","category_name":"便民商店/便利店","address":"南码头路47"},{"poiid":"B2094750D66EABFB449D","title":"浦东游泳馆","lon":"121.507072","lat":"31.201353","category":"220","category_name":"运动场所","address":null},{"poiid":"B2094757D06AA6F54493","title":"世博村","lon":"121.50436693","lat":"31.197464102","category":"47","category_name":"住宅区","address":"上海浦东新区雪野路(近沂南路)"},{"poiid":"B2094750D164A5FE499B","title":"富驿商旅酒店上海世博店","lon":"121.5074","lat":"31.2009","category":"216","category_name":"经济型连锁酒店","address":"浦东新区南码头路101号(近东三里桥路)"},{"poiid":"B2094757D66AA0F84999","title":"世博洲际酒店大堂吧 Lobby Lounge","lon":"121.505602","lat":"31.200317","category":"260","category_name":"其他","address":"浦东新区雪野路1188号洲际酒店内(雪野路云台路)"},{"poiid":"B2094757D16AA5FB4998","title":"周南线南码头渡口终点站","lon":"121.505867","lat":"31.202531","category":"500","category_name":"未知分类","address":"上海市浦东新区南码头路世博大道"},{"poiid":"B2094757D168A6FB449E","title":"黄浦区出入境管理办公室","lon":"121.504542738","lat":"31.2036637341","category":"500","category_name":"未知分类","address":"上海市黄浦区陆家浜路88号"},{"poiid":"B2094750D76FA3FC4993","title":"和容轩","lon":"121.511","lat":"31.2056","category":"76","category_name":"上海菜","address":"浦东新区浦明路1888号15号楼3楼(近微山路)"},{"poiid":"B2094753DB68A4FF499F","title":"上海环球金融中心","lon":"121.507179","lat":"31.199951","category":"500","category_name":"未知分类","address":"上海市 上海市陆家嘴"},{"poiid":"B2094750D16AA2FB479C","title":"世博凌睿试驾体验中心","lon":"121.50827","lat":"31.203342","category":"500","category_name":"未知分类","address":"世博大道138号"},{"poiid":"B2094655D26DA7FA4892","title":"桥南玉亭小区","lon":"121.50743","lat":"31.20161","category":"47","category_name":"住宅区","address":"东三街35弄"},{"poiid":"B209475DD66AA7FE429C","title":"Pulupulu主题游戏馆","lon":"121.500289","lat":"31.205091","category":"248","category_name":"生活娱乐","address":"上海市 黄浦区苗江路139号"},{"poiid":"B2094757D16FA3FC4792","title":"丰记码头街","lon":"121.50515423","lat":"31.203827737","category":"500","category_name":"未知分类","address":"上海黄埔区交警违章处理点"},{"poiid":"B2094757D465A5FB4199","title":"方师傅小笼 南码头路店","lon":"121.508044054","lat":"31.199132793","category":"68","category_name":"快餐厅","address":"浦东新区南码头路175号(东三里桥与沂南路间)"},{"poiid":"B2094757D064A6FD4098","title":"南码头路 海博大厦","lon":"121.507323","lat":"31.20091","category":"500","category_name":"未知分类","address":"上海南码头路101号"},{"poiid":"B2094757D66EA7F54698","title":"南浦大桥引桥","lon":"121.50467189","lat":"31.205788251","category":"500","category_name":"未知分类","address":"上海南浦大桥"},{"poiid":"B2094750DB68A2FC4499","title":"浦江.四季 Seasons on the Bund","lon":"121.508255","lat":"31.206165","category":"247","category_name":"餐饮美食","address":"浦东新区浦明路1888弄21号(近东江高尔夫球场)"},{"poiid":"B2094655D26DA1F44999","title":"东三小区","lon":"121.5102","lat":"31.201494","category":"47","category_name":"住宅区","address":"东三街102弄"},{"poiid":"B2094655D268A1FD479E","title":"东三大楼(南门)","lon":"121.50741","lat":"31.20067","category":"47","category_name":"住宅区","address":"南码头路101号"},{"poiid":"B2094655D26FA7FA489B","title":"上海市东方阶梯双语学校","lon":"121.50703","lat":"31.19991","category":"55","category_name":"中学","address":"浦东新区胶南路169号"},{"poiid":"B2094654DA6AA3F8459B","title":"南码头小学","lon":"121.50871","lat":"31.19947","category":"56","category_name":"小学","address":"浦东新区东三里桥路16号(东三里桥路胶南路)"},{"poiid":"B2094655D268A1FA439E","title":"东三大楼","lon":"121.5077","lat":"31.20074","category":"47","category_name":"住宅区","address":"南码头路101号"},{"poiid":"B2094654DA68A0FD4698","title":"海狮大厦","lon":"121.50265","lat":"31.20692","category":"46","category_name":"楼宇","address":"徐汇区田林路300号"},{"poiid":"B2094757D168A4FB4793","title":"43路终点站","lon":"121.505664","lat":"31.20537","category":"38","category_name":"公交车站","address":"上海南浦大桥"}]