[{"poiid":"B2094757D064A7FC4099","title":"江南印象","lon":"121.476827666","lat":"30.884628165","category":"76","category_name":"上海菜","address":"近郊奉贤区环城东路红新村742号(平庄公路北侧)"},{"poiid":"B2094655D26BABFB4898","title":"藏金阁农庄","lon":"121.50083","lat":"30.88744","category":"257","category_name":"中餐厅","address":"近郊奉贤区柘林镇金海公路2188号(近平庄公路)"},{"poiid":"B2094757D66BA7F8409C","title":"六墩农家乐","lon":"121.480694054","lat":"30.878502793","category":"76","category_name":"上海菜","address":"奉贤南桥镇六墩村近环城东路"},{"poiid":"B2094654DB68A7FD409D","title":"上海沪江生化有限公司","lon":"121.48907","lat":"30.87497","category":"263","category_name":"公司","address":""},{"poiid":"B2094654DB68A0FA429F","title":"上海上越高级铜合金有限公司","lon":"121.48859","lat":"30.87151","category":"263","category_name":"公司","address":""},{"poiid":"B2094757DB6CA4F4449C","title":"碧海金沙","lon":"121.5003341055331","lat":"30.8750240403974","category":"250","category_name":"公园户外","address":"奉贤城市沙滩"},{"poiid":"B2094654DB68A0FA429E","title":"上海森蜂园蜂业有限公司","lon":"121.48748","lat":"30.87119","category":"263","category_name":"公司","address":""},{"poiid":"B2094654DB68A0FA4298","title":"上海纯阳纺织染纱有限公司","lon":"121.48645","lat":"30.87089","category":"263","category_name":"公司","address":"新申路9"},{"poiid":"B2094757D168A2F54092","title":"南桥9路","lon":"121.47997521","lat":"30.87020941","category":"500","category_name":"未知分类","address":"上海南桥9路公交车上"},{"poiid":"B2094654DB68A0FA429A","title":"上海开维喜阀门有限公司","lon":"121.48484","lat":"30.87038","category":"263","category_name":"公司","address":"新申路19号"},{"poiid":"B2094757D16AA5FF489B","title":"玉穗绿苑","lon":"121.49918","lat":"30.8867","category":"47","category_name":"住宅区","address":"近郊奉贤区柘林镇金海公路2229弄"},{"poiid":"B2094654DB68A7FF479A","title":"上海斌腾电梯配件有限公司","lon":"121.49087","lat":"30.88929","category":"263","category_name":"公司","address":""},{"poiid":"B2094655D36DA3FA459D","title":"下横泾桥","lon":"121.47995","lat":"30.86694","category":"250","category_name":"公园户外","address":""},{"poiid":"B2094654DB69A7FB489B","title":"奉贤区第七税务所","lon":"121.47995","lat":"30.86535","category":"250","category_name":"公园户外","address":"奉贤区新寺镇新林路48号"},{"poiid":"B2094654DB68A0FA469A","title":"上海东奉电力工程(集团)有限公司","lon":"121.49653","lat":"30.89152","category":"263","category_name":"公司","address":"庆乐路88号"},{"poiid":"B2094654DB68A7FF4999","title":"上海侨力机床制造有限公司","lon":"121.48963","lat":"30.89361","category":"263","category_name":"公司","address":""},{"poiid":"B2094757D169A3F5419A","title":"藏金阁农庄国际赛鸽中心","lon":"121.49994691","lat":"30.892643423","category":"500","category_name":"未知分类","address":"上海市奉贤区拓林镇金海公路2188号"},{"poiid":"B2094757D16FA6F44898","title":"屈臣氏(奉贤店)","lon":"121.47237443","lat":"30.867120268","category":"260","category_name":"其他","address":"上海近郊奉贤区南桥镇百齐路588号百联南桥购物中心(近南桥汽车站)  "}]