[{"poiid":"B2094654DA6EA0FB439D","title":"上海文庙","lon":"121.48657","lat":"31.21693","category":"244","category_name":"寺庙道观","address":"上海市黄浦区文庙路215号"},{"poiid":"B2094757D06FA2FC479D","title":"大富贵酒楼(总店)","lon":"121.48569","lat":"31.21763","category":"76","category_name":"上海菜","address":"黄浦区中华路1409号(近梦花街)"},{"poiid":"B2094654DA6EA0FB429E","title":"孔乙己酒家","lon":"121.48838","lat":"31.21819","category":"75","category_name":"浙江菜","address":"黄浦区学宫街36号(近老西门文庙)"},{"poiid":"B2094753D76FAAFA449C","title":"上海滩国泰旗舰店","lon":"121.466011","lat":"31.216125","category":"249","category_name":"购物服务","address":"淮海中路868号"},{"poiid":"B209475CD564A7F84292","title":"上海滩新天地店","lon":"121.47463","lat":"31.22164","category":"119","category_name":"商场","address":"\"太仓路181弄新天地北里15号\r\n\""},{"poiid":"B209475CD564A7F84392","title":"上海滩浦东香格里拉店","lon":"121.50058","lat":"31.23634","category":"119","category_name":"商场","address":"浦东富成路33号香格里拉酒店内大堂层"},{"poiid":"B2094757D06FA5F4489E","title":"西北狼烧烤(文庙店)","lon":"121.48861","lat":"31.21764","category":"68","category_name":"快餐厅","address":"黄浦区文庙路184号(近学前街)"},{"poiid":"B2094757D168A6FD499E","title":"蓬萊路","lon":"121.49024373","lat":"31.217709033","category":"500","category_name":"未知分类","address":"上海市黄浦區蓬萊路"},{"poiid":"B2094654DA6EA0FA409B","title":"上海市敬业中学","lon":"121.48822","lat":"31.21711","category":"55","category_name":"中学","address":"上海黄浦区蓬莱路345号  "},{"poiid":"B2094757D068A4F94499","title":"肯德基(老西门)","lon":"121.484913738","lat":"31.2175647302","category":"68","category_name":"快餐厅","address":"上海老西门易买得"},{"poiid":"B2094757D069A2F94192","title":"黄浦区卫生学校","lon":"121.48621995","lat":"31.217713083","category":"54","category_name":"职业技术学校","address":"上海梦花街234号"},{"poiid":"B2094757D068A7F4429D","title":"南开大厦","lon":"121.49065","lat":"31.217077","category":"46","category_name":"楼宇","address":"浦东新区金湘路225弄"},{"poiid":"B2094655D26EA7FE479E","title":"红宝石中华路店","lon":"121.48735","lat":"31.21607","category":"67","category_name":"甜品店","address":"黄浦区蓬莱路426号(中华路口)"},{"poiid":"B2094750D768A6FA4093","title":"噫寿司","lon":"121.488","lat":"31.2176","category":"95","category_name":"日本料理","address":"黄浦区文庙路235号(近中华路)"},{"poiid":"B2094757D06FA5FA469D","title":"85度C(中华店)","lon":"121.485302479","lat":"31.2188424225","category":"112","category_name":"糕饼店","address":"黄浦区中华路1463号(近老西门)"},{"poiid":"B2094757D76AA2F4489C","title":"吾饮良品 文庙店","lon":"121.48799","lat":"31.21813","category":"113","category_name":"冷饮店","address":"黄浦区文庙路249号(近学前街)"},{"poiid":"B2094757D16FA3FC489C","title":"建国大厦","lon":"121.488","lat":"31.2197","category":"46","category_name":"楼宇","address":"朝阳区天辰东路7号"},{"poiid":"B2094757D064A2FC499A","title":"红灯笼馄饨店","lon":"121.48712","lat":"31.22022","category":"68","category_name":"快餐厅","address":"黄浦区复兴东路959弄1-5号(近公交24路老西门站)"},{"poiid":"B2094757D069AAFF429E","title":"新梅居(中华路店)","lon":"121.487682738","lat":"31.2151629791","category":"86","category_name":"火锅店","address":"黄浦区中华路1160号(近永宁街)"},{"poiid":"B2094750D76DA2F44493","title":"文庙面馆","lon":"121.488","lat":"31.2174","category":"68","category_name":"快餐厅","address":"黄浦区老道前街55号(近文庙路)"},{"poiid":"B2094654DB6BA4FF4092","title":"广东仔章鱼小丸子","lon":"121.48854","lat":"31.21764","category":"68","category_name":"快餐厅","address":"黄浦区文庙路231号"},{"poiid":"B2094757D16FA2FB4993","title":"文庙飘香烤鸡翅","lon":"121.48822","lat":"31.21715","category":"68","category_name":"快餐厅","address":"黄浦区文庙路(老道前街文庙路)"},{"poiid":"B2094750D76DA2F4439D","title":"文庙菜饭(文庙路店)","lon":"121.487","lat":"31.2168","category":"68","category_name":"快餐厅","address":"黄浦区文庙路282号(中华路口)"},{"poiid":"B2094655D265A4F54693","title":"文庙书市","lon":"121.48786","lat":"31.21782","category":"125","category_name":"书店","address":"文庙路215号"},{"poiid":"B2094654DB6BA4FE4998","title":"上海市第十中学","lon":"121.48866","lat":"31.21608","category":"55","category_name":"中学","address":"永宁街25"},{"poiid":"B2094757D16EAAFD4892","title":"文庙老道前街骨头汤","lon":"121.48902","lat":"31.21714","category":"257","category_name":"中餐厅","address":"黄浦区文庙路233号(近老道前街)"},{"poiid":"B2094751D56CA6FA449B","title":"梦花街馄饨","lon":"121.48924","lat":"31.21957","category":"68","category_name":"快餐厅","address":"黄浦区梦花街19号(近柳江街)"},{"poiid":"B2094750D665A0FE429B","title":"疯狂土豆(文庙路店)","lon":"121.488","lat":"31.2192","category":"68","category_name":"快餐厅","address":"黄浦区文庙路171号(近中华路)"},{"poiid":"B2094757D66AA4FE429F","title":"越涛酒家","lon":"121.48645","lat":"31.21834","category":"68","category_name":"快餐厅","address":"卢湾区顺昌路387号(近合肥路)"},{"poiid":"B2094654DB6BA4FF419D","title":"阿伟小吃排档快餐","lon":"121.48725","lat":"31.21864","category":"68","category_name":"快餐厅","address":"黄浦区梦花街137号"},{"poiid":"B2094757D16DA2FB459C","title":"文庙路奶茶","lon":"121.48823","lat":"31.21701","category":"67","category_name":"甜品店","address":"上海黄浦区文庙路西北狼烧烤旁  "},{"poiid":"B2094655D268A1F44193","title":"裕厚里(西门)","lon":"121.48834","lat":"31.21857","category":"47","category_name":"住宅区","address":"学宫街23弄11-14号"},{"poiid":"B2094654DA6EA0FB4699","title":"康宁商厦","lon":"121.48628","lat":"31.21743","category":"46","category_name":"楼宇","address":"上海中华路1359号"},{"poiid":"B2094654DB69A0F8479E","title":"蓬莱路第二小学","lon":"121.49009","lat":"31.21824","category":"56","category_name":"小学","address":"黄浦区蓬莱路225号(蓬莱路迎勋北路)"},{"poiid":"B2094752D16BA5F4429F","title":"南京路步行街","lon":"121.488974","lat":"31.218107","category":"500","category_name":"未知分类","address":null},{"poiid":"B2094654DB6AA6FE419C","title":"永乐电器(老西门店)","lon":"121.4857","lat":"31.21824","category":"138","category_name":"家电电子卖场","address":"上海市黄浦区中华路1415号(近复兴东路口)"},{"poiid":"B2094757D069A1F9499B","title":"文庙书刊交易市场","lon":"121.48720275","lat":"31.217069805","category":"125","category_name":"书店","address":"黄浦区文庙路215号东北角(老道前街文庙路)"},{"poiid":"B2094757DA6EABF4429A","title":"超级鸡车(蓬莱路店)","lon":"121.488144","lat":"31.2165260000003","category":"68","category_name":"快餐厅","address":"黄浦区蓬莱路374号(近蓬莱路中华路)"},{"poiid":"B2094655D26CA4F5439E","title":"三在里","lon":"121.48687","lat":"31.21921","category":"47","category_name":"住宅区","address":"静修路114弄1-116号"},{"poiid":"B2094757D06BA0FC4892","title":"人豪阿情酒楼","lon":"121.48651","lat":"31.21636","category":"76","category_name":"上海菜","address":"黄浦区中华路1318号(近方斜支路)"},{"poiid":"B2094654DA6EA0FB469A","title":"乔家栅 文庙店","lon":"121.486328054","lat":"31.216917793","category":"247","category_name":"餐饮美食","address":"黄浦区中华路1341号(文庙路口)"},{"poiid":"B2094655D268A0F8499E","title":"佳志里(南门)","lon":"121.48793","lat":"31.219","category":"47","category_name":"住宅区","address":"梦花街93弄1-22号"},{"poiid":"B2094757D16AA0FA4598","title":"小豆包奶茶","lon":"121.48873","lat":"31.2175","category":"247","category_name":"餐饮美食","address":"上海黄浦区学前街3号(近文庙路)  "},{"poiid":"B2094757D568A4F44898","title":"钟书书店文庙批发部","lon":"121.488112","lat":"31.2176","category":"125","category_name":"书店","address":"文庙路215号"},{"poiid":"B2094654DA6EA0F4409D","title":"花梦烟杂店","lon":"121.48802","lat":"31.21903","category":"117","category_name":"便民商店/便利店","address":"梦花街"},{"poiid":"B2094757D16CA7FC479D","title":"老西门地段医院","lon":"121.489300738","lat":"31.2166863448","category":"162","category_name":"医院","address":"上海学前街"},{"poiid":"B2094654DA6EA0FB419F","title":"上海市黄浦区阳光学校","lon":"121.48902","lat":"31.21828","category":"56","category_name":"小学","address":"文庙路145"},{"poiid":"B2094655D26CA4F5429E","title":"佳志里(柳江街)","lon":"121.48829","lat":"31.21921","category":"47","category_name":"住宅区","address":"梦花街73弄1-5号"},{"poiid":"B2094655D268A0F84998","title":"文华小区(南门)","lon":"121.48682","lat":"31.21854","category":"47","category_name":"住宅区","address":"梦花街163弄"},{"poiid":"B2094654DA6EA0F4419B","title":"贝贝托儿所暨幼儿园","lon":"121.48826","lat":"31.21918","category":"57","category_name":"幼儿园","address":"梦花街73弄1-5号"},{"poiid":"B2094654DA6EA0FB439D","title":"上海文庙","lon":"121.48657","lat":"31.21693","category":"244","category_name":"寺庙道观","address":"上海市黄浦区文庙路215号"},{"poiid":"B2094757D06FA2FC479D","title":"大富贵酒楼(总店)","lon":"121.48569","lat":"31.21763","category":"76","category_name":"上海菜","address":"黄浦区中华路1409号(近梦花街)"},{"poiid":"B2094654DA6EA0FB429E","title":"孔乙己酒家","lon":"121.48838","lat":"31.21819","category":"75","category_name":"浙江菜","address":"黄浦区学宫街36号(近老西门文庙)"},{"poiid":"B2094753D76FAAFA449C","title":"上海滩国泰旗舰店","lon":"121.466011","lat":"31.216125","category":"249","category_name":"购物服务","address":"淮海中路868号"},{"poiid":"B209475CD564A7F84292","title":"上海滩新天地店","lon":"121.47463","lat":"31.22164","category":"119","category_name":"商场","address":"\"太仓路181弄新天地北里15号\r\n\""},{"poiid":"B209475CD564A7F84392","title":"上海滩浦东香格里拉店","lon":"121.50058","lat":"31.23634","category":"119","category_name":"商场","address":"浦东富成路33号香格里拉酒店内大堂层"},{"poiid":"B2094757D06FA5F4489E","title":"西北狼烧烤(文庙店)","lon":"121.48861","lat":"31.21764","category":"68","category_name":"快餐厅","address":"黄浦区文庙路184号(近学前街)"},{"poiid":"B2094757D168A6FD499E","title":"蓬萊路","lon":"121.49024373","lat":"31.217709033","category":"500","category_name":"未知分类","address":"上海市黄浦區蓬萊路"},{"poiid":"B2094654DA6EA0FA409B","title":"上海市敬业中学","lon":"121.48822","lat":"31.21711","category":"55","category_name":"中学","address":"上海黄浦区蓬莱路345号  "},{"poiid":"B2094757D068A4F94499","title":"肯德基(老西门)","lon":"121.484913738","lat":"31.2175647302","category":"68","category_name":"快餐厅","address":"上海老西门易买得"},{"poiid":"B2094757D069A2F94192","title":"黄浦区卫生学校","lon":"121.48621995","lat":"31.217713083","category":"54","category_name":"职业技术学校","address":"上海梦花街234号"},{"poiid":"B2094757D068A7F4429D","title":"南开大厦","lon":"121.49065","lat":"31.217077","category":"46","category_name":"楼宇","address":"浦东新区金湘路225弄"},{"poiid":"B2094655D26EA7FE479E","title":"红宝石中华路店","lon":"121.48735","lat":"31.21607","category":"67","category_name":"甜品店","address":"黄浦区蓬莱路426号(中华路口)"},{"poiid":"B2094750D768A6FA4093","title":"噫寿司","lon":"121.488","lat":"31.2176","category":"95","category_name":"日本料理","address":"黄浦区文庙路235号(近中华路)"},{"poiid":"B2094757D06FA5FA469D","title":"85度C(中华店)","lon":"121.485302479","lat":"31.2188424225","category":"112","category_name":"糕饼店","address":"黄浦区中华路1463号(近老西门)"},{"poiid":"B2094757D76AA2F4489C","title":"吾饮良品 文庙店","lon":"121.48799","lat":"31.21813","category":"113","category_name":"冷饮店","address":"黄浦区文庙路249号(近学前街)"},{"poiid":"B2094757D16FA3FC489C","title":"建国大厦","lon":"121.488","lat":"31.2197","category":"46","category_name":"楼宇","address":"朝阳区天辰东路7号"},{"poiid":"B2094757D064A2FC499A","title":"红灯笼馄饨店","lon":"121.48712","lat":"31.22022","category":"68","category_name":"快餐厅","address":"黄浦区复兴东路959弄1-5号(近公交24路老西门站)"},{"poiid":"B2094757D069AAFF429E","title":"新梅居(中华路店)","lon":"121.487682738","lat":"31.2151629791","category":"86","category_name":"火锅店","address":"黄浦区中华路1160号(近永宁街)"},{"poiid":"B2094750D76DA2F44493","title":"文庙面馆","lon":"121.488","lat":"31.2174","category":"68","category_name":"快餐厅","address":"黄浦区老道前街55号(近文庙路)"},{"poiid":"B2094654DB6BA4FF4092","title":"广东仔章鱼小丸子","lon":"121.48854","lat":"31.21764","category":"68","category_name":"快餐厅","address":"黄浦区文庙路231号"},{"poiid":"B2094757D16FA2FB4993","title":"文庙飘香烤鸡翅","lon":"121.48822","lat":"31.21715","category":"68","category_name":"快餐厅","address":"黄浦区文庙路(老道前街文庙路)"},{"poiid":"B2094750D76DA2F4439D","title":"文庙菜饭(文庙路店)","lon":"121.487","lat":"31.2168","category":"68","category_name":"快餐厅","address":"黄浦区文庙路282号(中华路口)"},{"poiid":"B2094655D265A4F54693","title":"文庙书市","lon":"121.48786","lat":"31.21782","category":"125","category_name":"书店","address":"文庙路215号"},{"poiid":"B2094654DB6BA4FE4998","title":"上海市第十中学","lon":"121.48866","lat":"31.21608","category":"55","category_name":"中学","address":"永宁街25"},{"poiid":"B2094757D16EAAFD4892","title":"文庙老道前街骨头汤","lon":"121.48902","lat":"31.21714","category":"257","category_name":"中餐厅","address":"黄浦区文庙路233号(近老道前街)"},{"poiid":"B2094751D56CA6FA449B","title":"梦花街馄饨","lon":"121.48924","lat":"31.21957","category":"68","category_name":"快餐厅","address":"黄浦区梦花街19号(近柳江街)"},{"poiid":"B2094750D665A0FE429B","title":"疯狂土豆(文庙路店)","lon":"121.488","lat":"31.2192","category":"68","category_name":"快餐厅","address":"黄浦区文庙路171号(近中华路)"},{"poiid":"B2094757D66AA4FE429F","title":"越涛酒家","lon":"121.48645","lat":"31.21834","category":"68","category_name":"快餐厅","address":"卢湾区顺昌路387号(近合肥路)"},{"poiid":"B2094654DB6BA4FF419D","title":"阿伟小吃排档快餐","lon":"121.48725","lat":"31.21864","category":"68","category_name":"快餐厅","address":"黄浦区梦花街137号"},{"poiid":"B2094757D16DA2FB459C","title":"文庙路奶茶","lon":"121.48823","lat":"31.21701","category":"67","category_name":"甜品店","address":"上海黄浦区文庙路西北狼烧烤旁  "},{"poiid":"B2094655D268A1F44193","title":"裕厚里(西门)","lon":"121.48834","lat":"31.21857","category":"47","category_name":"住宅区","address":"学宫街23弄11-14号"},{"poiid":"B2094654DA6EA0FB4699","title":"康宁商厦","lon":"121.48628","lat":"31.21743","category":"46","category_name":"楼宇","address":"上海中华路1359号"},{"poiid":"B2094654DB69A0F8479E","title":"蓬莱路第二小学","lon":"121.49009","lat":"31.21824","category":"56","category_name":"小学","address":"黄浦区蓬莱路225号(蓬莱路迎勋北路)"},{"poiid":"B2094752D16BA5F4429F","title":"南京路步行街","lon":"121.488974","lat":"31.218107","category":"500","category_name":"未知分类","address":null},{"poiid":"B2094654DB6AA6FE419C","title":"永乐电器(老西门店)","lon":"121.4857","lat":"31.21824","category":"138","category_name":"家电电子卖场","address":"上海市黄浦区中华路1415号(近复兴东路口)"},{"poiid":"B2094757D069A1F9499B","title":"文庙书刊交易市场","lon":"121.48720275","lat":"31.217069805","category":"125","category_name":"书店","address":"黄浦区文庙路215号东北角(老道前街文庙路)"},{"poiid":"B2094757DA6EABF4429A","title":"超级鸡车(蓬莱路店)","lon":"121.488144","lat":"31.2165260000003","category":"68","category_name":"快餐厅","address":"黄浦区蓬莱路374号(近蓬莱路中华路)"},{"poiid":"B2094655D26CA4F5439E","title":"三在里","lon":"121.48687","lat":"31.21921","category":"47","category_name":"住宅区","address":"静修路114弄1-116号"},{"poiid":"B2094757D06BA0FC4892","title":"人豪阿情酒楼","lon":"121.48651","lat":"31.21636","category":"76","category_name":"上海菜","address":"黄浦区中华路1318号(近方斜支路)"},{"poiid":"B2094654DA6EA0FB469A","title":"乔家栅 文庙店","lon":"121.486328054","lat":"31.216917793","category":"247","category_name":"餐饮美食","address":"黄浦区中华路1341号(文庙路口)"},{"poiid":"B2094655D268A0F8499E","title":"佳志里(南门)","lon":"121.48793","lat":"31.219","category":"47","category_name":"住宅区","address":"梦花街93弄1-22号"},{"poiid":"B2094757D16AA0FA4598","title":"小豆包奶茶","lon":"121.48873","lat":"31.2175","category":"247","category_name":"餐饮美食","address":"上海黄浦区学前街3号(近文庙路)  "},{"poiid":"B2094757D568A4F44898","title":"钟书书店文庙批发部","lon":"121.488112","lat":"31.2176","category":"125","category_name":"书店","address":"文庙路215号"},{"poiid":"B2094654DA6EA0F4409D","title":"花梦烟杂店","lon":"121.48802","lat":"31.21903","category":"117","category_name":"便民商店/便利店","address":"梦花街"},{"poiid":"B2094757D16CA7FC479D","title":"老西门地段医院","lon":"121.489300738","lat":"31.2166863448","category":"162","category_name":"医院","address":"上海学前街"},{"poiid":"B2094654DA6EA0FB419F","title":"上海市黄浦区阳光学校","lon":"121.48902","lat":"31.21828","category":"56","category_name":"小学","address":"文庙路145"},{"poiid":"B2094655D26CA4F5429E","title":"佳志里(柳江街)","lon":"121.48829","lat":"31.21921","category":"47","category_name":"住宅区","address":"梦花街73弄1-5号"},{"poiid":"B2094655D268A0F84998","title":"文华小区(南门)","lon":"121.48682","lat":"31.21854","category":"47","category_name":"住宅区","address":"梦花街163弄"},{"poiid":"B2094654DA6EA0F4419B","title":"贝贝托儿所暨幼儿园","lon":"121.48826","lat":"31.21918","category":"57","category_name":"幼儿园","address":"梦花街73弄1-5号"},{"poiid":"B2094654DA6EA0FB439D","title":"上海文庙","lon":"121.48657","lat":"31.21693","category":"244","category_name":"寺庙道观","address":"上海市黄浦区文庙路215号"},{"poiid":"B2094757D06FA2FC479D","title":"大富贵酒楼(总店)","lon":"121.48569","lat":"31.21763","category":"76","category_name":"上海菜","address":"黄浦区中华路1409号(近梦花街)"},{"poiid":"B2094654DA6EA0FB429E","title":"孔乙己酒家","lon":"121.48838","lat":"31.21819","category":"75","category_name":"浙江菜","address":"黄浦区学宫街36号(近老西门文庙)"},{"poiid":"B2094753D76FAAFA449C","title":"上海滩国泰旗舰店","lon":"121.466011","lat":"31.216125","category":"249","category_name":"购物服务","address":"淮海中路868号"},{"poiid":"B209475CD564A7F84292","title":"上海滩新天地店","lon":"121.47463","lat":"31.22164","category":"119","category_name":"商场","address":"\"太仓路181弄新天地北里15号\r\n\""},{"poiid":"B209475CD564A7F84392","title":"上海滩浦东香格里拉店","lon":"121.50058","lat":"31.23634","category":"119","category_name":"商场","address":"浦东富成路33号香格里拉酒店内大堂层"},{"poiid":"B2094757D06FA5F4489E","title":"西北狼烧烤(文庙店)","lon":"121.48861","lat":"31.21764","category":"68","category_name":"快餐厅","address":"黄浦区文庙路184号(近学前街)"},{"poiid":"B2094757D168A6FD499E","title":"蓬萊路","lon":"121.49024373","lat":"31.217709033","category":"500","category_name":"未知分类","address":"上海市黄浦區蓬萊路"},{"poiid":"B2094654DA6EA0FA409B","title":"上海市敬业中学","lon":"121.48822","lat":"31.21711","category":"55","category_name":"中学","address":"上海黄浦区蓬莱路345号  "},{"poiid":"B2094757D068A4F94499","title":"肯德基(老西门)","lon":"121.484913738","lat":"31.2175647302","category":"68","category_name":"快餐厅","address":"上海老西门易买得"},{"poiid":"B2094757D069A2F94192","title":"黄浦区卫生学校","lon":"121.48621995","lat":"31.217713083","category":"54","category_name":"职业技术学校","address":"上海梦花街234号"},{"poiid":"B2094757D068A7F4429D","title":"南开大厦","lon":"121.49065","lat":"31.217077","category":"46","category_name":"楼宇","address":"浦东新区金湘路225弄"},{"poiid":"B2094655D26EA7FE479E","title":"红宝石中华路店","lon":"121.48735","lat":"31.21607","category":"67","category_name":"甜品店","address":"黄浦区蓬莱路426号(中华路口)"},{"poiid":"B2094750D768A6FA4093","title":"噫寿司","lon":"121.488","lat":"31.2176","category":"95","category_name":"日本料理","address":"黄浦区文庙路235号(近中华路)"},{"poiid":"B2094757D06FA5FA469D","title":"85度C(中华店)","lon":"121.485302479","lat":"31.2188424225","category":"112","category_name":"糕饼店","address":"黄浦区中华路1463号(近老西门)"},{"poiid":"B2094757D76AA2F4489C","title":"吾饮良品 文庙店","lon":"121.48799","lat":"31.21813","category":"113","category_name":"冷饮店","address":"黄浦区文庙路249号(近学前街)"},{"poiid":"B2094757D16FA3FC489C","title":"建国大厦","lon":"121.488","lat":"31.2197","category":"46","category_name":"楼宇","address":"朝阳区天辰东路7号"},{"poiid":"B2094757D064A2FC499A","title":"红灯笼馄饨店","lon":"121.48712","lat":"31.22022","category":"68","category_name":"快餐厅","address":"黄浦区复兴东路959弄1-5号(近公交24路老西门站)"},{"poiid":"B2094757D069AAFF429E","title":"新梅居(中华路店)","lon":"121.487682738","lat":"31.2151629791","category":"86","category_name":"火锅店","address":"黄浦区中华路1160号(近永宁街)"},{"poiid":"B2094750D76DA2F44493","title":"文庙面馆","lon":"121.488","lat":"31.2174","category":"68","category_name":"快餐厅","address":"黄浦区老道前街55号(近文庙路)"},{"poiid":"B2094654DB6BA4FF4092","title":"广东仔章鱼小丸子","lon":"121.48854","lat":"31.21764","category":"68","category_name":"快餐厅","address":"黄浦区文庙路231号"},{"poiid":"B2094757D16FA2FB4993","title":"文庙飘香烤鸡翅","lon":"121.48822","lat":"31.21715","category":"68","category_name":"快餐厅","address":"黄浦区文庙路(老道前街文庙路)"},{"poiid":"B2094750D76DA2F4439D","title":"文庙菜饭(文庙路店)","lon":"121.487","lat":"31.2168","category":"68","category_name":"快餐厅","address":"黄浦区文庙路282号(中华路口)"},{"poiid":"B2094655D265A4F54693","title":"文庙书市","lon":"121.48786","lat":"31.21782","category":"125","category_name":"书店","address":"文庙路215号"},{"poiid":"B2094654DB6BA4FE4998","title":"上海市第十中学","lon":"121.48866","lat":"31.21608","category":"55","category_name":"中学","address":"永宁街25"},{"poiid":"B2094757D16EAAFD4892","title":"文庙老道前街骨头汤","lon":"121.48902","lat":"31.21714","category":"257","category_name":"中餐厅","address":"黄浦区文庙路233号(近老道前街)"},{"poiid":"B2094751D56CA6FA449B","title":"梦花街馄饨","lon":"121.48924","lat":"31.21957","category":"68","category_name":"快餐厅","address":"黄浦区梦花街19号(近柳江街)"},{"poiid":"B2094750D665A0FE429B","title":"疯狂土豆(文庙路店)","lon":"121.488","lat":"31.2192","category":"68","category_name":"快餐厅","address":"黄浦区文庙路171号(近中华路)"},{"poiid":"B2094757D66AA4FE429F","title":"越涛酒家","lon":"121.48645","lat":"31.21834","category":"68","category_name":"快餐厅","address":"卢湾区顺昌路387号(近合肥路)"},{"poiid":"B2094654DB6BA4FF419D","title":"阿伟小吃排档快餐","lon":"121.48725","lat":"31.21864","category":"68","category_name":"快餐厅","address":"黄浦区梦花街137号"},{"poiid":"B2094757D16DA2FB459C","title":"文庙路奶茶","lon":"121.48823","lat":"31.21701","category":"67","category_name":"甜品店","address":"上海黄浦区文庙路西北狼烧烤旁  "},{"poiid":"B2094655D268A1F44193","title":"裕厚里(西门)","lon":"121.48834","lat":"31.21857","category":"47","category_name":"住宅区","address":"学宫街23弄11-14号"},{"poiid":"B2094654DA6EA0FB4699","title":"康宁商厦","lon":"121.48628","lat":"31.21743","category":"46","category_name":"楼宇","address":"上海中华路1359号"},{"poiid":"B2094654DB69A0F8479E","title":"蓬莱路第二小学","lon":"121.49009","lat":"31.21824","category":"56","category_name":"小学","address":"黄浦区蓬莱路225号(蓬莱路迎勋北路)"},{"poiid":"B2094752D16BA5F4429F","title":"南京路步行街","lon":"121.488974","lat":"31.218107","category":"500","category_name":"未知分类","address":null},{"poiid":"B2094654DB6AA6FE419C","title":"永乐电器(老西门店)","lon":"121.4857","lat":"31.21824","category":"138","category_name":"家电电子卖场","address":"上海市黄浦区中华路1415号(近复兴东路口)"},{"poiid":"B2094757D069A1F9499B","title":"文庙书刊交易市场","lon":"121.48720275","lat":"31.217069805","category":"125","category_name":"书店","address":"黄浦区文庙路215号东北角(老道前街文庙路)"},{"poiid":"B2094757DA6EABF4429A","title":"超级鸡车(蓬莱路店)","lon":"121.488144","lat":"31.2165260000003","category":"68","category_name":"快餐厅","address":"黄浦区蓬莱路374号(近蓬莱路中华路)"},{"poiid":"B2094655D26CA4F5439E","title":"三在里","lon":"121.48687","lat":"31.21921","category":"47","category_name":"住宅区","address":"静修路114弄1-116号"},{"poiid":"B2094757D06BA0FC4892","title":"人豪阿情酒楼","lon":"121.48651","lat":"31.21636","category":"76","category_name":"上海菜","address":"黄浦区中华路1318号(近方斜支路)"},{"poiid":"B2094654DA6EA0FB469A","title":"乔家栅 文庙店","lon":"121.486328054","lat":"31.216917793","category":"247","category_name":"餐饮美食","address":"黄浦区中华路1341号(文庙路口)"},{"poiid":"B2094655D268A0F8499E","title":"佳志里(南门)","lon":"121.48793","lat":"31.219","category":"47","category_name":"住宅区","address":"梦花街93弄1-22号"},{"poiid":"B2094757D16AA0FA4598","title":"小豆包奶茶","lon":"121.48873","lat":"31.2175","category":"247","category_name":"餐饮美食","address":"上海黄浦区学前街3号(近文庙路)  "},{"poiid":"B2094757D568A4F44898","title":"钟书书店文庙批发部","lon":"121.488112","lat":"31.2176","category":"125","category_name":"书店","address":"文庙路215号"},{"poiid":"B2094654DA6EA0F4409D","title":"花梦烟杂店","lon":"121.48802","lat":"31.21903","category":"117","category_name":"便民商店/便利店","address":"梦花街"},{"poiid":"B2094757D16CA7FC479D","title":"老西门地段医院","lon":"121.489300738","lat":"31.2166863448","category":"162","category_name":"医院","address":"上海学前街"},{"poiid":"B2094654DA6EA0FB419F","title":"上海市黄浦区阳光学校","lon":"121.48902","lat":"31.21828","category":"56","category_name":"小学","address":"文庙路145"},{"poiid":"B2094655D26CA4F5429E","title":"佳志里(柳江街)","lon":"121.48829","lat":"31.21921","category":"47","category_name":"住宅区","address":"梦花街73弄1-5号"},{"poiid":"B2094655D268A0F84998","title":"文华小区(南门)","lon":"121.48682","lat":"31.21854","category":"47","category_name":"住宅区","address":"梦花街163弄"},{"poiid":"B2094654DA6EA0F4419B","title":"贝贝托儿所暨幼儿园","lon":"121.48826","lat":"31.21918","category":"57","category_name":"幼儿园","address":"梦花街73弄1-5号"},{"poiid":"B2094654DA6EA0FB439D","title":"上海文庙","lon":"121.48657","lat":"31.21693","category":"244","category_name":"寺庙道观","address":"上海市黄浦区文庙路215号"},{"poiid":"B2094757D06FA2FC479D","title":"大富贵酒楼(总店)","lon":"121.48569","lat":"31.21763","category":"76","category_name":"上海菜","address":"黄浦区中华路1409号(近梦花街)"},{"poiid":"B2094654DA6EA0FB429E","title":"孔乙己酒家","lon":"121.48838","lat":"31.21819","category":"75","category_name":"浙江菜","address":"黄浦区学宫街36号(近老西门文庙)"},{"poiid":"B2094753D76FAAFA449C","title":"上海滩国泰旗舰店","lon":"121.466011","lat":"31.216125","category":"249","category_name":"购物服务","address":"淮海中路868号"},{"poiid":"B209475CD564A7F84292","title":"上海滩新天地店","lon":"121.47463","lat":"31.22164","category":"119","category_name":"商场","address":"\"太仓路181弄新天地北里15号\r\n\""},{"poiid":"B209475CD564A7F84392","title":"上海滩浦东香格里拉店","lon":"121.50058","lat":"31.23634","category":"119","category_name":"商场","address":"浦东富成路33号香格里拉酒店内大堂层"},{"poiid":"B2094757D06FA5F4489E","title":"西北狼烧烤(文庙店)","lon":"121.48861","lat":"31.21764","category":"68","category_name":"快餐厅","address":"黄浦区文庙路184号(近学前街)"},{"poiid":"B2094757D168A6FD499E","title":"蓬萊路","lon":"121.49024373","lat":"31.217709033","category":"500","category_name":"未知分类","address":"上海市黄浦區蓬萊路"},{"poiid":"B2094654DA6EA0FA409B","title":"上海市敬业中学","lon":"121.48822","lat":"31.21711","category":"55","category_name":"中学","address":"上海黄浦区蓬莱路345号  "},{"poiid":"B2094757D068A4F94499","title":"肯德基(老西门)","lon":"121.484913738","lat":"31.2175647302","category":"68","category_name":"快餐厅","address":"上海老西门易买得"},{"poiid":"B2094757D069A2F94192","title":"黄浦区卫生学校","lon":"121.48621995","lat":"31.217713083","category":"54","category_name":"职业技术学校","address":"上海梦花街234号"},{"poiid":"B2094757D068A7F4429D","title":"南开大厦","lon":"121.49065","lat":"31.217077","category":"46","category_name":"楼宇","address":"浦东新区金湘路225弄"},{"poiid":"B2094655D26EA7FE479E","title":"红宝石中华路店","lon":"121.48735","lat":"31.21607","category":"67","category_name":"甜品店","address":"黄浦区蓬莱路426号(中华路口)"},{"poiid":"B2094750D768A6FA4093","title":"噫寿司","lon":"121.488","lat":"31.2176","category":"95","category_name":"日本料理","address":"黄浦区文庙路235号(近中华路)"},{"poiid":"B2094757D06FA5FA469D","title":"85度C(中华店)","lon":"121.485302479","lat":"31.2188424225","category":"112","category_name":"糕饼店","address":"黄浦区中华路1463号(近老西门)"},{"poiid":"B2094757D76AA2F4489C","title":"吾饮良品 文庙店","lon":"121.48799","lat":"31.21813","category":"113","category_name":"冷饮店","address":"黄浦区文庙路249号(近学前街)"},{"poiid":"B2094757D16FA3FC489C","title":"建国大厦","lon":"121.488","lat":"31.2197","category":"46","category_name":"楼宇","address":"朝阳区天辰东路7号"},{"poiid":"B2094757D064A2FC499A","title":"红灯笼馄饨店","lon":"121.48712","lat":"31.22022","category":"68","category_name":"快餐厅","address":"黄浦区复兴东路959弄1-5号(近公交24路老西门站)"},{"poiid":"B2094757D069AAFF429E","title":"新梅居(中华路店)","lon":"121.487682738","lat":"31.2151629791","category":"86","category_name":"火锅店","address":"黄浦区中华路1160号(近永宁街)"},{"poiid":"B2094750D76DA2F44493","title":"文庙面馆","lon":"121.488","lat":"31.2174","category":"68","category_name":"快餐厅","address":"黄浦区老道前街55号(近文庙路)"},{"poiid":"B2094654DB6BA4FF4092","title":"广东仔章鱼小丸子","lon":"121.48854","lat":"31.21764","category":"68","category_name":"快餐厅","address":"黄浦区文庙路231号"},{"poiid":"B2094757D16FA2FB4993","title":"文庙飘香烤鸡翅","lon":"121.48822","lat":"31.21715","category":"68","category_name":"快餐厅","address":"黄浦区文庙路(老道前街文庙路)"},{"poiid":"B2094750D76DA2F4439D","title":"文庙菜饭(文庙路店)","lon":"121.487","lat":"31.2168","category":"68","category_name":"快餐厅","address":"黄浦区文庙路282号(中华路口)"},{"poiid":"B2094655D265A4F54693","title":"文庙书市","lon":"121.48786","lat":"31.21782","category":"125","category_name":"书店","address":"文庙路215号"},{"poiid":"B2094654DB6BA4FE4998","title":"上海市第十中学","lon":"121.48866","lat":"31.21608","category":"55","category_name":"中学","address":"永宁街25"},{"poiid":"B2094757D16EAAFD4892","title":"文庙老道前街骨头汤","lon":"121.48902","lat":"31.21714","category":"257","category_name":"中餐厅","address":"黄浦区文庙路233号(近老道前街)"},{"poiid":"B2094751D56CA6FA449B","title":"梦花街馄饨","lon":"121.48924","lat":"31.21957","category":"68","category_name":"快餐厅","address":"黄浦区梦花街19号(近柳江街)"},{"poiid":"B2094750D665A0FE429B","title":"疯狂土豆(文庙路店)","lon":"121.488","lat":"31.2192","category":"68","category_name":"快餐厅","address":"黄浦区文庙路171号(近中华路)"},{"poiid":"B2094757D66AA4FE429F","title":"越涛酒家","lon":"121.48645","lat":"31.21834","category":"68","category_name":"快餐厅","address":"卢湾区顺昌路387号(近合肥路)"},{"poiid":"B2094654DB6BA4FF419D","title":"阿伟小吃排档快餐","lon":"121.48725","lat":"31.21864","category":"68","category_name":"快餐厅","address":"黄浦区梦花街137号"},{"poiid":"B2094757D16DA2FB459C","title":"文庙路奶茶","lon":"121.48823","lat":"31.21701","category":"67","category_name":"甜品店","address":"上海黄浦区文庙路西北狼烧烤旁  "},{"poiid":"B2094655D268A1F44193","title":"裕厚里(西门)","lon":"121.48834","lat":"31.21857","category":"47","category_name":"住宅区","address":"学宫街23弄11-14号"},{"poiid":"B2094654DA6EA0FB4699","title":"康宁商厦","lon":"121.48628","lat":"31.21743","category":"46","category_name":"楼宇","address":"上海中华路1359号"},{"poiid":"B2094654DB69A0F8479E","title":"蓬莱路第二小学","lon":"121.49009","lat":"31.21824","category":"56","category_name":"小学","address":"黄浦区蓬莱路225号(蓬莱路迎勋北路)"},{"poiid":"B2094752D16BA5F4429F","title":"南京路步行街","lon":"121.488974","lat":"31.218107","category":"500","category_name":"未知分类","address":null},{"poiid":"B2094654DB6AA6FE419C","title":"永乐电器(老西门店)","lon":"121.4857","lat":"31.21824","category":"138","category_name":"家电电子卖场","address":"上海市黄浦区中华路1415号(近复兴东路口)"},{"poiid":"B2094757D069A1F9499B","title":"文庙书刊交易市场","lon":"121.48720275","lat":"31.217069805","category":"125","category_name":"书店","address":"黄浦区文庙路215号东北角(老道前街文庙路)"},{"poiid":"B2094757DA6EABF4429A","title":"超级鸡车(蓬莱路店)","lon":"121.488144","lat":"31.2165260000003","category":"68","category_name":"快餐厅","address":"黄浦区蓬莱路374号(近蓬莱路中华路)"},{"poiid":"B2094655D26CA4F5439E","title":"三在里","lon":"121.48687","lat":"31.21921","category":"47","category_name":"住宅区","address":"静修路114弄1-116号"},{"poiid":"B2094757D06BA0FC4892","title":"人豪阿情酒楼","lon":"121.48651","lat":"31.21636","category":"76","category_name":"上海菜","address":"黄浦区中华路1318号(近方斜支路)"},{"poiid":"B2094654DA6EA0FB469A","title":"乔家栅 文庙店","lon":"121.486328054","lat":"31.216917793","category":"247","category_name":"餐饮美食","address":"黄浦区中华路1341号(文庙路口)"},{"poiid":"B2094655D268A0F8499E","title":"佳志里(南门)","lon":"121.48793","lat":"31.219","category":"47","category_name":"住宅区","address":"梦花街93弄1-22号"},{"poiid":"B2094757D16AA0FA4598","title":"小豆包奶茶","lon":"121.48873","lat":"31.2175","category":"247","category_name":"餐饮美食","address":"上海黄浦区学前街3号(近文庙路)  "},{"poiid":"B2094757D568A4F44898","title":"钟书书店文庙批发部","lon":"121.488112","lat":"31.2176","category":"125","category_name":"书店","address":"文庙路215号"},{"poiid":"B2094654DA6EA0F4409D","title":"花梦烟杂店","lon":"121.48802","lat":"31.21903","category":"117","category_name":"便民商店/便利店","address":"梦花街"},{"poiid":"B2094757D16CA7FC479D","title":"老西门地段医院","lon":"121.489300738","lat":"31.2166863448","category":"162","category_name":"医院","address":"上海学前街"},{"poiid":"B2094654DA6EA0FB419F","title":"上海市黄浦区阳光学校","lon":"121.48902","lat":"31.21828","category":"56","category_name":"小学","address":"文庙路145"},{"poiid":"B2094655D26CA4F5429E","title":"佳志里(柳江街)","lon":"121.48829","lat":"31.21921","category":"47","category_name":"住宅区","address":"梦花街73弄1-5号"},{"poiid":"B2094655D268A0F84998","title":"文华小区(南门)","lon":"121.48682","lat":"31.21854","category":"47","category_name":"住宅区","address":"梦花街163弄"},{"poiid":"B2094654DA6EA0F4419B","title":"贝贝托儿所暨幼儿园","lon":"121.48826","lat":"31.21918","category":"57","category_name":"幼儿园","address":"梦花街73弄1-5号"}]