[{"poiid":"B2094654DB6AA7FC489E","title":"夏朵花园","lon":"121.43787029084206","lat":"31.21163133636796","category":"47","category_name":"住宅区","address":"徐汇区复兴西路268号(近华山路)"},{"poiid":"B2094757D068AAFE489F","title":"复兴西路","lon":"121.443012","lat":"31.208405","category":"46","category_name":"楼宇","address":"上海永福路"},{"poiid":"B2094654D564A4F9499D","title":"上海话剧艺术中心","lon":"121.4417","lat":"31.21369","category":"248","category_name":"生活娱乐","address":"徐汇区安福路288号(近武康路)"},{"poiid":"B2094753D76FAAFA449C","title":"上海滩国泰旗舰店","lon":"121.466011","lat":"31.216125","category":"249","category_name":"购物服务","address":"淮海中路868号"},{"poiid":"B209475CD564A7F8439E","title":"上海滩中信泰富店","lon":"121.45602","lat":"31.22851","category":"119","category_name":"商场","address":"\"南京西路1168号中信泰富广场，店铺号221.\r\n\""},{"poiid":"B2094757D068A3F5439E","title":"Sun flour Bakery &amp;amp; Cafe 阳光粮品","lon":"121.44065558","lat":"31.213297099","category":"67","category_name":"甜品店","address":"卢湾区南昌路109号(近瑞金二路)"},{"poiid":"B2094757D06FA7FC459F","title":"丁香花园","lon":"121.43927877","lat":"31.211933653","category":"47","category_name":"住宅区","address":"徐汇区华山路849号(近武康路)"},{"poiid":"B2094654DB65A1FF489E","title":"丁香夏朵花园","lon":"121.43792","lat":"31.21134","category":"94","category_name":"西餐厅","address":"徐汇区华山路855号近复兴西路近丁香花园"},{"poiid":"B2094757D06FA7F9459E","title":"申粤轩","lon":"121.43964","lat":"31.21242","category":"72","category_name":"广东菜","address":"徐汇区华山路849号丁香花园内(近武康路)"},{"poiid":"B2094757D06FA0F5489B","title":"上海话剧艺术中心-D6空间(Shanghai Dramatic Arts Center - Studio D6)","lon":"121.44098064","lat":"31.213716677","category":"260","category_name":"其他","address":"徐汇区安福路288号上海话剧艺术中心六楼"},{"poiid":"B2094757D06FA2F44198","title":"Tima Harbour(镇宁店)","lon":"121.43944","lat":"31.21423","category":"98","category_name":"意式菜品餐厅","address":"上海静安区镇宁路11号(近昭化东路)"},{"poiid":"B2094757D168ABF54299","title":"乐笙 Le Sheng","lon":"121.440405586","lat":"31.2131990979","category":"500","category_name":"未知分类","address":"上海安福路322号102室(近武康路)"},{"poiid":"B2094757D06FA3FA489D","title":"马里昂巴咖啡馆","lon":"121.439884136","lat":"31.2126682258","category":"260","category_name":"其他","address":"徐汇区武康路55号(近安福路)"},{"poiid":"B2094757D068A5FC469F","title":"Y 瑜伽生活馆(安福店)","lon":"121.44017481","lat":"31.2131334512","category":"148","category_name":"美容美发店","address":"徐汇区安福路308号3楼(近武康路)"},{"poiid":"B2094757D06BA2FC439E","title":"安福路","lon":"121.44029658","lat":"31.213472103","category":"500","category_name":"未知分类","address":"上海市安福路229弄"},{"poiid":"B2094757D16CA0F94492","title":"巴金故居","lon":"121.440725466","lat":"31.209418044","category":"607","category_name":"一般景点","address":"徐汇区武康路113号"},{"poiid":"B2094654D564A5F5469E","title":"上海美华妇科门诊部","lon":"121.43883","lat":"31.21443","category":"162","category_name":"医院","address":"华山路800弄6号丁香公寓裙楼3层"},{"poiid":"B209475CD36DA4F5489F","title":"SunFlour 安福路店 Sun Flour","lon":"121.44036","lat":"31.21302","category":"97","category_name":"法式菜品餐厅","address":"安福路308号104室(近武康路)"},{"poiid":"B2094654D564A4F9489E","title":"话剧大厦","lon":"121.44106","lat":"31.21363","category":"46","category_name":"楼宇","address":"安福路288号"},{"poiid":"B2094751D56CA1FE459C","title":"夏朵西餐厅(丁香店)","lon":"121.43855","lat":"31.21245","category":"94","category_name":"西餐厅","address":"徐汇区华山路855号(近复兴西路)"},{"poiid":"B2094757D068A7FD4798","title":"夏味馆(镇宁路店)","lon":"121.4395","lat":"31.21411","category":"76","category_name":"上海菜","address":"静安区镇宁路9号九尊大厦(近华山路)"},{"poiid":"B2094757D06FA2F4419A","title":"Y 瑜伽生活馆(复兴店)","lon":"121.43848","lat":"31.2107","category":"148","category_name":"美容美发店","address":"徐汇区复兴西路299号(近华山路)"},{"poiid":"B2094655D264A4FC4598","title":"COSTA(九尊店)","lon":"121.43842","lat":"31.21434","category":"65","category_name":"咖啡厅","address":"长宁区镇宁路9号(近华山路)"},{"poiid":"B2094757D664A2F84399","title":"Food Central","lon":"121.440535","lat":"31.213275","category":"94","category_name":"西餐厅","address":"徐汇区安福路322号(近武康路)"},{"poiid":"B2094757D465A1FE479A","title":"松坊餐厅 安福路店 Brown cafe","lon":"121.44035","lat":"31.2132","category":"94","category_name":"西餐厅","address":"徐汇区安福路318号2楼(近武康路)"},{"poiid":"B2094654D564A5F5419F","title":"夏朵小铺","lon":"121.43821","lat":"31.21105","category":"131","category_name":"珠宝首饰工艺品","address":"华山路855号"},{"poiid":"B2094757D06AA5FA489A","title":"五原路","lon":"121.44202758","lat":"31.211923073","category":"500","category_name":"未知分类","address":"上海徐汇区五原路"},{"poiid":"B2094757D169A7FB429A","title":"marienbad cafe&amp;bar","lon":"121.440523586","lat":"31.2133221003","category":"500","category_name":"未知分类","address":"上海安抚路"},{"poiid":"B2094654D564A5F5459B","title":"东欣酒家","lon":"121.43975343627","lat":"31.213051023247","category":"76","category_name":"上海菜","address":"徐汇区武康路98号(近安福路)"},{"poiid":"B2094757D06BA4FE479C","title":"安福会","lon":"121.44166458","lat":"31.213478103","category":"94","category_name":"西餐厅","address":"徐汇区安福路284号(近上海市话剧艺术中心)"},{"poiid":"B2094757D068A0F54092","title":"The Food Central","lon":"121.43989158","lat":"31.214789129","category":"500","category_name":"未知分类","address":"上海市安福路322号"},{"poiid":"B2094757D065A2F8459A","title":"大家旺 武康路店","lon":"121.439341054","lat":"31.213180793","category":"68","category_name":"快餐厅","address":"徐汇区武康路55号(近安福路)"},{"poiid":"B2094757D56CA2FF419B","title":"Misael酒吧","lon":"121.440953","lat":"31.210136","category":"260","category_name":"其他","address":"徐汇区武康路103号(近复兴西路)"},{"poiid":"B2094654DB65A1FF429A","title":"上海市徐汇区爱菊小学(安福路)","lon":"121.44236","lat":"31.21359","category":"56","category_name":"小学","address":"徐汇区安福路247号(近武康路)"},{"poiid":"B2094757D165A7FD4292","title":"永福路","lon":"121.440921586","lat":"31.2121080766","category":"500","category_name":"未知分类","address":"上海"},{"poiid":"B2094654DB65A6F84998","title":"猫雨酒吧","lon":"121.4408","lat":"31.21221","category":"111","category_name":"休闲餐饮场所","address":"徐汇区武康路73弄1号101室"},{"poiid":"B2094757DA6EA7F94698","title":"The Food Central","lon":"121.440493299999","lat":"31.2134479","category":"247","category_name":"餐饮美食","address":"徐汇区安福路308号(近武康路)"},{"poiid":"B2094655D264A7FF459A","title":"颜福庆旧居","lon":"121.44032","lat":"31.21234","category":"250","category_name":"公园户外","address":"武康路40弄1-5号"},{"poiid":"B2094654DB65ABF84293","title":"武康路67号住宅(武康路)","lon":"121.44066","lat":"31.21241","category":"47","category_name":"住宅区","address":"武康路67号"},{"poiid":"B2094757D568ABFA419F","title":"淀山湖一号","lon":"121.440132920003","lat":"31.2122490799999","category":"47","category_name":"住宅区","address":"徐汇区武康路40弄4号"},{"poiid":"B2094654DB64AAF44399","title":"上海电影评论学会文艺片俱乐部","lon":"121.44047","lat":"31.2133","category":"178","category_name":"电影院","address":"安福路308号"},{"poiid":"B2094750D364A5FD479F","title":"上海美华妇儿服务","lon":"121.4388464368","lat":"31.214662099037","category":"162","category_name":"医院","address":"华山路800弄丁香公寓6号裙楼3楼"},{"poiid":"B2094750DB6EAAF4479A","title":"呷哺","lon":"121.440597","lat":"31.211494","category":"247","category_name":"餐饮美食","address":"长宁路巴黎春天"},{"poiid":"B2094757D069A0F84299","title":"Yu Massage","lon":"121.442263023","lat":"31.2119576271","category":"149","category_name":"洗浴推拿场所","address":"五原路370-6-2"},{"poiid":"B209475CD364AAF8459E","title":"Cozy Wine Bar & Bistro","lon":"121.44123","lat":"31.21182","category":"94","category_name":"西餐厅","address":"五原路"},{"poiid":"B2094654D564A4F94793","title":"可的(五康路)","lon":"121.44039","lat":"31.21308","category":"117","category_name":"便民商店/便利店","address":"徐汇区武康路55号(安福路武康路)"},{"poiid":"B2094757DB69ABF44398","title":"Marienbad cafe&bar","lon":"121.44051059028243","lat":"31.213306290982725","category":"500","category_name":"未知分类","address":"徐汇区安福路"},{"poiid":"B2094654DB65A1FF479C","title":"上海松坊商场","lon":"121.44025","lat":"31.21325","category":"119","category_name":"商场","address":"静安区西康路223号(近新闸路)"},{"poiid":"B2094757D169A5F44598","title":"武康路菜场","lon":"121.440154548","lat":"31.21252626","category":"500","category_name":"未知分类","address":"上海武康路五原路"},{"poiid":"B2094654DB64A4FA4298","title":"戏剧沙龙·贵宾厅","lon":"121.4411","lat":"31.21357","category":"180","category_name":"剧场","address":"安福路288号3层"},{"poiid":"B2094654DB6AA7FC489E","title":"夏朵花园","lon":"121.43787029084206","lat":"31.21163133636796","category":"47","category_name":"住宅区","address":"徐汇区复兴西路268号(近华山路)"},{"poiid":"B2094757D068AAFE489F","title":"复兴西路","lon":"121.443012","lat":"31.208405","category":"46","category_name":"楼宇","address":"上海永福路"},{"poiid":"B2094654D564A4F9499D","title":"上海话剧艺术中心","lon":"121.4417","lat":"31.21369","category":"248","category_name":"生活娱乐","address":"徐汇区安福路288号(近武康路)"},{"poiid":"B2094753D76FAAFA449C","title":"上海滩国泰旗舰店","lon":"121.466011","lat":"31.216125","category":"249","category_name":"购物服务","address":"淮海中路868号"},{"poiid":"B209475CD564A7F8439E","title":"上海滩中信泰富店","lon":"121.45602","lat":"31.22851","category":"119","category_name":"商场","address":"\"南京西路1168号中信泰富广场，店铺号221.\r\n\""},{"poiid":"B2094757D068A3F5439E","title":"Sun flour Bakery &amp;amp; Cafe 阳光粮品","lon":"121.44065558","lat":"31.213297099","category":"67","category_name":"甜品店","address":"卢湾区南昌路109号(近瑞金二路)"},{"poiid":"B2094757D06FA7FC459F","title":"丁香花园","lon":"121.43927877","lat":"31.211933653","category":"47","category_name":"住宅区","address":"徐汇区华山路849号(近武康路)"},{"poiid":"B2094654DB65A1FF489E","title":"丁香夏朵花园","lon":"121.43792","lat":"31.21134","category":"94","category_name":"西餐厅","address":"徐汇区华山路855号近复兴西路近丁香花园"},{"poiid":"B2094757D06FA7F9459E","title":"申粤轩","lon":"121.43964","lat":"31.21242","category":"72","category_name":"广东菜","address":"徐汇区华山路849号丁香花园内(近武康路)"},{"poiid":"B2094757D06FA0F5489B","title":"上海话剧艺术中心-D6空间(Shanghai Dramatic Arts Center - Studio D6)","lon":"121.44098064","lat":"31.213716677","category":"260","category_name":"其他","address":"徐汇区安福路288号上海话剧艺术中心六楼"},{"poiid":"B2094757D06FA2F44198","title":"Tima Harbour(镇宁店)","lon":"121.43944","lat":"31.21423","category":"98","category_name":"意式菜品餐厅","address":"上海静安区镇宁路11号(近昭化东路)"},{"poiid":"B2094757D168ABF54299","title":"乐笙 Le Sheng","lon":"121.440405586","lat":"31.2131990979","category":"500","category_name":"未知分类","address":"上海安福路322号102室(近武康路)"},{"poiid":"B2094757D06FA3FA489D","title":"马里昂巴咖啡馆","lon":"121.439884136","lat":"31.2126682258","category":"260","category_name":"其他","address":"徐汇区武康路55号(近安福路)"},{"poiid":"B2094757D068A5FC469F","title":"Y 瑜伽生活馆(安福店)","lon":"121.44017481","lat":"31.2131334512","category":"148","category_name":"美容美发店","address":"徐汇区安福路308号3楼(近武康路)"},{"poiid":"B2094757D06BA2FC439E","title":"安福路","lon":"121.44029658","lat":"31.213472103","category":"500","category_name":"未知分类","address":"上海市安福路229弄"},{"poiid":"B2094757D16CA0F94492","title":"巴金故居","lon":"121.440725466","lat":"31.209418044","category":"607","category_name":"一般景点","address":"徐汇区武康路113号"},{"poiid":"B2094654D564A5F5469E","title":"上海美华妇科门诊部","lon":"121.43883","lat":"31.21443","category":"162","category_name":"医院","address":"华山路800弄6号丁香公寓裙楼3层"},{"poiid":"B209475CD36DA4F5489F","title":"SunFlour 安福路店 Sun Flour","lon":"121.44036","lat":"31.21302","category":"97","category_name":"法式菜品餐厅","address":"安福路308号104室(近武康路)"},{"poiid":"B2094654D564A4F9489E","title":"话剧大厦","lon":"121.44106","lat":"31.21363","category":"46","category_name":"楼宇","address":"安福路288号"},{"poiid":"B2094751D56CA1FE459C","title":"夏朵西餐厅(丁香店)","lon":"121.43855","lat":"31.21245","category":"94","category_name":"西餐厅","address":"徐汇区华山路855号(近复兴西路)"},{"poiid":"B2094757D068A7FD4798","title":"夏味馆(镇宁路店)","lon":"121.4395","lat":"31.21411","category":"76","category_name":"上海菜","address":"静安区镇宁路9号九尊大厦(近华山路)"},{"poiid":"B2094757D06FA2F4419A","title":"Y 瑜伽生活馆(复兴店)","lon":"121.43848","lat":"31.2107","category":"148","category_name":"美容美发店","address":"徐汇区复兴西路299号(近华山路)"},{"poiid":"B2094655D264A4FC4598","title":"COSTA(九尊店)","lon":"121.43842","lat":"31.21434","category":"65","category_name":"咖啡厅","address":"长宁区镇宁路9号(近华山路)"},{"poiid":"B2094757D664A2F84399","title":"Food Central","lon":"121.440535","lat":"31.213275","category":"94","category_name":"西餐厅","address":"徐汇区安福路322号(近武康路)"},{"poiid":"B2094757D465A1FE479A","title":"松坊餐厅 安福路店 Brown cafe","lon":"121.44035","lat":"31.2132","category":"94","category_name":"西餐厅","address":"徐汇区安福路318号2楼(近武康路)"},{"poiid":"B2094654D564A5F5419F","title":"夏朵小铺","lon":"121.43821","lat":"31.21105","category":"131","category_name":"珠宝首饰工艺品","address":"华山路855号"},{"poiid":"B2094757D06AA5FA489A","title":"五原路","lon":"121.44202758","lat":"31.211923073","category":"500","category_name":"未知分类","address":"上海徐汇区五原路"},{"poiid":"B2094757D169A7FB429A","title":"marienbad cafe&amp;bar","lon":"121.440523586","lat":"31.2133221003","category":"500","category_name":"未知分类","address":"上海安抚路"},{"poiid":"B2094654D564A5F5459B","title":"东欣酒家","lon":"121.43975343627","lat":"31.213051023247","category":"76","category_name":"上海菜","address":"徐汇区武康路98号(近安福路)"},{"poiid":"B2094757D06BA4FE479C","title":"安福会","lon":"121.44166458","lat":"31.213478103","category":"94","category_name":"西餐厅","address":"徐汇区安福路284号(近上海市话剧艺术中心)"},{"poiid":"B2094757D068A0F54092","title":"The Food Central","lon":"121.43989158","lat":"31.214789129","category":"500","category_name":"未知分类","address":"上海市安福路322号"},{"poiid":"B2094757D065A2F8459A","title":"大家旺 武康路店","lon":"121.439341054","lat":"31.213180793","category":"68","category_name":"快餐厅","address":"徐汇区武康路55号(近安福路)"},{"poiid":"B2094757D56CA2FF419B","title":"Misael酒吧","lon":"121.440953","lat":"31.210136","category":"260","category_name":"其他","address":"徐汇区武康路103号(近复兴西路)"},{"poiid":"B2094654DB65A1FF429A","title":"上海市徐汇区爱菊小学(安福路)","lon":"121.44236","lat":"31.21359","category":"56","category_name":"小学","address":"徐汇区安福路247号(近武康路)"},{"poiid":"B2094757D165A7FD4292","title":"永福路","lon":"121.440921586","lat":"31.2121080766","category":"500","category_name":"未知分类","address":"上海"},{"poiid":"B2094654DB65A6F84998","title":"猫雨酒吧","lon":"121.4408","lat":"31.21221","category":"111","category_name":"休闲餐饮场所","address":"徐汇区武康路73弄1号101室"},{"poiid":"B2094757DA6EA7F94698","title":"The Food Central","lon":"121.440493299999","lat":"31.2134479","category":"247","category_name":"餐饮美食","address":"徐汇区安福路308号(近武康路)"},{"poiid":"B2094655D264A7FF459A","title":"颜福庆旧居","lon":"121.44032","lat":"31.21234","category":"250","category_name":"公园户外","address":"武康路40弄1-5号"},{"poiid":"B2094654DB65ABF84293","title":"武康路67号住宅(武康路)","lon":"121.44066","lat":"31.21241","category":"47","category_name":"住宅区","address":"武康路67号"},{"poiid":"B2094757D568ABFA419F","title":"淀山湖一号","lon":"121.440132920003","lat":"31.2122490799999","category":"47","category_name":"住宅区","address":"徐汇区武康路40弄4号"},{"poiid":"B2094654DB64AAF44399","title":"上海电影评论学会文艺片俱乐部","lon":"121.44047","lat":"31.2133","category":"178","category_name":"电影院","address":"安福路308号"},{"poiid":"B2094750D364A5FD479F","title":"上海美华妇儿服务","lon":"121.4388464368","lat":"31.214662099037","category":"162","category_name":"医院","address":"华山路800弄丁香公寓6号裙楼3楼"},{"poiid":"B2094750DB6EAAF4479A","title":"呷哺","lon":"121.440597","lat":"31.211494","category":"247","category_name":"餐饮美食","address":"长宁路巴黎春天"},{"poiid":"B2094757D069A0F84299","title":"Yu Massage","lon":"121.442263023","lat":"31.2119576271","category":"149","category_name":"洗浴推拿场所","address":"五原路370-6-2"},{"poiid":"B209475CD364AAF8459E","title":"Cozy Wine Bar & Bistro","lon":"121.44123","lat":"31.21182","category":"94","category_name":"西餐厅","address":"五原路"},{"poiid":"B2094654D564A4F94793","title":"可的(五康路)","lon":"121.44039","lat":"31.21308","category":"117","category_name":"便民商店/便利店","address":"徐汇区武康路55号(安福路武康路)"},{"poiid":"B2094757DB69ABF44398","title":"Marienbad cafe&bar","lon":"121.44051059028243","lat":"31.213306290982725","category":"500","category_name":"未知分类","address":"徐汇区安福路"},{"poiid":"B2094654DB65A1FF479C","title":"上海松坊商场","lon":"121.44025","lat":"31.21325","category":"119","category_name":"商场","address":"静安区西康路223号(近新闸路)"},{"poiid":"B2094757D169A5F44598","title":"武康路菜场","lon":"121.440154548","lat":"31.21252626","category":"500","category_name":"未知分类","address":"上海武康路五原路"},{"poiid":"B2094654DB64A4FA4298","title":"戏剧沙龙·贵宾厅","lon":"121.4411","lat":"31.21357","category":"180","category_name":"剧场","address":"安福路288号3层"},{"poiid":"B2094654DB6AA7FC489E","title":"夏朵花园","lon":"121.43787029084206","lat":"31.21163133636796","category":"47","category_name":"住宅区","address":"徐汇区复兴西路268号(近华山路)"},{"poiid":"B2094757D068AAFE489F","title":"复兴西路","lon":"121.443012","lat":"31.208405","category":"46","category_name":"楼宇","address":"上海永福路"},{"poiid":"B2094654D564A4F9499D","title":"上海话剧艺术中心","lon":"121.4417","lat":"31.21369","category":"248","category_name":"生活娱乐","address":"徐汇区安福路288号(近武康路)"},{"poiid":"B2094753D76FAAFA449C","title":"上海滩国泰旗舰店","lon":"121.466011","lat":"31.216125","category":"249","category_name":"购物服务","address":"淮海中路868号"},{"poiid":"B209475CD564A7F8439E","title":"上海滩中信泰富店","lon":"121.45602","lat":"31.22851","category":"119","category_name":"商场","address":"\"南京西路1168号中信泰富广场，店铺号221.\r\n\""},{"poiid":"B2094757D068A3F5439E","title":"Sun flour Bakery &amp;amp; Cafe 阳光粮品","lon":"121.44065558","lat":"31.213297099","category":"67","category_name":"甜品店","address":"卢湾区南昌路109号(近瑞金二路)"},{"poiid":"B2094757D06FA7FC459F","title":"丁香花园","lon":"121.43927877","lat":"31.211933653","category":"47","category_name":"住宅区","address":"徐汇区华山路849号(近武康路)"},{"poiid":"B2094654DB65A1FF489E","title":"丁香夏朵花园","lon":"121.43792","lat":"31.21134","category":"94","category_name":"西餐厅","address":"徐汇区华山路855号近复兴西路近丁香花园"},{"poiid":"B2094757D06FA7F9459E","title":"申粤轩","lon":"121.43964","lat":"31.21242","category":"72","category_name":"广东菜","address":"徐汇区华山路849号丁香花园内(近武康路)"},{"poiid":"B2094757D06FA0F5489B","title":"上海话剧艺术中心-D6空间(Shanghai Dramatic Arts Center - Studio D6)","lon":"121.44098064","lat":"31.213716677","category":"260","category_name":"其他","address":"徐汇区安福路288号上海话剧艺术中心六楼"},{"poiid":"B2094757D06FA2F44198","title":"Tima Harbour(镇宁店)","lon":"121.43944","lat":"31.21423","category":"98","category_name":"意式菜品餐厅","address":"上海静安区镇宁路11号(近昭化东路)"},{"poiid":"B2094757D168ABF54299","title":"乐笙 Le Sheng","lon":"121.440405586","lat":"31.2131990979","category":"500","category_name":"未知分类","address":"上海安福路322号102室(近武康路)"},{"poiid":"B2094757D06FA3FA489D","title":"马里昂巴咖啡馆","lon":"121.439884136","lat":"31.2126682258","category":"260","category_name":"其他","address":"徐汇区武康路55号(近安福路)"},{"poiid":"B2094757D068A5FC469F","title":"Y 瑜伽生活馆(安福店)","lon":"121.44017481","lat":"31.2131334512","category":"148","category_name":"美容美发店","address":"徐汇区安福路308号3楼(近武康路)"},{"poiid":"B2094757D06BA2FC439E","title":"安福路","lon":"121.44029658","lat":"31.213472103","category":"500","category_name":"未知分类","address":"上海市安福路229弄"},{"poiid":"B2094757D16CA0F94492","title":"巴金故居","lon":"121.440725466","lat":"31.209418044","category":"607","category_name":"一般景点","address":"徐汇区武康路113号"},{"poiid":"B2094654D564A5F5469E","title":"上海美华妇科门诊部","lon":"121.43883","lat":"31.21443","category":"162","category_name":"医院","address":"华山路800弄6号丁香公寓裙楼3层"},{"poiid":"B209475CD36DA4F5489F","title":"SunFlour 安福路店 Sun Flour","lon":"121.44036","lat":"31.21302","category":"97","category_name":"法式菜品餐厅","address":"安福路308号104室(近武康路)"},{"poiid":"B2094654D564A4F9489E","title":"话剧大厦","lon":"121.44106","lat":"31.21363","category":"46","category_name":"楼宇","address":"安福路288号"},{"poiid":"B2094751D56CA1FE459C","title":"夏朵西餐厅(丁香店)","lon":"121.43855","lat":"31.21245","category":"94","category_name":"西餐厅","address":"徐汇区华山路855号(近复兴西路)"},{"poiid":"B2094757D068A7FD4798","title":"夏味馆(镇宁路店)","lon":"121.4395","lat":"31.21411","category":"76","category_name":"上海菜","address":"静安区镇宁路9号九尊大厦(近华山路)"},{"poiid":"B2094757D06FA2F4419A","title":"Y 瑜伽生活馆(复兴店)","lon":"121.43848","lat":"31.2107","category":"148","category_name":"美容美发店","address":"徐汇区复兴西路299号(近华山路)"},{"poiid":"B2094655D264A4FC4598","title":"COSTA(九尊店)","lon":"121.43842","lat":"31.21434","category":"65","category_name":"咖啡厅","address":"长宁区镇宁路9号(近华山路)"},{"poiid":"B2094757D664A2F84399","title":"Food Central","lon":"121.440535","lat":"31.213275","category":"94","category_name":"西餐厅","address":"徐汇区安福路322号(近武康路)"},{"poiid":"B2094757D465A1FE479A","title":"松坊餐厅 安福路店 Brown cafe","lon":"121.44035","lat":"31.2132","category":"94","category_name":"西餐厅","address":"徐汇区安福路318号2楼(近武康路)"},{"poiid":"B2094654D564A5F5419F","title":"夏朵小铺","lon":"121.43821","lat":"31.21105","category":"131","category_name":"珠宝首饰工艺品","address":"华山路855号"},{"poiid":"B2094757D06AA5FA489A","title":"五原路","lon":"121.44202758","lat":"31.211923073","category":"500","category_name":"未知分类","address":"上海徐汇区五原路"},{"poiid":"B2094757D169A7FB429A","title":"marienbad cafe&amp;bar","lon":"121.440523586","lat":"31.2133221003","category":"500","category_name":"未知分类","address":"上海安抚路"},{"poiid":"B2094654D564A5F5459B","title":"东欣酒家","lon":"121.43975343627","lat":"31.213051023247","category":"76","category_name":"上海菜","address":"徐汇区武康路98号(近安福路)"},{"poiid":"B2094757D06BA4FE479C","title":"安福会","lon":"121.44166458","lat":"31.213478103","category":"94","category_name":"西餐厅","address":"徐汇区安福路284号(近上海市话剧艺术中心)"},{"poiid":"B2094757D068A0F54092","title":"The Food Central","lon":"121.43989158","lat":"31.214789129","category":"500","category_name":"未知分类","address":"上海市安福路322号"},{"poiid":"B2094757D065A2F8459A","title":"大家旺 武康路店","lon":"121.439341054","lat":"31.213180793","category":"68","category_name":"快餐厅","address":"徐汇区武康路55号(近安福路)"},{"poiid":"B2094757D56CA2FF419B","title":"Misael酒吧","lon":"121.440953","lat":"31.210136","category":"260","category_name":"其他","address":"徐汇区武康路103号(近复兴西路)"},{"poiid":"B2094654DB65A1FF429A","title":"上海市徐汇区爱菊小学(安福路)","lon":"121.44236","lat":"31.21359","category":"56","category_name":"小学","address":"徐汇区安福路247号(近武康路)"},{"poiid":"B2094757D165A7FD4292","title":"永福路","lon":"121.440921586","lat":"31.2121080766","category":"500","category_name":"未知分类","address":"上海"},{"poiid":"B2094654DB65A6F84998","title":"猫雨酒吧","lon":"121.4408","lat":"31.21221","category":"111","category_name":"休闲餐饮场所","address":"徐汇区武康路73弄1号101室"},{"poiid":"B2094757DA6EA7F94698","title":"The Food Central","lon":"121.440493299999","lat":"31.2134479","category":"247","category_name":"餐饮美食","address":"徐汇区安福路308号(近武康路)"},{"poiid":"B2094655D264A7FF459A","title":"颜福庆旧居","lon":"121.44032","lat":"31.21234","category":"250","category_name":"公园户外","address":"武康路40弄1-5号"},{"poiid":"B2094654DB65ABF84293","title":"武康路67号住宅(武康路)","lon":"121.44066","lat":"31.21241","category":"47","category_name":"住宅区","address":"武康路67号"},{"poiid":"B2094757D568ABFA419F","title":"淀山湖一号","lon":"121.440132920003","lat":"31.2122490799999","category":"47","category_name":"住宅区","address":"徐汇区武康路40弄4号"},{"poiid":"B2094654DB64AAF44399","title":"上海电影评论学会文艺片俱乐部","lon":"121.44047","lat":"31.2133","category":"178","category_name":"电影院","address":"安福路308号"},{"poiid":"B2094750D364A5FD479F","title":"上海美华妇儿服务","lon":"121.4388464368","lat":"31.214662099037","category":"162","category_name":"医院","address":"华山路800弄丁香公寓6号裙楼3楼"},{"poiid":"B2094750DB6EAAF4479A","title":"呷哺","lon":"121.440597","lat":"31.211494","category":"247","category_name":"餐饮美食","address":"长宁路巴黎春天"},{"poiid":"B2094757D069A0F84299","title":"Yu Massage","lon":"121.442263023","lat":"31.2119576271","category":"149","category_name":"洗浴推拿场所","address":"五原路370-6-2"},{"poiid":"B209475CD364AAF8459E","title":"Cozy Wine Bar & Bistro","lon":"121.44123","lat":"31.21182","category":"94","category_name":"西餐厅","address":"五原路"},{"poiid":"B2094654D564A4F94793","title":"可的(五康路)","lon":"121.44039","lat":"31.21308","category":"117","category_name":"便民商店/便利店","address":"徐汇区武康路55号(安福路武康路)"},{"poiid":"B2094757DB69ABF44398","title":"Marienbad cafe&bar","lon":"121.44051059028243","lat":"31.213306290982725","category":"500","category_name":"未知分类","address":"徐汇区安福路"},{"poiid":"B2094654DB65A1FF479C","title":"上海松坊商场","lon":"121.44025","lat":"31.21325","category":"119","category_name":"商场","address":"静安区西康路223号(近新闸路)"},{"poiid":"B2094757D169A5F44598","title":"武康路菜场","lon":"121.440154548","lat":"31.21252626","category":"500","category_name":"未知分类","address":"上海武康路五原路"},{"poiid":"B2094654DB64A4FA4298","title":"戏剧沙龙·贵宾厅","lon":"121.4411","lat":"31.21357","category":"180","category_name":"剧场","address":"安福路288号3层"},{"poiid":"B2094654DB6AA7FC489E","title":"夏朵花园","lon":"121.43787029084206","lat":"31.21163133636796","category":"47","category_name":"住宅区","address":"徐汇区复兴西路268号(近华山路)"},{"poiid":"B2094757D068AAFE489F","title":"复兴西路","lon":"121.443012","lat":"31.208405","category":"46","category_name":"楼宇","address":"上海永福路"},{"poiid":"B2094654D564A4F9499D","title":"上海话剧艺术中心","lon":"121.4417","lat":"31.21369","category":"248","category_name":"生活娱乐","address":"徐汇区安福路288号(近武康路)"},{"poiid":"B2094753D76FAAFA449C","title":"上海滩国泰旗舰店","lon":"121.466011","lat":"31.216125","category":"249","category_name":"购物服务","address":"淮海中路868号"},{"poiid":"B209475CD564A7F8439E","title":"上海滩中信泰富店","lon":"121.45602","lat":"31.22851","category":"119","category_name":"商场","address":"\"南京西路1168号中信泰富广场，店铺号221.\r\n\""},{"poiid":"B2094757D068A3F5439E","title":"Sun flour Bakery &amp;amp; Cafe 阳光粮品","lon":"121.44065558","lat":"31.213297099","category":"67","category_name":"甜品店","address":"卢湾区南昌路109号(近瑞金二路)"},{"poiid":"B2094757D06FA7FC459F","title":"丁香花园","lon":"121.43927877","lat":"31.211933653","category":"47","category_name":"住宅区","address":"徐汇区华山路849号(近武康路)"},{"poiid":"B2094654DB65A1FF489E","title":"丁香夏朵花园","lon":"121.43792","lat":"31.21134","category":"94","category_name":"西餐厅","address":"徐汇区华山路855号近复兴西路近丁香花园"},{"poiid":"B2094757D06FA7F9459E","title":"申粤轩","lon":"121.43964","lat":"31.21242","category":"72","category_name":"广东菜","address":"徐汇区华山路849号丁香花园内(近武康路)"},{"poiid":"B2094757D06FA0F5489B","title":"上海话剧艺术中心-D6空间(Shanghai Dramatic Arts Center - Studio D6)","lon":"121.44098064","lat":"31.213716677","category":"260","category_name":"其他","address":"徐汇区安福路288号上海话剧艺术中心六楼"},{"poiid":"B2094757D06FA2F44198","title":"Tima Harbour(镇宁店)","lon":"121.43944","lat":"31.21423","category":"98","category_name":"意式菜品餐厅","address":"上海静安区镇宁路11号(近昭化东路)"},{"poiid":"B2094757D168ABF54299","title":"乐笙 Le Sheng","lon":"121.440405586","lat":"31.2131990979","category":"500","category_name":"未知分类","address":"上海安福路322号102室(近武康路)"},{"poiid":"B2094757D06FA3FA489D","title":"马里昂巴咖啡馆","lon":"121.439884136","lat":"31.2126682258","category":"260","category_name":"其他","address":"徐汇区武康路55号(近安福路)"},{"poiid":"B2094757D068A5FC469F","title":"Y 瑜伽生活馆(安福店)","lon":"121.44017481","lat":"31.2131334512","category":"148","category_name":"美容美发店","address":"徐汇区安福路308号3楼(近武康路)"},{"poiid":"B2094757D06BA2FC439E","title":"安福路","lon":"121.44029658","lat":"31.213472103","category":"500","category_name":"未知分类","address":"上海市安福路229弄"},{"poiid":"B2094757D16CA0F94492","title":"巴金故居","lon":"121.440725466","lat":"31.209418044","category":"607","category_name":"一般景点","address":"徐汇区武康路113号"},{"poiid":"B2094654D564A5F5469E","title":"上海美华妇科门诊部","lon":"121.43883","lat":"31.21443","category":"162","category_name":"医院","address":"华山路800弄6号丁香公寓裙楼3层"},{"poiid":"B209475CD36DA4F5489F","title":"SunFlour 安福路店 Sun Flour","lon":"121.44036","lat":"31.21302","category":"97","category_name":"法式菜品餐厅","address":"安福路308号104室(近武康路)"},{"poiid":"B2094654D564A4F9489E","title":"话剧大厦","lon":"121.44106","lat":"31.21363","category":"46","category_name":"楼宇","address":"安福路288号"},{"poiid":"B2094751D56CA1FE459C","title":"夏朵西餐厅(丁香店)","lon":"121.43855","lat":"31.21245","category":"94","category_name":"西餐厅","address":"徐汇区华山路855号(近复兴西路)"},{"poiid":"B2094757D068A7FD4798","title":"夏味馆(镇宁路店)","lon":"121.4395","lat":"31.21411","category":"76","category_name":"上海菜","address":"静安区镇宁路9号九尊大厦(近华山路)"},{"poiid":"B2094757D06FA2F4419A","title":"Y 瑜伽生活馆(复兴店)","lon":"121.43848","lat":"31.2107","category":"148","category_name":"美容美发店","address":"徐汇区复兴西路299号(近华山路)"},{"poiid":"B2094655D264A4FC4598","title":"COSTA(九尊店)","lon":"121.43842","lat":"31.21434","category":"65","category_name":"咖啡厅","address":"长宁区镇宁路9号(近华山路)"},{"poiid":"B2094757D664A2F84399","title":"Food Central","lon":"121.440535","lat":"31.213275","category":"94","category_name":"西餐厅","address":"徐汇区安福路322号(近武康路)"},{"poiid":"B2094757D465A1FE479A","title":"松坊餐厅 安福路店 Brown cafe","lon":"121.44035","lat":"31.2132","category":"94","category_name":"西餐厅","address":"徐汇区安福路318号2楼(近武康路)"},{"poiid":"B2094654D564A5F5419F","title":"夏朵小铺","lon":"121.43821","lat":"31.21105","category":"131","category_name":"珠宝首饰工艺品","address":"华山路855号"},{"poiid":"B2094757D06AA5FA489A","title":"五原路","lon":"121.44202758","lat":"31.211923073","category":"500","category_name":"未知分类","address":"上海徐汇区五原路"},{"poiid":"B2094757D169A7FB429A","title":"marienbad cafe&amp;bar","lon":"121.440523586","lat":"31.2133221003","category":"500","category_name":"未知分类","address":"上海安抚路"},{"poiid":"B2094654D564A5F5459B","title":"东欣酒家","lon":"121.43975343627","lat":"31.213051023247","category":"76","category_name":"上海菜","address":"徐汇区武康路98号(近安福路)"},{"poiid":"B2094757D06BA4FE479C","title":"安福会","lon":"121.44166458","lat":"31.213478103","category":"94","category_name":"西餐厅","address":"徐汇区安福路284号(近上海市话剧艺术中心)"},{"poiid":"B2094757D068A0F54092","title":"The Food Central","lon":"121.43989158","lat":"31.214789129","category":"500","category_name":"未知分类","address":"上海市安福路322号"},{"poiid":"B2094757D065A2F8459A","title":"大家旺 武康路店","lon":"121.439341054","lat":"31.213180793","category":"68","category_name":"快餐厅","address":"徐汇区武康路55号(近安福路)"},{"poiid":"B2094757D56CA2FF419B","title":"Misael酒吧","lon":"121.440953","lat":"31.210136","category":"260","category_name":"其他","address":"徐汇区武康路103号(近复兴西路)"},{"poiid":"B2094654DB65A1FF429A","title":"上海市徐汇区爱菊小学(安福路)","lon":"121.44236","lat":"31.21359","category":"56","category_name":"小学","address":"徐汇区安福路247号(近武康路)"},{"poiid":"B2094757D165A7FD4292","title":"永福路","lon":"121.440921586","lat":"31.2121080766","category":"500","category_name":"未知分类","address":"上海"},{"poiid":"B2094654DB65A6F84998","title":"猫雨酒吧","lon":"121.4408","lat":"31.21221","category":"111","category_name":"休闲餐饮场所","address":"徐汇区武康路73弄1号101室"},{"poiid":"B2094757DA6EA7F94698","title":"The Food Central","lon":"121.440493299999","lat":"31.2134479","category":"247","category_name":"餐饮美食","address":"徐汇区安福路308号(近武康路)"},{"poiid":"B2094655D264A7FF459A","title":"颜福庆旧居","lon":"121.44032","lat":"31.21234","category":"250","category_name":"公园户外","address":"武康路40弄1-5号"},{"poiid":"B2094654DB65ABF84293","title":"武康路67号住宅(武康路)","lon":"121.44066","lat":"31.21241","category":"47","category_name":"住宅区","address":"武康路67号"},{"poiid":"B2094757D568ABFA419F","title":"淀山湖一号","lon":"121.440132920003","lat":"31.2122490799999","category":"47","category_name":"住宅区","address":"徐汇区武康路40弄4号"},{"poiid":"B2094654DB64AAF44399","title":"上海电影评论学会文艺片俱乐部","lon":"121.44047","lat":"31.2133","category":"178","category_name":"电影院","address":"安福路308号"},{"poiid":"B2094750D364A5FD479F","title":"上海美华妇儿服务","lon":"121.4388464368","lat":"31.214662099037","category":"162","category_name":"医院","address":"华山路800弄丁香公寓6号裙楼3楼"},{"poiid":"B2094750DB6EAAF4479A","title":"呷哺","lon":"121.440597","lat":"31.211494","category":"247","category_name":"餐饮美食","address":"长宁路巴黎春天"},{"poiid":"B2094757D069A0F84299","title":"Yu Massage","lon":"121.442263023","lat":"31.2119576271","category":"149","category_name":"洗浴推拿场所","address":"五原路370-6-2"},{"poiid":"B209475CD364AAF8459E","title":"Cozy Wine Bar & Bistro","lon":"121.44123","lat":"31.21182","category":"94","category_name":"西餐厅","address":"五原路"},{"poiid":"B2094654D564A4F94793","title":"可的(五康路)","lon":"121.44039","lat":"31.21308","category":"117","category_name":"便民商店/便利店","address":"徐汇区武康路55号(安福路武康路)"},{"poiid":"B2094757DB69ABF44398","title":"Marienbad cafe&bar","lon":"121.44051059028243","lat":"31.213306290982725","category":"500","category_name":"未知分类","address":"徐汇区安福路"},{"poiid":"B2094654DB65A1FF479C","title":"上海松坊商场","lon":"121.44025","lat":"31.21325","category":"119","category_name":"商场","address":"静安区西康路223号(近新闸路)"},{"poiid":"B2094757D169A5F44598","title":"武康路菜场","lon":"121.440154548","lat":"31.21252626","category":"500","category_name":"未知分类","address":"上海武康路五原路"},{"poiid":"B2094654DB64A4FA4298","title":"戏剧沙龙·贵宾厅","lon":"121.4411","lat":"31.21357","category":"180","category_name":"剧场","address":"安福路288号3层"}]