[{"poiid":"B2094654DB69A2F5439A","title":"海鸥大厦","lon":"121.35182","lat":"30.72937","category":"268","category_name":"自助","address":"近郊金山区龙胜路58号(近战斗港路)"},{"poiid":"B2094655D268A6FA459A","title":"金山城市沙滩(北一门)","lon":"121.3511","lat":"30.71108","category":"680","category_name":"楼宇机构","address":""},{"poiid":"B2094655D265ABF84893","title":"华府海景","lon":"121.358607","lat":"30.719758","category":"47","category_name":"住宅区","address":"金山区杭州湾大道118弄"},{"poiid":"B2094757D06AA2F8409D","title":"石化海棠新村","lon":"121.34726333","lat":"30.718804363","category":"500","category_name":"未知分类","address":"上海市金山区石化隆安路"},{"poiid":"B2094655D36CA7FA4892","title":"海浒新村","lon":"121.3542","lat":"30.720472","category":"38","category_name":"公交车站","address":"海浒新村"},{"poiid":"B2094757D16CA5F5499C","title":"上海师范大学第二附属中学","lon":"121.351709","lat":"30.719266","category":"55","category_name":"中学","address":"近郊金山卫城区隆安路48号(近临潮街)"},{"poiid":"B2094757D065A4F4429C","title":"鹤亭つるていTSURUTEL","lon":"121.35239337","lat":"30.720572026","category":"500","category_name":"未知分类","address":"上海金山百联3楼"},{"poiid":"B2094655D26BA2F44299","title":"戚家墩","lon":"121.35207","lat":"30.71911","category":"38","category_name":"公交车站","address":""},{"poiid":"B2094752D365A3F54099","title":"元悦精菜馆","lon":"121.355991","lat":"30.720482","category":"247","category_name":"餐饮美食","address":null},{"poiid":"B2094654DB69A1F44893","title":"广霖大楼","lon":"121.353","lat":"30.7187","category":"46","category_name":"楼宇","address":"广霖大楼"},{"poiid":"B2094654DB69A1F84898","title":"海浒新村2号门","lon":"121.35415","lat":"30.71967","category":"47","category_name":"住宅区","address":""},{"poiid":"B2094757D16CA5FB4292","title":"金海岸花园","lon":"121.3567","lat":"30.72822","category":"47","category_name":"住宅区","address":"上海市金山区龙胜东路789弄"},{"poiid":"B2094757D065AAFD4793","title":"世安海昇大酒店","lon":"121.357524","lat":"30.721257","category":"217","category_name":"旅馆招待所","address":"近郊金山区杭州湾大道128号"},{"poiid":"B2094757D069A0FD489C","title":"塞纳河畔(金山店)","lon":"121.3443","lat":"30.71614","category":"75","category_name":"浙江菜","address":"近郊石化蒙山路333号(沪杭公路金一东路)"},{"poiid":"B2094655D268A0F4489A","title":"海浒新村南区","lon":"121.35591","lat":"30.71838","category":"47","category_name":"住宅区","address":""},{"poiid":"B2094655D268A0F44699","title":"海浒新村南区(北门)","lon":"121.3558","lat":"30.71955","category":"47","category_name":"住宅区","address":""},{"poiid":"B2094655D268A0F44792","title":"海浒新村(一号门)","lon":"121.35552","lat":"30.71984","category":"47","category_name":"住宅区","address":""},{"poiid":"B2094654DB69A1F94292","title":"石化街道临潮三村","lon":"121.35216","lat":"30.71808","category":"47","category_name":"住宅区","address":""},{"poiid":"B2094654DB69A1F8459D","title":"临潮二村","lon":"121.35009","lat":"30.717976","category":"47","category_name":"住宅区","address":"临潮二村"},{"poiid":"B2094655D36CA6FF419B","title":"富川大楼","lon":"121.355","lat":"30.7213","category":"38","category_name":"公交车站","address":"金山区石化沪杭公路7855号"},{"poiid":"B2094654DB64A7F8439A","title":"露美美发厅","lon":"121.35651","lat":"30.71997","category":"148","category_name":"美容美发店","address":"隆安东路302识别"},{"poiid":"B2094654DB69A1FA409C","title":"鸿海大楼","lon":"121.357","lat":"30.717","category":"46","category_name":"楼宇","address":"鸿海大楼"},{"poiid":"B2094757D064A4F84999","title":"上海石化临潮三村","lon":"121.351809154","lat":"30.7175149448","category":"500","category_name":"未知分类","address":"上海市金山区石化临潮三村"},{"poiid":"B2094654DB69A1F84992","title":"戚家墩商场","lon":"121.35269","lat":"30.72117","category":"119","category_name":"商场","address":""},{"poiid":"B2094654DB69A1F8469B","title":"良友金伴NO.463","lon":"121.35138","lat":"30.71882","category":"117","category_name":"便民商店/便利店","address":"隆安路55"},{"poiid":"B2094757D164A3F5439E","title":"吉宝家","lon":"121.355198671","lat":"30.7205840653","category":"500","category_name":"未知分类","address":null},{"poiid":"B2094654DB68AAF44598","title":"金山卫车客渡码头","lon":"121.35812","lat":"30.71783","category":"34","category_name":"港口码头","address":""},{"poiid":"B209475CD36BA4FB419D","title":"元悦精菜馆","lon":"121.35779","lat":"30.72082","category":"75","category_name":"浙江菜","address":"金山区杭州湾大道108号(近华府海景广场)"},{"poiid":"B2094654DB69A1F54293","title":"金粮经济小区","lon":"121.353","lat":"30.7164","category":"47","category_name":"住宅区","address":"象州路103号"},{"poiid":"B2094654DB69A1F94192","title":"石化临潮三村2号门","lon":"121.35152","lat":"30.71796","category":"47","category_name":"住宅区","address":""},{"poiid":"B2094757D16CA1FB479A","title":"绍兴饭店(金山店)","lon":"121.35744717","lat":"30.720920072","category":"247","category_name":"餐饮美食","address":"漕泾镇杭州湾大道128号世安海昇酒店2-3楼近沪杭公路"},{"poiid":"B2094753D569ABFC4492","title":"元悦精菜馆","lon":"121.358741","lat":"30.72002","category":"247","category_name":"餐饮美食","address":"上海市 杭州湾大道108号"},{"poiid":"B2094757D464A0FA419A","title":"海上皇宫","lon":"121.349207054","lat":"30.718874793","category":"76","category_name":"上海菜","address":"近郊金山蒙山路1001号"},{"poiid":"B2094655D26BA7FA4592","title":"新远山别墅","lon":"121.3531","lat":"30.71534","category":"47","category_name":"住宅区","address":"近郊金山石化沪杭公路7765号(戚家墩路海边路口)"},{"poiid":"B2094655D36CA2F5439B","title":"上师大二附中","lon":"121.3491","lat":"30.71867","category":"38","category_name":"公交车站","address":""},{"poiid":"B2094752D169A0FD409D","title":"复旦大学附属金山医院","lon":"121.353104","lat":"30.715958","category":"162","category_name":"医院","address":null},{"poiid":"B2094655D26FAAFC469C","title":"临潮二村(南门)","lon":"121.35054","lat":"30.71673","category":"47","category_name":"住宅区","address":""},{"poiid":"B2094655D268A0F44692","title":"临潮二村(四号门)","lon":"121.34999","lat":"30.71858","category":"47","category_name":"住宅区","address":""},{"poiid":"B2094655D26FAAFD4699","title":"石化街道临潮三村小区(一号门)","lon":"121.35067","lat":"30.71594","category":"47","category_name":"住宅区","address":""},{"poiid":"B2094757D665A4FA4293","title":"克莉丝汀 龙胜店","lon":"121.348441054","lat":"30.718756793","category":"67","category_name":"甜品店","address":"近郊金山区龙胜路155号(近隆安路)"},{"poiid":"B2094654DB69A1FC449B","title":"爱丁堡大酒店","lon":"121.34866","lat":"30.72608","category":"250","category_name":"公园户外","address":"上海市石化龙胜路127-129号(近蒙山路)"},{"poiid":"B209475CD26BA4FA469C","title":"城市沙滩","lon":"121.358734","lat":"30.720972","category":"500","category_name":"未知分类","address":"上海市 金山"},{"poiid":"B2094654DB69A1F9429D","title":"临潮一村3号门","lon":"121.34957","lat":"30.71654","category":"47","category_name":"住宅区","address":""},{"poiid":"B2094654DB69A2F54298","title":"上海金山联合环境工程公司","lon":"121.35249","lat":"30.7217","category":"263","category_name":"公司","address":""},{"poiid":"B2094654DB69A1F94892","title":"十村小区","lon":"121.35184","lat":"30.713615","category":"47","category_name":"住宅区","address":"象州路11弄"},{"poiid":"B2094654DB69A1F94399","title":"良友金伴NO.459","lon":"121.3504","lat":"30.71538","category":"117","category_name":"便民商店/便利店","address":"富川路166"},{"poiid":"B2094750DA6AABF94999","title":"金山卫火车站","lon":"121.363502","lat":"30.723863","category":"500","category_name":"未知分类","address":"近郊金山沪杭公路"},{"poiid":"B2094655D26FAAFD479E","title":"金山区石化街道海棠一村(北门)","lon":"121.35029","lat":"30.72177","category":"47","category_name":"住宅区","address":""},{"poiid":"B2094655D268A6FA459E","title":"都市家园","lon":"121.353201054","lat":"30.715564793","category":"76","category_name":"上海菜","address":"石化沪杭公路7855号近富川路"},{"poiid":"B2094752D46AA2F84799","title":"中国农业银行象州路支行","lon":"121.35061","lat":"30.716227","category":"150","category_name":"银行","address":"上海市金山区石化象州路228号"},{"poiid":"B2094654DB69A2F5439A","title":"海鸥大厦","lon":"121.35182","lat":"30.72937","category":"268","category_name":"自助","address":"近郊金山区龙胜路58号(近战斗港路)"},{"poiid":"B2094655D268A6FA459A","title":"金山城市沙滩(北一门)","lon":"121.3511","lat":"30.71108","category":"680","category_name":"楼宇机构","address":""},{"poiid":"B2094655D265ABF84893","title":"华府海景","lon":"121.358607","lat":"30.719758","category":"47","category_name":"住宅区","address":"金山区杭州湾大道118弄"},{"poiid":"B2094757D06AA2F8409D","title":"石化海棠新村","lon":"121.34726333","lat":"30.718804363","category":"500","category_name":"未知分类","address":"上海市金山区石化隆安路"},{"poiid":"B2094655D36CA7FA4892","title":"海浒新村","lon":"121.3542","lat":"30.720472","category":"38","category_name":"公交车站","address":"海浒新村"},{"poiid":"B2094757D16CA5F5499C","title":"上海师范大学第二附属中学","lon":"121.351709","lat":"30.719266","category":"55","category_name":"中学","address":"近郊金山卫城区隆安路48号(近临潮街)"},{"poiid":"B2094757D065A4F4429C","title":"鹤亭つるていTSURUTEL","lon":"121.35239337","lat":"30.720572026","category":"500","category_name":"未知分类","address":"上海金山百联3楼"},{"poiid":"B2094655D26BA2F44299","title":"戚家墩","lon":"121.35207","lat":"30.71911","category":"38","category_name":"公交车站","address":""},{"poiid":"B2094752D365A3F54099","title":"元悦精菜馆","lon":"121.355991","lat":"30.720482","category":"247","category_name":"餐饮美食","address":null},{"poiid":"B2094654DB69A1F44893","title":"广霖大楼","lon":"121.353","lat":"30.7187","category":"46","category_name":"楼宇","address":"广霖大楼"},{"poiid":"B2094654DB69A1F84898","title":"海浒新村2号门","lon":"121.35415","lat":"30.71967","category":"47","category_name":"住宅区","address":""},{"poiid":"B2094757D16CA5FB4292","title":"金海岸花园","lon":"121.3567","lat":"30.72822","category":"47","category_name":"住宅区","address":"上海市金山区龙胜东路789弄"},{"poiid":"B2094757D065AAFD4793","title":"世安海昇大酒店","lon":"121.357524","lat":"30.721257","category":"217","category_name":"旅馆招待所","address":"近郊金山区杭州湾大道128号"},{"poiid":"B2094757D069A0FD489C","title":"塞纳河畔(金山店)","lon":"121.3443","lat":"30.71614","category":"75","category_name":"浙江菜","address":"近郊石化蒙山路333号(沪杭公路金一东路)"},{"poiid":"B2094655D268A0F4489A","title":"海浒新村南区","lon":"121.35591","lat":"30.71838","category":"47","category_name":"住宅区","address":""},{"poiid":"B2094655D268A0F44699","title":"海浒新村南区(北门)","lon":"121.3558","lat":"30.71955","category":"47","category_name":"住宅区","address":""},{"poiid":"B2094655D268A0F44792","title":"海浒新村(一号门)","lon":"121.35552","lat":"30.71984","category":"47","category_name":"住宅区","address":""},{"poiid":"B2094654DB69A1F94292","title":"石化街道临潮三村","lon":"121.35216","lat":"30.71808","category":"47","category_name":"住宅区","address":""},{"poiid":"B2094654DB69A1F8459D","title":"临潮二村","lon":"121.35009","lat":"30.717976","category":"47","category_name":"住宅区","address":"临潮二村"},{"poiid":"B2094655D36CA6FF419B","title":"富川大楼","lon":"121.355","lat":"30.7213","category":"38","category_name":"公交车站","address":"金山区石化沪杭公路7855号"},{"poiid":"B2094654DB64A7F8439A","title":"露美美发厅","lon":"121.35651","lat":"30.71997","category":"148","category_name":"美容美发店","address":"隆安东路302识别"},{"poiid":"B2094654DB69A1FA409C","title":"鸿海大楼","lon":"121.357","lat":"30.717","category":"46","category_name":"楼宇","address":"鸿海大楼"},{"poiid":"B2094757D064A4F84999","title":"上海石化临潮三村","lon":"121.351809154","lat":"30.7175149448","category":"500","category_name":"未知分类","address":"上海市金山区石化临潮三村"},{"poiid":"B2094654DB69A1F84992","title":"戚家墩商场","lon":"121.35269","lat":"30.72117","category":"119","category_name":"商场","address":""},{"poiid":"B2094654DB69A1F8469B","title":"良友金伴NO.463","lon":"121.35138","lat":"30.71882","category":"117","category_name":"便民商店/便利店","address":"隆安路55"},{"poiid":"B2094757D164A3F5439E","title":"吉宝家","lon":"121.355198671","lat":"30.7205840653","category":"500","category_name":"未知分类","address":null},{"poiid":"B2094654DB68AAF44598","title":"金山卫车客渡码头","lon":"121.35812","lat":"30.71783","category":"34","category_name":"港口码头","address":""},{"poiid":"B209475CD36BA4FB419D","title":"元悦精菜馆","lon":"121.35779","lat":"30.72082","category":"75","category_name":"浙江菜","address":"金山区杭州湾大道108号(近华府海景广场)"},{"poiid":"B2094654DB69A1F54293","title":"金粮经济小区","lon":"121.353","lat":"30.7164","category":"47","category_name":"住宅区","address":"象州路103号"},{"poiid":"B2094654DB69A1F94192","title":"石化临潮三村2号门","lon":"121.35152","lat":"30.71796","category":"47","category_name":"住宅区","address":""},{"poiid":"B2094757D16CA1FB479A","title":"绍兴饭店(金山店)","lon":"121.35744717","lat":"30.720920072","category":"247","category_name":"餐饮美食","address":"漕泾镇杭州湾大道128号世安海昇酒店2-3楼近沪杭公路"},{"poiid":"B2094753D569ABFC4492","title":"元悦精菜馆","lon":"121.358741","lat":"30.72002","category":"247","category_name":"餐饮美食","address":"上海市 杭州湾大道108号"},{"poiid":"B2094757D464A0FA419A","title":"海上皇宫","lon":"121.349207054","lat":"30.718874793","category":"76","category_name":"上海菜","address":"近郊金山蒙山路1001号"},{"poiid":"B2094655D26BA7FA4592","title":"新远山别墅","lon":"121.3531","lat":"30.71534","category":"47","category_name":"住宅区","address":"近郊金山石化沪杭公路7765号(戚家墩路海边路口)"},{"poiid":"B2094655D36CA2F5439B","title":"上师大二附中","lon":"121.3491","lat":"30.71867","category":"38","category_name":"公交车站","address":""},{"poiid":"B2094752D169A0FD409D","title":"复旦大学附属金山医院","lon":"121.353104","lat":"30.715958","category":"162","category_name":"医院","address":null},{"poiid":"B2094655D26FAAFC469C","title":"临潮二村(南门)","lon":"121.35054","lat":"30.71673","category":"47","category_name":"住宅区","address":""},{"poiid":"B2094655D268A0F44692","title":"临潮二村(四号门)","lon":"121.34999","lat":"30.71858","category":"47","category_name":"住宅区","address":""},{"poiid":"B2094655D26FAAFD4699","title":"石化街道临潮三村小区(一号门)","lon":"121.35067","lat":"30.71594","category":"47","category_name":"住宅区","address":""},{"poiid":"B2094757D665A4FA4293","title":"克莉丝汀 龙胜店","lon":"121.348441054","lat":"30.718756793","category":"67","category_name":"甜品店","address":"近郊金山区龙胜路155号(近隆安路)"},{"poiid":"B2094654DB69A1FC449B","title":"爱丁堡大酒店","lon":"121.34866","lat":"30.72608","category":"250","category_name":"公园户外","address":"上海市石化龙胜路127-129号(近蒙山路)"},{"poiid":"B209475CD26BA4FA469C","title":"城市沙滩","lon":"121.358734","lat":"30.720972","category":"500","category_name":"未知分类","address":"上海市 金山"},{"poiid":"B2094654DB69A1F9429D","title":"临潮一村3号门","lon":"121.34957","lat":"30.71654","category":"47","category_name":"住宅区","address":""},{"poiid":"B2094654DB69A2F54298","title":"上海金山联合环境工程公司","lon":"121.35249","lat":"30.7217","category":"263","category_name":"公司","address":""},{"poiid":"B2094654DB69A1F94892","title":"十村小区","lon":"121.35184","lat":"30.713615","category":"47","category_name":"住宅区","address":"象州路11弄"},{"poiid":"B2094654DB69A1F94399","title":"良友金伴NO.459","lon":"121.3504","lat":"30.71538","category":"117","category_name":"便民商店/便利店","address":"富川路166"},{"poiid":"B2094750DA6AABF94999","title":"金山卫火车站","lon":"121.363502","lat":"30.723863","category":"500","category_name":"未知分类","address":"近郊金山沪杭公路"},{"poiid":"B2094655D26FAAFD479E","title":"金山区石化街道海棠一村(北门)","lon":"121.35029","lat":"30.72177","category":"47","category_name":"住宅区","address":""},{"poiid":"B2094655D268A6FA459E","title":"都市家园","lon":"121.353201054","lat":"30.715564793","category":"76","category_name":"上海菜","address":"石化沪杭公路7855号近富川路"},{"poiid":"B2094752D46AA2F84799","title":"中国农业银行象州路支行","lon":"121.35061","lat":"30.716227","category":"150","category_name":"银行","address":"上海市金山区石化象州路228号"},{"poiid":"B2094654DB69A2F5439A","title":"海鸥大厦","lon":"121.35182","lat":"30.72937","category":"268","category_name":"自助","address":"近郊金山区龙胜路58号(近战斗港路)"},{"poiid":"B2094655D268A6FA459A","title":"金山城市沙滩(北一门)","lon":"121.3511","lat":"30.71108","category":"680","category_name":"楼宇机构","address":""},{"poiid":"B2094655D265ABF84893","title":"华府海景","lon":"121.358607","lat":"30.719758","category":"47","category_name":"住宅区","address":"金山区杭州湾大道118弄"},{"poiid":"B2094757D06AA2F8409D","title":"石化海棠新村","lon":"121.34726333","lat":"30.718804363","category":"500","category_name":"未知分类","address":"上海市金山区石化隆安路"},{"poiid":"B2094655D36CA7FA4892","title":"海浒新村","lon":"121.3542","lat":"30.720472","category":"38","category_name":"公交车站","address":"海浒新村"},{"poiid":"B2094757D16CA5F5499C","title":"上海师范大学第二附属中学","lon":"121.351709","lat":"30.719266","category":"55","category_name":"中学","address":"近郊金山卫城区隆安路48号(近临潮街)"},{"poiid":"B2094757D065A4F4429C","title":"鹤亭つるていTSURUTEL","lon":"121.35239337","lat":"30.720572026","category":"500","category_name":"未知分类","address":"上海金山百联3楼"},{"poiid":"B2094655D26BA2F44299","title":"戚家墩","lon":"121.35207","lat":"30.71911","category":"38","category_name":"公交车站","address":""},{"poiid":"B2094752D365A3F54099","title":"元悦精菜馆","lon":"121.355991","lat":"30.720482","category":"247","category_name":"餐饮美食","address":null},{"poiid":"B2094654DB69A1F44893","title":"广霖大楼","lon":"121.353","lat":"30.7187","category":"46","category_name":"楼宇","address":"广霖大楼"},{"poiid":"B2094654DB69A1F84898","title":"海浒新村2号门","lon":"121.35415","lat":"30.71967","category":"47","category_name":"住宅区","address":""},{"poiid":"B2094757D16CA5FB4292","title":"金海岸花园","lon":"121.3567","lat":"30.72822","category":"47","category_name":"住宅区","address":"上海市金山区龙胜东路789弄"},{"poiid":"B2094757D065AAFD4793","title":"世安海昇大酒店","lon":"121.357524","lat":"30.721257","category":"217","category_name":"旅馆招待所","address":"近郊金山区杭州湾大道128号"},{"poiid":"B2094757D069A0FD489C","title":"塞纳河畔(金山店)","lon":"121.3443","lat":"30.71614","category":"75","category_name":"浙江菜","address":"近郊石化蒙山路333号(沪杭公路金一东路)"},{"poiid":"B2094655D268A0F4489A","title":"海浒新村南区","lon":"121.35591","lat":"30.71838","category":"47","category_name":"住宅区","address":""},{"poiid":"B2094655D268A0F44699","title":"海浒新村南区(北门)","lon":"121.3558","lat":"30.71955","category":"47","category_name":"住宅区","address":""},{"poiid":"B2094655D268A0F44792","title":"海浒新村(一号门)","lon":"121.35552","lat":"30.71984","category":"47","category_name":"住宅区","address":""},{"poiid":"B2094654DB69A1F94292","title":"石化街道临潮三村","lon":"121.35216","lat":"30.71808","category":"47","category_name":"住宅区","address":""},{"poiid":"B2094654DB69A1F8459D","title":"临潮二村","lon":"121.35009","lat":"30.717976","category":"47","category_name":"住宅区","address":"临潮二村"},{"poiid":"B2094655D36CA6FF419B","title":"富川大楼","lon":"121.355","lat":"30.7213","category":"38","category_name":"公交车站","address":"金山区石化沪杭公路7855号"},{"poiid":"B2094654DB64A7F8439A","title":"露美美发厅","lon":"121.35651","lat":"30.71997","category":"148","category_name":"美容美发店","address":"隆安东路302识别"},{"poiid":"B2094654DB69A1FA409C","title":"鸿海大楼","lon":"121.357","lat":"30.717","category":"46","category_name":"楼宇","address":"鸿海大楼"},{"poiid":"B2094757D064A4F84999","title":"上海石化临潮三村","lon":"121.351809154","lat":"30.7175149448","category":"500","category_name":"未知分类","address":"上海市金山区石化临潮三村"},{"poiid":"B2094654DB69A1F84992","title":"戚家墩商场","lon":"121.35269","lat":"30.72117","category":"119","category_name":"商场","address":""},{"poiid":"B2094654DB69A1F8469B","title":"良友金伴NO.463","lon":"121.35138","lat":"30.71882","category":"117","category_name":"便民商店/便利店","address":"隆安路55"},{"poiid":"B2094757D164A3F5439E","title":"吉宝家","lon":"121.355198671","lat":"30.7205840653","category":"500","category_name":"未知分类","address":null},{"poiid":"B2094654DB68AAF44598","title":"金山卫车客渡码头","lon":"121.35812","lat":"30.71783","category":"34","category_name":"港口码头","address":""},{"poiid":"B209475CD36BA4FB419D","title":"元悦精菜馆","lon":"121.35779","lat":"30.72082","category":"75","category_name":"浙江菜","address":"金山区杭州湾大道108号(近华府海景广场)"},{"poiid":"B2094654DB69A1F54293","title":"金粮经济小区","lon":"121.353","lat":"30.7164","category":"47","category_name":"住宅区","address":"象州路103号"},{"poiid":"B2094654DB69A1F94192","title":"石化临潮三村2号门","lon":"121.35152","lat":"30.71796","category":"47","category_name":"住宅区","address":""},{"poiid":"B2094757D16CA1FB479A","title":"绍兴饭店(金山店)","lon":"121.35744717","lat":"30.720920072","category":"247","category_name":"餐饮美食","address":"漕泾镇杭州湾大道128号世安海昇酒店2-3楼近沪杭公路"},{"poiid":"B2094753D569ABFC4492","title":"元悦精菜馆","lon":"121.358741","lat":"30.72002","category":"247","category_name":"餐饮美食","address":"上海市 杭州湾大道108号"},{"poiid":"B2094757D464A0FA419A","title":"海上皇宫","lon":"121.349207054","lat":"30.718874793","category":"76","category_name":"上海菜","address":"近郊金山蒙山路1001号"},{"poiid":"B2094655D26BA7FA4592","title":"新远山别墅","lon":"121.3531","lat":"30.71534","category":"47","category_name":"住宅区","address":"近郊金山石化沪杭公路7765号(戚家墩路海边路口)"},{"poiid":"B2094655D36CA2F5439B","title":"上师大二附中","lon":"121.3491","lat":"30.71867","category":"38","category_name":"公交车站","address":""},{"poiid":"B2094752D169A0FD409D","title":"复旦大学附属金山医院","lon":"121.353104","lat":"30.715958","category":"162","category_name":"医院","address":null},{"poiid":"B2094655D26FAAFC469C","title":"临潮二村(南门)","lon":"121.35054","lat":"30.71673","category":"47","category_name":"住宅区","address":""},{"poiid":"B2094655D268A0F44692","title":"临潮二村(四号门)","lon":"121.34999","lat":"30.71858","category":"47","category_name":"住宅区","address":""},{"poiid":"B2094655D26FAAFD4699","title":"石化街道临潮三村小区(一号门)","lon":"121.35067","lat":"30.71594","category":"47","category_name":"住宅区","address":""},{"poiid":"B2094757D665A4FA4293","title":"克莉丝汀 龙胜店","lon":"121.348441054","lat":"30.718756793","category":"67","category_name":"甜品店","address":"近郊金山区龙胜路155号(近隆安路)"},{"poiid":"B2094654DB69A1FC449B","title":"爱丁堡大酒店","lon":"121.34866","lat":"30.72608","category":"250","category_name":"公园户外","address":"上海市石化龙胜路127-129号(近蒙山路)"},{"poiid":"B209475CD26BA4FA469C","title":"城市沙滩","lon":"121.358734","lat":"30.720972","category":"500","category_name":"未知分类","address":"上海市 金山"},{"poiid":"B2094654DB69A1F9429D","title":"临潮一村3号门","lon":"121.34957","lat":"30.71654","category":"47","category_name":"住宅区","address":""},{"poiid":"B2094654DB69A2F54298","title":"上海金山联合环境工程公司","lon":"121.35249","lat":"30.7217","category":"263","category_name":"公司","address":""},{"poiid":"B2094654DB69A1F94892","title":"十村小区","lon":"121.35184","lat":"30.713615","category":"47","category_name":"住宅区","address":"象州路11弄"},{"poiid":"B2094654DB69A1F94399","title":"良友金伴NO.459","lon":"121.3504","lat":"30.71538","category":"117","category_name":"便民商店/便利店","address":"富川路166"},{"poiid":"B2094750DA6AABF94999","title":"金山卫火车站","lon":"121.363502","lat":"30.723863","category":"500","category_name":"未知分类","address":"近郊金山沪杭公路"},{"poiid":"B2094655D26FAAFD479E","title":"金山区石化街道海棠一村(北门)","lon":"121.35029","lat":"30.72177","category":"47","category_name":"住宅区","address":""},{"poiid":"B2094655D268A6FA459E","title":"都市家园","lon":"121.353201054","lat":"30.715564793","category":"76","category_name":"上海菜","address":"石化沪杭公路7855号近富川路"},{"poiid":"B2094752D46AA2F84799","title":"中国农业银行象州路支行","lon":"121.35061","lat":"30.716227","category":"150","category_name":"银行","address":"上海市金山区石化象州路228号"},{"poiid":"B2094654DB69A2F5439A","title":"海鸥大厦","lon":"121.35182","lat":"30.72937","category":"268","category_name":"自助","address":"近郊金山区龙胜路58号(近战斗港路)"},{"poiid":"B2094655D268A6FA459A","title":"金山城市沙滩(北一门)","lon":"121.3511","lat":"30.71108","category":"680","category_name":"楼宇机构","address":""},{"poiid":"B2094655D265ABF84893","title":"华府海景","lon":"121.358607","lat":"30.719758","category":"47","category_name":"住宅区","address":"金山区杭州湾大道118弄"},{"poiid":"B2094757D06AA2F8409D","title":"石化海棠新村","lon":"121.34726333","lat":"30.718804363","category":"500","category_name":"未知分类","address":"上海市金山区石化隆安路"},{"poiid":"B2094655D36CA7FA4892","title":"海浒新村","lon":"121.3542","lat":"30.720472","category":"38","category_name":"公交车站","address":"海浒新村"},{"poiid":"B2094757D16CA5F5499C","title":"上海师范大学第二附属中学","lon":"121.351709","lat":"30.719266","category":"55","category_name":"中学","address":"近郊金山卫城区隆安路48号(近临潮街)"},{"poiid":"B2094757D065A4F4429C","title":"鹤亭つるていTSURUTEL","lon":"121.35239337","lat":"30.720572026","category":"500","category_name":"未知分类","address":"上海金山百联3楼"},{"poiid":"B2094655D26BA2F44299","title":"戚家墩","lon":"121.35207","lat":"30.71911","category":"38","category_name":"公交车站","address":""},{"poiid":"B2094752D365A3F54099","title":"元悦精菜馆","lon":"121.355991","lat":"30.720482","category":"247","category_name":"餐饮美食","address":null},{"poiid":"B2094654DB69A1F44893","title":"广霖大楼","lon":"121.353","lat":"30.7187","category":"46","category_name":"楼宇","address":"广霖大楼"},{"poiid":"B2094654DB69A1F84898","title":"海浒新村2号门","lon":"121.35415","lat":"30.71967","category":"47","category_name":"住宅区","address":""},{"poiid":"B2094757D16CA5FB4292","title":"金海岸花园","lon":"121.3567","lat":"30.72822","category":"47","category_name":"住宅区","address":"上海市金山区龙胜东路789弄"},{"poiid":"B2094757D065AAFD4793","title":"世安海昇大酒店","lon":"121.357524","lat":"30.721257","category":"217","category_name":"旅馆招待所","address":"近郊金山区杭州湾大道128号"},{"poiid":"B2094757D069A0FD489C","title":"塞纳河畔(金山店)","lon":"121.3443","lat":"30.71614","category":"75","category_name":"浙江菜","address":"近郊石化蒙山路333号(沪杭公路金一东路)"},{"poiid":"B2094655D268A0F4489A","title":"海浒新村南区","lon":"121.35591","lat":"30.71838","category":"47","category_name":"住宅区","address":""},{"poiid":"B2094655D268A0F44699","title":"海浒新村南区(北门)","lon":"121.3558","lat":"30.71955","category":"47","category_name":"住宅区","address":""},{"poiid":"B2094655D268A0F44792","title":"海浒新村(一号门)","lon":"121.35552","lat":"30.71984","category":"47","category_name":"住宅区","address":""},{"poiid":"B2094654DB69A1F94292","title":"石化街道临潮三村","lon":"121.35216","lat":"30.71808","category":"47","category_name":"住宅区","address":""},{"poiid":"B2094654DB69A1F8459D","title":"临潮二村","lon":"121.35009","lat":"30.717976","category":"47","category_name":"住宅区","address":"临潮二村"},{"poiid":"B2094655D36CA6FF419B","title":"富川大楼","lon":"121.355","lat":"30.7213","category":"38","category_name":"公交车站","address":"金山区石化沪杭公路7855号"},{"poiid":"B2094654DB64A7F8439A","title":"露美美发厅","lon":"121.35651","lat":"30.71997","category":"148","category_name":"美容美发店","address":"隆安东路302识别"},{"poiid":"B2094654DB69A1FA409C","title":"鸿海大楼","lon":"121.357","lat":"30.717","category":"46","category_name":"楼宇","address":"鸿海大楼"},{"poiid":"B2094757D064A4F84999","title":"上海石化临潮三村","lon":"121.351809154","lat":"30.7175149448","category":"500","category_name":"未知分类","address":"上海市金山区石化临潮三村"},{"poiid":"B2094654DB69A1F84992","title":"戚家墩商场","lon":"121.35269","lat":"30.72117","category":"119","category_name":"商场","address":""},{"poiid":"B2094654DB69A1F8469B","title":"良友金伴NO.463","lon":"121.35138","lat":"30.71882","category":"117","category_name":"便民商店/便利店","address":"隆安路55"},{"poiid":"B2094757D164A3F5439E","title":"吉宝家","lon":"121.355198671","lat":"30.7205840653","category":"500","category_name":"未知分类","address":null},{"poiid":"B2094654DB68AAF44598","title":"金山卫车客渡码头","lon":"121.35812","lat":"30.71783","category":"34","category_name":"港口码头","address":""},{"poiid":"B209475CD36BA4FB419D","title":"元悦精菜馆","lon":"121.35779","lat":"30.72082","category":"75","category_name":"浙江菜","address":"金山区杭州湾大道108号(近华府海景广场)"},{"poiid":"B2094654DB69A1F54293","title":"金粮经济小区","lon":"121.353","lat":"30.7164","category":"47","category_name":"住宅区","address":"象州路103号"},{"poiid":"B2094654DB69A1F94192","title":"石化临潮三村2号门","lon":"121.35152","lat":"30.71796","category":"47","category_name":"住宅区","address":""},{"poiid":"B2094757D16CA1FB479A","title":"绍兴饭店(金山店)","lon":"121.35744717","lat":"30.720920072","category":"247","category_name":"餐饮美食","address":"漕泾镇杭州湾大道128号世安海昇酒店2-3楼近沪杭公路"},{"poiid":"B2094753D569ABFC4492","title":"元悦精菜馆","lon":"121.358741","lat":"30.72002","category":"247","category_name":"餐饮美食","address":"上海市 杭州湾大道108号"},{"poiid":"B2094757D464A0FA419A","title":"海上皇宫","lon":"121.349207054","lat":"30.718874793","category":"76","category_name":"上海菜","address":"近郊金山蒙山路1001号"},{"poiid":"B2094655D26BA7FA4592","title":"新远山别墅","lon":"121.3531","lat":"30.71534","category":"47","category_name":"住宅区","address":"近郊金山石化沪杭公路7765号(戚家墩路海边路口)"},{"poiid":"B2094655D36CA2F5439B","title":"上师大二附中","lon":"121.3491","lat":"30.71867","category":"38","category_name":"公交车站","address":""},{"poiid":"B2094752D169A0FD409D","title":"复旦大学附属金山医院","lon":"121.353104","lat":"30.715958","category":"162","category_name":"医院","address":null},{"poiid":"B2094655D26FAAFC469C","title":"临潮二村(南门)","lon":"121.35054","lat":"30.71673","category":"47","category_name":"住宅区","address":""},{"poiid":"B2094655D268A0F44692","title":"临潮二村(四号门)","lon":"121.34999","lat":"30.71858","category":"47","category_name":"住宅区","address":""},{"poiid":"B2094655D26FAAFD4699","title":"石化街道临潮三村小区(一号门)","lon":"121.35067","lat":"30.71594","category":"47","category_name":"住宅区","address":""},{"poiid":"B2094757D665A4FA4293","title":"克莉丝汀 龙胜店","lon":"121.348441054","lat":"30.718756793","category":"67","category_name":"甜品店","address":"近郊金山区龙胜路155号(近隆安路)"},{"poiid":"B2094654DB69A1FC449B","title":"爱丁堡大酒店","lon":"121.34866","lat":"30.72608","category":"250","category_name":"公园户外","address":"上海市石化龙胜路127-129号(近蒙山路)"},{"poiid":"B209475CD26BA4FA469C","title":"城市沙滩","lon":"121.358734","lat":"30.720972","category":"500","category_name":"未知分类","address":"上海市 金山"},{"poiid":"B2094654DB69A1F9429D","title":"临潮一村3号门","lon":"121.34957","lat":"30.71654","category":"47","category_name":"住宅区","address":""},{"poiid":"B2094654DB69A2F54298","title":"上海金山联合环境工程公司","lon":"121.35249","lat":"30.7217","category":"263","category_name":"公司","address":""},{"poiid":"B2094654DB69A1F94892","title":"十村小区","lon":"121.35184","lat":"30.713615","category":"47","category_name":"住宅区","address":"象州路11弄"},{"poiid":"B2094654DB69A1F94399","title":"良友金伴NO.459","lon":"121.3504","lat":"30.71538","category":"117","category_name":"便民商店/便利店","address":"富川路166"},{"poiid":"B2094750DA6AABF94999","title":"金山卫火车站","lon":"121.363502","lat":"30.723863","category":"500","category_name":"未知分类","address":"近郊金山沪杭公路"},{"poiid":"B2094655D26FAAFD479E","title":"金山区石化街道海棠一村(北门)","lon":"121.35029","lat":"30.72177","category":"47","category_name":"住宅区","address":""},{"poiid":"B2094655D268A6FA459E","title":"都市家园","lon":"121.353201054","lat":"30.715564793","category":"76","category_name":"上海菜","address":"石化沪杭公路7855号近富川路"},{"poiid":"B2094752D46AA2F84799","title":"中国农业银行象州路支行","lon":"121.35061","lat":"30.716227","category":"150","category_name":"银行","address":"上海市金山区石化象州路228号"}]