[{"poiid":"B2094757D069A0F5459B","title":"金山城市沙滩","lon":"121.34800112","lat":"30.708106956","category":"500","category_name":"未知分类","address":"上海市金山区沪杭公路7741号"},{"poiid":"B2094655D268A6FA459A","title":"金山城市沙滩(北一门)","lon":"121.3511","lat":"30.71108","category":"680","category_name":"楼宇机构","address":""},{"poiid":"B2094757D068A3F9499B","title":"滨海皇家金煦大酒店","lon":"121.34416903","lat":"30.704743411","category":"76","category_name":"上海菜","address":"近郊金山石化新城路1号(近金山城市沙滩)"},{"poiid":"B2094750DA6BA1FB499F","title":"轨交22号线金山卫站","lon":"121.362525","lat":"30.728115","category":"500","category_name":"未知分类","address":null},{"poiid":"B2094655D265ABF84893","title":"华府海景","lon":"121.358607","lat":"30.719758","category":"47","category_name":"住宅区","address":"金山区杭州湾大道118弄"},{"poiid":"B2094757D06AA2F8409D","title":"石化海棠新村","lon":"121.34726333","lat":"30.718804363","category":"500","category_name":"未知分类","address":"上海市金山区石化隆安路"},{"poiid":"B2094757D069A7FE439D","title":"滨海公园","lon":"121.34492638","lat":"30.70620388","category":"196","category_name":"公园","address":"近郊金山区石化街道新城路16号"},{"poiid":"B2094757D069A0FD489C","title":"塞纳河畔(金山店)","lon":"121.3443","lat":"30.71614","category":"75","category_name":"浙江菜","address":"近郊石化蒙山路333号(沪杭公路金一东路)"},{"poiid":"B2094757D06BA2FF4592","title":"金山宾馆","lon":"121.34306287","lat":"30.715717598","category":"217","category_name":"旅馆招待所","address":"近郊金山区石化金一东路1号"},{"poiid":"B2094757D16CA5FB4292","title":"金海岸花园","lon":"121.3567","lat":"30.72822","category":"47","category_name":"住宅区","address":"上海市金山区龙胜东路789弄"},{"poiid":"B2094654DB69A1FA4098","title":"金山区石化社区卫生服务中心","lon":"121.35047","lat":"30.71162","category":"162","category_name":"医院","address":"象州路12"},{"poiid":"B2094654DB69A1FA409C","title":"鸿海大楼","lon":"121.357","lat":"30.717","category":"46","category_name":"楼宇","address":"鸿海大楼"},{"poiid":"B2094654DB69A1F94892","title":"十村小区","lon":"121.35184","lat":"30.713615","category":"47","category_name":"住宅区","address":"象州路11弄"},{"poiid":"B2094757DB6FA4FC419B","title":"City Bread","lon":"121.347846","lat":"30.710801","category":"112","category_name":"糕饼店","address":"金山区石化象州路81号(蒙山路口)"},{"poiid":"B2094757D16CA5F5499C","title":"上海师范大学第二附属中学","lon":"121.351709","lat":"30.719266","category":"55","category_name":"中学","address":"近郊金山卫城区隆安路48号(近临潮街)"},{"poiid":"B2094655D36CA7FA4892","title":"海浒新村","lon":"121.3542","lat":"30.720472","category":"38","category_name":"公交车站","address":"海浒新村"},{"poiid":"B2094654DB68AAF44598","title":"金山卫车客渡码头","lon":"121.35812","lat":"30.71783","category":"34","category_name":"港口码头","address":""},{"poiid":"B2094655D26BA7FA4592","title":"新远山别墅","lon":"121.3531","lat":"30.71534","category":"47","category_name":"住宅区","address":"近郊金山石化沪杭公路7765号(戚家墩路海边路口)"},{"poiid":"B2094654DB69A0FE4693","title":"上海金山沙滩排球场","lon":"121.34556","lat":"30.705","category":"233","category_name":"户外健身场所","address":"近郊金山区新城路5号城市沙滩内(南康路新城路)"},{"poiid":"B2094757D065AAFD4793","title":"世安海昇大酒店","lon":"121.357524","lat":"30.721257","category":"217","category_name":"旅馆招待所","address":"近郊金山区杭州湾大道128号"},{"poiid":"B2094750DA6AABF94999","title":"金山卫火车站","lon":"121.363502","lat":"30.723863","category":"500","category_name":"未知分类","address":"近郊金山沪杭公路"},{"poiid":"B2094757D065A4F4429C","title":"鹤亭つるていTSURUTEL","lon":"121.35239337","lat":"30.720572026","category":"500","category_name":"未知分类","address":"上海金山百联3楼"},{"poiid":"B2094655D26BA2F44299","title":"戚家墩","lon":"121.35207","lat":"30.71911","category":"38","category_name":"公交车站","address":""},{"poiid":"B2094654DB69A1F9499F","title":"良友金伴NO.456","lon":"121.35131","lat":"30.71307","category":"117","category_name":"便民商店/便利店","address":""},{"poiid":"B2094654DB69A1FA4099","title":"上海市金山区牙病防治所","lon":"121.35047","lat":"30.71162","category":"162","category_name":"医院","address":"近郊金山区象州路12号3楼(富川路象州路)"},{"poiid":"B2094654DB69A1F94893","title":"石化百货(石化七村南)","lon":"121.35078","lat":"30.7134","category":"119","category_name":"商场","address":"石化十村42号"},{"poiid":"B2094654DB69A1F94998","title":"好德便利NO.8822","lon":"121.35111","lat":"30.71304","category":"117","category_name":"便民商店/便利店","address":""},{"poiid":"B2094757D165A6F4499E","title":"台州火车站","lon":"121.35884426","lat":"30.705528283","category":"22","category_name":"火车站","address":"上海台州火车站"},{"poiid":"B2094654DB69A1F8459D","title":"临潮二村","lon":"121.35009","lat":"30.717976","category":"47","category_name":"住宅区","address":"临潮二村"},{"poiid":"B2094655D26FAAFD4899","title":"十村小区(三号门)","lon":"121.35108","lat":"30.71261","category":"47","category_name":"住宅区","address":""},{"poiid":"B2094654DB69A1F54293","title":"金粮经济小区","lon":"121.353","lat":"30.7164","category":"47","category_name":"住宅区","address":"象州路103号"},{"poiid":"B2094655D268A0F4489A","title":"海浒新村南区","lon":"121.35591","lat":"30.71838","category":"47","category_name":"住宅区","address":""},{"poiid":"B2094752D365A3F54099","title":"元悦精菜馆","lon":"121.355991","lat":"30.720482","category":"247","category_name":"餐饮美食","address":null},{"poiid":"B2094654DB69A1F94899","title":"石化街道十村2号门","lon":"121.35057","lat":"30.7144","category":"47","category_name":"住宅区","address":""},{"poiid":"B2094753D569ABFC4492","title":"元悦精菜馆","lon":"121.358741","lat":"30.72002","category":"247","category_name":"餐饮美食","address":"上海市 杭州湾大道108号"},{"poiid":"B2094757D464A0FA4498","title":"永乐大酒店中餐厅","lon":"121.363688054","lat":"30.720214793","category":"76","category_name":"上海菜","address":"近郊金山区沪杭公路6472号(隆安路蒙山路)"},{"poiid":"B2094655D26FAAFD489F","title":"十村小区(一号门)","lon":"121.35072","lat":"30.71317","category":"47","category_name":"住宅区","address":""},{"poiid":"B2094655D268A7FA499C","title":"上海小南国金山店","lon":"121.34374","lat":"30.71495","category":"76","category_name":"上海菜","address":"近郊金山区石化金一东路1号金山宾馆1楼"},{"poiid":"B2094654DB69A1FA409E","title":"上海市金山区石化地段医院","lon":"121.35047","lat":"30.71162","category":"162","category_name":"医院","address":"金山区象州路12号"},{"poiid":"B2094654DB69A1F94292","title":"石化街道临潮三村","lon":"121.35216","lat":"30.71808","category":"47","category_name":"住宅区","address":""},{"poiid":"B2094752D169A0FD409D","title":"复旦大学附属金山医院","lon":"121.353104","lat":"30.715958","category":"162","category_name":"医院","address":null},{"poiid":"B2094655D26FAAFD4699","title":"石化街道临潮三村小区(一号门)","lon":"121.35067","lat":"30.71594","category":"47","category_name":"住宅区","address":""},{"poiid":"B2094655D268A6FA459E","title":"都市家园","lon":"121.353201054","lat":"30.715564793","category":"76","category_name":"上海菜","address":"石化沪杭公路7855号近富川路"},{"poiid":"B2094654DB69A1F44893","title":"广霖大楼","lon":"121.353","lat":"30.7187","category":"46","category_name":"楼宇","address":"广霖大楼"},{"poiid":"B2094654DB69A1F94399","title":"良友金伴NO.459","lon":"121.3504","lat":"30.71538","category":"117","category_name":"便民商店/便利店","address":"富川路166"},{"poiid":"B2094757D064A4F84999","title":"上海石化临潮三村","lon":"121.351809154","lat":"30.7175149448","category":"500","category_name":"未知分类","address":"上海市金山区石化临潮三村"},{"poiid":"B2094757D66CA0F5429A","title":"居适家(金山百联店)","lon":"121.35191764","lat":"30.712834314","category":"500","category_name":"未知分类","address":"近郊金山区卫清西路168弄99号百联金山购物中心C101室(近松卫南路)"},{"poiid":"B2094655D26FAAFD489E","title":"鸿海大楼(北门)","lon":"121.35029","lat":"30.71098","category":"47","category_name":"住宅区","address":"鸿芸小区"},{"poiid":"B2094655D268A6FA4493","title":"芸海大楼(北门)","lon":"121.35029","lat":"30.71098","category":"47","category_name":"住宅区","address":"鸿芸小区"},{"poiid":"B2094654DB69A1FA409F","title":"鸿芸小区","lon":"121.35027","lat":"30.710682","category":"47","category_name":"住宅区","address":"鸿芸小区"},{"poiid":"B2094757D069A0F5459B","title":"金山城市沙滩","lon":"121.34800112","lat":"30.708106956","category":"500","category_name":"未知分类","address":"上海市金山区沪杭公路7741号"},{"poiid":"B2094655D268A6FA459A","title":"金山城市沙滩(北一门)","lon":"121.3511","lat":"30.71108","category":"680","category_name":"楼宇机构","address":""},{"poiid":"B2094757D068A3F9499B","title":"滨海皇家金煦大酒店","lon":"121.34416903","lat":"30.704743411","category":"76","category_name":"上海菜","address":"近郊金山石化新城路1号(近金山城市沙滩)"},{"poiid":"B2094750DA6BA1FB499F","title":"轨交22号线金山卫站","lon":"121.362525","lat":"30.728115","category":"500","category_name":"未知分类","address":null},{"poiid":"B2094655D265ABF84893","title":"华府海景","lon":"121.358607","lat":"30.719758","category":"47","category_name":"住宅区","address":"金山区杭州湾大道118弄"},{"poiid":"B2094757D06AA2F8409D","title":"石化海棠新村","lon":"121.34726333","lat":"30.718804363","category":"500","category_name":"未知分类","address":"上海市金山区石化隆安路"},{"poiid":"B2094757D069A7FE439D","title":"滨海公园","lon":"121.34492638","lat":"30.70620388","category":"196","category_name":"公园","address":"近郊金山区石化街道新城路16号"},{"poiid":"B2094757D069A0FD489C","title":"塞纳河畔(金山店)","lon":"121.3443","lat":"30.71614","category":"75","category_name":"浙江菜","address":"近郊石化蒙山路333号(沪杭公路金一东路)"},{"poiid":"B2094757D06BA2FF4592","title":"金山宾馆","lon":"121.34306287","lat":"30.715717598","category":"217","category_name":"旅馆招待所","address":"近郊金山区石化金一东路1号"},{"poiid":"B2094757D16CA5FB4292","title":"金海岸花园","lon":"121.3567","lat":"30.72822","category":"47","category_name":"住宅区","address":"上海市金山区龙胜东路789弄"},{"poiid":"B2094654DB69A1FA4098","title":"金山区石化社区卫生服务中心","lon":"121.35047","lat":"30.71162","category":"162","category_name":"医院","address":"象州路12"},{"poiid":"B2094654DB69A1FA409C","title":"鸿海大楼","lon":"121.357","lat":"30.717","category":"46","category_name":"楼宇","address":"鸿海大楼"},{"poiid":"B2094654DB69A1F94892","title":"十村小区","lon":"121.35184","lat":"30.713615","category":"47","category_name":"住宅区","address":"象州路11弄"},{"poiid":"B2094757DB6FA4FC419B","title":"City Bread","lon":"121.347846","lat":"30.710801","category":"112","category_name":"糕饼店","address":"金山区石化象州路81号(蒙山路口)"},{"poiid":"B2094757D16CA5F5499C","title":"上海师范大学第二附属中学","lon":"121.351709","lat":"30.719266","category":"55","category_name":"中学","address":"近郊金山卫城区隆安路48号(近临潮街)"},{"poiid":"B2094655D36CA7FA4892","title":"海浒新村","lon":"121.3542","lat":"30.720472","category":"38","category_name":"公交车站","address":"海浒新村"},{"poiid":"B2094654DB68AAF44598","title":"金山卫车客渡码头","lon":"121.35812","lat":"30.71783","category":"34","category_name":"港口码头","address":""},{"poiid":"B2094655D26BA7FA4592","title":"新远山别墅","lon":"121.3531","lat":"30.71534","category":"47","category_name":"住宅区","address":"近郊金山石化沪杭公路7765号(戚家墩路海边路口)"},{"poiid":"B2094654DB69A0FE4693","title":"上海金山沙滩排球场","lon":"121.34556","lat":"30.705","category":"233","category_name":"户外健身场所","address":"近郊金山区新城路5号城市沙滩内(南康路新城路)"},{"poiid":"B2094757D065AAFD4793","title":"世安海昇大酒店","lon":"121.357524","lat":"30.721257","category":"217","category_name":"旅馆招待所","address":"近郊金山区杭州湾大道128号"},{"poiid":"B2094750DA6AABF94999","title":"金山卫火车站","lon":"121.363502","lat":"30.723863","category":"500","category_name":"未知分类","address":"近郊金山沪杭公路"},{"poiid":"B2094757D065A4F4429C","title":"鹤亭つるていTSURUTEL","lon":"121.35239337","lat":"30.720572026","category":"500","category_name":"未知分类","address":"上海金山百联3楼"},{"poiid":"B2094655D26BA2F44299","title":"戚家墩","lon":"121.35207","lat":"30.71911","category":"38","category_name":"公交车站","address":""},{"poiid":"B2094654DB69A1F9499F","title":"良友金伴NO.456","lon":"121.35131","lat":"30.71307","category":"117","category_name":"便民商店/便利店","address":""},{"poiid":"B2094654DB69A1FA4099","title":"上海市金山区牙病防治所","lon":"121.35047","lat":"30.71162","category":"162","category_name":"医院","address":"近郊金山区象州路12号3楼(富川路象州路)"},{"poiid":"B2094654DB69A1F94893","title":"石化百货(石化七村南)","lon":"121.35078","lat":"30.7134","category":"119","category_name":"商场","address":"石化十村42号"},{"poiid":"B2094654DB69A1F94998","title":"好德便利NO.8822","lon":"121.35111","lat":"30.71304","category":"117","category_name":"便民商店/便利店","address":""},{"poiid":"B2094757D165A6F4499E","title":"台州火车站","lon":"121.35884426","lat":"30.705528283","category":"22","category_name":"火车站","address":"上海台州火车站"},{"poiid":"B2094654DB69A1F8459D","title":"临潮二村","lon":"121.35009","lat":"30.717976","category":"47","category_name":"住宅区","address":"临潮二村"},{"poiid":"B2094655D26FAAFD4899","title":"十村小区(三号门)","lon":"121.35108","lat":"30.71261","category":"47","category_name":"住宅区","address":""},{"poiid":"B2094654DB69A1F54293","title":"金粮经济小区","lon":"121.353","lat":"30.7164","category":"47","category_name":"住宅区","address":"象州路103号"},{"poiid":"B2094655D268A0F4489A","title":"海浒新村南区","lon":"121.35591","lat":"30.71838","category":"47","category_name":"住宅区","address":""},{"poiid":"B2094752D365A3F54099","title":"元悦精菜馆","lon":"121.355991","lat":"30.720482","category":"247","category_name":"餐饮美食","address":null},{"poiid":"B2094654DB69A1F94899","title":"石化街道十村2号门","lon":"121.35057","lat":"30.7144","category":"47","category_name":"住宅区","address":""},{"poiid":"B2094753D569ABFC4492","title":"元悦精菜馆","lon":"121.358741","lat":"30.72002","category":"247","category_name":"餐饮美食","address":"上海市 杭州湾大道108号"},{"poiid":"B2094757D464A0FA4498","title":"永乐大酒店中餐厅","lon":"121.363688054","lat":"30.720214793","category":"76","category_name":"上海菜","address":"近郊金山区沪杭公路6472号(隆安路蒙山路)"},{"poiid":"B2094655D26FAAFD489F","title":"十村小区(一号门)","lon":"121.35072","lat":"30.71317","category":"47","category_name":"住宅区","address":""},{"poiid":"B2094655D268A7FA499C","title":"上海小南国金山店","lon":"121.34374","lat":"30.71495","category":"76","category_name":"上海菜","address":"近郊金山区石化金一东路1号金山宾馆1楼"},{"poiid":"B2094654DB69A1FA409E","title":"上海市金山区石化地段医院","lon":"121.35047","lat":"30.71162","category":"162","category_name":"医院","address":"金山区象州路12号"},{"poiid":"B2094654DB69A1F94292","title":"石化街道临潮三村","lon":"121.35216","lat":"30.71808","category":"47","category_name":"住宅区","address":""},{"poiid":"B2094752D169A0FD409D","title":"复旦大学附属金山医院","lon":"121.353104","lat":"30.715958","category":"162","category_name":"医院","address":null},{"poiid":"B2094655D26FAAFD4699","title":"石化街道临潮三村小区(一号门)","lon":"121.35067","lat":"30.71594","category":"47","category_name":"住宅区","address":""},{"poiid":"B2094655D268A6FA459E","title":"都市家园","lon":"121.353201054","lat":"30.715564793","category":"76","category_name":"上海菜","address":"石化沪杭公路7855号近富川路"},{"poiid":"B2094654DB69A1F44893","title":"广霖大楼","lon":"121.353","lat":"30.7187","category":"46","category_name":"楼宇","address":"广霖大楼"},{"poiid":"B2094654DB69A1F94399","title":"良友金伴NO.459","lon":"121.3504","lat":"30.71538","category":"117","category_name":"便民商店/便利店","address":"富川路166"},{"poiid":"B2094757D064A4F84999","title":"上海石化临潮三村","lon":"121.351809154","lat":"30.7175149448","category":"500","category_name":"未知分类","address":"上海市金山区石化临潮三村"},{"poiid":"B2094757D66CA0F5429A","title":"居适家(金山百联店)","lon":"121.35191764","lat":"30.712834314","category":"500","category_name":"未知分类","address":"近郊金山区卫清西路168弄99号百联金山购物中心C101室(近松卫南路)"},{"poiid":"B2094655D26FAAFD489E","title":"鸿海大楼(北门)","lon":"121.35029","lat":"30.71098","category":"47","category_name":"住宅区","address":"鸿芸小区"},{"poiid":"B2094655D268A6FA4493","title":"芸海大楼(北门)","lon":"121.35029","lat":"30.71098","category":"47","category_name":"住宅区","address":"鸿芸小区"},{"poiid":"B2094654DB69A1FA409F","title":"鸿芸小区","lon":"121.35027","lat":"30.710682","category":"47","category_name":"住宅区","address":"鸿芸小区"},{"poiid":"B2094757D069A0F5459B","title":"金山城市沙滩","lon":"121.34800112","lat":"30.708106956","category":"500","category_name":"未知分类","address":"上海市金山区沪杭公路7741号"},{"poiid":"B2094655D268A6FA459A","title":"金山城市沙滩(北一门)","lon":"121.3511","lat":"30.71108","category":"680","category_name":"楼宇机构","address":""},{"poiid":"B2094757D068A3F9499B","title":"滨海皇家金煦大酒店","lon":"121.34416903","lat":"30.704743411","category":"76","category_name":"上海菜","address":"近郊金山石化新城路1号(近金山城市沙滩)"},{"poiid":"B2094750DA6BA1FB499F","title":"轨交22号线金山卫站","lon":"121.362525","lat":"30.728115","category":"500","category_name":"未知分类","address":null},{"poiid":"B2094655D265ABF84893","title":"华府海景","lon":"121.358607","lat":"30.719758","category":"47","category_name":"住宅区","address":"金山区杭州湾大道118弄"},{"poiid":"B2094757D06AA2F8409D","title":"石化海棠新村","lon":"121.34726333","lat":"30.718804363","category":"500","category_name":"未知分类","address":"上海市金山区石化隆安路"},{"poiid":"B2094757D069A7FE439D","title":"滨海公园","lon":"121.34492638","lat":"30.70620388","category":"196","category_name":"公园","address":"近郊金山区石化街道新城路16号"},{"poiid":"B2094757D069A0FD489C","title":"塞纳河畔(金山店)","lon":"121.3443","lat":"30.71614","category":"75","category_name":"浙江菜","address":"近郊石化蒙山路333号(沪杭公路金一东路)"},{"poiid":"B2094757D06BA2FF4592","title":"金山宾馆","lon":"121.34306287","lat":"30.715717598","category":"217","category_name":"旅馆招待所","address":"近郊金山区石化金一东路1号"},{"poiid":"B2094757D16CA5FB4292","title":"金海岸花园","lon":"121.3567","lat":"30.72822","category":"47","category_name":"住宅区","address":"上海市金山区龙胜东路789弄"},{"poiid":"B2094654DB69A1FA4098","title":"金山区石化社区卫生服务中心","lon":"121.35047","lat":"30.71162","category":"162","category_name":"医院","address":"象州路12"},{"poiid":"B2094654DB69A1FA409C","title":"鸿海大楼","lon":"121.357","lat":"30.717","category":"46","category_name":"楼宇","address":"鸿海大楼"},{"poiid":"B2094654DB69A1F94892","title":"十村小区","lon":"121.35184","lat":"30.713615","category":"47","category_name":"住宅区","address":"象州路11弄"},{"poiid":"B2094757DB6FA4FC419B","title":"City Bread","lon":"121.347846","lat":"30.710801","category":"112","category_name":"糕饼店","address":"金山区石化象州路81号(蒙山路口)"},{"poiid":"B2094757D16CA5F5499C","title":"上海师范大学第二附属中学","lon":"121.351709","lat":"30.719266","category":"55","category_name":"中学","address":"近郊金山卫城区隆安路48号(近临潮街)"},{"poiid":"B2094655D36CA7FA4892","title":"海浒新村","lon":"121.3542","lat":"30.720472","category":"38","category_name":"公交车站","address":"海浒新村"},{"poiid":"B2094654DB68AAF44598","title":"金山卫车客渡码头","lon":"121.35812","lat":"30.71783","category":"34","category_name":"港口码头","address":""},{"poiid":"B2094655D26BA7FA4592","title":"新远山别墅","lon":"121.3531","lat":"30.71534","category":"47","category_name":"住宅区","address":"近郊金山石化沪杭公路7765号(戚家墩路海边路口)"},{"poiid":"B2094654DB69A0FE4693","title":"上海金山沙滩排球场","lon":"121.34556","lat":"30.705","category":"233","category_name":"户外健身场所","address":"近郊金山区新城路5号城市沙滩内(南康路新城路)"},{"poiid":"B2094757D065AAFD4793","title":"世安海昇大酒店","lon":"121.357524","lat":"30.721257","category":"217","category_name":"旅馆招待所","address":"近郊金山区杭州湾大道128号"},{"poiid":"B2094750DA6AABF94999","title":"金山卫火车站","lon":"121.363502","lat":"30.723863","category":"500","category_name":"未知分类","address":"近郊金山沪杭公路"},{"poiid":"B2094757D065A4F4429C","title":"鹤亭つるていTSURUTEL","lon":"121.35239337","lat":"30.720572026","category":"500","category_name":"未知分类","address":"上海金山百联3楼"},{"poiid":"B2094655D26BA2F44299","title":"戚家墩","lon":"121.35207","lat":"30.71911","category":"38","category_name":"公交车站","address":""},{"poiid":"B2094654DB69A1F9499F","title":"良友金伴NO.456","lon":"121.35131","lat":"30.71307","category":"117","category_name":"便民商店/便利店","address":""},{"poiid":"B2094654DB69A1FA4099","title":"上海市金山区牙病防治所","lon":"121.35047","lat":"30.71162","category":"162","category_name":"医院","address":"近郊金山区象州路12号3楼(富川路象州路)"},{"poiid":"B2094654DB69A1F94893","title":"石化百货(石化七村南)","lon":"121.35078","lat":"30.7134","category":"119","category_name":"商场","address":"石化十村42号"},{"poiid":"B2094654DB69A1F94998","title":"好德便利NO.8822","lon":"121.35111","lat":"30.71304","category":"117","category_name":"便民商店/便利店","address":""},{"poiid":"B2094757D165A6F4499E","title":"台州火车站","lon":"121.35884426","lat":"30.705528283","category":"22","category_name":"火车站","address":"上海台州火车站"},{"poiid":"B2094654DB69A1F8459D","title":"临潮二村","lon":"121.35009","lat":"30.717976","category":"47","category_name":"住宅区","address":"临潮二村"},{"poiid":"B2094655D26FAAFD4899","title":"十村小区(三号门)","lon":"121.35108","lat":"30.71261","category":"47","category_name":"住宅区","address":""},{"poiid":"B2094654DB69A1F54293","title":"金粮经济小区","lon":"121.353","lat":"30.7164","category":"47","category_name":"住宅区","address":"象州路103号"},{"poiid":"B2094655D268A0F4489A","title":"海浒新村南区","lon":"121.35591","lat":"30.71838","category":"47","category_name":"住宅区","address":""},{"poiid":"B2094752D365A3F54099","title":"元悦精菜馆","lon":"121.355991","lat":"30.720482","category":"247","category_name":"餐饮美食","address":null},{"poiid":"B2094654DB69A1F94899","title":"石化街道十村2号门","lon":"121.35057","lat":"30.7144","category":"47","category_name":"住宅区","address":""},{"poiid":"B2094753D569ABFC4492","title":"元悦精菜馆","lon":"121.358741","lat":"30.72002","category":"247","category_name":"餐饮美食","address":"上海市 杭州湾大道108号"},{"poiid":"B2094757D464A0FA4498","title":"永乐大酒店中餐厅","lon":"121.363688054","lat":"30.720214793","category":"76","category_name":"上海菜","address":"近郊金山区沪杭公路6472号(隆安路蒙山路)"},{"poiid":"B2094655D26FAAFD489F","title":"十村小区(一号门)","lon":"121.35072","lat":"30.71317","category":"47","category_name":"住宅区","address":""},{"poiid":"B2094655D268A7FA499C","title":"上海小南国金山店","lon":"121.34374","lat":"30.71495","category":"76","category_name":"上海菜","address":"近郊金山区石化金一东路1号金山宾馆1楼"},{"poiid":"B2094654DB69A1FA409E","title":"上海市金山区石化地段医院","lon":"121.35047","lat":"30.71162","category":"162","category_name":"医院","address":"金山区象州路12号"},{"poiid":"B2094654DB69A1F94292","title":"石化街道临潮三村","lon":"121.35216","lat":"30.71808","category":"47","category_name":"住宅区","address":""},{"poiid":"B2094752D169A0FD409D","title":"复旦大学附属金山医院","lon":"121.353104","lat":"30.715958","category":"162","category_name":"医院","address":null},{"poiid":"B2094655D26FAAFD4699","title":"石化街道临潮三村小区(一号门)","lon":"121.35067","lat":"30.71594","category":"47","category_name":"住宅区","address":""},{"poiid":"B2094655D268A6FA459E","title":"都市家园","lon":"121.353201054","lat":"30.715564793","category":"76","category_name":"上海菜","address":"石化沪杭公路7855号近富川路"},{"poiid":"B2094654DB69A1F44893","title":"广霖大楼","lon":"121.353","lat":"30.7187","category":"46","category_name":"楼宇","address":"广霖大楼"},{"poiid":"B2094654DB69A1F94399","title":"良友金伴NO.459","lon":"121.3504","lat":"30.71538","category":"117","category_name":"便民商店/便利店","address":"富川路166"},{"poiid":"B2094757D064A4F84999","title":"上海石化临潮三村","lon":"121.351809154","lat":"30.7175149448","category":"500","category_name":"未知分类","address":"上海市金山区石化临潮三村"},{"poiid":"B2094757D66CA0F5429A","title":"居适家(金山百联店)","lon":"121.35191764","lat":"30.712834314","category":"500","category_name":"未知分类","address":"近郊金山区卫清西路168弄99号百联金山购物中心C101室(近松卫南路)"},{"poiid":"B2094655D26FAAFD489E","title":"鸿海大楼(北门)","lon":"121.35029","lat":"30.71098","category":"47","category_name":"住宅区","address":"鸿芸小区"},{"poiid":"B2094655D268A6FA4493","title":"芸海大楼(北门)","lon":"121.35029","lat":"30.71098","category":"47","category_name":"住宅区","address":"鸿芸小区"},{"poiid":"B2094654DB69A1FA409F","title":"鸿芸小区","lon":"121.35027","lat":"30.710682","category":"47","category_name":"住宅区","address":"鸿芸小区"},{"poiid":"B2094757D069A0F5459B","title":"金山城市沙滩","lon":"121.34800112","lat":"30.708106956","category":"500","category_name":"未知分类","address":"上海市金山区沪杭公路7741号"},{"poiid":"B2094655D268A6FA459A","title":"金山城市沙滩(北一门)","lon":"121.3511","lat":"30.71108","category":"680","category_name":"楼宇机构","address":""},{"poiid":"B2094757D068A3F9499B","title":"滨海皇家金煦大酒店","lon":"121.34416903","lat":"30.704743411","category":"76","category_name":"上海菜","address":"近郊金山石化新城路1号(近金山城市沙滩)"},{"poiid":"B2094750DA6BA1FB499F","title":"轨交22号线金山卫站","lon":"121.362525","lat":"30.728115","category":"500","category_name":"未知分类","address":null},{"poiid":"B2094655D265ABF84893","title":"华府海景","lon":"121.358607","lat":"30.719758","category":"47","category_name":"住宅区","address":"金山区杭州湾大道118弄"},{"poiid":"B2094757D06AA2F8409D","title":"石化海棠新村","lon":"121.34726333","lat":"30.718804363","category":"500","category_name":"未知分类","address":"上海市金山区石化隆安路"},{"poiid":"B2094757D069A7FE439D","title":"滨海公园","lon":"121.34492638","lat":"30.70620388","category":"196","category_name":"公园","address":"近郊金山区石化街道新城路16号"},{"poiid":"B2094757D069A0FD489C","title":"塞纳河畔(金山店)","lon":"121.3443","lat":"30.71614","category":"75","category_name":"浙江菜","address":"近郊石化蒙山路333号(沪杭公路金一东路)"},{"poiid":"B2094757D06BA2FF4592","title":"金山宾馆","lon":"121.34306287","lat":"30.715717598","category":"217","category_name":"旅馆招待所","address":"近郊金山区石化金一东路1号"},{"poiid":"B2094757D16CA5FB4292","title":"金海岸花园","lon":"121.3567","lat":"30.72822","category":"47","category_name":"住宅区","address":"上海市金山区龙胜东路789弄"},{"poiid":"B2094654DB69A1FA4098","title":"金山区石化社区卫生服务中心","lon":"121.35047","lat":"30.71162","category":"162","category_name":"医院","address":"象州路12"},{"poiid":"B2094654DB69A1FA409C","title":"鸿海大楼","lon":"121.357","lat":"30.717","category":"46","category_name":"楼宇","address":"鸿海大楼"},{"poiid":"B2094654DB69A1F94892","title":"十村小区","lon":"121.35184","lat":"30.713615","category":"47","category_name":"住宅区","address":"象州路11弄"},{"poiid":"B2094757DB6FA4FC419B","title":"City Bread","lon":"121.347846","lat":"30.710801","category":"112","category_name":"糕饼店","address":"金山区石化象州路81号(蒙山路口)"},{"poiid":"B2094757D16CA5F5499C","title":"上海师范大学第二附属中学","lon":"121.351709","lat":"30.719266","category":"55","category_name":"中学","address":"近郊金山卫城区隆安路48号(近临潮街)"},{"poiid":"B2094655D36CA7FA4892","title":"海浒新村","lon":"121.3542","lat":"30.720472","category":"38","category_name":"公交车站","address":"海浒新村"},{"poiid":"B2094654DB68AAF44598","title":"金山卫车客渡码头","lon":"121.35812","lat":"30.71783","category":"34","category_name":"港口码头","address":""},{"poiid":"B2094655D26BA7FA4592","title":"新远山别墅","lon":"121.3531","lat":"30.71534","category":"47","category_name":"住宅区","address":"近郊金山石化沪杭公路7765号(戚家墩路海边路口)"},{"poiid":"B2094654DB69A0FE4693","title":"上海金山沙滩排球场","lon":"121.34556","lat":"30.705","category":"233","category_name":"户外健身场所","address":"近郊金山区新城路5号城市沙滩内(南康路新城路)"},{"poiid":"B2094757D065AAFD4793","title":"世安海昇大酒店","lon":"121.357524","lat":"30.721257","category":"217","category_name":"旅馆招待所","address":"近郊金山区杭州湾大道128号"},{"poiid":"B2094750DA6AABF94999","title":"金山卫火车站","lon":"121.363502","lat":"30.723863","category":"500","category_name":"未知分类","address":"近郊金山沪杭公路"},{"poiid":"B2094757D065A4F4429C","title":"鹤亭つるていTSURUTEL","lon":"121.35239337","lat":"30.720572026","category":"500","category_name":"未知分类","address":"上海金山百联3楼"},{"poiid":"B2094655D26BA2F44299","title":"戚家墩","lon":"121.35207","lat":"30.71911","category":"38","category_name":"公交车站","address":""},{"poiid":"B2094654DB69A1F9499F","title":"良友金伴NO.456","lon":"121.35131","lat":"30.71307","category":"117","category_name":"便民商店/便利店","address":""},{"poiid":"B2094654DB69A1FA4099","title":"上海市金山区牙病防治所","lon":"121.35047","lat":"30.71162","category":"162","category_name":"医院","address":"近郊金山区象州路12号3楼(富川路象州路)"},{"poiid":"B2094654DB69A1F94893","title":"石化百货(石化七村南)","lon":"121.35078","lat":"30.7134","category":"119","category_name":"商场","address":"石化十村42号"},{"poiid":"B2094654DB69A1F94998","title":"好德便利NO.8822","lon":"121.35111","lat":"30.71304","category":"117","category_name":"便民商店/便利店","address":""},{"poiid":"B2094757D165A6F4499E","title":"台州火车站","lon":"121.35884426","lat":"30.705528283","category":"22","category_name":"火车站","address":"上海台州火车站"},{"poiid":"B2094654DB69A1F8459D","title":"临潮二村","lon":"121.35009","lat":"30.717976","category":"47","category_name":"住宅区","address":"临潮二村"},{"poiid":"B2094655D26FAAFD4899","title":"十村小区(三号门)","lon":"121.35108","lat":"30.71261","category":"47","category_name":"住宅区","address":""},{"poiid":"B2094654DB69A1F54293","title":"金粮经济小区","lon":"121.353","lat":"30.7164","category":"47","category_name":"住宅区","address":"象州路103号"},{"poiid":"B2094655D268A0F4489A","title":"海浒新村南区","lon":"121.35591","lat":"30.71838","category":"47","category_name":"住宅区","address":""},{"poiid":"B2094752D365A3F54099","title":"元悦精菜馆","lon":"121.355991","lat":"30.720482","category":"247","category_name":"餐饮美食","address":null},{"poiid":"B2094654DB69A1F94899","title":"石化街道十村2号门","lon":"121.35057","lat":"30.7144","category":"47","category_name":"住宅区","address":""},{"poiid":"B2094753D569ABFC4492","title":"元悦精菜馆","lon":"121.358741","lat":"30.72002","category":"247","category_name":"餐饮美食","address":"上海市 杭州湾大道108号"},{"poiid":"B2094757D464A0FA4498","title":"永乐大酒店中餐厅","lon":"121.363688054","lat":"30.720214793","category":"76","category_name":"上海菜","address":"近郊金山区沪杭公路6472号(隆安路蒙山路)"},{"poiid":"B2094655D26FAAFD489F","title":"十村小区(一号门)","lon":"121.35072","lat":"30.71317","category":"47","category_name":"住宅区","address":""},{"poiid":"B2094655D268A7FA499C","title":"上海小南国金山店","lon":"121.34374","lat":"30.71495","category":"76","category_name":"上海菜","address":"近郊金山区石化金一东路1号金山宾馆1楼"},{"poiid":"B2094654DB69A1FA409E","title":"上海市金山区石化地段医院","lon":"121.35047","lat":"30.71162","category":"162","category_name":"医院","address":"金山区象州路12号"},{"poiid":"B2094654DB69A1F94292","title":"石化街道临潮三村","lon":"121.35216","lat":"30.71808","category":"47","category_name":"住宅区","address":""},{"poiid":"B2094752D169A0FD409D","title":"复旦大学附属金山医院","lon":"121.353104","lat":"30.715958","category":"162","category_name":"医院","address":null},{"poiid":"B2094655D26FAAFD4699","title":"石化街道临潮三村小区(一号门)","lon":"121.35067","lat":"30.71594","category":"47","category_name":"住宅区","address":""},{"poiid":"B2094655D268A6FA459E","title":"都市家园","lon":"121.353201054","lat":"30.715564793","category":"76","category_name":"上海菜","address":"石化沪杭公路7855号近富川路"},{"poiid":"B2094654DB69A1F44893","title":"广霖大楼","lon":"121.353","lat":"30.7187","category":"46","category_name":"楼宇","address":"广霖大楼"},{"poiid":"B2094654DB69A1F94399","title":"良友金伴NO.459","lon":"121.3504","lat":"30.71538","category":"117","category_name":"便民商店/便利店","address":"富川路166"},{"poiid":"B2094757D064A4F84999","title":"上海石化临潮三村","lon":"121.351809154","lat":"30.7175149448","category":"500","category_name":"未知分类","address":"上海市金山区石化临潮三村"},{"poiid":"B2094757D66CA0F5429A","title":"居适家(金山百联店)","lon":"121.35191764","lat":"30.712834314","category":"500","category_name":"未知分类","address":"近郊金山区卫清西路168弄99号百联金山购物中心C101室(近松卫南路)"},{"poiid":"B2094655D26FAAFD489E","title":"鸿海大楼(北门)","lon":"121.35029","lat":"30.71098","category":"47","category_name":"住宅区","address":"鸿芸小区"},{"poiid":"B2094655D268A6FA4493","title":"芸海大楼(北门)","lon":"121.35029","lat":"30.71098","category":"47","category_name":"住宅区","address":"鸿芸小区"},{"poiid":"B2094654DB69A1FA409F","title":"鸿芸小区","lon":"121.35027","lat":"30.710682","category":"47","category_name":"住宅区","address":"鸿芸小区"}]