[{"poiid":"B2094757D16AA3F8419D","title":"上海阿什福德城堡大酒店","lon":"121.362234035","lat":"30.760048342","category":"217","category_name":"旅馆招待所","address":"上海金山区红旗东路500号"},{"poiid":"B2094655D36CA0FE459B","title":"金山区政府","lon":"121.34336","lat":"30.74191","category":"38","category_name":"公交车站","address":"金山区金山大道2000号"},{"poiid":"B2094757D06FA4FA459E","title":"避风塘 百联金山店","lon":"121.35021","lat":"30.73057","category":"111","category_name":"休闲餐饮场所","address":"近郊金山区卫清西路168弄99号百联金山购物中心1楼(近松卫南路)"},{"poiid":"B2094751D56DA0FA439A","title":"香涌海鲜大酒楼(金山店)","lon":"121.35697","lat":"30.75479","category":"76","category_name":"上海菜","address":"近郊金山区亭卫公路1515号(近龙皓路)"},{"poiid":"B2094655D264A7FE4299","title":"金山豪庭","lon":"121.35342","lat":"30.734066","category":"47","category_name":"住宅区","address":"上海市金山区卫清东路2988弄"},{"poiid":"B2094655D36CA2FB479D","title":"山阳镇","lon":"121.35766","lat":"30.7622","category":"38","category_name":"公交车站","address":""},{"poiid":"B2094757DA65A3F54998","title":"上海金山嘴渔村","lon":"121.3713456639883","lat":"30.7348745679435","category":"247","category_name":"餐饮美食","address":"近郊金山金山嘴"},{"poiid":"B2094655D265A4FA439A","title":"宝华海湾城","lon":"121.34979","lat":"30.73463","category":"47","category_name":"住宅区","address":"金山杭州湾大道板桥东路1480弄"},{"poiid":"B2094654DB68AAFD489C","title":"上海市金山工业区","lon":"121.35702","lat":"30.74805","category":"45","category_name":"产业园区","address":""},{"poiid":"B2094655D268A2FC429B","title":"金天地花园","lon":"121.350925","lat":"30.731236","category":"47","category_name":"住宅区","address":"金山卫清西路88号"},{"poiid":"B2094757D168A2FC4698","title":"金山区行政服务中心","lon":"121.340799045","lat":"30.7442538551","category":"500","category_name":"未知分类","address":"上海金山区龙山路555号"},{"poiid":"B2094757D16AA3FB4299","title":"海辰馨苑","lon":"121.35249","lat":"30.757185","category":"47","category_name":"住宅区","address":"海丰路85弄"},{"poiid":"B2094655D36CA1FF479A","title":"龙皓路(山阳镇政府)","lon":"121.35508","lat":"30.74775","category":"38","category_name":"公交车站","address":""},{"poiid":"B2094757D065A7FA4298","title":"蓝色收获","lon":"121.35797","lat":"30.742123","category":"249","category_name":"购物服务","address":"上海市金山区板桥东路1200弄"},{"poiid":"B2094654DB69A3FB4093","title":"辰凯紫薇苑","lon":"121.34617913329","lat":"30.740805127992","category":"47","category_name":"住宅区","address":"上海市金山区蒙山路1517弄"},{"poiid":"B2094757D66FA2FC449E","title":"上海中规汽车销售服务有限公司","lon":"121.358132064","lat":"30.751922138","category":"500","category_name":"未知分类","address":"上海金山区亭卫公路1066号"},{"poiid":"B2094654DB68AAF44698","title":"上海广成汽车修理分公司","lon":"121.35603","lat":"30.74744","category":"159","category_name":"汽车维修","address":"金山大道1328号"},{"poiid":"B2094757D569A0FA439C","title":"海尚馨苑","lon":"121.34814","lat":"30.755018","category":"47","category_name":"住宅区","address":"上海市金山区海盛路515弄"},{"poiid":"B2094655D36CA3FE4399","title":"碧海云居","lon":"121.35303","lat":"30.75782","category":"47","category_name":"住宅区","address":""},{"poiid":"B2094655D36CA7FB4499","title":"海丰路","lon":"121.35627","lat":"30.75669","category":"38","category_name":"公交车站","address":""},{"poiid":"B2094655D268A7FF439F","title":"山鑫城市广场","lon":"121.349978","lat":"30.734272","category":"46","category_name":"楼宇","address":"卫清西路139_149号等"},{"poiid":"B2094654DB69A3FC409B","title":"华峰集团上海有限公司","lon":"121.36156","lat":"30.74226","category":"263","category_name":"公司","address":"亭卫南路888"},{"poiid":"B2094654DB68AAF84699","title":"海欣家园","lon":"121.34988","lat":"30.760975","category":"47","category_name":"住宅区","address":"龙皓路398弄"},{"poiid":"B2094654DB69A0F8449D","title":"金山区海棠小学蓝色收获校区","lon":"121.3527","lat":"30.74004","category":"56","category_name":"小学","address":"近郊金山区山阳镇卫阳南路800号"},{"poiid":"B2094655D36CA7FA489D","title":"海芙路龙皓路","lon":"121.34834","lat":"30.74523","category":"38","category_name":"公交车站","address":""},{"poiid":"B2094757D065A2FB489B","title":"棕榈湾花园","lon":"121.3497","lat":"30.736702","category":"47","category_name":"住宅区","address":"上海蒙山路1266弄"},{"poiid":"B2094654DB68AAF8459E","title":"上海云峰金山别克","lon":"121.35845","lat":"30.75755","category":"158","category_name":"汽车销售","address":"山阳镇亭卫公路1398号"},{"poiid":"B2094757D168A2F94093","title":"新金山嘴大酒店(金山嘴海鲜一条街)","lon":"121.367648671","lat":"30.7354013921","category":"88","category_name":"海鲜酒楼","address":"上海市金山区金山嘴沪杭公路"},{"poiid":"B2094654DB65A4FF499E","title":"上海云峰金山汽车发展有限公司","lon":"121.35845","lat":"30.75755","category":"158","category_name":"汽车销售","address":"山阳镇亭卫公路1398号"},{"poiid":"B2094654DB68AAFF449A","title":"上海金山嘴建材批发市场","lon":"121.36234","lat":"30.75823","category":"123","category_name":"家具建材市场","address":"山阳镇"},{"poiid":"B2094757D069A7FD489E","title":"石化汽车站","lon":"121.36782074","lat":"30.739181518","category":"35","category_name":"长途汽车站","address":"上海石化(近卫零路)"},{"poiid":"B2094655D36CA2FB479E","title":"山阳","lon":"121.35763","lat":"30.76143","category":"38","category_name":"公交车站","address":""},{"poiid":"B2094757D16AA1FA4993","title":"海辰小区","lon":"121.351557009","lat":"30.7566240547","category":"47","category_name":"住宅区","address":"上海市金山区海盛路"},{"poiid":"B2094655D36CA7FB439A","title":"海利路","lon":"121.36734","lat":"30.73913","category":"38","category_name":"公交车站","address":""},{"poiid":"B2094757D068A6F9439D","title":"金山区人民政府","lon":"121.35082244","lat":"30.738594055","category":"252","category_name":"楼宇机构","address":"上海金山区金山大道2000号"},{"poiid":"B2094757D068A3FF419C","title":"金山区","lon":"121.341964","lat":"30.741986","category":"250","category_name":"公园户外","address":"上海金山区区域"},{"poiid":"B2094654DB68AAFF449B","title":"金山嘴灯具城","lon":"121.3617","lat":"30.75805","category":"123","category_name":"家具建材市场","address":""},{"poiid":"B2094750D76EA6F94799","title":"雨盟咖啡","lon":"121.346","lat":"30.7403","category":"94","category_name":"西餐厅","address":"近郊金山区石化杭州湾大道1377号(近金山大道)"},{"poiid":"B2094655D268ABF8429F","title":"龙泉港桥","lon":"121.37197","lat":"30.75378","category":"250","category_name":"公园户外","address":""},{"poiid":"B2094757D168A1F94492","title":"龙泽园","lon":"121.345","lat":"30.751","category":"500","category_name":"未知分类","address":"上海金山区龙山路"},{"poiid":"B2094655D36DA1F54993","title":"新城区教育园区","lon":"121.34604","lat":"30.7455","category":"38","category_name":"公交车站","address":""},{"poiid":"B2094654DB69A3F9419F","title":"华江小区1号","lon":"121.3599","lat":"30.73614","category":"47","category_name":"住宅区","address":"石化"},{"poiid":"B2094750D56AA6F4449C","title":"蓝堡公馆","lon":"121.361759","lat":"30.735001","category":"47","category_name":"住宅区","address":"金山龙胜东路828号(杭州湾大道卫清东路交汇处)"},{"poiid":"B2094654DB68AAF54999","title":"圣东尼(上海)针织机器有限公司","lon":"121.367","lat":"30.74131","category":"263","category_name":"公司","address":""},{"poiid":"B2094757D165A7FF4799","title":"复地金石湾","lon":"121.3710045939","lat":"30.756664362127","category":"252","category_name":"楼宇机构","address":"浦卫公路16299号"},{"poiid":"B2094654DB69A3FC4298","title":"山鑫康城1号门","lon":"121.35961","lat":"30.7298","category":"47","category_name":"住宅区","address":"金山区山阳镇卫阳南路118弄"},{"poiid":"B209475CD064A4FF429E","title":"香涌海鲜大酒楼 金山店","lon":"121.35706","lat":"30.76076","category":"75","category_name":"浙江菜","address":"金山区亭卫公路1515号(近龙皓路)"},{"poiid":"B2094757D16FAAFB4793","title":"三岛海鲜城","lon":"121.3694225","lat":"30.7284768","category":"260","category_name":"其他","address":"近郊金山区亭卫南路88弄8号(近金山嘴海鲜城)"},{"poiid":"B2094655D36CA0FE4598","title":"金山区政府(下客站)","lon":"121.34726","lat":"30.74226","category":"38","category_name":"公交车站","address":""},{"poiid":"B2094757D16FAAFC439E","title":"金山大道","lon":"121.34906888","lat":"30.7438124447","category":"260","category_name":"其他","address":"上海金山区金山大道"},{"poiid":"B2094757D16AA3F8419D","title":"上海阿什福德城堡大酒店","lon":"121.362234035","lat":"30.760048342","category":"217","category_name":"旅馆招待所","address":"上海金山区红旗东路500号"},{"poiid":"B2094655D36CA0FE459B","title":"金山区政府","lon":"121.34336","lat":"30.74191","category":"38","category_name":"公交车站","address":"金山区金山大道2000号"},{"poiid":"B2094757D06FA4FA459E","title":"避风塘 百联金山店","lon":"121.35021","lat":"30.73057","category":"111","category_name":"休闲餐饮场所","address":"近郊金山区卫清西路168弄99号百联金山购物中心1楼(近松卫南路)"},{"poiid":"B2094751D56DA0FA439A","title":"香涌海鲜大酒楼(金山店)","lon":"121.35697","lat":"30.75479","category":"76","category_name":"上海菜","address":"近郊金山区亭卫公路1515号(近龙皓路)"},{"poiid":"B2094655D264A7FE4299","title":"金山豪庭","lon":"121.35342","lat":"30.734066","category":"47","category_name":"住宅区","address":"上海市金山区卫清东路2988弄"},{"poiid":"B2094655D36CA2FB479D","title":"山阳镇","lon":"121.35766","lat":"30.7622","category":"38","category_name":"公交车站","address":""},{"poiid":"B2094757DA65A3F54998","title":"上海金山嘴渔村","lon":"121.3713456639883","lat":"30.7348745679435","category":"247","category_name":"餐饮美食","address":"近郊金山金山嘴"},{"poiid":"B2094655D265A4FA439A","title":"宝华海湾城","lon":"121.34979","lat":"30.73463","category":"47","category_name":"住宅区","address":"金山杭州湾大道板桥东路1480弄"},{"poiid":"B2094654DB68AAFD489C","title":"上海市金山工业区","lon":"121.35702","lat":"30.74805","category":"45","category_name":"产业园区","address":""},{"poiid":"B2094655D268A2FC429B","title":"金天地花园","lon":"121.350925","lat":"30.731236","category":"47","category_name":"住宅区","address":"金山卫清西路88号"},{"poiid":"B2094757D168A2FC4698","title":"金山区行政服务中心","lon":"121.340799045","lat":"30.7442538551","category":"500","category_name":"未知分类","address":"上海金山区龙山路555号"},{"poiid":"B2094757D16AA3FB4299","title":"海辰馨苑","lon":"121.35249","lat":"30.757185","category":"47","category_name":"住宅区","address":"海丰路85弄"},{"poiid":"B2094655D36CA1FF479A","title":"龙皓路(山阳镇政府)","lon":"121.35508","lat":"30.74775","category":"38","category_name":"公交车站","address":""},{"poiid":"B2094757D065A7FA4298","title":"蓝色收获","lon":"121.35797","lat":"30.742123","category":"249","category_name":"购物服务","address":"上海市金山区板桥东路1200弄"},{"poiid":"B2094654DB69A3FB4093","title":"辰凯紫薇苑","lon":"121.34617913329","lat":"30.740805127992","category":"47","category_name":"住宅区","address":"上海市金山区蒙山路1517弄"},{"poiid":"B2094757D66FA2FC449E","title":"上海中规汽车销售服务有限公司","lon":"121.358132064","lat":"30.751922138","category":"500","category_name":"未知分类","address":"上海金山区亭卫公路1066号"},{"poiid":"B2094654DB68AAF44698","title":"上海广成汽车修理分公司","lon":"121.35603","lat":"30.74744","category":"159","category_name":"汽车维修","address":"金山大道1328号"},{"poiid":"B2094757D569A0FA439C","title":"海尚馨苑","lon":"121.34814","lat":"30.755018","category":"47","category_name":"住宅区","address":"上海市金山区海盛路515弄"},{"poiid":"B2094655D36CA3FE4399","title":"碧海云居","lon":"121.35303","lat":"30.75782","category":"47","category_name":"住宅区","address":""},{"poiid":"B2094655D36CA7FB4499","title":"海丰路","lon":"121.35627","lat":"30.75669","category":"38","category_name":"公交车站","address":""},{"poiid":"B2094655D268A7FF439F","title":"山鑫城市广场","lon":"121.349978","lat":"30.734272","category":"46","category_name":"楼宇","address":"卫清西路139_149号等"},{"poiid":"B2094654DB69A3FC409B","title":"华峰集团上海有限公司","lon":"121.36156","lat":"30.74226","category":"263","category_name":"公司","address":"亭卫南路888"},{"poiid":"B2094654DB68AAF84699","title":"海欣家园","lon":"121.34988","lat":"30.760975","category":"47","category_name":"住宅区","address":"龙皓路398弄"},{"poiid":"B2094654DB69A0F8449D","title":"金山区海棠小学蓝色收获校区","lon":"121.3527","lat":"30.74004","category":"56","category_name":"小学","address":"近郊金山区山阳镇卫阳南路800号"},{"poiid":"B2094655D36CA7FA489D","title":"海芙路龙皓路","lon":"121.34834","lat":"30.74523","category":"38","category_name":"公交车站","address":""},{"poiid":"B2094757D065A2FB489B","title":"棕榈湾花园","lon":"121.3497","lat":"30.736702","category":"47","category_name":"住宅区","address":"上海蒙山路1266弄"},{"poiid":"B2094654DB68AAF8459E","title":"上海云峰金山别克","lon":"121.35845","lat":"30.75755","category":"158","category_name":"汽车销售","address":"山阳镇亭卫公路1398号"},{"poiid":"B2094757D168A2F94093","title":"新金山嘴大酒店(金山嘴海鲜一条街)","lon":"121.367648671","lat":"30.7354013921","category":"88","category_name":"海鲜酒楼","address":"上海市金山区金山嘴沪杭公路"},{"poiid":"B2094654DB65A4FF499E","title":"上海云峰金山汽车发展有限公司","lon":"121.35845","lat":"30.75755","category":"158","category_name":"汽车销售","address":"山阳镇亭卫公路1398号"},{"poiid":"B2094654DB68AAFF449A","title":"上海金山嘴建材批发市场","lon":"121.36234","lat":"30.75823","category":"123","category_name":"家具建材市场","address":"山阳镇"},{"poiid":"B2094757D069A7FD489E","title":"石化汽车站","lon":"121.36782074","lat":"30.739181518","category":"35","category_name":"长途汽车站","address":"上海石化(近卫零路)"},{"poiid":"B2094655D36CA2FB479E","title":"山阳","lon":"121.35763","lat":"30.76143","category":"38","category_name":"公交车站","address":""},{"poiid":"B2094757D16AA1FA4993","title":"海辰小区","lon":"121.351557009","lat":"30.7566240547","category":"47","category_name":"住宅区","address":"上海市金山区海盛路"},{"poiid":"B2094655D36CA7FB439A","title":"海利路","lon":"121.36734","lat":"30.73913","category":"38","category_name":"公交车站","address":""},{"poiid":"B2094757D068A6F9439D","title":"金山区人民政府","lon":"121.35082244","lat":"30.738594055","category":"252","category_name":"楼宇机构","address":"上海金山区金山大道2000号"},{"poiid":"B2094757D068A3FF419C","title":"金山区","lon":"121.341964","lat":"30.741986","category":"250","category_name":"公园户外","address":"上海金山区区域"},{"poiid":"B2094654DB68AAFF449B","title":"金山嘴灯具城","lon":"121.3617","lat":"30.75805","category":"123","category_name":"家具建材市场","address":""},{"poiid":"B2094750D76EA6F94799","title":"雨盟咖啡","lon":"121.346","lat":"30.7403","category":"94","category_name":"西餐厅","address":"近郊金山区石化杭州湾大道1377号(近金山大道)"},{"poiid":"B2094655D268ABF8429F","title":"龙泉港桥","lon":"121.37197","lat":"30.75378","category":"250","category_name":"公园户外","address":""},{"poiid":"B2094757D168A1F94492","title":"龙泽园","lon":"121.345","lat":"30.751","category":"500","category_name":"未知分类","address":"上海金山区龙山路"},{"poiid":"B2094655D36DA1F54993","title":"新城区教育园区","lon":"121.34604","lat":"30.7455","category":"38","category_name":"公交车站","address":""},{"poiid":"B2094654DB69A3F9419F","title":"华江小区1号","lon":"121.3599","lat":"30.73614","category":"47","category_name":"住宅区","address":"石化"},{"poiid":"B2094750D56AA6F4449C","title":"蓝堡公馆","lon":"121.361759","lat":"30.735001","category":"47","category_name":"住宅区","address":"金山龙胜东路828号(杭州湾大道卫清东路交汇处)"},{"poiid":"B2094654DB68AAF54999","title":"圣东尼(上海)针织机器有限公司","lon":"121.367","lat":"30.74131","category":"263","category_name":"公司","address":""},{"poiid":"B2094757D165A7FF4799","title":"复地金石湾","lon":"121.3710045939","lat":"30.756664362127","category":"252","category_name":"楼宇机构","address":"浦卫公路16299号"},{"poiid":"B2094654DB69A3FC4298","title":"山鑫康城1号门","lon":"121.35961","lat":"30.7298","category":"47","category_name":"住宅区","address":"金山区山阳镇卫阳南路118弄"},{"poiid":"B209475CD064A4FF429E","title":"香涌海鲜大酒楼 金山店","lon":"121.35706","lat":"30.76076","category":"75","category_name":"浙江菜","address":"金山区亭卫公路1515号(近龙皓路)"},{"poiid":"B2094757D16FAAFB4793","title":"三岛海鲜城","lon":"121.3694225","lat":"30.7284768","category":"260","category_name":"其他","address":"近郊金山区亭卫南路88弄8号(近金山嘴海鲜城)"},{"poiid":"B2094655D36CA0FE4598","title":"金山区政府(下客站)","lon":"121.34726","lat":"30.74226","category":"38","category_name":"公交车站","address":""},{"poiid":"B2094757D16FAAFC439E","title":"金山大道","lon":"121.34906888","lat":"30.7438124447","category":"260","category_name":"其他","address":"上海金山区金山大道"}]