[{"poiid":"B2094757D06FA7FC449B","title":"金山石化汽车站","lon":"121.3364732","lat":"30.717885116","category":"35","category_name":"长途汽车站","address":"近郊金山区沪杭公路(卫零路口)"},{"poiid":"B2094757D06AAAF54099","title":"上海 石化工业学校","lon":"121.326148987","lat":"30.7213821411","category":"500","category_name":"未知分类","address":"近郊金山区石化龙胜路1097号"},{"poiid":"B2094757D069A2FC499D","title":"瑞鑫百货","lon":"121.3367","lat":"30.72685","category":"119","category_name":"商场","address":"近郊金山区石化卫零路555号(卫清路口)"},{"poiid":"B2094655D26BA3F54399","title":"御景龙庭","lon":"121.322644","lat":"30.7316","category":"47","category_name":"住宅区","address":"上海金山区学府路818弄"},{"poiid":"B2094757D065A1FC449A","title":"依天花园大酒店","lon":"121.3298735","lat":"30.734068959","category":"76","category_name":"上海菜","address":"近郊东平南路1111号(近金山大道)"},{"poiid":"B2094757D069AAFA4392","title":"卜蜂莲花(金山卫清店)","lon":"121.33615","lat":"30.72736","category":"118","category_name":"超级市场","address":"金山区石化卫清路858号"},{"poiid":"B2094757DA6EA7FB479A","title":"来客乐","lon":"121.33279","lat":"30.72644","category":"76","category_name":"上海菜","address":"近郊金山石化东平南路855号(近卫清路)"},{"poiid":"B2094757DA65A5F5449E","title":"速8酒店（上海金山城市沙滩店）","lon":"121.322901249","lat":"30.727025313","category":"216","category_name":"经济型连锁酒店","address":"上海市金山区学府路551号"},{"poiid":"B2094654DB69A2F44193","title":"景点商务办公楼(一号楼)","lon":"121.32586","lat":"30.72519","category":"46","category_name":"楼宇","address":"卫清西路1339"},{"poiid":"B2094654DB69A2FD459B","title":"上海金山卫经济小区","lon":"121.32315","lat":"30.7262","category":"46","category_name":"楼宇","address":"学府路501"},{"poiid":"B2094654DB69A2FB4992","title":"景点商务办公楼(卫清西路)","lon":"121.3264","lat":"30.72532","category":"46","category_name":"楼宇","address":"卫清西路1311-1313"},{"poiid":"B2094655D268A5FA469C","title":"商务办公楼(卫清西路)","lon":"121.32685","lat":"30.72539","category":"46","category_name":"楼宇","address":"卫清西路1283"},{"poiid":"B2094654DB69A2FD4492","title":"上海市金卫中学","lon":"121.32286","lat":"30.72587","category":"55","category_name":"中学","address":"学府路481"},{"poiid":"B2094757D064A1F4499E","title":"阿香米线","lon":"121.33503364","lat":"30.727581661","category":"257","category_name":"中餐厅","address":"上海市金山区石化卫清西路854号易初莲花内"},{"poiid":"B2094654DB69A2FC489B","title":"锦华大楼","lon":"121.32327","lat":"30.72815","category":"46","category_name":"楼宇","address":"板桥西路1345"},{"poiid":"B2094654DB69A2FC439C","title":"滨海二村","lon":"121.3259","lat":"30.727533","category":"47","category_name":"住宅区","address":"板桥西路1221号"},{"poiid":"B2094654DB69A2FC4799","title":"万寿寺(金卫村)","lon":"121.32872","lat":"30.73171","category":"244","category_name":"寺庙道观","address":"金山卫镇金卫村1148号"},{"poiid":"B2094757D065A4FA4599","title":"钱龙大酒店","lon":"121.32272514","lat":"30.7334758","category":"76","category_name":"上海菜","address":"近郊金山区金山大道"},{"poiid":"B2094654DB64A7FF499F","title":"童涵春堂","lon":"121.32311","lat":"30.7246","category":"162","category_name":"医院","address":"老卫清路33-35"},{"poiid":"B2094750D56AAAFD469E","title":"易家商业中心","lon":"121.329274","lat":"30.726841","category":"47","category_name":"住宅区","address":"城河路330号"},{"poiid":"B2094654DB69A3F5439D","title":"东方网点卫清店","lon":"121.32582","lat":"30.72575","category":"176","category_name":"网吧","address":"近郊金山区卫清西路1376号(施三路卫清西路)"},{"poiid":"B2094654DB69A2FC499E","title":"板桥路小商品市场","lon":"121.32449","lat":"30.72831","category":"120","category_name":"小商品市场","address":"板桥西路1303弄"},{"poiid":"B2094654DB69A2FF4193","title":"洁曼良友","lon":"121.32274","lat":"30.72484","category":"117","category_name":"便民商店/便利店","address":"老卫清路42"},{"poiid":"B2094654DB69A2FC4893","title":"滨海一村","lon":"121.32394","lat":"30.728037","category":"47","category_name":"住宅区","address":"板桥西路1325弄"},{"poiid":"B2094757D665ABFF4198","title":"疯狂烤翅 金山石化店","lon":"121.31792","lat":"30.72711","category":"68","category_name":"快餐厅","address":"近郊金山区石化板桥西路470号(近卫零路)"},{"poiid":"B2094655D268A0FB4792","title":"好又多购物中心金卫店","lon":"121.32208","lat":"30.72827","category":"118","category_name":"超级市场","address":""},{"poiid":"B2094654DB69A2FD479F","title":"好德便利NO.484","lon":"121.32261","lat":"30.72803","category":"117","category_name":"便民商店/便利店","address":"板桥西路1351"},{"poiid":"B2094654DB69A3FD499A","title":"金卫","lon":"121.31693","lat":"30.72467","category":"257","category_name":"中餐厅","address":""},{"poiid":"B2094655D268A4FA4299","title":"滨海一村(北门)","lon":"121.32379","lat":"30.72832","category":"47","category_name":"住宅区","address":"板桥西路1325"},{"poiid":"B2094655D268A4FA439A","title":"上海石化工业学校(北门)","lon":"121.32608","lat":"30.72209","category":"678","category_name":"学校大门","address":"龙胜路1097"},{"poiid":"B2094655D26FAAFB479E","title":"惠驰商务楼","lon":"121.32824","lat":"30.72337","category":"46","category_name":"楼宇","address":"施三路16"},{"poiid":"B2094654DB69A7FB4092","title":"金山卫派出所","lon":"121.32328","lat":"30.72465","category":"609","category_name":"警察局","address":"金山区老卫清路29号"},{"poiid":"B2094654DB69A2FD409E","title":"滨海二村北门","lon":"121.32713","lat":"30.72904","category":"47","category_name":"住宅区","address":"板桥西路1135"},{"poiid":"B2094654DB69A2F9479C","title":"中国石化集团宁波工程有限公司金山基地","lon":"121.32653","lat":"30.72488","category":"263","category_name":"公司","address":"施三路89"},{"poiid":"B2094757D66CA5FA4392","title":"金色港湾浴场","lon":"121.322852","lat":"30.727022","category":"148","category_name":"美容美发店","address":"上海闵行区莘松路1088号"},{"poiid":"B2094654DB69A2FA429A","title":"中国石化集团上海培训中心","lon":"121.32852","lat":"30.722","category":"190","category_name":"培训机构","address":"上海龙胜路909号"},{"poiid":"B2094655D268A6FE479C","title":"滨海三·四村(南门)","lon":"121.32544","lat":"30.72912","category":"47","category_name":"住宅区","address":"板桥西路1230"},{"poiid":"B2094654DB69A2FA409F","title":"快客NO.6271","lon":"121.32467","lat":"30.7222","category":"117","category_name":"便民商店/便利店","address":"学府路270"},{"poiid":"B2094654DB69A2FC4992","title":"滨海四村南门","lon":"121.32606","lat":"30.72923","category":"47","category_name":"住宅区","address":"板桥西路1172"},{"poiid":"B2094654DB69A2FC439F","title":"滨海三·四村","lon":"121.32534","lat":"30.72956","category":"47","category_name":"住宅区","address":"板桥西路1230"},{"poiid":"B2094655D268A6FE4793","title":"上海市金山社区学院(北门)","lon":"121.32843","lat":"30.72244","category":"52","category_name":"高等院校","address":"龙胜路909"},{"poiid":"B2094654DB69A2FC4193","title":"中国农业银行金山区金卫支行","lon":"121.3237","lat":"30.72869","category":"150","category_name":"银行","address":"近郊金卫镇板桥西路1318号"},{"poiid":"B2094654DB69A2FC4399","title":"中国工商银行金山支行北区分理处","lon":"121.32517","lat":"30.72904","category":"150","category_name":"银行","address":"上海市板桥西路1238号"},{"poiid":"B2094655D26EA1F84799","title":"上海泽达进修学院","lon":"121.32814","lat":"30.72286","category":"53","category_name":"成人教育","address":"龙胜路1000号"},{"poiid":"B2094654DB69A2FA489F","title":"新亚大包(卫零路)","lon":"121.33658","lat":"30.72645","category":"68","category_name":"快餐厅","address":"近郊金山区卫零路555号瑞鑫百货旁(近卫清路)"},{"poiid":"B2094654DB69A2FE419F","title":"良友金伴NO.568","lon":"121.32185","lat":"30.73012","category":"117","category_name":"便民商店/便利店","address":"学府路729"},{"poiid":"B2094654DB69A2FA429B","title":"上海市金山社区学院","lon":"121.32852","lat":"30.72201","category":"52","category_name":"高等院校","address":"金山区龙胜路909"},{"poiid":"B2094654DB69A2FC4798","title":"万寿新村","lon":"121.32708","lat":"30.73103","category":"47","category_name":"住宅区","address":""},{"poiid":"B2094654DB65A6F54492","title":"金房花苑(一号门)","lon":"121.31912","lat":"30.72734","category":"47","category_name":"住宅区","address":"板桥西路1519弄"},{"poiid":"B2094757D16BABFB479D","title":"超越神话","lon":"121.3304","lat":"30.71923","category":"500","category_name":"未知分类","address":"近郊金山石化临桂路2688号"},{"poiid":"B2094757D06FA7FC449B","title":"金山石化汽车站","lon":"121.3364732","lat":"30.717885116","category":"35","category_name":"长途汽车站","address":"近郊金山区沪杭公路(卫零路口)"},{"poiid":"B2094757D06AAAF54099","title":"上海 石化工业学校","lon":"121.326148987","lat":"30.7213821411","category":"500","category_name":"未知分类","address":"近郊金山区石化龙胜路1097号"},{"poiid":"B2094757D069A2FC499D","title":"瑞鑫百货","lon":"121.3367","lat":"30.72685","category":"119","category_name":"商场","address":"近郊金山区石化卫零路555号(卫清路口)"},{"poiid":"B2094655D26BA3F54399","title":"御景龙庭","lon":"121.322644","lat":"30.7316","category":"47","category_name":"住宅区","address":"上海金山区学府路818弄"},{"poiid":"B2094757D065A1FC449A","title":"依天花园大酒店","lon":"121.3298735","lat":"30.734068959","category":"76","category_name":"上海菜","address":"近郊东平南路1111号(近金山大道)"},{"poiid":"B2094757D069AAFA4392","title":"卜蜂莲花(金山卫清店)","lon":"121.33615","lat":"30.72736","category":"118","category_name":"超级市场","address":"金山区石化卫清路858号"},{"poiid":"B2094757DA6EA7FB479A","title":"来客乐","lon":"121.33279","lat":"30.72644","category":"76","category_name":"上海菜","address":"近郊金山石化东平南路855号(近卫清路)"},{"poiid":"B2094757DA65A5F5449E","title":"速8酒店（上海金山城市沙滩店）","lon":"121.322901249","lat":"30.727025313","category":"216","category_name":"经济型连锁酒店","address":"上海市金山区学府路551号"},{"poiid":"B2094654DB69A2F44193","title":"景点商务办公楼(一号楼)","lon":"121.32586","lat":"30.72519","category":"46","category_name":"楼宇","address":"卫清西路1339"},{"poiid":"B2094654DB69A2FD459B","title":"上海金山卫经济小区","lon":"121.32315","lat":"30.7262","category":"46","category_name":"楼宇","address":"学府路501"},{"poiid":"B2094654DB69A2FB4992","title":"景点商务办公楼(卫清西路)","lon":"121.3264","lat":"30.72532","category":"46","category_name":"楼宇","address":"卫清西路1311-1313"},{"poiid":"B2094655D268A5FA469C","title":"商务办公楼(卫清西路)","lon":"121.32685","lat":"30.72539","category":"46","category_name":"楼宇","address":"卫清西路1283"},{"poiid":"B2094654DB69A2FD4492","title":"上海市金卫中学","lon":"121.32286","lat":"30.72587","category":"55","category_name":"中学","address":"学府路481"},{"poiid":"B2094757D064A1F4499E","title":"阿香米线","lon":"121.33503364","lat":"30.727581661","category":"257","category_name":"中餐厅","address":"上海市金山区石化卫清西路854号易初莲花内"},{"poiid":"B2094654DB69A2FC489B","title":"锦华大楼","lon":"121.32327","lat":"30.72815","category":"46","category_name":"楼宇","address":"板桥西路1345"},{"poiid":"B2094654DB69A2FC439C","title":"滨海二村","lon":"121.3259","lat":"30.727533","category":"47","category_name":"住宅区","address":"板桥西路1221号"},{"poiid":"B2094654DB69A2FC4799","title":"万寿寺(金卫村)","lon":"121.32872","lat":"30.73171","category":"244","category_name":"寺庙道观","address":"金山卫镇金卫村1148号"},{"poiid":"B2094757D065A4FA4599","title":"钱龙大酒店","lon":"121.32272514","lat":"30.7334758","category":"76","category_name":"上海菜","address":"近郊金山区金山大道"},{"poiid":"B2094654DB64A7FF499F","title":"童涵春堂","lon":"121.32311","lat":"30.7246","category":"162","category_name":"医院","address":"老卫清路33-35"},{"poiid":"B2094750D56AAAFD469E","title":"易家商业中心","lon":"121.329274","lat":"30.726841","category":"47","category_name":"住宅区","address":"城河路330号"},{"poiid":"B2094654DB69A3F5439D","title":"东方网点卫清店","lon":"121.32582","lat":"30.72575","category":"176","category_name":"网吧","address":"近郊金山区卫清西路1376号(施三路卫清西路)"},{"poiid":"B2094654DB69A2FC499E","title":"板桥路小商品市场","lon":"121.32449","lat":"30.72831","category":"120","category_name":"小商品市场","address":"板桥西路1303弄"},{"poiid":"B2094654DB69A2FF4193","title":"洁曼良友","lon":"121.32274","lat":"30.72484","category":"117","category_name":"便民商店/便利店","address":"老卫清路42"},{"poiid":"B2094654DB69A2FC4893","title":"滨海一村","lon":"121.32394","lat":"30.728037","category":"47","category_name":"住宅区","address":"板桥西路1325弄"},{"poiid":"B2094757D665ABFF4198","title":"疯狂烤翅 金山石化店","lon":"121.31792","lat":"30.72711","category":"68","category_name":"快餐厅","address":"近郊金山区石化板桥西路470号(近卫零路)"},{"poiid":"B2094655D268A0FB4792","title":"好又多购物中心金卫店","lon":"121.32208","lat":"30.72827","category":"118","category_name":"超级市场","address":""},{"poiid":"B2094654DB69A2FD479F","title":"好德便利NO.484","lon":"121.32261","lat":"30.72803","category":"117","category_name":"便民商店/便利店","address":"板桥西路1351"},{"poiid":"B2094654DB69A3FD499A","title":"金卫","lon":"121.31693","lat":"30.72467","category":"257","category_name":"中餐厅","address":""},{"poiid":"B2094655D268A4FA4299","title":"滨海一村(北门)","lon":"121.32379","lat":"30.72832","category":"47","category_name":"住宅区","address":"板桥西路1325"},{"poiid":"B2094655D268A4FA439A","title":"上海石化工业学校(北门)","lon":"121.32608","lat":"30.72209","category":"678","category_name":"学校大门","address":"龙胜路1097"},{"poiid":"B2094655D26FAAFB479E","title":"惠驰商务楼","lon":"121.32824","lat":"30.72337","category":"46","category_name":"楼宇","address":"施三路16"},{"poiid":"B2094654DB69A7FB4092","title":"金山卫派出所","lon":"121.32328","lat":"30.72465","category":"609","category_name":"警察局","address":"金山区老卫清路29号"},{"poiid":"B2094654DB69A2FD409E","title":"滨海二村北门","lon":"121.32713","lat":"30.72904","category":"47","category_name":"住宅区","address":"板桥西路1135"},{"poiid":"B2094654DB69A2F9479C","title":"中国石化集团宁波工程有限公司金山基地","lon":"121.32653","lat":"30.72488","category":"263","category_name":"公司","address":"施三路89"},{"poiid":"B2094757D66CA5FA4392","title":"金色港湾浴场","lon":"121.322852","lat":"30.727022","category":"148","category_name":"美容美发店","address":"上海闵行区莘松路1088号"},{"poiid":"B2094654DB69A2FA429A","title":"中国石化集团上海培训中心","lon":"121.32852","lat":"30.722","category":"190","category_name":"培训机构","address":"上海龙胜路909号"},{"poiid":"B2094655D268A6FE479C","title":"滨海三·四村(南门)","lon":"121.32544","lat":"30.72912","category":"47","category_name":"住宅区","address":"板桥西路1230"},{"poiid":"B2094654DB69A2FA409F","title":"快客NO.6271","lon":"121.32467","lat":"30.7222","category":"117","category_name":"便民商店/便利店","address":"学府路270"},{"poiid":"B2094654DB69A2FC4992","title":"滨海四村南门","lon":"121.32606","lat":"30.72923","category":"47","category_name":"住宅区","address":"板桥西路1172"},{"poiid":"B2094654DB69A2FC439F","title":"滨海三·四村","lon":"121.32534","lat":"30.72956","category":"47","category_name":"住宅区","address":"板桥西路1230"},{"poiid":"B2094655D268A6FE4793","title":"上海市金山社区学院(北门)","lon":"121.32843","lat":"30.72244","category":"52","category_name":"高等院校","address":"龙胜路909"},{"poiid":"B2094654DB69A2FC4193","title":"中国农业银行金山区金卫支行","lon":"121.3237","lat":"30.72869","category":"150","category_name":"银行","address":"近郊金卫镇板桥西路1318号"},{"poiid":"B2094654DB69A2FC4399","title":"中国工商银行金山支行北区分理处","lon":"121.32517","lat":"30.72904","category":"150","category_name":"银行","address":"上海市板桥西路1238号"},{"poiid":"B2094655D26EA1F84799","title":"上海泽达进修学院","lon":"121.32814","lat":"30.72286","category":"53","category_name":"成人教育","address":"龙胜路1000号"},{"poiid":"B2094654DB69A2FA489F","title":"新亚大包(卫零路)","lon":"121.33658","lat":"30.72645","category":"68","category_name":"快餐厅","address":"近郊金山区卫零路555号瑞鑫百货旁(近卫清路)"},{"poiid":"B2094654DB69A2FE419F","title":"良友金伴NO.568","lon":"121.32185","lat":"30.73012","category":"117","category_name":"便民商店/便利店","address":"学府路729"},{"poiid":"B2094654DB69A2FA429B","title":"上海市金山社区学院","lon":"121.32852","lat":"30.72201","category":"52","category_name":"高等院校","address":"金山区龙胜路909"},{"poiid":"B2094654DB69A2FC4798","title":"万寿新村","lon":"121.32708","lat":"30.73103","category":"47","category_name":"住宅区","address":""},{"poiid":"B2094654DB65A6F54492","title":"金房花苑(一号门)","lon":"121.31912","lat":"30.72734","category":"47","category_name":"住宅区","address":"板桥西路1519弄"},{"poiid":"B2094757D16BABFB479D","title":"超越神话","lon":"121.3304","lat":"30.71923","category":"500","category_name":"未知分类","address":"近郊金山石化临桂路2688号"},{"poiid":"B2094757D06FA7FC449B","title":"金山石化汽车站","lon":"121.3364732","lat":"30.717885116","category":"35","category_name":"长途汽车站","address":"近郊金山区沪杭公路(卫零路口)"},{"poiid":"B2094757D06AAAF54099","title":"上海 石化工业学校","lon":"121.326148987","lat":"30.7213821411","category":"500","category_name":"未知分类","address":"近郊金山区石化龙胜路1097号"},{"poiid":"B2094757D069A2FC499D","title":"瑞鑫百货","lon":"121.3367","lat":"30.72685","category":"119","category_name":"商场","address":"近郊金山区石化卫零路555号(卫清路口)"},{"poiid":"B2094655D26BA3F54399","title":"御景龙庭","lon":"121.322644","lat":"30.7316","category":"47","category_name":"住宅区","address":"上海金山区学府路818弄"},{"poiid":"B2094757D065A1FC449A","title":"依天花园大酒店","lon":"121.3298735","lat":"30.734068959","category":"76","category_name":"上海菜","address":"近郊东平南路1111号(近金山大道)"},{"poiid":"B2094757D069AAFA4392","title":"卜蜂莲花(金山卫清店)","lon":"121.33615","lat":"30.72736","category":"118","category_name":"超级市场","address":"金山区石化卫清路858号"},{"poiid":"B2094757DA6EA7FB479A","title":"来客乐","lon":"121.33279","lat":"30.72644","category":"76","category_name":"上海菜","address":"近郊金山石化东平南路855号(近卫清路)"},{"poiid":"B2094757DA65A5F5449E","title":"速8酒店（上海金山城市沙滩店）","lon":"121.322901249","lat":"30.727025313","category":"216","category_name":"经济型连锁酒店","address":"上海市金山区学府路551号"},{"poiid":"B2094654DB69A2F44193","title":"景点商务办公楼(一号楼)","lon":"121.32586","lat":"30.72519","category":"46","category_name":"楼宇","address":"卫清西路1339"},{"poiid":"B2094654DB69A2FD459B","title":"上海金山卫经济小区","lon":"121.32315","lat":"30.7262","category":"46","category_name":"楼宇","address":"学府路501"},{"poiid":"B2094654DB69A2FB4992","title":"景点商务办公楼(卫清西路)","lon":"121.3264","lat":"30.72532","category":"46","category_name":"楼宇","address":"卫清西路1311-1313"},{"poiid":"B2094655D268A5FA469C","title":"商务办公楼(卫清西路)","lon":"121.32685","lat":"30.72539","category":"46","category_name":"楼宇","address":"卫清西路1283"},{"poiid":"B2094654DB69A2FD4492","title":"上海市金卫中学","lon":"121.32286","lat":"30.72587","category":"55","category_name":"中学","address":"学府路481"},{"poiid":"B2094757D064A1F4499E","title":"阿香米线","lon":"121.33503364","lat":"30.727581661","category":"257","category_name":"中餐厅","address":"上海市金山区石化卫清西路854号易初莲花内"},{"poiid":"B2094654DB69A2FC489B","title":"锦华大楼","lon":"121.32327","lat":"30.72815","category":"46","category_name":"楼宇","address":"板桥西路1345"},{"poiid":"B2094654DB69A2FC439C","title":"滨海二村","lon":"121.3259","lat":"30.727533","category":"47","category_name":"住宅区","address":"板桥西路1221号"},{"poiid":"B2094654DB69A2FC4799","title":"万寿寺(金卫村)","lon":"121.32872","lat":"30.73171","category":"244","category_name":"寺庙道观","address":"金山卫镇金卫村1148号"},{"poiid":"B2094757D065A4FA4599","title":"钱龙大酒店","lon":"121.32272514","lat":"30.7334758","category":"76","category_name":"上海菜","address":"近郊金山区金山大道"},{"poiid":"B2094654DB64A7FF499F","title":"童涵春堂","lon":"121.32311","lat":"30.7246","category":"162","category_name":"医院","address":"老卫清路33-35"},{"poiid":"B2094750D56AAAFD469E","title":"易家商业中心","lon":"121.329274","lat":"30.726841","category":"47","category_name":"住宅区","address":"城河路330号"},{"poiid":"B2094654DB69A3F5439D","title":"东方网点卫清店","lon":"121.32582","lat":"30.72575","category":"176","category_name":"网吧","address":"近郊金山区卫清西路1376号(施三路卫清西路)"},{"poiid":"B2094654DB69A2FC499E","title":"板桥路小商品市场","lon":"121.32449","lat":"30.72831","category":"120","category_name":"小商品市场","address":"板桥西路1303弄"},{"poiid":"B2094654DB69A2FF4193","title":"洁曼良友","lon":"121.32274","lat":"30.72484","category":"117","category_name":"便民商店/便利店","address":"老卫清路42"},{"poiid":"B2094654DB69A2FC4893","title":"滨海一村","lon":"121.32394","lat":"30.728037","category":"47","category_name":"住宅区","address":"板桥西路1325弄"},{"poiid":"B2094757D665ABFF4198","title":"疯狂烤翅 金山石化店","lon":"121.31792","lat":"30.72711","category":"68","category_name":"快餐厅","address":"近郊金山区石化板桥西路470号(近卫零路)"},{"poiid":"B2094655D268A0FB4792","title":"好又多购物中心金卫店","lon":"121.32208","lat":"30.72827","category":"118","category_name":"超级市场","address":""},{"poiid":"B2094654DB69A2FD479F","title":"好德便利NO.484","lon":"121.32261","lat":"30.72803","category":"117","category_name":"便民商店/便利店","address":"板桥西路1351"},{"poiid":"B2094654DB69A3FD499A","title":"金卫","lon":"121.31693","lat":"30.72467","category":"257","category_name":"中餐厅","address":""},{"poiid":"B2094655D268A4FA4299","title":"滨海一村(北门)","lon":"121.32379","lat":"30.72832","category":"47","category_name":"住宅区","address":"板桥西路1325"},{"poiid":"B2094655D268A4FA439A","title":"上海石化工业学校(北门)","lon":"121.32608","lat":"30.72209","category":"678","category_name":"学校大门","address":"龙胜路1097"},{"poiid":"B2094655D26FAAFB479E","title":"惠驰商务楼","lon":"121.32824","lat":"30.72337","category":"46","category_name":"楼宇","address":"施三路16"},{"poiid":"B2094654DB69A7FB4092","title":"金山卫派出所","lon":"121.32328","lat":"30.72465","category":"609","category_name":"警察局","address":"金山区老卫清路29号"},{"poiid":"B2094654DB69A2FD409E","title":"滨海二村北门","lon":"121.32713","lat":"30.72904","category":"47","category_name":"住宅区","address":"板桥西路1135"},{"poiid":"B2094654DB69A2F9479C","title":"中国石化集团宁波工程有限公司金山基地","lon":"121.32653","lat":"30.72488","category":"263","category_name":"公司","address":"施三路89"},{"poiid":"B2094757D66CA5FA4392","title":"金色港湾浴场","lon":"121.322852","lat":"30.727022","category":"148","category_name":"美容美发店","address":"上海闵行区莘松路1088号"},{"poiid":"B2094654DB69A2FA429A","title":"中国石化集团上海培训中心","lon":"121.32852","lat":"30.722","category":"190","category_name":"培训机构","address":"上海龙胜路909号"},{"poiid":"B2094655D268A6FE479C","title":"滨海三·四村(南门)","lon":"121.32544","lat":"30.72912","category":"47","category_name":"住宅区","address":"板桥西路1230"},{"poiid":"B2094654DB69A2FA409F","title":"快客NO.6271","lon":"121.32467","lat":"30.7222","category":"117","category_name":"便民商店/便利店","address":"学府路270"},{"poiid":"B2094654DB69A2FC4992","title":"滨海四村南门","lon":"121.32606","lat":"30.72923","category":"47","category_name":"住宅区","address":"板桥西路1172"},{"poiid":"B2094654DB69A2FC439F","title":"滨海三·四村","lon":"121.32534","lat":"30.72956","category":"47","category_name":"住宅区","address":"板桥西路1230"},{"poiid":"B2094655D268A6FE4793","title":"上海市金山社区学院(北门)","lon":"121.32843","lat":"30.72244","category":"52","category_name":"高等院校","address":"龙胜路909"},{"poiid":"B2094654DB69A2FC4193","title":"中国农业银行金山区金卫支行","lon":"121.3237","lat":"30.72869","category":"150","category_name":"银行","address":"近郊金卫镇板桥西路1318号"},{"poiid":"B2094654DB69A2FC4399","title":"中国工商银行金山支行北区分理处","lon":"121.32517","lat":"30.72904","category":"150","category_name":"银行","address":"上海市板桥西路1238号"},{"poiid":"B2094655D26EA1F84799","title":"上海泽达进修学院","lon":"121.32814","lat":"30.72286","category":"53","category_name":"成人教育","address":"龙胜路1000号"},{"poiid":"B2094654DB69A2FA489F","title":"新亚大包(卫零路)","lon":"121.33658","lat":"30.72645","category":"68","category_name":"快餐厅","address":"近郊金山区卫零路555号瑞鑫百货旁(近卫清路)"},{"poiid":"B2094654DB69A2FE419F","title":"良友金伴NO.568","lon":"121.32185","lat":"30.73012","category":"117","category_name":"便民商店/便利店","address":"学府路729"},{"poiid":"B2094654DB69A2FA429B","title":"上海市金山社区学院","lon":"121.32852","lat":"30.72201","category":"52","category_name":"高等院校","address":"金山区龙胜路909"},{"poiid":"B2094654DB69A2FC4798","title":"万寿新村","lon":"121.32708","lat":"30.73103","category":"47","category_name":"住宅区","address":""},{"poiid":"B2094654DB65A6F54492","title":"金房花苑(一号门)","lon":"121.31912","lat":"30.72734","category":"47","category_name":"住宅区","address":"板桥西路1519弄"},{"poiid":"B2094757D16BABFB479D","title":"超越神话","lon":"121.3304","lat":"30.71923","category":"500","category_name":"未知分类","address":"近郊金山石化临桂路2688号"},{"poiid":"B2094757D06FA7FC449B","title":"金山石化汽车站","lon":"121.3364732","lat":"30.717885116","category":"35","category_name":"长途汽车站","address":"近郊金山区沪杭公路(卫零路口)"},{"poiid":"B2094757D06AAAF54099","title":"上海 石化工业学校","lon":"121.326148987","lat":"30.7213821411","category":"500","category_name":"未知分类","address":"近郊金山区石化龙胜路1097号"},{"poiid":"B2094757D069A2FC499D","title":"瑞鑫百货","lon":"121.3367","lat":"30.72685","category":"119","category_name":"商场","address":"近郊金山区石化卫零路555号(卫清路口)"},{"poiid":"B2094655D26BA3F54399","title":"御景龙庭","lon":"121.322644","lat":"30.7316","category":"47","category_name":"住宅区","address":"上海金山区学府路818弄"},{"poiid":"B2094757D065A1FC449A","title":"依天花园大酒店","lon":"121.3298735","lat":"30.734068959","category":"76","category_name":"上海菜","address":"近郊东平南路1111号(近金山大道)"},{"poiid":"B2094757D069AAFA4392","title":"卜蜂莲花(金山卫清店)","lon":"121.33615","lat":"30.72736","category":"118","category_name":"超级市场","address":"金山区石化卫清路858号"},{"poiid":"B2094757DA6EA7FB479A","title":"来客乐","lon":"121.33279","lat":"30.72644","category":"76","category_name":"上海菜","address":"近郊金山石化东平南路855号(近卫清路)"},{"poiid":"B2094757DA65A5F5449E","title":"速8酒店（上海金山城市沙滩店）","lon":"121.322901249","lat":"30.727025313","category":"216","category_name":"经济型连锁酒店","address":"上海市金山区学府路551号"},{"poiid":"B2094654DB69A2F44193","title":"景点商务办公楼(一号楼)","lon":"121.32586","lat":"30.72519","category":"46","category_name":"楼宇","address":"卫清西路1339"},{"poiid":"B2094654DB69A2FD459B","title":"上海金山卫经济小区","lon":"121.32315","lat":"30.7262","category":"46","category_name":"楼宇","address":"学府路501"},{"poiid":"B2094654DB69A2FB4992","title":"景点商务办公楼(卫清西路)","lon":"121.3264","lat":"30.72532","category":"46","category_name":"楼宇","address":"卫清西路1311-1313"},{"poiid":"B2094655D268A5FA469C","title":"商务办公楼(卫清西路)","lon":"121.32685","lat":"30.72539","category":"46","category_name":"楼宇","address":"卫清西路1283"},{"poiid":"B2094654DB69A2FD4492","title":"上海市金卫中学","lon":"121.32286","lat":"30.72587","category":"55","category_name":"中学","address":"学府路481"},{"poiid":"B2094757D064A1F4499E","title":"阿香米线","lon":"121.33503364","lat":"30.727581661","category":"257","category_name":"中餐厅","address":"上海市金山区石化卫清西路854号易初莲花内"},{"poiid":"B2094654DB69A2FC489B","title":"锦华大楼","lon":"121.32327","lat":"30.72815","category":"46","category_name":"楼宇","address":"板桥西路1345"},{"poiid":"B2094654DB69A2FC439C","title":"滨海二村","lon":"121.3259","lat":"30.727533","category":"47","category_name":"住宅区","address":"板桥西路1221号"},{"poiid":"B2094654DB69A2FC4799","title":"万寿寺(金卫村)","lon":"121.32872","lat":"30.73171","category":"244","category_name":"寺庙道观","address":"金山卫镇金卫村1148号"},{"poiid":"B2094757D065A4FA4599","title":"钱龙大酒店","lon":"121.32272514","lat":"30.7334758","category":"76","category_name":"上海菜","address":"近郊金山区金山大道"},{"poiid":"B2094654DB64A7FF499F","title":"童涵春堂","lon":"121.32311","lat":"30.7246","category":"162","category_name":"医院","address":"老卫清路33-35"},{"poiid":"B2094750D56AAAFD469E","title":"易家商业中心","lon":"121.329274","lat":"30.726841","category":"47","category_name":"住宅区","address":"城河路330号"},{"poiid":"B2094654DB69A3F5439D","title":"东方网点卫清店","lon":"121.32582","lat":"30.72575","category":"176","category_name":"网吧","address":"近郊金山区卫清西路1376号(施三路卫清西路)"},{"poiid":"B2094654DB69A2FC499E","title":"板桥路小商品市场","lon":"121.32449","lat":"30.72831","category":"120","category_name":"小商品市场","address":"板桥西路1303弄"},{"poiid":"B2094654DB69A2FF4193","title":"洁曼良友","lon":"121.32274","lat":"30.72484","category":"117","category_name":"便民商店/便利店","address":"老卫清路42"},{"poiid":"B2094654DB69A2FC4893","title":"滨海一村","lon":"121.32394","lat":"30.728037","category":"47","category_name":"住宅区","address":"板桥西路1325弄"},{"poiid":"B2094757D665ABFF4198","title":"疯狂烤翅 金山石化店","lon":"121.31792","lat":"30.72711","category":"68","category_name":"快餐厅","address":"近郊金山区石化板桥西路470号(近卫零路)"},{"poiid":"B2094655D268A0FB4792","title":"好又多购物中心金卫店","lon":"121.32208","lat":"30.72827","category":"118","category_name":"超级市场","address":""},{"poiid":"B2094654DB69A2FD479F","title":"好德便利NO.484","lon":"121.32261","lat":"30.72803","category":"117","category_name":"便民商店/便利店","address":"板桥西路1351"},{"poiid":"B2094654DB69A3FD499A","title":"金卫","lon":"121.31693","lat":"30.72467","category":"257","category_name":"中餐厅","address":""},{"poiid":"B2094655D268A4FA4299","title":"滨海一村(北门)","lon":"121.32379","lat":"30.72832","category":"47","category_name":"住宅区","address":"板桥西路1325"},{"poiid":"B2094655D268A4FA439A","title":"上海石化工业学校(北门)","lon":"121.32608","lat":"30.72209","category":"678","category_name":"学校大门","address":"龙胜路1097"},{"poiid":"B2094655D26FAAFB479E","title":"惠驰商务楼","lon":"121.32824","lat":"30.72337","category":"46","category_name":"楼宇","address":"施三路16"},{"poiid":"B2094654DB69A7FB4092","title":"金山卫派出所","lon":"121.32328","lat":"30.72465","category":"609","category_name":"警察局","address":"金山区老卫清路29号"},{"poiid":"B2094654DB69A2FD409E","title":"滨海二村北门","lon":"121.32713","lat":"30.72904","category":"47","category_name":"住宅区","address":"板桥西路1135"},{"poiid":"B2094654DB69A2F9479C","title":"中国石化集团宁波工程有限公司金山基地","lon":"121.32653","lat":"30.72488","category":"263","category_name":"公司","address":"施三路89"},{"poiid":"B2094757D66CA5FA4392","title":"金色港湾浴场","lon":"121.322852","lat":"30.727022","category":"148","category_name":"美容美发店","address":"上海闵行区莘松路1088号"},{"poiid":"B2094654DB69A2FA429A","title":"中国石化集团上海培训中心","lon":"121.32852","lat":"30.722","category":"190","category_name":"培训机构","address":"上海龙胜路909号"},{"poiid":"B2094655D268A6FE479C","title":"滨海三·四村(南门)","lon":"121.32544","lat":"30.72912","category":"47","category_name":"住宅区","address":"板桥西路1230"},{"poiid":"B2094654DB69A2FA409F","title":"快客NO.6271","lon":"121.32467","lat":"30.7222","category":"117","category_name":"便民商店/便利店","address":"学府路270"},{"poiid":"B2094654DB69A2FC4992","title":"滨海四村南门","lon":"121.32606","lat":"30.72923","category":"47","category_name":"住宅区","address":"板桥西路1172"},{"poiid":"B2094654DB69A2FC439F","title":"滨海三·四村","lon":"121.32534","lat":"30.72956","category":"47","category_name":"住宅区","address":"板桥西路1230"},{"poiid":"B2094655D268A6FE4793","title":"上海市金山社区学院(北门)","lon":"121.32843","lat":"30.72244","category":"52","category_name":"高等院校","address":"龙胜路909"},{"poiid":"B2094654DB69A2FC4193","title":"中国农业银行金山区金卫支行","lon":"121.3237","lat":"30.72869","category":"150","category_name":"银行","address":"近郊金卫镇板桥西路1318号"},{"poiid":"B2094654DB69A2FC4399","title":"中国工商银行金山支行北区分理处","lon":"121.32517","lat":"30.72904","category":"150","category_name":"银行","address":"上海市板桥西路1238号"},{"poiid":"B2094655D26EA1F84799","title":"上海泽达进修学院","lon":"121.32814","lat":"30.72286","category":"53","category_name":"成人教育","address":"龙胜路1000号"},{"poiid":"B2094654DB69A2FA489F","title":"新亚大包(卫零路)","lon":"121.33658","lat":"30.72645","category":"68","category_name":"快餐厅","address":"近郊金山区卫零路555号瑞鑫百货旁(近卫清路)"},{"poiid":"B2094654DB69A2FE419F","title":"良友金伴NO.568","lon":"121.32185","lat":"30.73012","category":"117","category_name":"便民商店/便利店","address":"学府路729"},{"poiid":"B2094654DB69A2FA429B","title":"上海市金山社区学院","lon":"121.32852","lat":"30.72201","category":"52","category_name":"高等院校","address":"金山区龙胜路909"},{"poiid":"B2094654DB69A2FC4798","title":"万寿新村","lon":"121.32708","lat":"30.73103","category":"47","category_name":"住宅区","address":""},{"poiid":"B2094654DB65A6F54492","title":"金房花苑(一号门)","lon":"121.31912","lat":"30.72734","category":"47","category_name":"住宅区","address":"板桥西路1519弄"},{"poiid":"B2094757D16BABFB479D","title":"超越神话","lon":"121.3304","lat":"30.71923","category":"500","category_name":"未知分类","address":"近郊金山石化临桂路2688号"}]