[{"poiid":"B2094654D568AAFB489F","title":"上海通用汽车有限公司","lon":"121.62227","lat":"31.27651","category":"263","category_name":"公司","address":"浦东新区申江路1500号"},{"poiid":"B2094757D06BA7FF449E","title":"金领之都","lon":"121.62876399826","lat":"31.265811442778","category":"76","category_name":"上海菜","address":"金海路1000号新金桥路1888号"},{"poiid":"B2094757D06FAAF4479F","title":"金桥文体中心","lon":"121.6099030083983","lat":"31.267896413802113","category":"221","category_name":"健身中心","address":"浦东新区金桥镇金高路1777号(近佳林路)"},{"poiid":"B2094757D06FA5FC459D","title":"廊亦舫酒楼(金桥店)","lon":"121.61029","lat":"31.26954","category":"76","category_name":"上海菜","address":"浦东新区金高路1757号(佳京路金高路)"},{"poiid":"B2094757D069A5FA459D","title":"上海通用汽车 南厂车身","lon":"121.619228339","lat":"31.2691012364","category":"500","category_name":"未知分类","address":"上海申江路1500"},{"poiid":"B2094757D068A3FC469A","title":"联合汽车电子有限公司","lon":"121.62747955","lat":"31.267131805","category":"263","category_name":"公司","address":"上海浦东新区榕桥路555号"},{"poiid":"B2094655D36CA0FF459D","title":"金海路申江路","lon":"121.62591","lat":"31.26437","category":"38","category_name":"公交车站","address":""},{"poiid":"B2094757D06AA0FB449C","title":"上海通用北厂总装","lon":"121.62230717","lat":"31.275640826","category":"46","category_name":"楼宇","address":"上海申江路1500号"},{"poiid":"B2094757D06FA6F84198","title":"上海通用汽车八号停车场","lon":"121.614784","lat":"31.279944","category":"500","category_name":"未知分类","address":"上海巨峰路  金京路"},{"poiid":"B2094757D069A2F4489A","title":"金苹果学校","lon":"121.61986","lat":"31.28107","category":"253","category_name":"校园生活","address":"浦东新区巨峰路1555号"},{"poiid":"B2094655D265A6FF419A","title":"阳光城市家园","lon":"121.61479","lat":"31.272135","category":"47","category_name":"住宅区","address":"永宁路33弄"},{"poiid":"B2094654D568A0F8449E","title":"金色米兰苑","lon":"121.62175757199","lat":"31.275163350192","category":"47","category_name":"住宅区","address":"佳乐路255弄1-53号"},{"poiid":"B2094654D568A0F84592","title":"上海通用汽车榕桥路1号门(南1)","lon":"121.6215","lat":"31.26862","category":"263","category_name":"公司","address":"榕桥路"},{"poiid":"B2094654D568A0FD479F","title":"新金桥商业中心","lon":"121.61033","lat":"31.26948","category":"119","category_name":"商场","address":"佳林路78号"},{"poiid":"B2094655D26CA7FE479E","title":"永业小区","lon":"121.61426","lat":"31.26496","category":"47","category_name":"住宅区","address":"佳虹路50弄1-30号"},{"poiid":"B2094654D568A0F8459F","title":"上海汇众汽车制造有限公司轿车车桥厂","lon":"121.62238","lat":"31.27172","category":"263","category_name":"公司","address":"申江路1800"},{"poiid":"B2094757D568A7FF459B","title":"金桥新城二期","lon":"121.617","lat":"31.2687","category":"47","category_name":"住宅区","address":"上海市浦东新区东陆路2000弄"},{"poiid":"B2094654D568A0FC4198","title":"上海通用汽车有限公司售后服务办公楼","lon":"121.61265","lat":"31.27379","category":"46","category_name":"楼宇","address":"佳桥路199"},{"poiid":"B2094757D068AAFA4793","title":"上海通用汽车新行政楼","lon":"121.62453292","lat":"31.278582974","category":"46","category_name":"楼宇","address":"申江路1500号上海通用汽车北厂内"},{"poiid":"B2094654D568A0F8449C","title":"上海通用汽车榕桥路2号门(南2)","lon":"121.61855","lat":"31.26897","category":"263","category_name":"公司","address":"榕桥路"},{"poiid":"B2094655D36DA6FC4392","title":"榕桥路申江路","lon":"121.62395","lat":"31.26851","category":"38","category_name":"公交车站","address":""},{"poiid":"B2094757D66FA7FB4098","title":"佳京路","lon":"121.62025233","lat":"31.268440221","category":"500","category_name":"未知分类","address":"上海市浦东新区佳京路"},{"poiid":"B2094757D068A4F5489A","title":"沃尔沃建筑设备(中国)有限公司","lon":"121.617134","lat":"31.266635","category":"263","category_name":"公司","address":"上海金京路2045号"},{"poiid":"B2094757D069A2F5489C","title":"香啡缤(通用汽车店)","lon":"121.622680864","lat":"31.27630421","category":"260","category_name":"其他","address":"浦东新区申江路1500号上海通用汽车行政楼新楼M楼(近巨峰路)"},{"poiid":"B2094757D568A5F8489C","title":"金桥网管中心","lon":"121.62545","lat":"31.27331","category":"46","category_name":"楼宇","address":"秦桥路211号"},{"poiid":"B2094654D568A0F8459D","title":"AVL李斯特技术中心(上海)有限公司","lon":"121.62352","lat":"31.26902","category":"263","category_name":"公司","address":"上海榕桥路327号"},{"poiid":"B2094654DB6AA3FF449E","title":"蒂克虏伯汇众汽车零部件公司","lon":"121.62457","lat":"31.26994","category":"263","category_name":"公司","address":"上海市浦东新区申江路1900号"},{"poiid":"B2094655D36CA0FA4498","title":"佳虹路永业路","lon":"121.61359","lat":"31.26737","category":"38","category_name":"公交车站","address":""},{"poiid":"B2094757D16FABFE449A","title":"拜耳研发中心","lon":"121.626181","lat":"31.270933","category":"500","category_name":"未知分类","address":"上海秦桥路33号"},{"poiid":"B2094655D265A3FD4499","title":"上海通用汽车金京路6号门","lon":"121.61706","lat":"31.27122","category":"263","category_name":"公司","address":""},{"poiid":"B2094757D169A1FD4093","title":"T.S.烧烤","lon":"121.6161158","lat":"31.2684958","category":"247","category_name":"餐饮美食","address":"上海佳乐路永业路"},{"poiid":"B2094757D16CA1F44693","title":"上海通用","lon":"121.622276306","lat":"31.276512146","category":"500","category_name":"未知分类","address":"上海申江路1500号"},{"poiid":"B2094757D06BA3FD4799","title":"AVL 食堂","lon":"121.62191772","lat":"31.269098281","category":"260","category_name":"其他","address":"上海浦东新区榕桥路327号内一楼"},{"poiid":"B2094757D069A0FB429A","title":"Volvo Group (TTSC Building)","lon":"121.61422341","lat":"31.266951517","category":"500","category_name":"未知分类","address":"上海金京路2095号"},{"poiid":"B2094655D26BA4FB439E","title":"上海通用汽车金京路5号门","lon":"121.61708","lat":"31.27238","category":"263","category_name":"公司","address":""},{"poiid":"B2094655D26FA0FC499F","title":"阳光欧洲城金色米兰苑(南门)","lon":"121.61508","lat":"31.26881","category":"47","category_name":"住宅区","address":"佳乐路255弄1-53号"},{"poiid":"B2094655D26CA6FD449F","title":"佳虹小区","lon":"121.61494","lat":"31.267649","category":"47","category_name":"住宅区","address":"永业路225弄"},{"poiid":"B2094654D568A0FD439B","title":"阳光欧洲城蔷薇绅邻","lon":"121.61138","lat":"31.27231","category":"47","category_name":"住宅区","address":"金高路1617弄1-336号"},{"poiid":"B2094655D26DA5F44098","title":"佳虹小区2期","lon":"121.61579","lat":"31.26699","category":"47","category_name":"住宅区","address":"永业路188弄、218弄"},{"poiid":"B2094751D26EA4FC4492","title":"上海通用汽车南厂总装","lon":"121.615417","lat":"31.267837","category":"259","category_name":"工厂","address":"浦东新区申江路1500号"},{"poiid":"B2094655D26FA0F44699","title":"东源丽晶别墅南门(巨峰路)","lon":"121.62148","lat":"31.28082","category":"47","category_name":"住宅区","address":"巨峰路1585-1589弄(近申江路)"},{"poiid":"B2094757D065A1FB449F","title":"阳光欧洲城二期","lon":"121.615","lat":"31.2739","category":"47","category_name":"住宅区","address":"上海佳林路82弄"},{"poiid":"B2094757D569A1FD419D","title":"金桥新城一期","lon":"121.61308","lat":"31.270317","category":"47","category_name":"住宅区","address":"上海市浦东新区杨高北路5291弄"},{"poiid":"B2094654DB6BA1FC469C","title":"上海夏普电器有限公司(金海路)","lon":"121.62226","lat":"31.26487","category":"263","category_name":"公司","address":"金海路1111"},{"poiid":"B2094654D568A0F8459E","title":"上海通用汽车申江路2号门(东2)","lon":"121.62477","lat":"31.27296","category":"263","category_name":"公司","address":"申江路"},{"poiid":"B2094757D068A7F8439A","title":"金色米兰","lon":"121.615085","lat":"31.268814","category":"249","category_name":"购物服务","address":"上海佳乐路255"},{"poiid":"B2094655D264AAFA459D","title":"阳光城市家园(西门)","lon":"121.61364","lat":"31.2721","category":"47","category_name":"住宅区","address":"永宁路33弄"},{"poiid":"B2094757D66EA7FB439B","title":"易初莲花","lon":"121.615884899","lat":"31.27578137","category":"249","category_name":"购物服务","address":"上海金高路1256号"},{"poiid":"B2094655D36DA0F4429B","title":"永宁路佳京路","lon":"121.61333","lat":"31.26945","category":"38","category_name":"公交车站","address":""},{"poiid":"B2094654D568A0F8449F","title":"沃尔沃","lon":"121.61714","lat":"31.26663","category":"263","category_name":"公司","address":"金京路2045"},{"poiid":"B2094654D568AAFB489F","title":"上海通用汽车有限公司","lon":"121.62227","lat":"31.27651","category":"263","category_name":"公司","address":"浦东新区申江路1500号"},{"poiid":"B2094757D06BA7FF449E","title":"金领之都","lon":"121.62876399826","lat":"31.265811442778","category":"76","category_name":"上海菜","address":"金海路1000号新金桥路1888号"},{"poiid":"B2094757D06FAAF4479F","title":"金桥文体中心","lon":"121.6099030083983","lat":"31.267896413802113","category":"221","category_name":"健身中心","address":"浦东新区金桥镇金高路1777号(近佳林路)"},{"poiid":"B2094757D06FA5FC459D","title":"廊亦舫酒楼(金桥店)","lon":"121.61029","lat":"31.26954","category":"76","category_name":"上海菜","address":"浦东新区金高路1757号(佳京路金高路)"},{"poiid":"B2094757D069A5FA459D","title":"上海通用汽车 南厂车身","lon":"121.619228339","lat":"31.2691012364","category":"500","category_name":"未知分类","address":"上海申江路1500"},{"poiid":"B2094757D068A3FC469A","title":"联合汽车电子有限公司","lon":"121.62747955","lat":"31.267131805","category":"263","category_name":"公司","address":"上海浦东新区榕桥路555号"},{"poiid":"B2094655D36CA0FF459D","title":"金海路申江路","lon":"121.62591","lat":"31.26437","category":"38","category_name":"公交车站","address":""},{"poiid":"B2094757D06AA0FB449C","title":"上海通用北厂总装","lon":"121.62230717","lat":"31.275640826","category":"46","category_name":"楼宇","address":"上海申江路1500号"},{"poiid":"B2094757D06FA6F84198","title":"上海通用汽车八号停车场","lon":"121.614784","lat":"31.279944","category":"500","category_name":"未知分类","address":"上海巨峰路  金京路"},{"poiid":"B2094757D069A2F4489A","title":"金苹果学校","lon":"121.61986","lat":"31.28107","category":"253","category_name":"校园生活","address":"浦东新区巨峰路1555号"},{"poiid":"B2094655D265A6FF419A","title":"阳光城市家园","lon":"121.61479","lat":"31.272135","category":"47","category_name":"住宅区","address":"永宁路33弄"},{"poiid":"B2094654D568A0F8449E","title":"金色米兰苑","lon":"121.62175757199","lat":"31.275163350192","category":"47","category_name":"住宅区","address":"佳乐路255弄1-53号"},{"poiid":"B2094654D568A0F84592","title":"上海通用汽车榕桥路1号门(南1)","lon":"121.6215","lat":"31.26862","category":"263","category_name":"公司","address":"榕桥路"},{"poiid":"B2094654D568A0FD479F","title":"新金桥商业中心","lon":"121.61033","lat":"31.26948","category":"119","category_name":"商场","address":"佳林路78号"},{"poiid":"B2094655D26CA7FE479E","title":"永业小区","lon":"121.61426","lat":"31.26496","category":"47","category_name":"住宅区","address":"佳虹路50弄1-30号"},{"poiid":"B2094654D568A0F8459F","title":"上海汇众汽车制造有限公司轿车车桥厂","lon":"121.62238","lat":"31.27172","category":"263","category_name":"公司","address":"申江路1800"},{"poiid":"B2094757D568A7FF459B","title":"金桥新城二期","lon":"121.617","lat":"31.2687","category":"47","category_name":"住宅区","address":"上海市浦东新区东陆路2000弄"},{"poiid":"B2094654D568A0FC4198","title":"上海通用汽车有限公司售后服务办公楼","lon":"121.61265","lat":"31.27379","category":"46","category_name":"楼宇","address":"佳桥路199"},{"poiid":"B2094757D068AAFA4793","title":"上海通用汽车新行政楼","lon":"121.62453292","lat":"31.278582974","category":"46","category_name":"楼宇","address":"申江路1500号上海通用汽车北厂内"},{"poiid":"B2094654D568A0F8449C","title":"上海通用汽车榕桥路2号门(南2)","lon":"121.61855","lat":"31.26897","category":"263","category_name":"公司","address":"榕桥路"},{"poiid":"B2094655D36DA6FC4392","title":"榕桥路申江路","lon":"121.62395","lat":"31.26851","category":"38","category_name":"公交车站","address":""},{"poiid":"B2094757D66FA7FB4098","title":"佳京路","lon":"121.62025233","lat":"31.268440221","category":"500","category_name":"未知分类","address":"上海市浦东新区佳京路"},{"poiid":"B2094757D068A4F5489A","title":"沃尔沃建筑设备(中国)有限公司","lon":"121.617134","lat":"31.266635","category":"263","category_name":"公司","address":"上海金京路2045号"},{"poiid":"B2094757D069A2F5489C","title":"香啡缤(通用汽车店)","lon":"121.622680864","lat":"31.27630421","category":"260","category_name":"其他","address":"浦东新区申江路1500号上海通用汽车行政楼新楼M楼(近巨峰路)"},{"poiid":"B2094757D568A5F8489C","title":"金桥网管中心","lon":"121.62545","lat":"31.27331","category":"46","category_name":"楼宇","address":"秦桥路211号"},{"poiid":"B2094654D568A0F8459D","title":"AVL李斯特技术中心(上海)有限公司","lon":"121.62352","lat":"31.26902","category":"263","category_name":"公司","address":"上海榕桥路327号"},{"poiid":"B2094654DB6AA3FF449E","title":"蒂克虏伯汇众汽车零部件公司","lon":"121.62457","lat":"31.26994","category":"263","category_name":"公司","address":"上海市浦东新区申江路1900号"},{"poiid":"B2094655D36CA0FA4498","title":"佳虹路永业路","lon":"121.61359","lat":"31.26737","category":"38","category_name":"公交车站","address":""},{"poiid":"B2094757D16FABFE449A","title":"拜耳研发中心","lon":"121.626181","lat":"31.270933","category":"500","category_name":"未知分类","address":"上海秦桥路33号"},{"poiid":"B2094655D265A3FD4499","title":"上海通用汽车金京路6号门","lon":"121.61706","lat":"31.27122","category":"263","category_name":"公司","address":""},{"poiid":"B2094757D169A1FD4093","title":"T.S.烧烤","lon":"121.6161158","lat":"31.2684958","category":"247","category_name":"餐饮美食","address":"上海佳乐路永业路"},{"poiid":"B2094757D16CA1F44693","title":"上海通用","lon":"121.622276306","lat":"31.276512146","category":"500","category_name":"未知分类","address":"上海申江路1500号"},{"poiid":"B2094757D06BA3FD4799","title":"AVL 食堂","lon":"121.62191772","lat":"31.269098281","category":"260","category_name":"其他","address":"上海浦东新区榕桥路327号内一楼"},{"poiid":"B2094757D069A0FB429A","title":"Volvo Group (TTSC Building)","lon":"121.61422341","lat":"31.266951517","category":"500","category_name":"未知分类","address":"上海金京路2095号"},{"poiid":"B2094655D26BA4FB439E","title":"上海通用汽车金京路5号门","lon":"121.61708","lat":"31.27238","category":"263","category_name":"公司","address":""},{"poiid":"B2094655D26FA0FC499F","title":"阳光欧洲城金色米兰苑(南门)","lon":"121.61508","lat":"31.26881","category":"47","category_name":"住宅区","address":"佳乐路255弄1-53号"},{"poiid":"B2094655D26CA6FD449F","title":"佳虹小区","lon":"121.61494","lat":"31.267649","category":"47","category_name":"住宅区","address":"永业路225弄"},{"poiid":"B2094654D568A0FD439B","title":"阳光欧洲城蔷薇绅邻","lon":"121.61138","lat":"31.27231","category":"47","category_name":"住宅区","address":"金高路1617弄1-336号"},{"poiid":"B2094655D26DA5F44098","title":"佳虹小区2期","lon":"121.61579","lat":"31.26699","category":"47","category_name":"住宅区","address":"永业路188弄、218弄"},{"poiid":"B2094751D26EA4FC4492","title":"上海通用汽车南厂总装","lon":"121.615417","lat":"31.267837","category":"259","category_name":"工厂","address":"浦东新区申江路1500号"},{"poiid":"B2094655D26FA0F44699","title":"东源丽晶别墅南门(巨峰路)","lon":"121.62148","lat":"31.28082","category":"47","category_name":"住宅区","address":"巨峰路1585-1589弄(近申江路)"},{"poiid":"B2094757D065A1FB449F","title":"阳光欧洲城二期","lon":"121.615","lat":"31.2739","category":"47","category_name":"住宅区","address":"上海佳林路82弄"},{"poiid":"B2094757D569A1FD419D","title":"金桥新城一期","lon":"121.61308","lat":"31.270317","category":"47","category_name":"住宅区","address":"上海市浦东新区杨高北路5291弄"},{"poiid":"B2094654DB6BA1FC469C","title":"上海夏普电器有限公司(金海路)","lon":"121.62226","lat":"31.26487","category":"263","category_name":"公司","address":"金海路1111"},{"poiid":"B2094654D568A0F8459E","title":"上海通用汽车申江路2号门(东2)","lon":"121.62477","lat":"31.27296","category":"263","category_name":"公司","address":"申江路"},{"poiid":"B2094757D068A7F8439A","title":"金色米兰","lon":"121.615085","lat":"31.268814","category":"249","category_name":"购物服务","address":"上海佳乐路255"},{"poiid":"B2094655D264AAFA459D","title":"阳光城市家园(西门)","lon":"121.61364","lat":"31.2721","category":"47","category_name":"住宅区","address":"永宁路33弄"},{"poiid":"B2094757D66EA7FB439B","title":"易初莲花","lon":"121.615884899","lat":"31.27578137","category":"249","category_name":"购物服务","address":"上海金高路1256号"},{"poiid":"B2094655D36DA0F4429B","title":"永宁路佳京路","lon":"121.61333","lat":"31.26945","category":"38","category_name":"公交车站","address":""},{"poiid":"B2094654D568A0F8449F","title":"沃尔沃","lon":"121.61714","lat":"31.26663","category":"263","category_name":"公司","address":"金京路2045"},{"poiid":"B2094654D568AAFB489F","title":"上海通用汽车有限公司","lon":"121.62227","lat":"31.27651","category":"263","category_name":"公司","address":"浦东新区申江路1500号"},{"poiid":"B2094757D06BA7FF449E","title":"金领之都","lon":"121.62876399826","lat":"31.265811442778","category":"76","category_name":"上海菜","address":"金海路1000号新金桥路1888号"},{"poiid":"B2094757D06FAAF4479F","title":"金桥文体中心","lon":"121.6099030083983","lat":"31.267896413802113","category":"221","category_name":"健身中心","address":"浦东新区金桥镇金高路1777号(近佳林路)"},{"poiid":"B2094757D06FA5FC459D","title":"廊亦舫酒楼(金桥店)","lon":"121.61029","lat":"31.26954","category":"76","category_name":"上海菜","address":"浦东新区金高路1757号(佳京路金高路)"},{"poiid":"B2094757D069A5FA459D","title":"上海通用汽车 南厂车身","lon":"121.619228339","lat":"31.2691012364","category":"500","category_name":"未知分类","address":"上海申江路1500"},{"poiid":"B2094757D068A3FC469A","title":"联合汽车电子有限公司","lon":"121.62747955","lat":"31.267131805","category":"263","category_name":"公司","address":"上海浦东新区榕桥路555号"},{"poiid":"B2094655D36CA0FF459D","title":"金海路申江路","lon":"121.62591","lat":"31.26437","category":"38","category_name":"公交车站","address":""},{"poiid":"B2094757D06AA0FB449C","title":"上海通用北厂总装","lon":"121.62230717","lat":"31.275640826","category":"46","category_name":"楼宇","address":"上海申江路1500号"},{"poiid":"B2094757D06FA6F84198","title":"上海通用汽车八号停车场","lon":"121.614784","lat":"31.279944","category":"500","category_name":"未知分类","address":"上海巨峰路  金京路"},{"poiid":"B2094757D069A2F4489A","title":"金苹果学校","lon":"121.61986","lat":"31.28107","category":"253","category_name":"校园生活","address":"浦东新区巨峰路1555号"},{"poiid":"B2094655D265A6FF419A","title":"阳光城市家园","lon":"121.61479","lat":"31.272135","category":"47","category_name":"住宅区","address":"永宁路33弄"},{"poiid":"B2094654D568A0F8449E","title":"金色米兰苑","lon":"121.62175757199","lat":"31.275163350192","category":"47","category_name":"住宅区","address":"佳乐路255弄1-53号"},{"poiid":"B2094654D568A0F84592","title":"上海通用汽车榕桥路1号门(南1)","lon":"121.6215","lat":"31.26862","category":"263","category_name":"公司","address":"榕桥路"},{"poiid":"B2094654D568A0FD479F","title":"新金桥商业中心","lon":"121.61033","lat":"31.26948","category":"119","category_name":"商场","address":"佳林路78号"},{"poiid":"B2094655D26CA7FE479E","title":"永业小区","lon":"121.61426","lat":"31.26496","category":"47","category_name":"住宅区","address":"佳虹路50弄1-30号"},{"poiid":"B2094654D568A0F8459F","title":"上海汇众汽车制造有限公司轿车车桥厂","lon":"121.62238","lat":"31.27172","category":"263","category_name":"公司","address":"申江路1800"},{"poiid":"B2094757D568A7FF459B","title":"金桥新城二期","lon":"121.617","lat":"31.2687","category":"47","category_name":"住宅区","address":"上海市浦东新区东陆路2000弄"},{"poiid":"B2094654D568A0FC4198","title":"上海通用汽车有限公司售后服务办公楼","lon":"121.61265","lat":"31.27379","category":"46","category_name":"楼宇","address":"佳桥路199"},{"poiid":"B2094757D068AAFA4793","title":"上海通用汽车新行政楼","lon":"121.62453292","lat":"31.278582974","category":"46","category_name":"楼宇","address":"申江路1500号上海通用汽车北厂内"},{"poiid":"B2094654D568A0F8449C","title":"上海通用汽车榕桥路2号门(南2)","lon":"121.61855","lat":"31.26897","category":"263","category_name":"公司","address":"榕桥路"},{"poiid":"B2094655D36DA6FC4392","title":"榕桥路申江路","lon":"121.62395","lat":"31.26851","category":"38","category_name":"公交车站","address":""},{"poiid":"B2094757D66FA7FB4098","title":"佳京路","lon":"121.62025233","lat":"31.268440221","category":"500","category_name":"未知分类","address":"上海市浦东新区佳京路"},{"poiid":"B2094757D068A4F5489A","title":"沃尔沃建筑设备(中国)有限公司","lon":"121.617134","lat":"31.266635","category":"263","category_name":"公司","address":"上海金京路2045号"},{"poiid":"B2094757D069A2F5489C","title":"香啡缤(通用汽车店)","lon":"121.622680864","lat":"31.27630421","category":"260","category_name":"其他","address":"浦东新区申江路1500号上海通用汽车行政楼新楼M楼(近巨峰路)"},{"poiid":"B2094757D568A5F8489C","title":"金桥网管中心","lon":"121.62545","lat":"31.27331","category":"46","category_name":"楼宇","address":"秦桥路211号"},{"poiid":"B2094654D568A0F8459D","title":"AVL李斯特技术中心(上海)有限公司","lon":"121.62352","lat":"31.26902","category":"263","category_name":"公司","address":"上海榕桥路327号"},{"poiid":"B2094654DB6AA3FF449E","title":"蒂克虏伯汇众汽车零部件公司","lon":"121.62457","lat":"31.26994","category":"263","category_name":"公司","address":"上海市浦东新区申江路1900号"},{"poiid":"B2094655D36CA0FA4498","title":"佳虹路永业路","lon":"121.61359","lat":"31.26737","category":"38","category_name":"公交车站","address":""},{"poiid":"B2094757D16FABFE449A","title":"拜耳研发中心","lon":"121.626181","lat":"31.270933","category":"500","category_name":"未知分类","address":"上海秦桥路33号"},{"poiid":"B2094655D265A3FD4499","title":"上海通用汽车金京路6号门","lon":"121.61706","lat":"31.27122","category":"263","category_name":"公司","address":""},{"poiid":"B2094757D169A1FD4093","title":"T.S.烧烤","lon":"121.6161158","lat":"31.2684958","category":"247","category_name":"餐饮美食","address":"上海佳乐路永业路"},{"poiid":"B2094757D16CA1F44693","title":"上海通用","lon":"121.622276306","lat":"31.276512146","category":"500","category_name":"未知分类","address":"上海申江路1500号"},{"poiid":"B2094757D06BA3FD4799","title":"AVL 食堂","lon":"121.62191772","lat":"31.269098281","category":"260","category_name":"其他","address":"上海浦东新区榕桥路327号内一楼"},{"poiid":"B2094757D069A0FB429A","title":"Volvo Group (TTSC Building)","lon":"121.61422341","lat":"31.266951517","category":"500","category_name":"未知分类","address":"上海金京路2095号"},{"poiid":"B2094655D26BA4FB439E","title":"上海通用汽车金京路5号门","lon":"121.61708","lat":"31.27238","category":"263","category_name":"公司","address":""},{"poiid":"B2094655D26FA0FC499F","title":"阳光欧洲城金色米兰苑(南门)","lon":"121.61508","lat":"31.26881","category":"47","category_name":"住宅区","address":"佳乐路255弄1-53号"},{"poiid":"B2094655D26CA6FD449F","title":"佳虹小区","lon":"121.61494","lat":"31.267649","category":"47","category_name":"住宅区","address":"永业路225弄"},{"poiid":"B2094654D568A0FD439B","title":"阳光欧洲城蔷薇绅邻","lon":"121.61138","lat":"31.27231","category":"47","category_name":"住宅区","address":"金高路1617弄1-336号"},{"poiid":"B2094655D26DA5F44098","title":"佳虹小区2期","lon":"121.61579","lat":"31.26699","category":"47","category_name":"住宅区","address":"永业路188弄、218弄"},{"poiid":"B2094751D26EA4FC4492","title":"上海通用汽车南厂总装","lon":"121.615417","lat":"31.267837","category":"259","category_name":"工厂","address":"浦东新区申江路1500号"},{"poiid":"B2094655D26FA0F44699","title":"东源丽晶别墅南门(巨峰路)","lon":"121.62148","lat":"31.28082","category":"47","category_name":"住宅区","address":"巨峰路1585-1589弄(近申江路)"},{"poiid":"B2094757D065A1FB449F","title":"阳光欧洲城二期","lon":"121.615","lat":"31.2739","category":"47","category_name":"住宅区","address":"上海佳林路82弄"},{"poiid":"B2094757D569A1FD419D","title":"金桥新城一期","lon":"121.61308","lat":"31.270317","category":"47","category_name":"住宅区","address":"上海市浦东新区杨高北路5291弄"},{"poiid":"B2094654DB6BA1FC469C","title":"上海夏普电器有限公司(金海路)","lon":"121.62226","lat":"31.26487","category":"263","category_name":"公司","address":"金海路1111"},{"poiid":"B2094654D568A0F8459E","title":"上海通用汽车申江路2号门(东2)","lon":"121.62477","lat":"31.27296","category":"263","category_name":"公司","address":"申江路"},{"poiid":"B2094757D068A7F8439A","title":"金色米兰","lon":"121.615085","lat":"31.268814","category":"249","category_name":"购物服务","address":"上海佳乐路255"},{"poiid":"B2094655D264AAFA459D","title":"阳光城市家园(西门)","lon":"121.61364","lat":"31.2721","category":"47","category_name":"住宅区","address":"永宁路33弄"},{"poiid":"B2094757D66EA7FB439B","title":"易初莲花","lon":"121.615884899","lat":"31.27578137","category":"249","category_name":"购物服务","address":"上海金高路1256号"},{"poiid":"B2094655D36DA0F4429B","title":"永宁路佳京路","lon":"121.61333","lat":"31.26945","category":"38","category_name":"公交车站","address":""},{"poiid":"B2094654D568A0F8449F","title":"沃尔沃","lon":"121.61714","lat":"31.26663","category":"263","category_name":"公司","address":"金京路2045"},{"poiid":"B2094654D568AAFB489F","title":"上海通用汽车有限公司","lon":"121.62227","lat":"31.27651","category":"263","category_name":"公司","address":"浦东新区申江路1500号"},{"poiid":"B2094757D06BA7FF449E","title":"金领之都","lon":"121.62876399826","lat":"31.265811442778","category":"76","category_name":"上海菜","address":"金海路1000号新金桥路1888号"},{"poiid":"B2094757D06FAAF4479F","title":"金桥文体中心","lon":"121.6099030083983","lat":"31.267896413802113","category":"221","category_name":"健身中心","address":"浦东新区金桥镇金高路1777号(近佳林路)"},{"poiid":"B2094757D06FA5FC459D","title":"廊亦舫酒楼(金桥店)","lon":"121.61029","lat":"31.26954","category":"76","category_name":"上海菜","address":"浦东新区金高路1757号(佳京路金高路)"},{"poiid":"B2094757D069A5FA459D","title":"上海通用汽车 南厂车身","lon":"121.619228339","lat":"31.2691012364","category":"500","category_name":"未知分类","address":"上海申江路1500"},{"poiid":"B2094757D068A3FC469A","title":"联合汽车电子有限公司","lon":"121.62747955","lat":"31.267131805","category":"263","category_name":"公司","address":"上海浦东新区榕桥路555号"},{"poiid":"B2094655D36CA0FF459D","title":"金海路申江路","lon":"121.62591","lat":"31.26437","category":"38","category_name":"公交车站","address":""},{"poiid":"B2094757D06AA0FB449C","title":"上海通用北厂总装","lon":"121.62230717","lat":"31.275640826","category":"46","category_name":"楼宇","address":"上海申江路1500号"},{"poiid":"B2094757D06FA6F84198","title":"上海通用汽车八号停车场","lon":"121.614784","lat":"31.279944","category":"500","category_name":"未知分类","address":"上海巨峰路  金京路"},{"poiid":"B2094757D069A2F4489A","title":"金苹果学校","lon":"121.61986","lat":"31.28107","category":"253","category_name":"校园生活","address":"浦东新区巨峰路1555号"},{"poiid":"B2094655D265A6FF419A","title":"阳光城市家园","lon":"121.61479","lat":"31.272135","category":"47","category_name":"住宅区","address":"永宁路33弄"},{"poiid":"B2094654D568A0F8449E","title":"金色米兰苑","lon":"121.62175757199","lat":"31.275163350192","category":"47","category_name":"住宅区","address":"佳乐路255弄1-53号"},{"poiid":"B2094654D568A0F84592","title":"上海通用汽车榕桥路1号门(南1)","lon":"121.6215","lat":"31.26862","category":"263","category_name":"公司","address":"榕桥路"},{"poiid":"B2094654D568A0FD479F","title":"新金桥商业中心","lon":"121.61033","lat":"31.26948","category":"119","category_name":"商场","address":"佳林路78号"},{"poiid":"B2094655D26CA7FE479E","title":"永业小区","lon":"121.61426","lat":"31.26496","category":"47","category_name":"住宅区","address":"佳虹路50弄1-30号"},{"poiid":"B2094654D568A0F8459F","title":"上海汇众汽车制造有限公司轿车车桥厂","lon":"121.62238","lat":"31.27172","category":"263","category_name":"公司","address":"申江路1800"},{"poiid":"B2094757D568A7FF459B","title":"金桥新城二期","lon":"121.617","lat":"31.2687","category":"47","category_name":"住宅区","address":"上海市浦东新区东陆路2000弄"},{"poiid":"B2094654D568A0FC4198","title":"上海通用汽车有限公司售后服务办公楼","lon":"121.61265","lat":"31.27379","category":"46","category_name":"楼宇","address":"佳桥路199"},{"poiid":"B2094757D068AAFA4793","title":"上海通用汽车新行政楼","lon":"121.62453292","lat":"31.278582974","category":"46","category_name":"楼宇","address":"申江路1500号上海通用汽车北厂内"},{"poiid":"B2094654D568A0F8449C","title":"上海通用汽车榕桥路2号门(南2)","lon":"121.61855","lat":"31.26897","category":"263","category_name":"公司","address":"榕桥路"},{"poiid":"B2094655D36DA6FC4392","title":"榕桥路申江路","lon":"121.62395","lat":"31.26851","category":"38","category_name":"公交车站","address":""},{"poiid":"B2094757D66FA7FB4098","title":"佳京路","lon":"121.62025233","lat":"31.268440221","category":"500","category_name":"未知分类","address":"上海市浦东新区佳京路"},{"poiid":"B2094757D068A4F5489A","title":"沃尔沃建筑设备(中国)有限公司","lon":"121.617134","lat":"31.266635","category":"263","category_name":"公司","address":"上海金京路2045号"},{"poiid":"B2094757D069A2F5489C","title":"香啡缤(通用汽车店)","lon":"121.622680864","lat":"31.27630421","category":"260","category_name":"其他","address":"浦东新区申江路1500号上海通用汽车行政楼新楼M楼(近巨峰路)"},{"poiid":"B2094757D568A5F8489C","title":"金桥网管中心","lon":"121.62545","lat":"31.27331","category":"46","category_name":"楼宇","address":"秦桥路211号"},{"poiid":"B2094654D568A0F8459D","title":"AVL李斯特技术中心(上海)有限公司","lon":"121.62352","lat":"31.26902","category":"263","category_name":"公司","address":"上海榕桥路327号"},{"poiid":"B2094654DB6AA3FF449E","title":"蒂克虏伯汇众汽车零部件公司","lon":"121.62457","lat":"31.26994","category":"263","category_name":"公司","address":"上海市浦东新区申江路1900号"},{"poiid":"B2094655D36CA0FA4498","title":"佳虹路永业路","lon":"121.61359","lat":"31.26737","category":"38","category_name":"公交车站","address":""},{"poiid":"B2094757D16FABFE449A","title":"拜耳研发中心","lon":"121.626181","lat":"31.270933","category":"500","category_name":"未知分类","address":"上海秦桥路33号"},{"poiid":"B2094655D265A3FD4499","title":"上海通用汽车金京路6号门","lon":"121.61706","lat":"31.27122","category":"263","category_name":"公司","address":""},{"poiid":"B2094757D169A1FD4093","title":"T.S.烧烤","lon":"121.6161158","lat":"31.2684958","category":"247","category_name":"餐饮美食","address":"上海佳乐路永业路"},{"poiid":"B2094757D16CA1F44693","title":"上海通用","lon":"121.622276306","lat":"31.276512146","category":"500","category_name":"未知分类","address":"上海申江路1500号"},{"poiid":"B2094757D06BA3FD4799","title":"AVL 食堂","lon":"121.62191772","lat":"31.269098281","category":"260","category_name":"其他","address":"上海浦东新区榕桥路327号内一楼"},{"poiid":"B2094757D069A0FB429A","title":"Volvo Group (TTSC Building)","lon":"121.61422341","lat":"31.266951517","category":"500","category_name":"未知分类","address":"上海金京路2095号"},{"poiid":"B2094655D26BA4FB439E","title":"上海通用汽车金京路5号门","lon":"121.61708","lat":"31.27238","category":"263","category_name":"公司","address":""},{"poiid":"B2094655D26FA0FC499F","title":"阳光欧洲城金色米兰苑(南门)","lon":"121.61508","lat":"31.26881","category":"47","category_name":"住宅区","address":"佳乐路255弄1-53号"},{"poiid":"B2094655D26CA6FD449F","title":"佳虹小区","lon":"121.61494","lat":"31.267649","category":"47","category_name":"住宅区","address":"永业路225弄"},{"poiid":"B2094654D568A0FD439B","title":"阳光欧洲城蔷薇绅邻","lon":"121.61138","lat":"31.27231","category":"47","category_name":"住宅区","address":"金高路1617弄1-336号"},{"poiid":"B2094655D26DA5F44098","title":"佳虹小区2期","lon":"121.61579","lat":"31.26699","category":"47","category_name":"住宅区","address":"永业路188弄、218弄"},{"poiid":"B2094751D26EA4FC4492","title":"上海通用汽车南厂总装","lon":"121.615417","lat":"31.267837","category":"259","category_name":"工厂","address":"浦东新区申江路1500号"},{"poiid":"B2094655D26FA0F44699","title":"东源丽晶别墅南门(巨峰路)","lon":"121.62148","lat":"31.28082","category":"47","category_name":"住宅区","address":"巨峰路1585-1589弄(近申江路)"},{"poiid":"B2094757D065A1FB449F","title":"阳光欧洲城二期","lon":"121.615","lat":"31.2739","category":"47","category_name":"住宅区","address":"上海佳林路82弄"},{"poiid":"B2094757D569A1FD419D","title":"金桥新城一期","lon":"121.61308","lat":"31.270317","category":"47","category_name":"住宅区","address":"上海市浦东新区杨高北路5291弄"},{"poiid":"B2094654DB6BA1FC469C","title":"上海夏普电器有限公司(金海路)","lon":"121.62226","lat":"31.26487","category":"263","category_name":"公司","address":"金海路1111"},{"poiid":"B2094654D568A0F8459E","title":"上海通用汽车申江路2号门(东2)","lon":"121.62477","lat":"31.27296","category":"263","category_name":"公司","address":"申江路"},{"poiid":"B2094757D068A7F8439A","title":"金色米兰","lon":"121.615085","lat":"31.268814","category":"249","category_name":"购物服务","address":"上海佳乐路255"},{"poiid":"B2094655D264AAFA459D","title":"阳光城市家园(西门)","lon":"121.61364","lat":"31.2721","category":"47","category_name":"住宅区","address":"永宁路33弄"},{"poiid":"B2094757D66EA7FB439B","title":"易初莲花","lon":"121.615884899","lat":"31.27578137","category":"249","category_name":"购物服务","address":"上海金高路1256号"},{"poiid":"B2094655D36DA0F4429B","title":"永宁路佳京路","lon":"121.61333","lat":"31.26945","category":"38","category_name":"公交车站","address":""},{"poiid":"B2094654D568A0F8449F","title":"沃尔沃","lon":"121.61714","lat":"31.26663","category":"263","category_name":"公司","address":"金京路2045"}]