[{"poiid":"B2094757D06FA2F84299","title":"Wagas沃歌斯(金桥国际广场店)","lon":"121.58569335","lat":"31.252571106","category":"94","category_name":"西餐厅","address":"浦东新区张杨路3611号金桥国际商业广场(金桥路张杨路)"},{"poiid":"B2094757D06FA5F5459E","title":"苏先生海鲜渔庄(金桥店)","lon":"121.58887","lat":"31.2473","category":"260","category_name":"其他","address":"浦东新区杨高中路758号(近金桥路)"},{"poiid":"B2094757D069A7F8499C","title":"陆行中学","lon":"121.5868","lat":"31.25336","category":"55","category_name":"中学","address":"上海浦东新区金桥路1288号"},{"poiid":"B2094757D069A4F84292","title":"骏莱海鲜","lon":"121.5871744","lat":"31.253618245","category":"247","category_name":"餐饮美食","address":"上海金桥路1379号"},{"poiid":"B2094757D16BAAFE4593","title":"金台路","lon":"121.58593633","lat":"31.2501258","category":"500","category_name":"未知分类","address":"上海市浦东新区金杨路"},{"poiid":"B2094655D26CA7F8479B","title":"瑞亚·臻品酒店","lon":"121.58742","lat":"31.25276","category":"250","category_name":"公园户外","address":"上海市浦东新区金桥路1388号(近金台路)"},{"poiid":"B2094757D06FA2FF469A","title":"金桥路金台路","lon":"121.5884957","lat":"31.2523508","category":"260","category_name":"其他","address":"上海浦东新区金桥路金台路"},{"poiid":"B2094757D069A1FD459F","title":"爱金华鱼头汤 金桥店","lon":"121.58592147378","lat":"31.254573735846","category":"76","category_name":"上海菜","address":"浦东新区金桥路1258号(近金杨路)"},{"poiid":"B2094757D068A7FC4698","title":"大富贵酒楼(金杨店)","lon":"121.58217","lat":"31.25082","category":"76","category_name":"上海菜","address":"浦东新区金杨路635号(近枣庄路)"},{"poiid":"B2094757D068ABF94292","title":"金杨路金桥路","lon":"121.58901823","lat":"31.252654658","category":"500","category_name":"未知分类","address":"上海金杨路金桥路"},{"poiid":"B2094757D164A1FE469A","title":"碧云红枫","lon":"121.58771497","lat":"31.245393415","category":"500","category_name":"未知分类","address":"上海市浦东新区碧云路红枫路"},{"poiid":"B2094757D468A3FE409C","title":"唐城酒楼","lon":"121.58792","lat":"31.252148","category":"76","category_name":"上海菜","address":"浦东新区金台路201号(近金桥路)"},{"poiid":"B2094654D568A6FB439F","title":"哈尔滨人家 金台路店","lon":"121.58527758954","lat":"31.249521136892","category":"82","category_name":"东北菜","address":"浦东新区金台路136号(近枣庄路)"},{"poiid":"B2094752D26BA7FB4592","title":"上海金桥红枫万豪酒店","lon":"121.588144","lat":"31.248853","category":"251","category_name":"出行住宿","address":"新金桥路18号"},{"poiid":"B2094654D568A6F84099","title":"唐朝酒楼","lon":"121.58792","lat":"31.25214","category":"70","category_name":"综合酒楼","address":"金台路201"},{"poiid":"B2094757D16AA4FD4498","title":"碧悦城市酒店","lon":"121.58781833","lat":"31.252270849","category":"217","category_name":"旅馆招待所","address":"上海市浦东新区金台路222号(近金桥路)"},{"poiid":"B2094654DB6BA1FE429F","title":"招商银行上海金桥支行","lon":"121.58791","lat":"31.2523","category":"150","category_name":"银行","address":"浦东新区金桥路1398号(近金台路)"},{"poiid":"B2094654DB65A7FB409E","title":"如家快捷酒店(杨高中路店)","lon":"121.58835","lat":"31.2476","category":"216","category_name":"经济型连锁酒店","address":"浦东新区杨高中路758号(近金桥路)"},{"poiid":"B2094655D26EA2F44999","title":"上海金桥大厦","lon":"121.58808","lat":"31.25329","category":"46","category_name":"楼宇","address":"浦东新区金桥路1379号(近金杨路)"},{"poiid":"B2094654DB6AA6FF4598","title":"上海城中园酒店","lon":"121.58831","lat":"31.25125","category":"214","category_name":"四星级宾馆","address":"金桥路1480号城中园酒店金台金桥路口"},{"poiid":"B2094750DB6EA6F9439D","title":"红宝石金杨店","lon":"121.581665","lat":"31.248418","category":"67","category_name":"甜品店","address":"浦东新区金杨路486号(近枣庄路)"},{"poiid":"B2094757D06BA2F84893","title":"泰煌鸡(银山路店)","lon":"121.58432","lat":"31.24564","category":"68","category_name":"快餐厅","address":"浦东新区银山路352号(近枣庄路)"},{"poiid":"B2094655D26DA0FE469C","title":"金杨八街坊","lon":"121.5847","lat":"31.24563","category":"47","category_name":"住宅区","address":"银山路370弄2-7号"},{"poiid":"B2094655D26DAAF4419E","title":"上海市陆行中学南校","lon":"121.58531","lat":"31.24925","category":"55","category_name":"中学","address":"金台路96"},{"poiid":"B2094757D66CAAFE409E","title":"杨高中路金桥立交桥","lon":"121.590676873","lat":"31.2483536596","category":"500","category_name":"未知分类","address":"上海杨高中路金桥立交桥"},{"poiid":"B2094654D568A6FB4393","title":"克丽缇娜(金台路)","lon":"121.58582","lat":"31.24987","category":"148","category_name":"美容美发店","address":"浦东新区金台路116号(近金桥路)"},{"poiid":"B2094654D568A6F9489D","title":"金台三居","lon":"121.58943","lat":"31.249607","category":"47","category_name":"住宅区","address":"金桥路1498-1510弄"},{"poiid":"B2094654D568A6FA459A","title":"金杨十街坊","lon":"121.58266","lat":"31.251093","category":"47","category_name":"住宅区","address":"金杨路660弄"},{"poiid":"B2094654D568A6F94798","title":"快客No.6152","lon":"121.58802","lat":"31.24819","category":"117","category_name":"便民商店/便利店","address":"杨高中路750弄18"},{"poiid":"B2094655D26DA5FE459E","title":"好德便利No.536","lon":"121.58579","lat":"31.24985","category":"117","category_name":"便民商店/便利店","address":"金台路114"},{"poiid":"B2094655D265A7F5439F","title":"村夫烤鱼","lon":"121.58885","lat":"31.2504","category":"68","category_name":"快餐厅","address":"浦东新区金桥路1498号附近(近金台路)"},{"poiid":"B2094655D264A1FD4098","title":"金桥苑","lon":"121.58823","lat":"31.249636","category":"47","category_name":"住宅区","address":"金桥路1490弄"},{"poiid":"B2094654D568A6FA4999","title":"快客No.6108","lon":"121.58532","lat":"31.24991","category":"117","category_name":"便民商店/便利店","address":"金台路117"},{"poiid":"B2094654DB6BA1FE449D","title":"浦东青年公寓","lon":"121.58484","lat":"31.248003","category":"47","category_name":"住宅区","address":"浦东新区枣庄路1029弄(金台路口)"},{"poiid":"B2094655D36DA7FC499E","title":"枣庄路银山路","lon":"121.58462","lat":"31.24756","category":"38","category_name":"公交车站","address":""},{"poiid":"B2094654D568A6FB409F","title":"名角女士生活馆No.0189(金台路)","lon":"121.58567","lat":"31.25023","category":"148","category_name":"美容美发店","address":"浦东新区金台路131号(近金桥路)"},{"poiid":"B2094757D164A6F94398","title":"東興華苑","lon":"121.58691133","lat":"31.250591811","category":"47","category_name":"住宅区","address":"上海市浦东新区金台路138号"},{"poiid":"B2094757D068AAFA439B","title":"邵记传菜(金桥店)","lon":"121.58888","lat":"31.25247","category":"76","category_name":"上海菜","address":"浦东新区金桥路1391号(近金台路)"},{"poiid":"B2094757D069AAF44993","title":"格力特健身中心","lon":"121.58154","lat":"31.25021","category":"148","category_name":"美容美发店","address":"浦东新区金杨路628号家得利超市3楼(近枣庄路)"},{"poiid":"B2094654D568A6FA4792","title":"得壹宠物俱乐部","lon":"121.58475","lat":"31.24943","category":"162","category_name":"医院","address":"金台路79"},{"poiid":"B2094757DB6DA6F44799","title":"上海金桥中心智选假日酒店（原金桥中心快捷假日酒店）","lon":"121.5874314","lat":"31.25381307","category":"215","category_name":"三星级宾馆","address":"上海市浦东新区金桥路1359号(近金台路)"},{"poiid":"B2094757D16EA4FE469A","title":"东北烧烤大王(银山路店)","lon":"121.58463","lat":"31.24609","category":"68","category_name":"快餐厅","address":"浦东新区银山路372弄(近枣庄路)"},{"poiid":"B2094757D164A0F84192","title":"金杨新村11街坊","lon":"121.586490475","lat":"31.2471965578","category":"252","category_name":"楼宇机构","address":"上海杨高中路750弄"},{"poiid":"B2094654D568A6F9459A","title":"绍兴家园(枣庄路)","lon":"121.58283","lat":"31.24895","category":"47","category_name":"住宅区","address":"浦东新区枣庄路903号(近金台路)"},{"poiid":"B2094655D36CA7FF479A","title":"红枫路蓝天路","lon":"121.58844","lat":"31.24485","category":"38","category_name":"公交车站","address":""},{"poiid":"B2094757D064A1F9459B","title":"缘品火锅坊","lon":"121.58073","lat":"31.24992","category":"86","category_name":"火锅店","address":"浦东新区金杨路558号(近枣庄路)"},{"poiid":"B2094654DA69A3FE469D","title":"JAM76","lon":"121.58638","lat":"31.24648","category":"172","category_name":"酒吧","address":"枣庄路1083"},{"poiid":"B2094757D164A5F54493","title":"桂州家乡菜馆(枣庄路店)","lon":"121.58587","lat":"31.24689","category":"247","category_name":"餐饮美食","address":"上海浦东新区枣庄路977号(近银山路)  "},{"poiid":"B2094654D568A6F9499E","title":"蓝白歌舞厅","lon":"121.58805","lat":"31.25041","category":"170","category_name":"KTV","address":"金台路248弄36号金桥市场"},{"poiid":"B2094655D264A2F4429E","title":"医贸大厦","lon":"121.58908","lat":"31.25273","category":"46","category_name":"楼宇","address":"嘉定区金沙江路3131号(近新郁路)"},{"poiid":"B2094757D06FA2F84299","title":"Wagas沃歌斯(金桥国际广场店)","lon":"121.58569335","lat":"31.252571106","category":"94","category_name":"西餐厅","address":"浦东新区张杨路3611号金桥国际商业广场(金桥路张杨路)"},{"poiid":"B2094757D06FA5F5459E","title":"苏先生海鲜渔庄(金桥店)","lon":"121.58887","lat":"31.2473","category":"260","category_name":"其他","address":"浦东新区杨高中路758号(近金桥路)"},{"poiid":"B2094757D069A7F8499C","title":"陆行中学","lon":"121.5868","lat":"31.25336","category":"55","category_name":"中学","address":"上海浦东新区金桥路1288号"},{"poiid":"B2094757D069A4F84292","title":"骏莱海鲜","lon":"121.5871744","lat":"31.253618245","category":"247","category_name":"餐饮美食","address":"上海金桥路1379号"},{"poiid":"B2094757D16BAAFE4593","title":"金台路","lon":"121.58593633","lat":"31.2501258","category":"500","category_name":"未知分类","address":"上海市浦东新区金杨路"},{"poiid":"B2094655D26CA7F8479B","title":"瑞亚·臻品酒店","lon":"121.58742","lat":"31.25276","category":"250","category_name":"公园户外","address":"上海市浦东新区金桥路1388号(近金台路)"},{"poiid":"B2094757D06FA2FF469A","title":"金桥路金台路","lon":"121.5884957","lat":"31.2523508","category":"260","category_name":"其他","address":"上海浦东新区金桥路金台路"},{"poiid":"B2094757D069A1FD459F","title":"爱金华鱼头汤 金桥店","lon":"121.58592147378","lat":"31.254573735846","category":"76","category_name":"上海菜","address":"浦东新区金桥路1258号(近金杨路)"},{"poiid":"B2094757D068A7FC4698","title":"大富贵酒楼(金杨店)","lon":"121.58217","lat":"31.25082","category":"76","category_name":"上海菜","address":"浦东新区金杨路635号(近枣庄路)"},{"poiid":"B2094757D068ABF94292","title":"金杨路金桥路","lon":"121.58901823","lat":"31.252654658","category":"500","category_name":"未知分类","address":"上海金杨路金桥路"},{"poiid":"B2094757D164A1FE469A","title":"碧云红枫","lon":"121.58771497","lat":"31.245393415","category":"500","category_name":"未知分类","address":"上海市浦东新区碧云路红枫路"},{"poiid":"B2094757D468A3FE409C","title":"唐城酒楼","lon":"121.58792","lat":"31.252148","category":"76","category_name":"上海菜","address":"浦东新区金台路201号(近金桥路)"},{"poiid":"B2094654D568A6FB439F","title":"哈尔滨人家 金台路店","lon":"121.58527758954","lat":"31.249521136892","category":"82","category_name":"东北菜","address":"浦东新区金台路136号(近枣庄路)"},{"poiid":"B2094752D26BA7FB4592","title":"上海金桥红枫万豪酒店","lon":"121.588144","lat":"31.248853","category":"251","category_name":"出行住宿","address":"新金桥路18号"},{"poiid":"B2094654D568A6F84099","title":"唐朝酒楼","lon":"121.58792","lat":"31.25214","category":"70","category_name":"综合酒楼","address":"金台路201"},{"poiid":"B2094757D16AA4FD4498","title":"碧悦城市酒店","lon":"121.58781833","lat":"31.252270849","category":"217","category_name":"旅馆招待所","address":"上海市浦东新区金台路222号(近金桥路)"},{"poiid":"B2094654DB6BA1FE429F","title":"招商银行上海金桥支行","lon":"121.58791","lat":"31.2523","category":"150","category_name":"银行","address":"浦东新区金桥路1398号(近金台路)"},{"poiid":"B2094654DB65A7FB409E","title":"如家快捷酒店(杨高中路店)","lon":"121.58835","lat":"31.2476","category":"216","category_name":"经济型连锁酒店","address":"浦东新区杨高中路758号(近金桥路)"},{"poiid":"B2094655D26EA2F44999","title":"上海金桥大厦","lon":"121.58808","lat":"31.25329","category":"46","category_name":"楼宇","address":"浦东新区金桥路1379号(近金杨路)"},{"poiid":"B2094654DB6AA6FF4598","title":"上海城中园酒店","lon":"121.58831","lat":"31.25125","category":"214","category_name":"四星级宾馆","address":"金桥路1480号城中园酒店金台金桥路口"},{"poiid":"B2094750DB6EA6F9439D","title":"红宝石金杨店","lon":"121.581665","lat":"31.248418","category":"67","category_name":"甜品店","address":"浦东新区金杨路486号(近枣庄路)"},{"poiid":"B2094757D06BA2F84893","title":"泰煌鸡(银山路店)","lon":"121.58432","lat":"31.24564","category":"68","category_name":"快餐厅","address":"浦东新区银山路352号(近枣庄路)"},{"poiid":"B2094655D26DA0FE469C","title":"金杨八街坊","lon":"121.5847","lat":"31.24563","category":"47","category_name":"住宅区","address":"银山路370弄2-7号"},{"poiid":"B2094655D26DAAF4419E","title":"上海市陆行中学南校","lon":"121.58531","lat":"31.24925","category":"55","category_name":"中学","address":"金台路96"},{"poiid":"B2094757D66CAAFE409E","title":"杨高中路金桥立交桥","lon":"121.590676873","lat":"31.2483536596","category":"500","category_name":"未知分类","address":"上海杨高中路金桥立交桥"},{"poiid":"B2094654D568A6FB4393","title":"克丽缇娜(金台路)","lon":"121.58582","lat":"31.24987","category":"148","category_name":"美容美发店","address":"浦东新区金台路116号(近金桥路)"},{"poiid":"B2094654D568A6F9489D","title":"金台三居","lon":"121.58943","lat":"31.249607","category":"47","category_name":"住宅区","address":"金桥路1498-1510弄"},{"poiid":"B2094654D568A6FA459A","title":"金杨十街坊","lon":"121.58266","lat":"31.251093","category":"47","category_name":"住宅区","address":"金杨路660弄"},{"poiid":"B2094654D568A6F94798","title":"快客No.6152","lon":"121.58802","lat":"31.24819","category":"117","category_name":"便民商店/便利店","address":"杨高中路750弄18"},{"poiid":"B2094655D26DA5FE459E","title":"好德便利No.536","lon":"121.58579","lat":"31.24985","category":"117","category_name":"便民商店/便利店","address":"金台路114"},{"poiid":"B2094655D265A7F5439F","title":"村夫烤鱼","lon":"121.58885","lat":"31.2504","category":"68","category_name":"快餐厅","address":"浦东新区金桥路1498号附近(近金台路)"},{"poiid":"B2094655D264A1FD4098","title":"金桥苑","lon":"121.58823","lat":"31.249636","category":"47","category_name":"住宅区","address":"金桥路1490弄"},{"poiid":"B2094654D568A6FA4999","title":"快客No.6108","lon":"121.58532","lat":"31.24991","category":"117","category_name":"便民商店/便利店","address":"金台路117"},{"poiid":"B2094654DB6BA1FE449D","title":"浦东青年公寓","lon":"121.58484","lat":"31.248003","category":"47","category_name":"住宅区","address":"浦东新区枣庄路1029弄(金台路口)"},{"poiid":"B2094655D36DA7FC499E","title":"枣庄路银山路","lon":"121.58462","lat":"31.24756","category":"38","category_name":"公交车站","address":""},{"poiid":"B2094654D568A6FB409F","title":"名角女士生活馆No.0189(金台路)","lon":"121.58567","lat":"31.25023","category":"148","category_name":"美容美发店","address":"浦东新区金台路131号(近金桥路)"},{"poiid":"B2094757D164A6F94398","title":"東興華苑","lon":"121.58691133","lat":"31.250591811","category":"47","category_name":"住宅区","address":"上海市浦东新区金台路138号"},{"poiid":"B2094757D068AAFA439B","title":"邵记传菜(金桥店)","lon":"121.58888","lat":"31.25247","category":"76","category_name":"上海菜","address":"浦东新区金桥路1391号(近金台路)"},{"poiid":"B2094757D069AAF44993","title":"格力特健身中心","lon":"121.58154","lat":"31.25021","category":"148","category_name":"美容美发店","address":"浦东新区金杨路628号家得利超市3楼(近枣庄路)"},{"poiid":"B2094654D568A6FA4792","title":"得壹宠物俱乐部","lon":"121.58475","lat":"31.24943","category":"162","category_name":"医院","address":"金台路79"},{"poiid":"B2094757DB6DA6F44799","title":"上海金桥中心智选假日酒店（原金桥中心快捷假日酒店）","lon":"121.5874314","lat":"31.25381307","category":"215","category_name":"三星级宾馆","address":"上海市浦东新区金桥路1359号(近金台路)"},{"poiid":"B2094757D16EA4FE469A","title":"东北烧烤大王(银山路店)","lon":"121.58463","lat":"31.24609","category":"68","category_name":"快餐厅","address":"浦东新区银山路372弄(近枣庄路)"},{"poiid":"B2094757D164A0F84192","title":"金杨新村11街坊","lon":"121.586490475","lat":"31.2471965578","category":"252","category_name":"楼宇机构","address":"上海杨高中路750弄"},{"poiid":"B2094654D568A6F9459A","title":"绍兴家园(枣庄路)","lon":"121.58283","lat":"31.24895","category":"47","category_name":"住宅区","address":"浦东新区枣庄路903号(近金台路)"},{"poiid":"B2094655D36CA7FF479A","title":"红枫路蓝天路","lon":"121.58844","lat":"31.24485","category":"38","category_name":"公交车站","address":""},{"poiid":"B2094757D064A1F9459B","title":"缘品火锅坊","lon":"121.58073","lat":"31.24992","category":"86","category_name":"火锅店","address":"浦东新区金杨路558号(近枣庄路)"},{"poiid":"B2094654DA69A3FE469D","title":"JAM76","lon":"121.58638","lat":"31.24648","category":"172","category_name":"酒吧","address":"枣庄路1083"},{"poiid":"B2094757D164A5F54493","title":"桂州家乡菜馆(枣庄路店)","lon":"121.58587","lat":"31.24689","category":"247","category_name":"餐饮美食","address":"上海浦东新区枣庄路977号(近银山路)  "},{"poiid":"B2094654D568A6F9499E","title":"蓝白歌舞厅","lon":"121.58805","lat":"31.25041","category":"170","category_name":"KTV","address":"金台路248弄36号金桥市场"},{"poiid":"B2094655D264A2F4429E","title":"医贸大厦","lon":"121.58908","lat":"31.25273","category":"46","category_name":"楼宇","address":"嘉定区金沙江路3131号(近新郁路)"},{"poiid":"B2094757D06FA2F84299","title":"Wagas沃歌斯(金桥国际广场店)","lon":"121.58569335","lat":"31.252571106","category":"94","category_name":"西餐厅","address":"浦东新区张杨路3611号金桥国际商业广场(金桥路张杨路)"},{"poiid":"B2094757D06FA5F5459E","title":"苏先生海鲜渔庄(金桥店)","lon":"121.58887","lat":"31.2473","category":"260","category_name":"其他","address":"浦东新区杨高中路758号(近金桥路)"},{"poiid":"B2094757D069A7F8499C","title":"陆行中学","lon":"121.5868","lat":"31.25336","category":"55","category_name":"中学","address":"上海浦东新区金桥路1288号"},{"poiid":"B2094757D069A4F84292","title":"骏莱海鲜","lon":"121.5871744","lat":"31.253618245","category":"247","category_name":"餐饮美食","address":"上海金桥路1379号"},{"poiid":"B2094757D16BAAFE4593","title":"金台路","lon":"121.58593633","lat":"31.2501258","category":"500","category_name":"未知分类","address":"上海市浦东新区金杨路"},{"poiid":"B2094655D26CA7F8479B","title":"瑞亚·臻品酒店","lon":"121.58742","lat":"31.25276","category":"250","category_name":"公园户外","address":"上海市浦东新区金桥路1388号(近金台路)"},{"poiid":"B2094757D06FA2FF469A","title":"金桥路金台路","lon":"121.5884957","lat":"31.2523508","category":"260","category_name":"其他","address":"上海浦东新区金桥路金台路"},{"poiid":"B2094757D069A1FD459F","title":"爱金华鱼头汤 金桥店","lon":"121.58592147378","lat":"31.254573735846","category":"76","category_name":"上海菜","address":"浦东新区金桥路1258号(近金杨路)"},{"poiid":"B2094757D068A7FC4698","title":"大富贵酒楼(金杨店)","lon":"121.58217","lat":"31.25082","category":"76","category_name":"上海菜","address":"浦东新区金杨路635号(近枣庄路)"},{"poiid":"B2094757D068ABF94292","title":"金杨路金桥路","lon":"121.58901823","lat":"31.252654658","category":"500","category_name":"未知分类","address":"上海金杨路金桥路"},{"poiid":"B2094757D164A1FE469A","title":"碧云红枫","lon":"121.58771497","lat":"31.245393415","category":"500","category_name":"未知分类","address":"上海市浦东新区碧云路红枫路"},{"poiid":"B2094757D468A3FE409C","title":"唐城酒楼","lon":"121.58792","lat":"31.252148","category":"76","category_name":"上海菜","address":"浦东新区金台路201号(近金桥路)"},{"poiid":"B2094654D568A6FB439F","title":"哈尔滨人家 金台路店","lon":"121.58527758954","lat":"31.249521136892","category":"82","category_name":"东北菜","address":"浦东新区金台路136号(近枣庄路)"},{"poiid":"B2094752D26BA7FB4592","title":"上海金桥红枫万豪酒店","lon":"121.588144","lat":"31.248853","category":"251","category_name":"出行住宿","address":"新金桥路18号"},{"poiid":"B2094654D568A6F84099","title":"唐朝酒楼","lon":"121.58792","lat":"31.25214","category":"70","category_name":"综合酒楼","address":"金台路201"},{"poiid":"B2094757D16AA4FD4498","title":"碧悦城市酒店","lon":"121.58781833","lat":"31.252270849","category":"217","category_name":"旅馆招待所","address":"上海市浦东新区金台路222号(近金桥路)"},{"poiid":"B2094654DB6BA1FE429F","title":"招商银行上海金桥支行","lon":"121.58791","lat":"31.2523","category":"150","category_name":"银行","address":"浦东新区金桥路1398号(近金台路)"},{"poiid":"B2094654DB65A7FB409E","title":"如家快捷酒店(杨高中路店)","lon":"121.58835","lat":"31.2476","category":"216","category_name":"经济型连锁酒店","address":"浦东新区杨高中路758号(近金桥路)"},{"poiid":"B2094655D26EA2F44999","title":"上海金桥大厦","lon":"121.58808","lat":"31.25329","category":"46","category_name":"楼宇","address":"浦东新区金桥路1379号(近金杨路)"},{"poiid":"B2094654DB6AA6FF4598","title":"上海城中园酒店","lon":"121.58831","lat":"31.25125","category":"214","category_name":"四星级宾馆","address":"金桥路1480号城中园酒店金台金桥路口"},{"poiid":"B2094750DB6EA6F9439D","title":"红宝石金杨店","lon":"121.581665","lat":"31.248418","category":"67","category_name":"甜品店","address":"浦东新区金杨路486号(近枣庄路)"},{"poiid":"B2094757D06BA2F84893","title":"泰煌鸡(银山路店)","lon":"121.58432","lat":"31.24564","category":"68","category_name":"快餐厅","address":"浦东新区银山路352号(近枣庄路)"},{"poiid":"B2094655D26DA0FE469C","title":"金杨八街坊","lon":"121.5847","lat":"31.24563","category":"47","category_name":"住宅区","address":"银山路370弄2-7号"},{"poiid":"B2094655D26DAAF4419E","title":"上海市陆行中学南校","lon":"121.58531","lat":"31.24925","category":"55","category_name":"中学","address":"金台路96"},{"poiid":"B2094757D66CAAFE409E","title":"杨高中路金桥立交桥","lon":"121.590676873","lat":"31.2483536596","category":"500","category_name":"未知分类","address":"上海杨高中路金桥立交桥"},{"poiid":"B2094654D568A6FB4393","title":"克丽缇娜(金台路)","lon":"121.58582","lat":"31.24987","category":"148","category_name":"美容美发店","address":"浦东新区金台路116号(近金桥路)"},{"poiid":"B2094654D568A6F9489D","title":"金台三居","lon":"121.58943","lat":"31.249607","category":"47","category_name":"住宅区","address":"金桥路1498-1510弄"},{"poiid":"B2094654D568A6FA459A","title":"金杨十街坊","lon":"121.58266","lat":"31.251093","category":"47","category_name":"住宅区","address":"金杨路660弄"},{"poiid":"B2094654D568A6F94798","title":"快客No.6152","lon":"121.58802","lat":"31.24819","category":"117","category_name":"便民商店/便利店","address":"杨高中路750弄18"},{"poiid":"B2094655D26DA5FE459E","title":"好德便利No.536","lon":"121.58579","lat":"31.24985","category":"117","category_name":"便民商店/便利店","address":"金台路114"},{"poiid":"B2094655D265A7F5439F","title":"村夫烤鱼","lon":"121.58885","lat":"31.2504","category":"68","category_name":"快餐厅","address":"浦东新区金桥路1498号附近(近金台路)"},{"poiid":"B2094655D264A1FD4098","title":"金桥苑","lon":"121.58823","lat":"31.249636","category":"47","category_name":"住宅区","address":"金桥路1490弄"},{"poiid":"B2094654D568A6FA4999","title":"快客No.6108","lon":"121.58532","lat":"31.24991","category":"117","category_name":"便民商店/便利店","address":"金台路117"},{"poiid":"B2094654DB6BA1FE449D","title":"浦东青年公寓","lon":"121.58484","lat":"31.248003","category":"47","category_name":"住宅区","address":"浦东新区枣庄路1029弄(金台路口)"},{"poiid":"B2094655D36DA7FC499E","title":"枣庄路银山路","lon":"121.58462","lat":"31.24756","category":"38","category_name":"公交车站","address":""},{"poiid":"B2094654D568A6FB409F","title":"名角女士生活馆No.0189(金台路)","lon":"121.58567","lat":"31.25023","category":"148","category_name":"美容美发店","address":"浦东新区金台路131号(近金桥路)"},{"poiid":"B2094757D164A6F94398","title":"東興華苑","lon":"121.58691133","lat":"31.250591811","category":"47","category_name":"住宅区","address":"上海市浦东新区金台路138号"},{"poiid":"B2094757D068AAFA439B","title":"邵记传菜(金桥店)","lon":"121.58888","lat":"31.25247","category":"76","category_name":"上海菜","address":"浦东新区金桥路1391号(近金台路)"},{"poiid":"B2094757D069AAF44993","title":"格力特健身中心","lon":"121.58154","lat":"31.25021","category":"148","category_name":"美容美发店","address":"浦东新区金杨路628号家得利超市3楼(近枣庄路)"},{"poiid":"B2094654D568A6FA4792","title":"得壹宠物俱乐部","lon":"121.58475","lat":"31.24943","category":"162","category_name":"医院","address":"金台路79"},{"poiid":"B2094757DB6DA6F44799","title":"上海金桥中心智选假日酒店（原金桥中心快捷假日酒店）","lon":"121.5874314","lat":"31.25381307","category":"215","category_name":"三星级宾馆","address":"上海市浦东新区金桥路1359号(近金台路)"},{"poiid":"B2094757D16EA4FE469A","title":"东北烧烤大王(银山路店)","lon":"121.58463","lat":"31.24609","category":"68","category_name":"快餐厅","address":"浦东新区银山路372弄(近枣庄路)"},{"poiid":"B2094757D164A0F84192","title":"金杨新村11街坊","lon":"121.586490475","lat":"31.2471965578","category":"252","category_name":"楼宇机构","address":"上海杨高中路750弄"},{"poiid":"B2094654D568A6F9459A","title":"绍兴家园(枣庄路)","lon":"121.58283","lat":"31.24895","category":"47","category_name":"住宅区","address":"浦东新区枣庄路903号(近金台路)"},{"poiid":"B2094655D36CA7FF479A","title":"红枫路蓝天路","lon":"121.58844","lat":"31.24485","category":"38","category_name":"公交车站","address":""},{"poiid":"B2094757D064A1F9459B","title":"缘品火锅坊","lon":"121.58073","lat":"31.24992","category":"86","category_name":"火锅店","address":"浦东新区金杨路558号(近枣庄路)"},{"poiid":"B2094654DA69A3FE469D","title":"JAM76","lon":"121.58638","lat":"31.24648","category":"172","category_name":"酒吧","address":"枣庄路1083"},{"poiid":"B2094757D164A5F54493","title":"桂州家乡菜馆(枣庄路店)","lon":"121.58587","lat":"31.24689","category":"247","category_name":"餐饮美食","address":"上海浦东新区枣庄路977号(近银山路)  "},{"poiid":"B2094654D568A6F9499E","title":"蓝白歌舞厅","lon":"121.58805","lat":"31.25041","category":"170","category_name":"KTV","address":"金台路248弄36号金桥市场"},{"poiid":"B2094655D264A2F4429E","title":"医贸大厦","lon":"121.58908","lat":"31.25273","category":"46","category_name":"楼宇","address":"嘉定区金沙江路3131号(近新郁路)"},{"poiid":"B2094757D06FA2F84299","title":"Wagas沃歌斯(金桥国际广场店)","lon":"121.58569335","lat":"31.252571106","category":"94","category_name":"西餐厅","address":"浦东新区张杨路3611号金桥国际商业广场(金桥路张杨路)"},{"poiid":"B2094757D06FA5F5459E","title":"苏先生海鲜渔庄(金桥店)","lon":"121.58887","lat":"31.2473","category":"260","category_name":"其他","address":"浦东新区杨高中路758号(近金桥路)"},{"poiid":"B2094757D069A7F8499C","title":"陆行中学","lon":"121.5868","lat":"31.25336","category":"55","category_name":"中学","address":"上海浦东新区金桥路1288号"},{"poiid":"B2094757D069A4F84292","title":"骏莱海鲜","lon":"121.5871744","lat":"31.253618245","category":"247","category_name":"餐饮美食","address":"上海金桥路1379号"},{"poiid":"B2094757D16BAAFE4593","title":"金台路","lon":"121.58593633","lat":"31.2501258","category":"500","category_name":"未知分类","address":"上海市浦东新区金杨路"},{"poiid":"B2094655D26CA7F8479B","title":"瑞亚·臻品酒店","lon":"121.58742","lat":"31.25276","category":"250","category_name":"公园户外","address":"上海市浦东新区金桥路1388号(近金台路)"},{"poiid":"B2094757D06FA2FF469A","title":"金桥路金台路","lon":"121.5884957","lat":"31.2523508","category":"260","category_name":"其他","address":"上海浦东新区金桥路金台路"},{"poiid":"B2094757D069A1FD459F","title":"爱金华鱼头汤 金桥店","lon":"121.58592147378","lat":"31.254573735846","category":"76","category_name":"上海菜","address":"浦东新区金桥路1258号(近金杨路)"},{"poiid":"B2094757D068A7FC4698","title":"大富贵酒楼(金杨店)","lon":"121.58217","lat":"31.25082","category":"76","category_name":"上海菜","address":"浦东新区金杨路635号(近枣庄路)"},{"poiid":"B2094757D068ABF94292","title":"金杨路金桥路","lon":"121.58901823","lat":"31.252654658","category":"500","category_name":"未知分类","address":"上海金杨路金桥路"},{"poiid":"B2094757D164A1FE469A","title":"碧云红枫","lon":"121.58771497","lat":"31.245393415","category":"500","category_name":"未知分类","address":"上海市浦东新区碧云路红枫路"},{"poiid":"B2094757D468A3FE409C","title":"唐城酒楼","lon":"121.58792","lat":"31.252148","category":"76","category_name":"上海菜","address":"浦东新区金台路201号(近金桥路)"},{"poiid":"B2094654D568A6FB439F","title":"哈尔滨人家 金台路店","lon":"121.58527758954","lat":"31.249521136892","category":"82","category_name":"东北菜","address":"浦东新区金台路136号(近枣庄路)"},{"poiid":"B2094752D26BA7FB4592","title":"上海金桥红枫万豪酒店","lon":"121.588144","lat":"31.248853","category":"251","category_name":"出行住宿","address":"新金桥路18号"},{"poiid":"B2094654D568A6F84099","title":"唐朝酒楼","lon":"121.58792","lat":"31.25214","category":"70","category_name":"综合酒楼","address":"金台路201"},{"poiid":"B2094757D16AA4FD4498","title":"碧悦城市酒店","lon":"121.58781833","lat":"31.252270849","category":"217","category_name":"旅馆招待所","address":"上海市浦东新区金台路222号(近金桥路)"},{"poiid":"B2094654DB6BA1FE429F","title":"招商银行上海金桥支行","lon":"121.58791","lat":"31.2523","category":"150","category_name":"银行","address":"浦东新区金桥路1398号(近金台路)"},{"poiid":"B2094654DB65A7FB409E","title":"如家快捷酒店(杨高中路店)","lon":"121.58835","lat":"31.2476","category":"216","category_name":"经济型连锁酒店","address":"浦东新区杨高中路758号(近金桥路)"},{"poiid":"B2094655D26EA2F44999","title":"上海金桥大厦","lon":"121.58808","lat":"31.25329","category":"46","category_name":"楼宇","address":"浦东新区金桥路1379号(近金杨路)"},{"poiid":"B2094654DB6AA6FF4598","title":"上海城中园酒店","lon":"121.58831","lat":"31.25125","category":"214","category_name":"四星级宾馆","address":"金桥路1480号城中园酒店金台金桥路口"},{"poiid":"B2094750DB6EA6F9439D","title":"红宝石金杨店","lon":"121.581665","lat":"31.248418","category":"67","category_name":"甜品店","address":"浦东新区金杨路486号(近枣庄路)"},{"poiid":"B2094757D06BA2F84893","title":"泰煌鸡(银山路店)","lon":"121.58432","lat":"31.24564","category":"68","category_name":"快餐厅","address":"浦东新区银山路352号(近枣庄路)"},{"poiid":"B2094655D26DA0FE469C","title":"金杨八街坊","lon":"121.5847","lat":"31.24563","category":"47","category_name":"住宅区","address":"银山路370弄2-7号"},{"poiid":"B2094655D26DAAF4419E","title":"上海市陆行中学南校","lon":"121.58531","lat":"31.24925","category":"55","category_name":"中学","address":"金台路96"},{"poiid":"B2094757D66CAAFE409E","title":"杨高中路金桥立交桥","lon":"121.590676873","lat":"31.2483536596","category":"500","category_name":"未知分类","address":"上海杨高中路金桥立交桥"},{"poiid":"B2094654D568A6FB4393","title":"克丽缇娜(金台路)","lon":"121.58582","lat":"31.24987","category":"148","category_name":"美容美发店","address":"浦东新区金台路116号(近金桥路)"},{"poiid":"B2094654D568A6F9489D","title":"金台三居","lon":"121.58943","lat":"31.249607","category":"47","category_name":"住宅区","address":"金桥路1498-1510弄"},{"poiid":"B2094654D568A6FA459A","title":"金杨十街坊","lon":"121.58266","lat":"31.251093","category":"47","category_name":"住宅区","address":"金杨路660弄"},{"poiid":"B2094654D568A6F94798","title":"快客No.6152","lon":"121.58802","lat":"31.24819","category":"117","category_name":"便民商店/便利店","address":"杨高中路750弄18"},{"poiid":"B2094655D26DA5FE459E","title":"好德便利No.536","lon":"121.58579","lat":"31.24985","category":"117","category_name":"便民商店/便利店","address":"金台路114"},{"poiid":"B2094655D265A7F5439F","title":"村夫烤鱼","lon":"121.58885","lat":"31.2504","category":"68","category_name":"快餐厅","address":"浦东新区金桥路1498号附近(近金台路)"},{"poiid":"B2094655D264A1FD4098","title":"金桥苑","lon":"121.58823","lat":"31.249636","category":"47","category_name":"住宅区","address":"金桥路1490弄"},{"poiid":"B2094654D568A6FA4999","title":"快客No.6108","lon":"121.58532","lat":"31.24991","category":"117","category_name":"便民商店/便利店","address":"金台路117"},{"poiid":"B2094654DB6BA1FE449D","title":"浦东青年公寓","lon":"121.58484","lat":"31.248003","category":"47","category_name":"住宅区","address":"浦东新区枣庄路1029弄(金台路口)"},{"poiid":"B2094655D36DA7FC499E","title":"枣庄路银山路","lon":"121.58462","lat":"31.24756","category":"38","category_name":"公交车站","address":""},{"poiid":"B2094654D568A6FB409F","title":"名角女士生活馆No.0189(金台路)","lon":"121.58567","lat":"31.25023","category":"148","category_name":"美容美发店","address":"浦东新区金台路131号(近金桥路)"},{"poiid":"B2094757D164A6F94398","title":"東興華苑","lon":"121.58691133","lat":"31.250591811","category":"47","category_name":"住宅区","address":"上海市浦东新区金台路138号"},{"poiid":"B2094757D068AAFA439B","title":"邵记传菜(金桥店)","lon":"121.58888","lat":"31.25247","category":"76","category_name":"上海菜","address":"浦东新区金桥路1391号(近金台路)"},{"poiid":"B2094757D069AAF44993","title":"格力特健身中心","lon":"121.58154","lat":"31.25021","category":"148","category_name":"美容美发店","address":"浦东新区金杨路628号家得利超市3楼(近枣庄路)"},{"poiid":"B2094654D568A6FA4792","title":"得壹宠物俱乐部","lon":"121.58475","lat":"31.24943","category":"162","category_name":"医院","address":"金台路79"},{"poiid":"B2094757DB6DA6F44799","title":"上海金桥中心智选假日酒店（原金桥中心快捷假日酒店）","lon":"121.5874314","lat":"31.25381307","category":"215","category_name":"三星级宾馆","address":"上海市浦东新区金桥路1359号(近金台路)"},{"poiid":"B2094757D16EA4FE469A","title":"东北烧烤大王(银山路店)","lon":"121.58463","lat":"31.24609","category":"68","category_name":"快餐厅","address":"浦东新区银山路372弄(近枣庄路)"},{"poiid":"B2094757D164A0F84192","title":"金杨新村11街坊","lon":"121.586490475","lat":"31.2471965578","category":"252","category_name":"楼宇机构","address":"上海杨高中路750弄"},{"poiid":"B2094654D568A6F9459A","title":"绍兴家园(枣庄路)","lon":"121.58283","lat":"31.24895","category":"47","category_name":"住宅区","address":"浦东新区枣庄路903号(近金台路)"},{"poiid":"B2094655D36CA7FF479A","title":"红枫路蓝天路","lon":"121.58844","lat":"31.24485","category":"38","category_name":"公交车站","address":""},{"poiid":"B2094757D064A1F9459B","title":"缘品火锅坊","lon":"121.58073","lat":"31.24992","category":"86","category_name":"火锅店","address":"浦东新区金杨路558号(近枣庄路)"},{"poiid":"B2094654DA69A3FE469D","title":"JAM76","lon":"121.58638","lat":"31.24648","category":"172","category_name":"酒吧","address":"枣庄路1083"},{"poiid":"B2094757D164A5F54493","title":"桂州家乡菜馆(枣庄路店)","lon":"121.58587","lat":"31.24689","category":"247","category_name":"餐饮美食","address":"上海浦东新区枣庄路977号(近银山路)  "},{"poiid":"B2094654D568A6F9499E","title":"蓝白歌舞厅","lon":"121.58805","lat":"31.25041","category":"170","category_name":"KTV","address":"金台路248弄36号金桥市场"},{"poiid":"B2094655D264A2F4429E","title":"医贸大厦","lon":"121.58908","lat":"31.25273","category":"46","category_name":"楼宇","address":"嘉定区金沙江路3131号(近新郁路)"}]