[{"poiid":"B2094654D464A4FD439E","title":"大宁国际商业广场","lon":"121.4530150435686","lat":"31.274217745868643","category":"119","category_name":"商场","address":"闸北区共和新路1878-2008号(近大宁路)"},{"poiid":"B2094757D468A5F5489D","title":"星巴克 大宁店 Starbucks Cafe","lon":"121.454133054","lat":"31.273266793","category":"65","category_name":"咖啡厅","address":"上海闸北区共和新路1988号 大宁国际商业广场一层"},{"poiid":"B2094654D464A5F4469B","title":"上海市第十人民医院","lon":"121.45352","lat":"31.27196","category":"162","category_name":"医院","address":"闸北区延长中路301号(近共和新路)"},{"poiid":"B2094655D26FA5F8489E","title":"星汇上影CGV大宁影城","lon":"121.4528493288708","lat":"31.2735704547333","category":"178","category_name":"电影院","address":"闸北区共和新路1878号大宁国际商业广场2座3楼(近大宁路)"},{"poiid":"B2094757D068A1FE4293","title":"上海大学(延长校区)","lon":"121.4596366","lat":"31.2729947","category":"671","category_name":"高校中心点","address":"闸北区延长路149号上海大学内(近共和新路)"},{"poiid":"B2094757D06EAAFD419A","title":"哈根达斯 大宁店 Haagen-Dazs","lon":"121.454133054","lat":"31.273266793","category":"67","category_name":"甜品店","address":"闸北区共和新路1918号大宁国际商业广场1楼101B室(近大宁路)"},{"poiid":"B2094654DB6AABFE4098","title":"STARBUCKS COFFEE(大宁国际商业广场)","lon":"121.4531","lat":"31.27431","category":"65","category_name":"咖啡厅","address":"共和新路1988号大宁国际商业广场"},{"poiid":"B2094757D06BA5FE4299","title":"同济大学附属第十人民医院","lon":"121.456724103","lat":"31.2704374226","category":"162","category_name":"医院","address":"上海延长中路301号"},{"poiid":"B2094655D26AABFD4798","title":"PANKOO釜山料理(大宁店)","lon":"121.45295","lat":"31.27411","category":"96","category_name":"韩国料理","address":"闸北区共和新路1968号大宁国际商业广场8座3楼(近大宁路)"},{"poiid":"B2094655D26AABFD4099","title":"望湘园大宁店","lon":"121.45295","lat":"31.27411","category":"77","category_name":"湖南菜","address":"闸北区共和新路1978号大宁国际商业广场9座4楼(近大宁路)"},{"poiid":"B2094757D069A0F4479B","title":"大宁购物中心","lon":"121.455517","lat":"31.2714","category":"500","category_name":"未知分类","address":"上海延长路"},{"poiid":"B2094654D56CA3FE479A","title":"上海大学(延长校区)第四教学楼","lon":"121.45926","lat":"31.27318","category":"52","category_name":"高等院校","address":"闸北区延长路149号"},{"poiid":"B2094757D06EAAFE4792","title":"延长路地铁站","lon":"121.455549","lat":"31.271404","category":"36","category_name":"地铁站","address":"上海轨道交通 一号线 轨交延长路站 1"},{"poiid":"B2094654DB6AABFD499D","title":"一茶一坐 大宁店","lon":"121.454133054","lat":"31.273266793","category":"260","category_name":"其他","address":"闸北区共和新路1968号大宁国际商业广场内(近大宁路)"},{"poiid":"B2094757D06FA0F4489E","title":"共和新路延长路","lon":"121.457695","lat":"31.272319793","category":"38","category_name":"公交车站","address":"上海共和新路延长路"},{"poiid":"B2094757D06FA2FB4893","title":"西贝莜面村(大宁店)","lon":"121.453043398","lat":"31.2743315962","category":"257","category_name":"中餐厅","address":"上海闸北区共和新路2008号大宁国际商业广场5楼(大润发超市楼上)"},{"poiid":"B2094757D06FA3F9419E","title":"味千拉面(大宁店)","lon":"121.45321","lat":"31.27442","category":"95","category_name":"日本料理","address":"闸北区共和新路1968号大宁国际商业广场内(近大宁路)"},{"poiid":"B2094757D068A5FD4298","title":"上海大学（侧门）","lon":"121.4550911","lat":"31.271136437","category":"52","category_name":"高等院校","address":"上海广延路123号"},{"poiid":"B2094757D06FA5FC4992","title":"第十人民医院口腔医疗保健中心","lon":"121.45351705","lat":"31.271969224","category":"162","category_name":"医院","address":"闸北区延长中路299号(近共和新路)"},{"poiid":"B209475CD669A1F4409B","title":"70后饭吧","lon":"121.453214","lat":"31.273489","category":"75","category_name":"浙江菜","address":"闸北区共和新路2008号大宁国际商业广场12座5楼"},{"poiid":"B2094757D06BA7FB4699","title":"JOANNA'S","lon":"121.4551151","lat":"31.271564046","category":"96","category_name":"韩国料理","address":"闸北区延长路237号(近广延路)"},{"poiid":"B2094757D06FABF4419F","title":"韩乡园(大宁店)","lon":"121.45332","lat":"31.27405","category":"96","category_name":"韩国料理","address":"闸北区大宁路2008号大宁国际广场12栋大润发卖场5楼18单元(近大宁路)"},{"poiid":"B2094757D068A2F84198","title":"旺池(大宁店)","lon":"121.45344","lat":"31.27411","category":"71","category_name":"四川菜","address":"闸北区共和新路1978号大宁国际商业中心(近大宁路)"},{"poiid":"B2094757D068A1FA4499","title":"starbucks coffee（大寧國際店）","lon":"121.45682525","lat":"31.273773193","category":"65","category_name":"咖啡厅","address":"上海大寧國際"},{"poiid":"B2094654D464A5F44698","title":"十院口腔","lon":"121.45484","lat":"31.27145","category":"162","category_name":"医院","address":"延长中路299号"},{"poiid":"B2094757D06FA4FD4392","title":"鼎中鼎澳门豆捞(延长中路店)","lon":"121.45487","lat":"31.27082","category":"86","category_name":"火锅店","address":"闸北区延长中路300号堡尼大厦2楼(近共和新路)"},{"poiid":"B2094757D06FA4F5459E","title":"阿麟馄饨","lon":"121.45701","lat":"31.27178","category":"68","category_name":"快餐厅","address":"闸北区延长路172号(共和新路广延路间)"},{"poiid":"B2094757D06FA7FD429A","title":"肯德基 KFC (延长店)","lon":"121.454288","lat":"31.270828","category":"68","category_name":"快餐厅","address":"闸北区延长中路300号(近共和新路)"},{"poiid":"B2094753D564ABF5479E","title":"麻辣诱惑","lon":"121.456985","lat":"31.272874","category":"247","category_name":"餐饮美食","address":"上海市 大宁国际8座"},{"poiid":"B2094753D768A2FF4393","title":"小南国（大宁店）","lon":"121.457313","lat":"31.272609","category":"500","category_name":"未知分类","address":"上海市 上海大宁国际广场"},{"poiid":"B2094757D06FA0FC419D","title":"一茶一座大宁店","lon":"121.45778656","lat":"31.2718143463","category":"260","category_name":"其他","address":"上海共和新路1898号大宁国际商业广场5(E3)1F"},{"poiid":"B2094750D76EA3FD429A","title":"新石器烤肉(大宁店)","lon":"121.453","lat":"31.2741","category":"68","category_name":"快餐厅","address":"闸北区共和新路2008号大宁国际商业广场5楼(近大宁路)"},{"poiid":"B2094757D06AA7FB419B","title":"上海大学室内篮球场","lon":"121.456096","lat":"31.274863569","category":"500","category_name":"未知分类","address":"上海大学延长路校区内"},{"poiid":"B2094757D068A7F4409A","title":"芝麻餐馆(延长路总店)","lon":"121.45663","lat":"31.27169","category":"76","category_name":"上海菜","address":"闸北区延长路263号(近共和新路)"},{"poiid":"B2094757D16FAAFE4593","title":"赤板亭","lon":"121.456013803","lat":"31.2711842382","category":"500","category_name":"未知分类","address":"上海市闸北区大宁国际广场"},{"poiid":"B2094757D06FA4FD4493","title":"梅园苏州汤包馆(延长路店)","lon":"121.4567154","lat":"31.2719019","category":"257","category_name":"中餐厅","address":"闸北区延长路253号(近广延路)"},{"poiid":"B2094757D068A7FC4098","title":"樽寿司","lon":"121.45686","lat":"31.27198","category":"95","category_name":"日本料理","address":"闸北区延长路257号(近可的超市)"},{"poiid":"B2094757D66DA3FE489A","title":"上海大学第三教学楼","lon":"121.4573981","lat":"31.273828493","category":"253","category_name":"校园生活","address":"上海市闸北区延长路149号"},{"poiid":"B209475CD168A6FC4992","title":"银乐迪（大宁国际店）","lon":"121.456787","lat":"31.272382","category":"500","category_name":"未知分类","address":"上海市 大宁国际12座共和新路2008号602室"},{"poiid":"B2094757D465A4F94898","title":"十味观汤包传奇 大宁店","lon":"121.454133054","lat":"31.273266793","category":"260","category_name":"其他","address":"闸北区共和新路1978号大宁国际商业广场9座109B、202B(近大宁路)"},{"poiid":"B2094757D06FA4F8409C","title":"新雅粤菜馆(大宁店)","lon":"121.45301532","lat":"31.274284212","category":"72","category_name":"广东菜","address":"上海闸北区共和新路1978号大宁国际商业广场9E1幢3楼301C-306C(近大宁路)"},{"poiid":"B2094753D46BA6F5449B","title":"尚一汤（大宁国际店）","lon":"121.454297","lat":"31.273067","category":"247","category_name":"餐饮美食","address":"共和新路1918号大宁国际商业广场6座3楼"},{"poiid":"B2094757D06BABFA479B","title":"小町寿司","lon":"121.4545938","lat":"31.2722701033","category":"500","category_name":"未知分类","address":"闸北区广延路25号(延长路口)"},{"poiid":"B2094757D06FAAFA4093","title":"阿玛尼护肤造型中心(延长中路店)","lon":"121.45446","lat":"31.27052","category":"260","category_name":"其他","address":"闸北区延长中路300号(近共和新路)"},{"poiid":"B209475CD56BAAFE439D","title":"南丫天虹海鲜酒家","lon":"121.457046","lat":"31.272298","category":"247","category_name":"餐饮美食","address":"上海市 大宁国际商业广场8座"},{"poiid":"B2094654D464A4FD449C","title":"大宁国际商业广场第一幢","lon":"121.45317","lat":"31.2735","category":"46","category_name":"楼宇","address":"共和新路1868号"},{"poiid":"B2094757D16CA6FC499C","title":"苏州汤包馆(延长路店)","lon":"121.456787","lat":"31.272079","category":"68","category_name":"快餐厅","address":"闸北区延长路247号(近广延路)"},{"poiid":"B2094654D56CA3FB439D","title":"东北水饺馆(延长路)","lon":"121.45765","lat":"31.27204","category":"68","category_name":"快餐厅","address":"闸北区延长路164号(近广延路)"},{"poiid":"B2094654DB69AAFA4499","title":"米郎餐厅","lon":"121.458421054","lat":"31.272327793","category":"96","category_name":"韩国料理","address":"闸北区延长路168号(近广延路)"},{"poiid":"B2094757D16BA2F84899","title":"柠檬皇后","lon":"121.457837803","lat":"31.2732076805","category":"67","category_name":"甜品店","address":"闸北区延长路124号(近平型关路)"},{"poiid":"B2094654D464A4FD439E","title":"大宁国际商业广场","lon":"121.4530150435686","lat":"31.274217745868643","category":"119","category_name":"商场","address":"闸北区共和新路1878-2008号(近大宁路)"},{"poiid":"B2094757D468A5F5489D","title":"星巴克 大宁店 Starbucks Cafe","lon":"121.454133054","lat":"31.273266793","category":"65","category_name":"咖啡厅","address":"上海闸北区共和新路1988号 大宁国际商业广场一层"},{"poiid":"B2094654D464A5F4469B","title":"上海市第十人民医院","lon":"121.45352","lat":"31.27196","category":"162","category_name":"医院","address":"闸北区延长中路301号(近共和新路)"},{"poiid":"B2094655D26FA5F8489E","title":"星汇上影CGV大宁影城","lon":"121.4528493288708","lat":"31.2735704547333","category":"178","category_name":"电影院","address":"闸北区共和新路1878号大宁国际商业广场2座3楼(近大宁路)"},{"poiid":"B2094757D068A1FE4293","title":"上海大学(延长校区)","lon":"121.4596366","lat":"31.2729947","category":"671","category_name":"高校中心点","address":"闸北区延长路149号上海大学内(近共和新路)"},{"poiid":"B2094757D06EAAFD419A","title":"哈根达斯 大宁店 Haagen-Dazs","lon":"121.454133054","lat":"31.273266793","category":"67","category_name":"甜品店","address":"闸北区共和新路1918号大宁国际商业广场1楼101B室(近大宁路)"},{"poiid":"B2094654DB6AABFE4098","title":"STARBUCKS COFFEE(大宁国际商业广场)","lon":"121.4531","lat":"31.27431","category":"65","category_name":"咖啡厅","address":"共和新路1988号大宁国际商业广场"},{"poiid":"B2094757D06BA5FE4299","title":"同济大学附属第十人民医院","lon":"121.456724103","lat":"31.2704374226","category":"162","category_name":"医院","address":"上海延长中路301号"},{"poiid":"B2094655D26AABFD4798","title":"PANKOO釜山料理(大宁店)","lon":"121.45295","lat":"31.27411","category":"96","category_name":"韩国料理","address":"闸北区共和新路1968号大宁国际商业广场8座3楼(近大宁路)"},{"poiid":"B2094655D26AABFD4099","title":"望湘园大宁店","lon":"121.45295","lat":"31.27411","category":"77","category_name":"湖南菜","address":"闸北区共和新路1978号大宁国际商业广场9座4楼(近大宁路)"},{"poiid":"B2094757D069A0F4479B","title":"大宁购物中心","lon":"121.455517","lat":"31.2714","category":"500","category_name":"未知分类","address":"上海延长路"},{"poiid":"B2094654D56CA3FE479A","title":"上海大学(延长校区)第四教学楼","lon":"121.45926","lat":"31.27318","category":"52","category_name":"高等院校","address":"闸北区延长路149号"},{"poiid":"B2094757D06EAAFE4792","title":"延长路地铁站","lon":"121.455549","lat":"31.271404","category":"36","category_name":"地铁站","address":"上海轨道交通 一号线 轨交延长路站 1"},{"poiid":"B2094654DB6AABFD499D","title":"一茶一坐 大宁店","lon":"121.454133054","lat":"31.273266793","category":"260","category_name":"其他","address":"闸北区共和新路1968号大宁国际商业广场内(近大宁路)"},{"poiid":"B2094757D06FA0F4489E","title":"共和新路延长路","lon":"121.457695","lat":"31.272319793","category":"38","category_name":"公交车站","address":"上海共和新路延长路"},{"poiid":"B2094757D06FA2FB4893","title":"西贝莜面村(大宁店)","lon":"121.453043398","lat":"31.2743315962","category":"257","category_name":"中餐厅","address":"上海闸北区共和新路2008号大宁国际商业广场5楼(大润发超市楼上)"},{"poiid":"B2094757D06FA3F9419E","title":"味千拉面(大宁店)","lon":"121.45321","lat":"31.27442","category":"95","category_name":"日本料理","address":"闸北区共和新路1968号大宁国际商业广场内(近大宁路)"},{"poiid":"B2094757D068A5FD4298","title":"上海大学（侧门）","lon":"121.4550911","lat":"31.271136437","category":"52","category_name":"高等院校","address":"上海广延路123号"},{"poiid":"B2094757D06FA5FC4992","title":"第十人民医院口腔医疗保健中心","lon":"121.45351705","lat":"31.271969224","category":"162","category_name":"医院","address":"闸北区延长中路299号(近共和新路)"},{"poiid":"B209475CD669A1F4409B","title":"70后饭吧","lon":"121.453214","lat":"31.273489","category":"75","category_name":"浙江菜","address":"闸北区共和新路2008号大宁国际商业广场12座5楼"},{"poiid":"B2094757D06BA7FB4699","title":"JOANNA'S","lon":"121.4551151","lat":"31.271564046","category":"96","category_name":"韩国料理","address":"闸北区延长路237号(近广延路)"},{"poiid":"B2094757D06FABF4419F","title":"韩乡园(大宁店)","lon":"121.45332","lat":"31.27405","category":"96","category_name":"韩国料理","address":"闸北区大宁路2008号大宁国际广场12栋大润发卖场5楼18单元(近大宁路)"},{"poiid":"B2094757D068A2F84198","title":"旺池(大宁店)","lon":"121.45344","lat":"31.27411","category":"71","category_name":"四川菜","address":"闸北区共和新路1978号大宁国际商业中心(近大宁路)"},{"poiid":"B2094757D068A1FA4499","title":"starbucks coffee（大寧國際店）","lon":"121.45682525","lat":"31.273773193","category":"65","category_name":"咖啡厅","address":"上海大寧國際"},{"poiid":"B2094654D464A5F44698","title":"十院口腔","lon":"121.45484","lat":"31.27145","category":"162","category_name":"医院","address":"延长中路299号"},{"poiid":"B2094757D06FA4FD4392","title":"鼎中鼎澳门豆捞(延长中路店)","lon":"121.45487","lat":"31.27082","category":"86","category_name":"火锅店","address":"闸北区延长中路300号堡尼大厦2楼(近共和新路)"},{"poiid":"B2094757D06FA4F5459E","title":"阿麟馄饨","lon":"121.45701","lat":"31.27178","category":"68","category_name":"快餐厅","address":"闸北区延长路172号(共和新路广延路间)"},{"poiid":"B2094757D06FA7FD429A","title":"肯德基 KFC (延长店)","lon":"121.454288","lat":"31.270828","category":"68","category_name":"快餐厅","address":"闸北区延长中路300号(近共和新路)"},{"poiid":"B2094753D564ABF5479E","title":"麻辣诱惑","lon":"121.456985","lat":"31.272874","category":"247","category_name":"餐饮美食","address":"上海市 大宁国际8座"},{"poiid":"B2094753D768A2FF4393","title":"小南国（大宁店）","lon":"121.457313","lat":"31.272609","category":"500","category_name":"未知分类","address":"上海市 上海大宁国际广场"},{"poiid":"B2094757D06FA0FC419D","title":"一茶一座大宁店","lon":"121.45778656","lat":"31.2718143463","category":"260","category_name":"其他","address":"上海共和新路1898号大宁国际商业广场5(E3)1F"},{"poiid":"B2094750D76EA3FD429A","title":"新石器烤肉(大宁店)","lon":"121.453","lat":"31.2741","category":"68","category_name":"快餐厅","address":"闸北区共和新路2008号大宁国际商业广场5楼(近大宁路)"},{"poiid":"B2094757D06AA7FB419B","title":"上海大学室内篮球场","lon":"121.456096","lat":"31.274863569","category":"500","category_name":"未知分类","address":"上海大学延长路校区内"},{"poiid":"B2094757D068A7F4409A","title":"芝麻餐馆(延长路总店)","lon":"121.45663","lat":"31.27169","category":"76","category_name":"上海菜","address":"闸北区延长路263号(近共和新路)"},{"poiid":"B2094757D16FAAFE4593","title":"赤板亭","lon":"121.456013803","lat":"31.2711842382","category":"500","category_name":"未知分类","address":"上海市闸北区大宁国际广场"},{"poiid":"B2094757D06FA4FD4493","title":"梅园苏州汤包馆(延长路店)","lon":"121.4567154","lat":"31.2719019","category":"257","category_name":"中餐厅","address":"闸北区延长路253号(近广延路)"},{"poiid":"B2094757D068A7FC4098","title":"樽寿司","lon":"121.45686","lat":"31.27198","category":"95","category_name":"日本料理","address":"闸北区延长路257号(近可的超市)"},{"poiid":"B2094757D66DA3FE489A","title":"上海大学第三教学楼","lon":"121.4573981","lat":"31.273828493","category":"253","category_name":"校园生活","address":"上海市闸北区延长路149号"},{"poiid":"B209475CD168A6FC4992","title":"银乐迪（大宁国际店）","lon":"121.456787","lat":"31.272382","category":"500","category_name":"未知分类","address":"上海市 大宁国际12座共和新路2008号602室"},{"poiid":"B2094757D465A4F94898","title":"十味观汤包传奇 大宁店","lon":"121.454133054","lat":"31.273266793","category":"260","category_name":"其他","address":"闸北区共和新路1978号大宁国际商业广场9座109B、202B(近大宁路)"},{"poiid":"B2094757D06FA4F8409C","title":"新雅粤菜馆(大宁店)","lon":"121.45301532","lat":"31.274284212","category":"72","category_name":"广东菜","address":"上海闸北区共和新路1978号大宁国际商业广场9E1幢3楼301C-306C(近大宁路)"},{"poiid":"B2094753D46BA6F5449B","title":"尚一汤（大宁国际店）","lon":"121.454297","lat":"31.273067","category":"247","category_name":"餐饮美食","address":"共和新路1918号大宁国际商业广场6座3楼"},{"poiid":"B2094757D06BABFA479B","title":"小町寿司","lon":"121.4545938","lat":"31.2722701033","category":"500","category_name":"未知分类","address":"闸北区广延路25号(延长路口)"},{"poiid":"B2094757D06FAAFA4093","title":"阿玛尼护肤造型中心(延长中路店)","lon":"121.45446","lat":"31.27052","category":"260","category_name":"其他","address":"闸北区延长中路300号(近共和新路)"},{"poiid":"B209475CD56BAAFE439D","title":"南丫天虹海鲜酒家","lon":"121.457046","lat":"31.272298","category":"247","category_name":"餐饮美食","address":"上海市 大宁国际商业广场8座"},{"poiid":"B2094654D464A4FD449C","title":"大宁国际商业广场第一幢","lon":"121.45317","lat":"31.2735","category":"46","category_name":"楼宇","address":"共和新路1868号"},{"poiid":"B2094757D16CA6FC499C","title":"苏州汤包馆(延长路店)","lon":"121.456787","lat":"31.272079","category":"68","category_name":"快餐厅","address":"闸北区延长路247号(近广延路)"},{"poiid":"B2094654D56CA3FB439D","title":"东北水饺馆(延长路)","lon":"121.45765","lat":"31.27204","category":"68","category_name":"快餐厅","address":"闸北区延长路164号(近广延路)"},{"poiid":"B2094654DB69AAFA4499","title":"米郎餐厅","lon":"121.458421054","lat":"31.272327793","category":"96","category_name":"韩国料理","address":"闸北区延长路168号(近广延路)"},{"poiid":"B2094757D16BA2F84899","title":"柠檬皇后","lon":"121.457837803","lat":"31.2732076805","category":"67","category_name":"甜品店","address":"闸北区延长路124号(近平型关路)"},{"poiid":"B2094654D464A4FD439E","title":"大宁国际商业广场","lon":"121.4530150435686","lat":"31.274217745868643","category":"119","category_name":"商场","address":"闸北区共和新路1878-2008号(近大宁路)"},{"poiid":"B2094757D468A5F5489D","title":"星巴克 大宁店 Starbucks Cafe","lon":"121.454133054","lat":"31.273266793","category":"65","category_name":"咖啡厅","address":"上海闸北区共和新路1988号 大宁国际商业广场一层"},{"poiid":"B2094654D464A5F4469B","title":"上海市第十人民医院","lon":"121.45352","lat":"31.27196","category":"162","category_name":"医院","address":"闸北区延长中路301号(近共和新路)"},{"poiid":"B2094655D26FA5F8489E","title":"星汇上影CGV大宁影城","lon":"121.4528493288708","lat":"31.2735704547333","category":"178","category_name":"电影院","address":"闸北区共和新路1878号大宁国际商业广场2座3楼(近大宁路)"},{"poiid":"B2094757D068A1FE4293","title":"上海大学(延长校区)","lon":"121.4596366","lat":"31.2729947","category":"671","category_name":"高校中心点","address":"闸北区延长路149号上海大学内(近共和新路)"},{"poiid":"B2094757D06EAAFD419A","title":"哈根达斯 大宁店 Haagen-Dazs","lon":"121.454133054","lat":"31.273266793","category":"67","category_name":"甜品店","address":"闸北区共和新路1918号大宁国际商业广场1楼101B室(近大宁路)"},{"poiid":"B2094654DB6AABFE4098","title":"STARBUCKS COFFEE(大宁国际商业广场)","lon":"121.4531","lat":"31.27431","category":"65","category_name":"咖啡厅","address":"共和新路1988号大宁国际商业广场"},{"poiid":"B2094757D06BA5FE4299","title":"同济大学附属第十人民医院","lon":"121.456724103","lat":"31.2704374226","category":"162","category_name":"医院","address":"上海延长中路301号"},{"poiid":"B2094655D26AABFD4798","title":"PANKOO釜山料理(大宁店)","lon":"121.45295","lat":"31.27411","category":"96","category_name":"韩国料理","address":"闸北区共和新路1968号大宁国际商业广场8座3楼(近大宁路)"},{"poiid":"B2094655D26AABFD4099","title":"望湘园大宁店","lon":"121.45295","lat":"31.27411","category":"77","category_name":"湖南菜","address":"闸北区共和新路1978号大宁国际商业广场9座4楼(近大宁路)"},{"poiid":"B2094757D069A0F4479B","title":"大宁购物中心","lon":"121.455517","lat":"31.2714","category":"500","category_name":"未知分类","address":"上海延长路"},{"poiid":"B2094654D56CA3FE479A","title":"上海大学(延长校区)第四教学楼","lon":"121.45926","lat":"31.27318","category":"52","category_name":"高等院校","address":"闸北区延长路149号"},{"poiid":"B2094757D06EAAFE4792","title":"延长路地铁站","lon":"121.455549","lat":"31.271404","category":"36","category_name":"地铁站","address":"上海轨道交通 一号线 轨交延长路站 1"},{"poiid":"B2094654DB6AABFD499D","title":"一茶一坐 大宁店","lon":"121.454133054","lat":"31.273266793","category":"260","category_name":"其他","address":"闸北区共和新路1968号大宁国际商业广场内(近大宁路)"},{"poiid":"B2094757D06FA0F4489E","title":"共和新路延长路","lon":"121.457695","lat":"31.272319793","category":"38","category_name":"公交车站","address":"上海共和新路延长路"},{"poiid":"B2094757D06FA2FB4893","title":"西贝莜面村(大宁店)","lon":"121.453043398","lat":"31.2743315962","category":"257","category_name":"中餐厅","address":"上海闸北区共和新路2008号大宁国际商业广场5楼(大润发超市楼上)"},{"poiid":"B2094757D06FA3F9419E","title":"味千拉面(大宁店)","lon":"121.45321","lat":"31.27442","category":"95","category_name":"日本料理","address":"闸北区共和新路1968号大宁国际商业广场内(近大宁路)"},{"poiid":"B2094757D068A5FD4298","title":"上海大学（侧门）","lon":"121.4550911","lat":"31.271136437","category":"52","category_name":"高等院校","address":"上海广延路123号"},{"poiid":"B2094757D06FA5FC4992","title":"第十人民医院口腔医疗保健中心","lon":"121.45351705","lat":"31.271969224","category":"162","category_name":"医院","address":"闸北区延长中路299号(近共和新路)"},{"poiid":"B209475CD669A1F4409B","title":"70后饭吧","lon":"121.453214","lat":"31.273489","category":"75","category_name":"浙江菜","address":"闸北区共和新路2008号大宁国际商业广场12座5楼"},{"poiid":"B2094757D06BA7FB4699","title":"JOANNA'S","lon":"121.4551151","lat":"31.271564046","category":"96","category_name":"韩国料理","address":"闸北区延长路237号(近广延路)"},{"poiid":"B2094757D06FABF4419F","title":"韩乡园(大宁店)","lon":"121.45332","lat":"31.27405","category":"96","category_name":"韩国料理","address":"闸北区大宁路2008号大宁国际广场12栋大润发卖场5楼18单元(近大宁路)"},{"poiid":"B2094757D068A2F84198","title":"旺池(大宁店)","lon":"121.45344","lat":"31.27411","category":"71","category_name":"四川菜","address":"闸北区共和新路1978号大宁国际商业中心(近大宁路)"},{"poiid":"B2094757D068A1FA4499","title":"starbucks coffee（大寧國際店）","lon":"121.45682525","lat":"31.273773193","category":"65","category_name":"咖啡厅","address":"上海大寧國際"},{"poiid":"B2094654D464A5F44698","title":"十院口腔","lon":"121.45484","lat":"31.27145","category":"162","category_name":"医院","address":"延长中路299号"},{"poiid":"B2094757D06FA4FD4392","title":"鼎中鼎澳门豆捞(延长中路店)","lon":"121.45487","lat":"31.27082","category":"86","category_name":"火锅店","address":"闸北区延长中路300号堡尼大厦2楼(近共和新路)"},{"poiid":"B2094757D06FA4F5459E","title":"阿麟馄饨","lon":"121.45701","lat":"31.27178","category":"68","category_name":"快餐厅","address":"闸北区延长路172号(共和新路广延路间)"},{"poiid":"B2094757D06FA7FD429A","title":"肯德基 KFC (延长店)","lon":"121.454288","lat":"31.270828","category":"68","category_name":"快餐厅","address":"闸北区延长中路300号(近共和新路)"},{"poiid":"B2094753D564ABF5479E","title":"麻辣诱惑","lon":"121.456985","lat":"31.272874","category":"247","category_name":"餐饮美食","address":"上海市 大宁国际8座"},{"poiid":"B2094753D768A2FF4393","title":"小南国（大宁店）","lon":"121.457313","lat":"31.272609","category":"500","category_name":"未知分类","address":"上海市 上海大宁国际广场"},{"poiid":"B2094757D06FA0FC419D","title":"一茶一座大宁店","lon":"121.45778656","lat":"31.2718143463","category":"260","category_name":"其他","address":"上海共和新路1898号大宁国际商业广场5(E3)1F"},{"poiid":"B2094750D76EA3FD429A","title":"新石器烤肉(大宁店)","lon":"121.453","lat":"31.2741","category":"68","category_name":"快餐厅","address":"闸北区共和新路2008号大宁国际商业广场5楼(近大宁路)"},{"poiid":"B2094757D06AA7FB419B","title":"上海大学室内篮球场","lon":"121.456096","lat":"31.274863569","category":"500","category_name":"未知分类","address":"上海大学延长路校区内"},{"poiid":"B2094757D068A7F4409A","title":"芝麻餐馆(延长路总店)","lon":"121.45663","lat":"31.27169","category":"76","category_name":"上海菜","address":"闸北区延长路263号(近共和新路)"},{"poiid":"B2094757D16FAAFE4593","title":"赤板亭","lon":"121.456013803","lat":"31.2711842382","category":"500","category_name":"未知分类","address":"上海市闸北区大宁国际广场"},{"poiid":"B2094757D06FA4FD4493","title":"梅园苏州汤包馆(延长路店)","lon":"121.4567154","lat":"31.2719019","category":"257","category_name":"中餐厅","address":"闸北区延长路253号(近广延路)"},{"poiid":"B2094757D068A7FC4098","title":"樽寿司","lon":"121.45686","lat":"31.27198","category":"95","category_name":"日本料理","address":"闸北区延长路257号(近可的超市)"},{"poiid":"B2094757D66DA3FE489A","title":"上海大学第三教学楼","lon":"121.4573981","lat":"31.273828493","category":"253","category_name":"校园生活","address":"上海市闸北区延长路149号"},{"poiid":"B209475CD168A6FC4992","title":"银乐迪（大宁国际店）","lon":"121.456787","lat":"31.272382","category":"500","category_name":"未知分类","address":"上海市 大宁国际12座共和新路2008号602室"},{"poiid":"B2094757D465A4F94898","title":"十味观汤包传奇 大宁店","lon":"121.454133054","lat":"31.273266793","category":"260","category_name":"其他","address":"闸北区共和新路1978号大宁国际商业广场9座109B、202B(近大宁路)"},{"poiid":"B2094757D06FA4F8409C","title":"新雅粤菜馆(大宁店)","lon":"121.45301532","lat":"31.274284212","category":"72","category_name":"广东菜","address":"上海闸北区共和新路1978号大宁国际商业广场9E1幢3楼301C-306C(近大宁路)"},{"poiid":"B2094753D46BA6F5449B","title":"尚一汤（大宁国际店）","lon":"121.454297","lat":"31.273067","category":"247","category_name":"餐饮美食","address":"共和新路1918号大宁国际商业广场6座3楼"},{"poiid":"B2094757D06BABFA479B","title":"小町寿司","lon":"121.4545938","lat":"31.2722701033","category":"500","category_name":"未知分类","address":"闸北区广延路25号(延长路口)"},{"poiid":"B2094757D06FAAFA4093","title":"阿玛尼护肤造型中心(延长中路店)","lon":"121.45446","lat":"31.27052","category":"260","category_name":"其他","address":"闸北区延长中路300号(近共和新路)"},{"poiid":"B209475CD56BAAFE439D","title":"南丫天虹海鲜酒家","lon":"121.457046","lat":"31.272298","category":"247","category_name":"餐饮美食","address":"上海市 大宁国际商业广场8座"},{"poiid":"B2094654D464A4FD449C","title":"大宁国际商业广场第一幢","lon":"121.45317","lat":"31.2735","category":"46","category_name":"楼宇","address":"共和新路1868号"},{"poiid":"B2094757D16CA6FC499C","title":"苏州汤包馆(延长路店)","lon":"121.456787","lat":"31.272079","category":"68","category_name":"快餐厅","address":"闸北区延长路247号(近广延路)"},{"poiid":"B2094654D56CA3FB439D","title":"东北水饺馆(延长路)","lon":"121.45765","lat":"31.27204","category":"68","category_name":"快餐厅","address":"闸北区延长路164号(近广延路)"},{"poiid":"B2094654DB69AAFA4499","title":"米郎餐厅","lon":"121.458421054","lat":"31.272327793","category":"96","category_name":"韩国料理","address":"闸北区延长路168号(近广延路)"},{"poiid":"B2094757D16BA2F84899","title":"柠檬皇后","lon":"121.457837803","lat":"31.2732076805","category":"67","category_name":"甜品店","address":"闸北区延长路124号(近平型关路)"},{"poiid":"B2094654D464A4FD439E","title":"大宁国际商业广场","lon":"121.4530150435686","lat":"31.274217745868643","category":"119","category_name":"商场","address":"闸北区共和新路1878-2008号(近大宁路)"},{"poiid":"B2094757D468A5F5489D","title":"星巴克 大宁店 Starbucks Cafe","lon":"121.454133054","lat":"31.273266793","category":"65","category_name":"咖啡厅","address":"上海闸北区共和新路1988号 大宁国际商业广场一层"},{"poiid":"B2094654D464A5F4469B","title":"上海市第十人民医院","lon":"121.45352","lat":"31.27196","category":"162","category_name":"医院","address":"闸北区延长中路301号(近共和新路)"},{"poiid":"B2094655D26FA5F8489E","title":"星汇上影CGV大宁影城","lon":"121.4528493288708","lat":"31.2735704547333","category":"178","category_name":"电影院","address":"闸北区共和新路1878号大宁国际商业广场2座3楼(近大宁路)"},{"poiid":"B2094757D068A1FE4293","title":"上海大学(延长校区)","lon":"121.4596366","lat":"31.2729947","category":"671","category_name":"高校中心点","address":"闸北区延长路149号上海大学内(近共和新路)"},{"poiid":"B2094757D06EAAFD419A","title":"哈根达斯 大宁店 Haagen-Dazs","lon":"121.454133054","lat":"31.273266793","category":"67","category_name":"甜品店","address":"闸北区共和新路1918号大宁国际商业广场1楼101B室(近大宁路)"},{"poiid":"B2094654DB6AABFE4098","title":"STARBUCKS COFFEE(大宁国际商业广场)","lon":"121.4531","lat":"31.27431","category":"65","category_name":"咖啡厅","address":"共和新路1988号大宁国际商业广场"},{"poiid":"B2094757D06BA5FE4299","title":"同济大学附属第十人民医院","lon":"121.456724103","lat":"31.2704374226","category":"162","category_name":"医院","address":"上海延长中路301号"},{"poiid":"B2094655D26AABFD4798","title":"PANKOO釜山料理(大宁店)","lon":"121.45295","lat":"31.27411","category":"96","category_name":"韩国料理","address":"闸北区共和新路1968号大宁国际商业广场8座3楼(近大宁路)"},{"poiid":"B2094655D26AABFD4099","title":"望湘园大宁店","lon":"121.45295","lat":"31.27411","category":"77","category_name":"湖南菜","address":"闸北区共和新路1978号大宁国际商业广场9座4楼(近大宁路)"},{"poiid":"B2094757D069A0F4479B","title":"大宁购物中心","lon":"121.455517","lat":"31.2714","category":"500","category_name":"未知分类","address":"上海延长路"},{"poiid":"B2094654D56CA3FE479A","title":"上海大学(延长校区)第四教学楼","lon":"121.45926","lat":"31.27318","category":"52","category_name":"高等院校","address":"闸北区延长路149号"},{"poiid":"B2094757D06EAAFE4792","title":"延长路地铁站","lon":"121.455549","lat":"31.271404","category":"36","category_name":"地铁站","address":"上海轨道交通 一号线 轨交延长路站 1"},{"poiid":"B2094654DB6AABFD499D","title":"一茶一坐 大宁店","lon":"121.454133054","lat":"31.273266793","category":"260","category_name":"其他","address":"闸北区共和新路1968号大宁国际商业广场内(近大宁路)"},{"poiid":"B2094757D06FA0F4489E","title":"共和新路延长路","lon":"121.457695","lat":"31.272319793","category":"38","category_name":"公交车站","address":"上海共和新路延长路"},{"poiid":"B2094757D06FA2FB4893","title":"西贝莜面村(大宁店)","lon":"121.453043398","lat":"31.2743315962","category":"257","category_name":"中餐厅","address":"上海闸北区共和新路2008号大宁国际商业广场5楼(大润发超市楼上)"},{"poiid":"B2094757D06FA3F9419E","title":"味千拉面(大宁店)","lon":"121.45321","lat":"31.27442","category":"95","category_name":"日本料理","address":"闸北区共和新路1968号大宁国际商业广场内(近大宁路)"},{"poiid":"B2094757D068A5FD4298","title":"上海大学（侧门）","lon":"121.4550911","lat":"31.271136437","category":"52","category_name":"高等院校","address":"上海广延路123号"},{"poiid":"B2094757D06FA5FC4992","title":"第十人民医院口腔医疗保健中心","lon":"121.45351705","lat":"31.271969224","category":"162","category_name":"医院","address":"闸北区延长中路299号(近共和新路)"},{"poiid":"B209475CD669A1F4409B","title":"70后饭吧","lon":"121.453214","lat":"31.273489","category":"75","category_name":"浙江菜","address":"闸北区共和新路2008号大宁国际商业广场12座5楼"},{"poiid":"B2094757D06BA7FB4699","title":"JOANNA'S","lon":"121.4551151","lat":"31.271564046","category":"96","category_name":"韩国料理","address":"闸北区延长路237号(近广延路)"},{"poiid":"B2094757D06FABF4419F","title":"韩乡园(大宁店)","lon":"121.45332","lat":"31.27405","category":"96","category_name":"韩国料理","address":"闸北区大宁路2008号大宁国际广场12栋大润发卖场5楼18单元(近大宁路)"},{"poiid":"B2094757D068A2F84198","title":"旺池(大宁店)","lon":"121.45344","lat":"31.27411","category":"71","category_name":"四川菜","address":"闸北区共和新路1978号大宁国际商业中心(近大宁路)"},{"poiid":"B2094757D068A1FA4499","title":"starbucks coffee（大寧國際店）","lon":"121.45682525","lat":"31.273773193","category":"65","category_name":"咖啡厅","address":"上海大寧國際"},{"poiid":"B2094654D464A5F44698","title":"十院口腔","lon":"121.45484","lat":"31.27145","category":"162","category_name":"医院","address":"延长中路299号"},{"poiid":"B2094757D06FA4FD4392","title":"鼎中鼎澳门豆捞(延长中路店)","lon":"121.45487","lat":"31.27082","category":"86","category_name":"火锅店","address":"闸北区延长中路300号堡尼大厦2楼(近共和新路)"},{"poiid":"B2094757D06FA4F5459E","title":"阿麟馄饨","lon":"121.45701","lat":"31.27178","category":"68","category_name":"快餐厅","address":"闸北区延长路172号(共和新路广延路间)"},{"poiid":"B2094757D06FA7FD429A","title":"肯德基 KFC (延长店)","lon":"121.454288","lat":"31.270828","category":"68","category_name":"快餐厅","address":"闸北区延长中路300号(近共和新路)"},{"poiid":"B2094753D564ABF5479E","title":"麻辣诱惑","lon":"121.456985","lat":"31.272874","category":"247","category_name":"餐饮美食","address":"上海市 大宁国际8座"},{"poiid":"B2094753D768A2FF4393","title":"小南国（大宁店）","lon":"121.457313","lat":"31.272609","category":"500","category_name":"未知分类","address":"上海市 上海大宁国际广场"},{"poiid":"B2094757D06FA0FC419D","title":"一茶一座大宁店","lon":"121.45778656","lat":"31.2718143463","category":"260","category_name":"其他","address":"上海共和新路1898号大宁国际商业广场5(E3)1F"},{"poiid":"B2094750D76EA3FD429A","title":"新石器烤肉(大宁店)","lon":"121.453","lat":"31.2741","category":"68","category_name":"快餐厅","address":"闸北区共和新路2008号大宁国际商业广场5楼(近大宁路)"},{"poiid":"B2094757D06AA7FB419B","title":"上海大学室内篮球场","lon":"121.456096","lat":"31.274863569","category":"500","category_name":"未知分类","address":"上海大学延长路校区内"},{"poiid":"B2094757D068A7F4409A","title":"芝麻餐馆(延长路总店)","lon":"121.45663","lat":"31.27169","category":"76","category_name":"上海菜","address":"闸北区延长路263号(近共和新路)"},{"poiid":"B2094757D16FAAFE4593","title":"赤板亭","lon":"121.456013803","lat":"31.2711842382","category":"500","category_name":"未知分类","address":"上海市闸北区大宁国际广场"},{"poiid":"B2094757D06FA4FD4493","title":"梅园苏州汤包馆(延长路店)","lon":"121.4567154","lat":"31.2719019","category":"257","category_name":"中餐厅","address":"闸北区延长路253号(近广延路)"},{"poiid":"B2094757D068A7FC4098","title":"樽寿司","lon":"121.45686","lat":"31.27198","category":"95","category_name":"日本料理","address":"闸北区延长路257号(近可的超市)"},{"poiid":"B2094757D66DA3FE489A","title":"上海大学第三教学楼","lon":"121.4573981","lat":"31.273828493","category":"253","category_name":"校园生活","address":"上海市闸北区延长路149号"},{"poiid":"B209475CD168A6FC4992","title":"银乐迪（大宁国际店）","lon":"121.456787","lat":"31.272382","category":"500","category_name":"未知分类","address":"上海市 大宁国际12座共和新路2008号602室"},{"poiid":"B2094757D465A4F94898","title":"十味观汤包传奇 大宁店","lon":"121.454133054","lat":"31.273266793","category":"260","category_name":"其他","address":"闸北区共和新路1978号大宁国际商业广场9座109B、202B(近大宁路)"},{"poiid":"B2094757D06FA4F8409C","title":"新雅粤菜馆(大宁店)","lon":"121.45301532","lat":"31.274284212","category":"72","category_name":"广东菜","address":"上海闸北区共和新路1978号大宁国际商业广场9E1幢3楼301C-306C(近大宁路)"},{"poiid":"B2094753D46BA6F5449B","title":"尚一汤（大宁国际店）","lon":"121.454297","lat":"31.273067","category":"247","category_name":"餐饮美食","address":"共和新路1918号大宁国际商业广场6座3楼"},{"poiid":"B2094757D06BABFA479B","title":"小町寿司","lon":"121.4545938","lat":"31.2722701033","category":"500","category_name":"未知分类","address":"闸北区广延路25号(延长路口)"},{"poiid":"B2094757D06FAAFA4093","title":"阿玛尼护肤造型中心(延长中路店)","lon":"121.45446","lat":"31.27052","category":"260","category_name":"其他","address":"闸北区延长中路300号(近共和新路)"},{"poiid":"B209475CD56BAAFE439D","title":"南丫天虹海鲜酒家","lon":"121.457046","lat":"31.272298","category":"247","category_name":"餐饮美食","address":"上海市 大宁国际商业广场8座"},{"poiid":"B2094654D464A4FD449C","title":"大宁国际商业广场第一幢","lon":"121.45317","lat":"31.2735","category":"46","category_name":"楼宇","address":"共和新路1868号"},{"poiid":"B2094757D16CA6FC499C","title":"苏州汤包馆(延长路店)","lon":"121.456787","lat":"31.272079","category":"68","category_name":"快餐厅","address":"闸北区延长路247号(近广延路)"},{"poiid":"B2094654D56CA3FB439D","title":"东北水饺馆(延长路)","lon":"121.45765","lat":"31.27204","category":"68","category_name":"快餐厅","address":"闸北区延长路164号(近广延路)"},{"poiid":"B2094654DB69AAFA4499","title":"米郎餐厅","lon":"121.458421054","lat":"31.272327793","category":"96","category_name":"韩国料理","address":"闸北区延长路168号(近广延路)"},{"poiid":"B2094757D16BA2F84899","title":"柠檬皇后","lon":"121.457837803","lat":"31.2732076805","category":"67","category_name":"甜品店","address":"闸北区延长路124号(近平型关路)"}]