[{"poiid":"B2094757D06FA2F84299","title":"Wagas沃歌斯(金桥国际广场店)","lon":"121.58569335","lat":"31.252571106","category":"94","category_name":"西餐厅","address":"浦东新区张杨路3611号金桥国际商业广场(金桥路张杨路)"},{"poiid":"B2094757D06FA5F5459E","title":"苏先生海鲜渔庄(金桥店)","lon":"121.58887","lat":"31.2473","category":"260","category_name":"其他","address":"浦东新区杨高中路758号(近金桥路)"},{"poiid":"B2094757D069A7F8499C","title":"陆行中学","lon":"121.5868","lat":"31.25336","category":"55","category_name":"中学","address":"上海浦东新区金桥路1288号"},{"poiid":"B2094757D069A4F84292","title":"骏莱海鲜","lon":"121.5871744","lat":"31.253618245","category":"247","category_name":"餐饮美食","address":"上海金桥路1379号"},{"poiid":"B2094655D26CA7F8479B","title":"瑞亚·臻品酒店","lon":"121.58742","lat":"31.25276","category":"250","category_name":"公园户外","address":"上海市浦东新区金桥路1388号(近金台路)"},{"poiid":"B2094757D06FA2FF469A","title":"金桥路金台路","lon":"121.5884957","lat":"31.2523508","category":"260","category_name":"其他","address":"上海浦东新区金桥路金台路"},{"poiid":"B2094655D26DABFE449C","title":"金杨路商业街(金杨路)","lon":"121.58482","lat":"31.25505","category":"116","category_name":"特色商业街","address":""},{"poiid":"B2094757D069A1FD459F","title":"爱金华鱼头汤 金桥店","lon":"121.58592147378","lat":"31.254573735846","category":"76","category_name":"上海菜","address":"浦东新区金桥路1258号(近金杨路)"},{"poiid":"B2094757D068ABF94292","title":"金杨路金桥路","lon":"121.58901823","lat":"31.252654658","category":"500","category_name":"未知分类","address":"上海金杨路金桥路"},{"poiid":"B2094757D468A3FE409C","title":"唐城酒楼","lon":"121.58792","lat":"31.252148","category":"76","category_name":"上海菜","address":"浦东新区金台路201号(近金桥路)"},{"poiid":"B2094757D16BAAFE4593","title":"金台路","lon":"121.58593633","lat":"31.2501258","category":"500","category_name":"未知分类","address":"上海市浦东新区金杨路"},{"poiid":"B2094757D16AA4FD4498","title":"碧悦城市酒店","lon":"121.58781833","lat":"31.252270849","category":"217","category_name":"旅馆招待所","address":"上海市浦东新区金台路222号(近金桥路)"},{"poiid":"B2094655D26EA2F44999","title":"上海金桥大厦","lon":"121.58808","lat":"31.25329","category":"46","category_name":"楼宇","address":"浦东新区金桥路1379号(近金杨路)"},{"poiid":"B2094654D568A6F84099","title":"唐朝酒楼","lon":"121.58792","lat":"31.25214","category":"70","category_name":"综合酒楼","address":"金台路201"},{"poiid":"B2094654DB6BA1FE429F","title":"招商银行上海金桥支行","lon":"121.58791","lat":"31.2523","category":"150","category_name":"银行","address":"浦东新区金桥路1398号(近金台路)"},{"poiid":"B2094757D068A7FC4698","title":"大富贵酒楼(金杨店)","lon":"121.58217","lat":"31.25082","category":"76","category_name":"上海菜","address":"浦东新区金杨路635号(近枣庄路)"},{"poiid":"B2094757D068AAFA439B","title":"邵记传菜(金桥店)","lon":"121.58888","lat":"31.25247","category":"76","category_name":"上海菜","address":"浦东新区金桥路1391号(近金台路)"},{"poiid":"B2094757DB6DA6F44799","title":"上海金桥中心智选假日酒店（原金桥中心快捷假日酒店）","lon":"121.5874314","lat":"31.25381307","category":"215","category_name":"三星级宾馆","address":"上海市浦东新区金桥路1359号(近金台路)"},{"poiid":"B2094757DB6BA3FC4599","title":"范儿咖啡休闲餐馆","lon":"121.5932714","lat":"31.2542695","category":"260","category_name":"其他","address":"浦东新区平度路346号(近胶东路)"},{"poiid":"B2094654DB6AA6FF4598","title":"上海城中园酒店","lon":"121.58831","lat":"31.25125","category":"214","category_name":"四星级宾馆","address":"金桥路1480号城中园酒店金台金桥路口"},{"poiid":"B2094654DB6BA1FE4092","title":"中国工商银行金桥支行","lon":"121.5886","lat":"31.25301","category":"150","category_name":"银行","address":"浦东新区金桥路1391号(近医贸大厦)"},{"poiid":"B2094655D264A2F4429E","title":"医贸大厦","lon":"121.58908","lat":"31.25273","category":"46","category_name":"楼宇","address":"嘉定区金沙江路3131号(近新郁路)"},{"poiid":"B2094654D568A6FB439F","title":"哈尔滨人家 金台路店","lon":"121.58527758954","lat":"31.249521136892","category":"82","category_name":"东北菜","address":"浦东新区金台路136号(近枣庄路)"},{"poiid":"B2094757D16DA2FD4693","title":"久味川菜馆（金桥路店）","lon":"121.589480869","lat":"31.2545449418","category":"71","category_name":"四川菜","address":"浦东新区金桥路1360(近金台路)"},{"poiid":"B2094655D26AA7F54698","title":"金樽KTV","lon":"121.58871","lat":"31.25287","category":"170","category_name":"KTV","address":"浦东新区金桥路1391号(近金台路)"},{"poiid":"B2094757D66BA6FA419E","title":"乐年久茶坊","lon":"121.58588","lat":"31.24986","category":"260","category_name":"其他","address":"浦东新区金台路130号(近金桥路)"},{"poiid":"B2094654D568A6F8409F","title":"世纪华联超市(金桥路)","lon":"121.58861","lat":"31.25181","category":"117","category_name":"便民商店/便利店","address":"金桥路1672"},{"poiid":"B2094655D36CA0FE489F","title":"金桥路金杨路","lon":"121.58662","lat":"31.25397","category":"38","category_name":"公交车站","address":""},{"poiid":"B2094655D265A7F5439F","title":"村夫烤鱼","lon":"121.58885","lat":"31.2504","category":"68","category_name":"快餐厅","address":"浦东新区金桥路1498号附近(近金台路)"},{"poiid":"B2094757D065A0FD479E","title":"福建天安大厦","lon":"121.58833347","lat":"31.252710629","category":"500","category_name":"未知分类","address":"上海金桥路1399号"},{"poiid":"B2094655D26CA7FA429C","title":"世纪华联No.2267","lon":"121.58896","lat":"31.25156","category":"117","category_name":"便民商店/便利店","address":"金桥路1488-3"},{"poiid":"B2094654D568A6FF4498","title":"快客No.6141","lon":"121.587","lat":"31.25323","category":"117","category_name":"便民商店/便利店","address":"金桥路1326临"},{"poiid":"B2094655D26BA7F4429D","title":"上海市浦东新区国家税务局稽查局","lon":"121.58697","lat":"31.25237","category":"250","category_name":"公园户外","address":"金台路187"},{"poiid":"B2094655D26EA5FE4592","title":"金尊大酒店","lon":"121.5888","lat":"31.25283","category":"250","category_name":"公园户外","address":"浦东新区金桥路1391号医药大厦1-2楼近金台路"},{"poiid":"B2094655D26CA7FB409D","title":"世好吉祥馄饨金桥店","lon":"121.58667","lat":"31.25349","category":"68","category_name":"快餐厅","address":"浦东新区金桥路1388号(近金台路)"},{"poiid":"B2094654DB6BA1FE409D","title":"金尊夜总会","lon":"121.5888","lat":"31.25283","category":"248","category_name":"生活娱乐","address":""},{"poiid":"B2094654D568A6F9489D","title":"金台三居","lon":"121.58943","lat":"31.249607","category":"47","category_name":"住宅区","address":"金桥路1498-1510弄"},{"poiid":"B2094655D26CA5FC4593","title":"浦东新区国家税务局第九税务所","lon":"121.58692","lat":"31.25238","category":"250","category_name":"公园户外","address":"金台路187"},{"poiid":"B2094655D26BABF94592","title":"城中园酒店(东门)","lon":"121.5889","lat":"31.2517","category":"214","category_name":"四星级宾馆","address":"金桥路1480"},{"poiid":"B2094654DB6BA1FE4099","title":"金桥新家园(金工路)","lon":"121.58711","lat":"31.25584","category":"47","category_name":"住宅区","address":"上海市浦东新区金工路133号"},{"poiid":"B2094752D26BA7FB4592","title":"上海金桥红枫万豪酒店","lon":"121.588144","lat":"31.248853","category":"251","category_name":"出行住宿","address":"新金桥路18号"},{"poiid":"B2094654D568A6FA459A","title":"金杨十街坊","lon":"121.58266","lat":"31.251093","category":"47","category_name":"住宅区","address":"金杨路660弄"},{"poiid":"B2094750DB64A5FE4098","title":"上海金桥国际广场","lon":"121.59156","lat":"31.252201","category":"500","category_name":"未知分类","address":null},{"poiid":"B2094655D26CA7F8489D","title":"中国建设银行浦东分行金桥支行","lon":"121.58813","lat":"31.25321","category":"150","category_name":"银行","address":"金桥路1379号上海金桥大厦1层11-12"},{"poiid":"B2094654DB69A7FB4292","title":"嘉定区国家税务局第11税务所","lon":"121.58734","lat":"31.25151","category":"250","category_name":"公园户外","address":"金台路187号"},{"poiid":"B2094654D568A6FF439E","title":"曼基顿(金桥路)","lon":"121.58662","lat":"31.25352","category":"68","category_name":"快餐厅","address":"浦东新区金桥路1288号(近金台路)"},{"poiid":"B2094757D66CAAFE409E","title":"杨高中路金桥立交桥","lon":"121.590676873","lat":"31.2483536596","category":"500","category_name":"未知分类","address":"上海杨高中路金桥立交桥"},{"poiid":"B2094757D465A3FA4092","title":"晋和一品","lon":"121.58861","lat":"31.2527","category":"260","category_name":"其他","address":"浦东新区金桥路1389号(近金桥地铁站6号线)"},{"poiid":"B2094757D164A6F94398","title":"東興華苑","lon":"121.58691133","lat":"31.250591811","category":"47","category_name":"住宅区","address":"上海市浦东新区金台路138号"},{"poiid":"B2094655D26FA0FC429F","title":"中国农业银行金桥金杨路支行","lon":"121.58893","lat":"31.2525","category":"150","category_name":"银行","address":""},{"poiid":"B2094757D06FA2F84299","title":"Wagas沃歌斯(金桥国际广场店)","lon":"121.58569335","lat":"31.252571106","category":"94","category_name":"西餐厅","address":"浦东新区张杨路3611号金桥国际商业广场(金桥路张杨路)"},{"poiid":"B2094757D06FA5F5459E","title":"苏先生海鲜渔庄(金桥店)","lon":"121.58887","lat":"31.2473","category":"260","category_name":"其他","address":"浦东新区杨高中路758号(近金桥路)"},{"poiid":"B2094757D069A7F8499C","title":"陆行中学","lon":"121.5868","lat":"31.25336","category":"55","category_name":"中学","address":"上海浦东新区金桥路1288号"},{"poiid":"B2094757D069A4F84292","title":"骏莱海鲜","lon":"121.5871744","lat":"31.253618245","category":"247","category_name":"餐饮美食","address":"上海金桥路1379号"},{"poiid":"B2094655D26CA7F8479B","title":"瑞亚·臻品酒店","lon":"121.58742","lat":"31.25276","category":"250","category_name":"公园户外","address":"上海市浦东新区金桥路1388号(近金台路)"},{"poiid":"B2094757D06FA2FF469A","title":"金桥路金台路","lon":"121.5884957","lat":"31.2523508","category":"260","category_name":"其他","address":"上海浦东新区金桥路金台路"},{"poiid":"B2094655D26DABFE449C","title":"金杨路商业街(金杨路)","lon":"121.58482","lat":"31.25505","category":"116","category_name":"特色商业街","address":""},{"poiid":"B2094757D069A1FD459F","title":"爱金华鱼头汤 金桥店","lon":"121.58592147378","lat":"31.254573735846","category":"76","category_name":"上海菜","address":"浦东新区金桥路1258号(近金杨路)"},{"poiid":"B2094757D068ABF94292","title":"金杨路金桥路","lon":"121.58901823","lat":"31.252654658","category":"500","category_name":"未知分类","address":"上海金杨路金桥路"},{"poiid":"B2094757D468A3FE409C","title":"唐城酒楼","lon":"121.58792","lat":"31.252148","category":"76","category_name":"上海菜","address":"浦东新区金台路201号(近金桥路)"},{"poiid":"B2094757D16BAAFE4593","title":"金台路","lon":"121.58593633","lat":"31.2501258","category":"500","category_name":"未知分类","address":"上海市浦东新区金杨路"},{"poiid":"B2094757D16AA4FD4498","title":"碧悦城市酒店","lon":"121.58781833","lat":"31.252270849","category":"217","category_name":"旅馆招待所","address":"上海市浦东新区金台路222号(近金桥路)"},{"poiid":"B2094655D26EA2F44999","title":"上海金桥大厦","lon":"121.58808","lat":"31.25329","category":"46","category_name":"楼宇","address":"浦东新区金桥路1379号(近金杨路)"},{"poiid":"B2094654D568A6F84099","title":"唐朝酒楼","lon":"121.58792","lat":"31.25214","category":"70","category_name":"综合酒楼","address":"金台路201"},{"poiid":"B2094654DB6BA1FE429F","title":"招商银行上海金桥支行","lon":"121.58791","lat":"31.2523","category":"150","category_name":"银行","address":"浦东新区金桥路1398号(近金台路)"},{"poiid":"B2094757D068A7FC4698","title":"大富贵酒楼(金杨店)","lon":"121.58217","lat":"31.25082","category":"76","category_name":"上海菜","address":"浦东新区金杨路635号(近枣庄路)"},{"poiid":"B2094757D068AAFA439B","title":"邵记传菜(金桥店)","lon":"121.58888","lat":"31.25247","category":"76","category_name":"上海菜","address":"浦东新区金桥路1391号(近金台路)"},{"poiid":"B2094757DB6DA6F44799","title":"上海金桥中心智选假日酒店（原金桥中心快捷假日酒店）","lon":"121.5874314","lat":"31.25381307","category":"215","category_name":"三星级宾馆","address":"上海市浦东新区金桥路1359号(近金台路)"},{"poiid":"B2094757DB6BA3FC4599","title":"范儿咖啡休闲餐馆","lon":"121.5932714","lat":"31.2542695","category":"260","category_name":"其他","address":"浦东新区平度路346号(近胶东路)"},{"poiid":"B2094654DB6AA6FF4598","title":"上海城中园酒店","lon":"121.58831","lat":"31.25125","category":"214","category_name":"四星级宾馆","address":"金桥路1480号城中园酒店金台金桥路口"},{"poiid":"B2094654DB6BA1FE4092","title":"中国工商银行金桥支行","lon":"121.5886","lat":"31.25301","category":"150","category_name":"银行","address":"浦东新区金桥路1391号(近医贸大厦)"},{"poiid":"B2094655D264A2F4429E","title":"医贸大厦","lon":"121.58908","lat":"31.25273","category":"46","category_name":"楼宇","address":"嘉定区金沙江路3131号(近新郁路)"},{"poiid":"B2094654D568A6FB439F","title":"哈尔滨人家 金台路店","lon":"121.58527758954","lat":"31.249521136892","category":"82","category_name":"东北菜","address":"浦东新区金台路136号(近枣庄路)"},{"poiid":"B2094757D16DA2FD4693","title":"久味川菜馆（金桥路店）","lon":"121.589480869","lat":"31.2545449418","category":"71","category_name":"四川菜","address":"浦东新区金桥路1360(近金台路)"},{"poiid":"B2094655D26AA7F54698","title":"金樽KTV","lon":"121.58871","lat":"31.25287","category":"170","category_name":"KTV","address":"浦东新区金桥路1391号(近金台路)"},{"poiid":"B2094757D66BA6FA419E","title":"乐年久茶坊","lon":"121.58588","lat":"31.24986","category":"260","category_name":"其他","address":"浦东新区金台路130号(近金桥路)"},{"poiid":"B2094654D568A6F8409F","title":"世纪华联超市(金桥路)","lon":"121.58861","lat":"31.25181","category":"117","category_name":"便民商店/便利店","address":"金桥路1672"},{"poiid":"B2094655D36CA0FE489F","title":"金桥路金杨路","lon":"121.58662","lat":"31.25397","category":"38","category_name":"公交车站","address":""},{"poiid":"B2094655D265A7F5439F","title":"村夫烤鱼","lon":"121.58885","lat":"31.2504","category":"68","category_name":"快餐厅","address":"浦东新区金桥路1498号附近(近金台路)"},{"poiid":"B2094757D065A0FD479E","title":"福建天安大厦","lon":"121.58833347","lat":"31.252710629","category":"500","category_name":"未知分类","address":"上海金桥路1399号"},{"poiid":"B2094655D26CA7FA429C","title":"世纪华联No.2267","lon":"121.58896","lat":"31.25156","category":"117","category_name":"便民商店/便利店","address":"金桥路1488-3"},{"poiid":"B2094654D568A6FF4498","title":"快客No.6141","lon":"121.587","lat":"31.25323","category":"117","category_name":"便民商店/便利店","address":"金桥路1326临"},{"poiid":"B2094655D26BA7F4429D","title":"上海市浦东新区国家税务局稽查局","lon":"121.58697","lat":"31.25237","category":"250","category_name":"公园户外","address":"金台路187"},{"poiid":"B2094655D26EA5FE4592","title":"金尊大酒店","lon":"121.5888","lat":"31.25283","category":"250","category_name":"公园户外","address":"浦东新区金桥路1391号医药大厦1-2楼近金台路"},{"poiid":"B2094655D26CA7FB409D","title":"世好吉祥馄饨金桥店","lon":"121.58667","lat":"31.25349","category":"68","category_name":"快餐厅","address":"浦东新区金桥路1388号(近金台路)"},{"poiid":"B2094654DB6BA1FE409D","title":"金尊夜总会","lon":"121.5888","lat":"31.25283","category":"248","category_name":"生活娱乐","address":""},{"poiid":"B2094654D568A6F9489D","title":"金台三居","lon":"121.58943","lat":"31.249607","category":"47","category_name":"住宅区","address":"金桥路1498-1510弄"},{"poiid":"B2094655D26CA5FC4593","title":"浦东新区国家税务局第九税务所","lon":"121.58692","lat":"31.25238","category":"250","category_name":"公园户外","address":"金台路187"},{"poiid":"B2094655D26BABF94592","title":"城中园酒店(东门)","lon":"121.5889","lat":"31.2517","category":"214","category_name":"四星级宾馆","address":"金桥路1480"},{"poiid":"B2094654DB6BA1FE4099","title":"金桥新家园(金工路)","lon":"121.58711","lat":"31.25584","category":"47","category_name":"住宅区","address":"上海市浦东新区金工路133号"},{"poiid":"B2094752D26BA7FB4592","title":"上海金桥红枫万豪酒店","lon":"121.588144","lat":"31.248853","category":"251","category_name":"出行住宿","address":"新金桥路18号"},{"poiid":"B2094654D568A6FA459A","title":"金杨十街坊","lon":"121.58266","lat":"31.251093","category":"47","category_name":"住宅区","address":"金杨路660弄"},{"poiid":"B2094750DB64A5FE4098","title":"上海金桥国际广场","lon":"121.59156","lat":"31.252201","category":"500","category_name":"未知分类","address":null},{"poiid":"B2094655D26CA7F8489D","title":"中国建设银行浦东分行金桥支行","lon":"121.58813","lat":"31.25321","category":"150","category_name":"银行","address":"金桥路1379号上海金桥大厦1层11-12"},{"poiid":"B2094654DB69A7FB4292","title":"嘉定区国家税务局第11税务所","lon":"121.58734","lat":"31.25151","category":"250","category_name":"公园户外","address":"金台路187号"},{"poiid":"B2094654D568A6FF439E","title":"曼基顿(金桥路)","lon":"121.58662","lat":"31.25352","category":"68","category_name":"快餐厅","address":"浦东新区金桥路1288号(近金台路)"},{"poiid":"B2094757D66CAAFE409E","title":"杨高中路金桥立交桥","lon":"121.590676873","lat":"31.2483536596","category":"500","category_name":"未知分类","address":"上海杨高中路金桥立交桥"},{"poiid":"B2094757D465A3FA4092","title":"晋和一品","lon":"121.58861","lat":"31.2527","category":"260","category_name":"其他","address":"浦东新区金桥路1389号(近金桥地铁站6号线)"},{"poiid":"B2094757D164A6F94398","title":"東興華苑","lon":"121.58691133","lat":"31.250591811","category":"47","category_name":"住宅区","address":"上海市浦东新区金台路138号"},{"poiid":"B2094655D26FA0FC429F","title":"中国农业银行金桥金杨路支行","lon":"121.58893","lat":"31.2525","category":"150","category_name":"银行","address":""},{"poiid":"B2094757D06FA2F84299","title":"Wagas沃歌斯(金桥国际广场店)","lon":"121.58569335","lat":"31.252571106","category":"94","category_name":"西餐厅","address":"浦东新区张杨路3611号金桥国际商业广场(金桥路张杨路)"},{"poiid":"B2094757D06FA5F5459E","title":"苏先生海鲜渔庄(金桥店)","lon":"121.58887","lat":"31.2473","category":"260","category_name":"其他","address":"浦东新区杨高中路758号(近金桥路)"},{"poiid":"B2094757D069A7F8499C","title":"陆行中学","lon":"121.5868","lat":"31.25336","category":"55","category_name":"中学","address":"上海浦东新区金桥路1288号"},{"poiid":"B2094757D069A4F84292","title":"骏莱海鲜","lon":"121.5871744","lat":"31.253618245","category":"247","category_name":"餐饮美食","address":"上海金桥路1379号"},{"poiid":"B2094655D26CA7F8479B","title":"瑞亚·臻品酒店","lon":"121.58742","lat":"31.25276","category":"250","category_name":"公园户外","address":"上海市浦东新区金桥路1388号(近金台路)"},{"poiid":"B2094757D06FA2FF469A","title":"金桥路金台路","lon":"121.5884957","lat":"31.2523508","category":"260","category_name":"其他","address":"上海浦东新区金桥路金台路"},{"poiid":"B2094655D26DABFE449C","title":"金杨路商业街(金杨路)","lon":"121.58482","lat":"31.25505","category":"116","category_name":"特色商业街","address":""},{"poiid":"B2094757D069A1FD459F","title":"爱金华鱼头汤 金桥店","lon":"121.58592147378","lat":"31.254573735846","category":"76","category_name":"上海菜","address":"浦东新区金桥路1258号(近金杨路)"},{"poiid":"B2094757D068ABF94292","title":"金杨路金桥路","lon":"121.58901823","lat":"31.252654658","category":"500","category_name":"未知分类","address":"上海金杨路金桥路"},{"poiid":"B2094757D468A3FE409C","title":"唐城酒楼","lon":"121.58792","lat":"31.252148","category":"76","category_name":"上海菜","address":"浦东新区金台路201号(近金桥路)"},{"poiid":"B2094757D16BAAFE4593","title":"金台路","lon":"121.58593633","lat":"31.2501258","category":"500","category_name":"未知分类","address":"上海市浦东新区金杨路"},{"poiid":"B2094757D16AA4FD4498","title":"碧悦城市酒店","lon":"121.58781833","lat":"31.252270849","category":"217","category_name":"旅馆招待所","address":"上海市浦东新区金台路222号(近金桥路)"},{"poiid":"B2094655D26EA2F44999","title":"上海金桥大厦","lon":"121.58808","lat":"31.25329","category":"46","category_name":"楼宇","address":"浦东新区金桥路1379号(近金杨路)"},{"poiid":"B2094654D568A6F84099","title":"唐朝酒楼","lon":"121.58792","lat":"31.25214","category":"70","category_name":"综合酒楼","address":"金台路201"},{"poiid":"B2094654DB6BA1FE429F","title":"招商银行上海金桥支行","lon":"121.58791","lat":"31.2523","category":"150","category_name":"银行","address":"浦东新区金桥路1398号(近金台路)"},{"poiid":"B2094757D068A7FC4698","title":"大富贵酒楼(金杨店)","lon":"121.58217","lat":"31.25082","category":"76","category_name":"上海菜","address":"浦东新区金杨路635号(近枣庄路)"},{"poiid":"B2094757D068AAFA439B","title":"邵记传菜(金桥店)","lon":"121.58888","lat":"31.25247","category":"76","category_name":"上海菜","address":"浦东新区金桥路1391号(近金台路)"},{"poiid":"B2094757DB6DA6F44799","title":"上海金桥中心智选假日酒店（原金桥中心快捷假日酒店）","lon":"121.5874314","lat":"31.25381307","category":"215","category_name":"三星级宾馆","address":"上海市浦东新区金桥路1359号(近金台路)"},{"poiid":"B2094757DB6BA3FC4599","title":"范儿咖啡休闲餐馆","lon":"121.5932714","lat":"31.2542695","category":"260","category_name":"其他","address":"浦东新区平度路346号(近胶东路)"},{"poiid":"B2094654DB6AA6FF4598","title":"上海城中园酒店","lon":"121.58831","lat":"31.25125","category":"214","category_name":"四星级宾馆","address":"金桥路1480号城中园酒店金台金桥路口"},{"poiid":"B2094654DB6BA1FE4092","title":"中国工商银行金桥支行","lon":"121.5886","lat":"31.25301","category":"150","category_name":"银行","address":"浦东新区金桥路1391号(近医贸大厦)"},{"poiid":"B2094655D264A2F4429E","title":"医贸大厦","lon":"121.58908","lat":"31.25273","category":"46","category_name":"楼宇","address":"嘉定区金沙江路3131号(近新郁路)"},{"poiid":"B2094654D568A6FB439F","title":"哈尔滨人家 金台路店","lon":"121.58527758954","lat":"31.249521136892","category":"82","category_name":"东北菜","address":"浦东新区金台路136号(近枣庄路)"},{"poiid":"B2094757D16DA2FD4693","title":"久味川菜馆（金桥路店）","lon":"121.589480869","lat":"31.2545449418","category":"71","category_name":"四川菜","address":"浦东新区金桥路1360(近金台路)"},{"poiid":"B2094655D26AA7F54698","title":"金樽KTV","lon":"121.58871","lat":"31.25287","category":"170","category_name":"KTV","address":"浦东新区金桥路1391号(近金台路)"},{"poiid":"B2094757D66BA6FA419E","title":"乐年久茶坊","lon":"121.58588","lat":"31.24986","category":"260","category_name":"其他","address":"浦东新区金台路130号(近金桥路)"},{"poiid":"B2094654D568A6F8409F","title":"世纪华联超市(金桥路)","lon":"121.58861","lat":"31.25181","category":"117","category_name":"便民商店/便利店","address":"金桥路1672"},{"poiid":"B2094655D36CA0FE489F","title":"金桥路金杨路","lon":"121.58662","lat":"31.25397","category":"38","category_name":"公交车站","address":""},{"poiid":"B2094655D265A7F5439F","title":"村夫烤鱼","lon":"121.58885","lat":"31.2504","category":"68","category_name":"快餐厅","address":"浦东新区金桥路1498号附近(近金台路)"},{"poiid":"B2094757D065A0FD479E","title":"福建天安大厦","lon":"121.58833347","lat":"31.252710629","category":"500","category_name":"未知分类","address":"上海金桥路1399号"},{"poiid":"B2094655D26CA7FA429C","title":"世纪华联No.2267","lon":"121.58896","lat":"31.25156","category":"117","category_name":"便民商店/便利店","address":"金桥路1488-3"},{"poiid":"B2094654D568A6FF4498","title":"快客No.6141","lon":"121.587","lat":"31.25323","category":"117","category_name":"便民商店/便利店","address":"金桥路1326临"},{"poiid":"B2094655D26BA7F4429D","title":"上海市浦东新区国家税务局稽查局","lon":"121.58697","lat":"31.25237","category":"250","category_name":"公园户外","address":"金台路187"},{"poiid":"B2094655D26EA5FE4592","title":"金尊大酒店","lon":"121.5888","lat":"31.25283","category":"250","category_name":"公园户外","address":"浦东新区金桥路1391号医药大厦1-2楼近金台路"},{"poiid":"B2094655D26CA7FB409D","title":"世好吉祥馄饨金桥店","lon":"121.58667","lat":"31.25349","category":"68","category_name":"快餐厅","address":"浦东新区金桥路1388号(近金台路)"},{"poiid":"B2094654DB6BA1FE409D","title":"金尊夜总会","lon":"121.5888","lat":"31.25283","category":"248","category_name":"生活娱乐","address":""},{"poiid":"B2094654D568A6F9489D","title":"金台三居","lon":"121.58943","lat":"31.249607","category":"47","category_name":"住宅区","address":"金桥路1498-1510弄"},{"poiid":"B2094655D26CA5FC4593","title":"浦东新区国家税务局第九税务所","lon":"121.58692","lat":"31.25238","category":"250","category_name":"公园户外","address":"金台路187"},{"poiid":"B2094655D26BABF94592","title":"城中园酒店(东门)","lon":"121.5889","lat":"31.2517","category":"214","category_name":"四星级宾馆","address":"金桥路1480"},{"poiid":"B2094654DB6BA1FE4099","title":"金桥新家园(金工路)","lon":"121.58711","lat":"31.25584","category":"47","category_name":"住宅区","address":"上海市浦东新区金工路133号"},{"poiid":"B2094752D26BA7FB4592","title":"上海金桥红枫万豪酒店","lon":"121.588144","lat":"31.248853","category":"251","category_name":"出行住宿","address":"新金桥路18号"},{"poiid":"B2094654D568A6FA459A","title":"金杨十街坊","lon":"121.58266","lat":"31.251093","category":"47","category_name":"住宅区","address":"金杨路660弄"},{"poiid":"B2094750DB64A5FE4098","title":"上海金桥国际广场","lon":"121.59156","lat":"31.252201","category":"500","category_name":"未知分类","address":null},{"poiid":"B2094655D26CA7F8489D","title":"中国建设银行浦东分行金桥支行","lon":"121.58813","lat":"31.25321","category":"150","category_name":"银行","address":"金桥路1379号上海金桥大厦1层11-12"},{"poiid":"B2094654DB69A7FB4292","title":"嘉定区国家税务局第11税务所","lon":"121.58734","lat":"31.25151","category":"250","category_name":"公园户外","address":"金台路187号"},{"poiid":"B2094654D568A6FF439E","title":"曼基顿(金桥路)","lon":"121.58662","lat":"31.25352","category":"68","category_name":"快餐厅","address":"浦东新区金桥路1288号(近金台路)"},{"poiid":"B2094757D66CAAFE409E","title":"杨高中路金桥立交桥","lon":"121.590676873","lat":"31.2483536596","category":"500","category_name":"未知分类","address":"上海杨高中路金桥立交桥"},{"poiid":"B2094757D465A3FA4092","title":"晋和一品","lon":"121.58861","lat":"31.2527","category":"260","category_name":"其他","address":"浦东新区金桥路1389号(近金桥地铁站6号线)"},{"poiid":"B2094757D164A6F94398","title":"東興華苑","lon":"121.58691133","lat":"31.250591811","category":"47","category_name":"住宅区","address":"上海市浦东新区金台路138号"},{"poiid":"B2094655D26FA0FC429F","title":"中国农业银行金桥金杨路支行","lon":"121.58893","lat":"31.2525","category":"150","category_name":"银行","address":""},{"poiid":"B2094757D06FA2F84299","title":"Wagas沃歌斯(金桥国际广场店)","lon":"121.58569335","lat":"31.252571106","category":"94","category_name":"西餐厅","address":"浦东新区张杨路3611号金桥国际商业广场(金桥路张杨路)"},{"poiid":"B2094757D06FA5F5459E","title":"苏先生海鲜渔庄(金桥店)","lon":"121.58887","lat":"31.2473","category":"260","category_name":"其他","address":"浦东新区杨高中路758号(近金桥路)"},{"poiid":"B2094757D069A7F8499C","title":"陆行中学","lon":"121.5868","lat":"31.25336","category":"55","category_name":"中学","address":"上海浦东新区金桥路1288号"},{"poiid":"B2094757D069A4F84292","title":"骏莱海鲜","lon":"121.5871744","lat":"31.253618245","category":"247","category_name":"餐饮美食","address":"上海金桥路1379号"},{"poiid":"B2094655D26CA7F8479B","title":"瑞亚·臻品酒店","lon":"121.58742","lat":"31.25276","category":"250","category_name":"公园户外","address":"上海市浦东新区金桥路1388号(近金台路)"},{"poiid":"B2094757D06FA2FF469A","title":"金桥路金台路","lon":"121.5884957","lat":"31.2523508","category":"260","category_name":"其他","address":"上海浦东新区金桥路金台路"},{"poiid":"B2094655D26DABFE449C","title":"金杨路商业街(金杨路)","lon":"121.58482","lat":"31.25505","category":"116","category_name":"特色商业街","address":""},{"poiid":"B2094757D069A1FD459F","title":"爱金华鱼头汤 金桥店","lon":"121.58592147378","lat":"31.254573735846","category":"76","category_name":"上海菜","address":"浦东新区金桥路1258号(近金杨路)"},{"poiid":"B2094757D068ABF94292","title":"金杨路金桥路","lon":"121.58901823","lat":"31.252654658","category":"500","category_name":"未知分类","address":"上海金杨路金桥路"},{"poiid":"B2094757D468A3FE409C","title":"唐城酒楼","lon":"121.58792","lat":"31.252148","category":"76","category_name":"上海菜","address":"浦东新区金台路201号(近金桥路)"},{"poiid":"B2094757D16BAAFE4593","title":"金台路","lon":"121.58593633","lat":"31.2501258","category":"500","category_name":"未知分类","address":"上海市浦东新区金杨路"},{"poiid":"B2094757D16AA4FD4498","title":"碧悦城市酒店","lon":"121.58781833","lat":"31.252270849","category":"217","category_name":"旅馆招待所","address":"上海市浦东新区金台路222号(近金桥路)"},{"poiid":"B2094655D26EA2F44999","title":"上海金桥大厦","lon":"121.58808","lat":"31.25329","category":"46","category_name":"楼宇","address":"浦东新区金桥路1379号(近金杨路)"},{"poiid":"B2094654D568A6F84099","title":"唐朝酒楼","lon":"121.58792","lat":"31.25214","category":"70","category_name":"综合酒楼","address":"金台路201"},{"poiid":"B2094654DB6BA1FE429F","title":"招商银行上海金桥支行","lon":"121.58791","lat":"31.2523","category":"150","category_name":"银行","address":"浦东新区金桥路1398号(近金台路)"},{"poiid":"B2094757D068A7FC4698","title":"大富贵酒楼(金杨店)","lon":"121.58217","lat":"31.25082","category":"76","category_name":"上海菜","address":"浦东新区金杨路635号(近枣庄路)"},{"poiid":"B2094757D068AAFA439B","title":"邵记传菜(金桥店)","lon":"121.58888","lat":"31.25247","category":"76","category_name":"上海菜","address":"浦东新区金桥路1391号(近金台路)"},{"poiid":"B2094757DB6DA6F44799","title":"上海金桥中心智选假日酒店（原金桥中心快捷假日酒店）","lon":"121.5874314","lat":"31.25381307","category":"215","category_name":"三星级宾馆","address":"上海市浦东新区金桥路1359号(近金台路)"},{"poiid":"B2094757DB6BA3FC4599","title":"范儿咖啡休闲餐馆","lon":"121.5932714","lat":"31.2542695","category":"260","category_name":"其他","address":"浦东新区平度路346号(近胶东路)"},{"poiid":"B2094654DB6AA6FF4598","title":"上海城中园酒店","lon":"121.58831","lat":"31.25125","category":"214","category_name":"四星级宾馆","address":"金桥路1480号城中园酒店金台金桥路口"},{"poiid":"B2094654DB6BA1FE4092","title":"中国工商银行金桥支行","lon":"121.5886","lat":"31.25301","category":"150","category_name":"银行","address":"浦东新区金桥路1391号(近医贸大厦)"},{"poiid":"B2094655D264A2F4429E","title":"医贸大厦","lon":"121.58908","lat":"31.25273","category":"46","category_name":"楼宇","address":"嘉定区金沙江路3131号(近新郁路)"},{"poiid":"B2094654D568A6FB439F","title":"哈尔滨人家 金台路店","lon":"121.58527758954","lat":"31.249521136892","category":"82","category_name":"东北菜","address":"浦东新区金台路136号(近枣庄路)"},{"poiid":"B2094757D16DA2FD4693","title":"久味川菜馆（金桥路店）","lon":"121.589480869","lat":"31.2545449418","category":"71","category_name":"四川菜","address":"浦东新区金桥路1360(近金台路)"},{"poiid":"B2094655D26AA7F54698","title":"金樽KTV","lon":"121.58871","lat":"31.25287","category":"170","category_name":"KTV","address":"浦东新区金桥路1391号(近金台路)"},{"poiid":"B2094757D66BA6FA419E","title":"乐年久茶坊","lon":"121.58588","lat":"31.24986","category":"260","category_name":"其他","address":"浦东新区金台路130号(近金桥路)"},{"poiid":"B2094654D568A6F8409F","title":"世纪华联超市(金桥路)","lon":"121.58861","lat":"31.25181","category":"117","category_name":"便民商店/便利店","address":"金桥路1672"},{"poiid":"B2094655D36CA0FE489F","title":"金桥路金杨路","lon":"121.58662","lat":"31.25397","category":"38","category_name":"公交车站","address":""},{"poiid":"B2094655D265A7F5439F","title":"村夫烤鱼","lon":"121.58885","lat":"31.2504","category":"68","category_name":"快餐厅","address":"浦东新区金桥路1498号附近(近金台路)"},{"poiid":"B2094757D065A0FD479E","title":"福建天安大厦","lon":"121.58833347","lat":"31.252710629","category":"500","category_name":"未知分类","address":"上海金桥路1399号"},{"poiid":"B2094655D26CA7FA429C","title":"世纪华联No.2267","lon":"121.58896","lat":"31.25156","category":"117","category_name":"便民商店/便利店","address":"金桥路1488-3"},{"poiid":"B2094654D568A6FF4498","title":"快客No.6141","lon":"121.587","lat":"31.25323","category":"117","category_name":"便民商店/便利店","address":"金桥路1326临"},{"poiid":"B2094655D26BA7F4429D","title":"上海市浦东新区国家税务局稽查局","lon":"121.58697","lat":"31.25237","category":"250","category_name":"公园户外","address":"金台路187"},{"poiid":"B2094655D26EA5FE4592","title":"金尊大酒店","lon":"121.5888","lat":"31.25283","category":"250","category_name":"公园户外","address":"浦东新区金桥路1391号医药大厦1-2楼近金台路"},{"poiid":"B2094655D26CA7FB409D","title":"世好吉祥馄饨金桥店","lon":"121.58667","lat":"31.25349","category":"68","category_name":"快餐厅","address":"浦东新区金桥路1388号(近金台路)"},{"poiid":"B2094654DB6BA1FE409D","title":"金尊夜总会","lon":"121.5888","lat":"31.25283","category":"248","category_name":"生活娱乐","address":""},{"poiid":"B2094654D568A6F9489D","title":"金台三居","lon":"121.58943","lat":"31.249607","category":"47","category_name":"住宅区","address":"金桥路1498-1510弄"},{"poiid":"B2094655D26CA5FC4593","title":"浦东新区国家税务局第九税务所","lon":"121.58692","lat":"31.25238","category":"250","category_name":"公园户外","address":"金台路187"},{"poiid":"B2094655D26BABF94592","title":"城中园酒店(东门)","lon":"121.5889","lat":"31.2517","category":"214","category_name":"四星级宾馆","address":"金桥路1480"},{"poiid":"B2094654DB6BA1FE4099","title":"金桥新家园(金工路)","lon":"121.58711","lat":"31.25584","category":"47","category_name":"住宅区","address":"上海市浦东新区金工路133号"},{"poiid":"B2094752D26BA7FB4592","title":"上海金桥红枫万豪酒店","lon":"121.588144","lat":"31.248853","category":"251","category_name":"出行住宿","address":"新金桥路18号"},{"poiid":"B2094654D568A6FA459A","title":"金杨十街坊","lon":"121.58266","lat":"31.251093","category":"47","category_name":"住宅区","address":"金杨路660弄"},{"poiid":"B2094750DB64A5FE4098","title":"上海金桥国际广场","lon":"121.59156","lat":"31.252201","category":"500","category_name":"未知分类","address":null},{"poiid":"B2094655D26CA7F8489D","title":"中国建设银行浦东分行金桥支行","lon":"121.58813","lat":"31.25321","category":"150","category_name":"银行","address":"金桥路1379号上海金桥大厦1层11-12"},{"poiid":"B2094654DB69A7FB4292","title":"嘉定区国家税务局第11税务所","lon":"121.58734","lat":"31.25151","category":"250","category_name":"公园户外","address":"金台路187号"},{"poiid":"B2094654D568A6FF439E","title":"曼基顿(金桥路)","lon":"121.58662","lat":"31.25352","category":"68","category_name":"快餐厅","address":"浦东新区金桥路1288号(近金台路)"},{"poiid":"B2094757D66CAAFE409E","title":"杨高中路金桥立交桥","lon":"121.590676873","lat":"31.2483536596","category":"500","category_name":"未知分类","address":"上海杨高中路金桥立交桥"},{"poiid":"B2094757D465A3FA4092","title":"晋和一品","lon":"121.58861","lat":"31.2527","category":"260","category_name":"其他","address":"浦东新区金桥路1389号(近金桥地铁站6号线)"},{"poiid":"B2094757D164A6F94398","title":"東興華苑","lon":"121.58691133","lat":"31.250591811","category":"47","category_name":"住宅区","address":"上海市浦东新区金台路138号"},{"poiid":"B2094655D26FA0FC429F","title":"中国农业银行金桥金杨路支行","lon":"121.58893","lat":"31.2525","category":"150","category_name":"银行","address":""}]