[{"poiid":"B2094757D06FA2FD4399","title":"吉祥草","lon":"121.47559","lat":"31.21365","category":"89","category_name":"中式素餐馆","address":"卢湾区马当路428号2楼(近合肥路)"},{"poiid":"B2094757D06FA3FC459D","title":"COSTA COFFEE(马当路店)","lon":"121.47564265","lat":"31.2161755734","category":"65","category_name":"咖啡厅","address":"卢湾区马当路245号新天地时尚购物广场L117、L220、L243室(近复兴中路)"},{"poiid":"B2094757D06FA4FA4192","title":"SMUDGEstore(林俊杰SMG)","lon":"121.47483764","lat":"31.215852575","category":"141","category_name":"服装鞋帽皮具店","address":"上海市卢湾区马当路新天地时尚B108号"},{"poiid":"B2094753D76FAAFA449C","title":"上海滩国泰旗舰店","lon":"121.466011","lat":"31.216125","category":"249","category_name":"购物服务","address":"淮海中路868号"},{"poiid":"B209475CD564A7F84292","title":"上海滩新天地店","lon":"121.47463","lat":"31.22164","category":"119","category_name":"商场","address":"\"太仓路181弄新天地北里15号\r\n\""},{"poiid":"B209475CD564A7F8439E","title":"上海滩中信泰富店","lon":"121.45602","lat":"31.22851","category":"119","category_name":"商场","address":"\"南京西路1168号中信泰富广场，店铺号221.\r\n\""},{"poiid":"B2094751D56BA1F44893","title":"壹品饼家（新天地店）","lon":"121.47524","lat":"31.21418","category":"67","category_name":"甜品店","address":"卢湾区卢湾区马当路245号新天地时尚B1楼(近复兴中路)"},{"poiid":"B2094757D06FA4F44098","title":"何师傅面馆","lon":"121.47698","lat":"31.21536","category":"68","category_name":"快餐厅","address":"卢湾区黄陂南路618号(近合肥路)"},{"poiid":"B2094757D06AA6FE469C","title":"新天地style","lon":"121.47919464","lat":"31.214149475","category":"500","category_name":"未知分类","address":"上海复兴中路马当路"},{"poiid":"B2094757D66AA5FC419D","title":"吴记老锅底麻辣火锅 黄陂南路店","lon":"121.47667530833","lat":"31.216400943765","category":"86","category_name":"火锅店","address":"卢湾区黄陂南路577号(复兴中路合肥路间)"},{"poiid":"B2094757D06EAAFB4592","title":"新天地地铁站","lon":"121.47513982","lat":"31.216345887","category":"36","category_name":"地铁站","address":"上海轨道交通 十号线 轨交新天地站 10"},{"poiid":"B2094655D26EA5F4429B","title":"夜上海(新天地店)","lon":"121.47749","lat":"31.21282","category":"248","category_name":"生活娱乐","address":"卢湾区黄陂南路338号"},{"poiid":"B2094757D068A1F5429E","title":"顺昌路","lon":"121.478856","lat":"31.214754","category":"500","category_name":"未知分类","address":"上海卢湾区顺昌路"},{"poiid":"B2094757D16EA4F44398","title":"黃陂南路751號創意園區","lon":"121.47749573","lat":"31.213613946","category":"500","category_name":"未知分类","address":"上海黃陂南路751"},{"poiid":"B2094750D26EABFA499F","title":"吉祥草素食馆 Lucky  Zen&Veg  Restaurant","lon":"121.47517238998","lat":"31.213610898688","category":"89","category_name":"中式素餐馆","address":"马当路428号2楼近合肥路"},{"poiid":"B2094757D06EAAFD4992","title":"地铁十号线","lon":"121.47509765","lat":"31.216314315","category":"36","category_name":"地铁站","address":"上海虹桥火车站/航中路- 新江湾城 轨道交通十号线 轨交 10"},{"poiid":"B2094757D06AA4F5499E","title":"central studios奂镜","lon":"121.477864","lat":"31.213331","category":"500","category_name":"未知分类","address":"上海市黄陂南路751号1号楼1楼"},{"poiid":"B2094750D565A1F4469D","title":"CASA700","lon":"121.476936","lat":"31.215234","category":"247","category_name":"餐饮美食","address":"黄陂南路700号"},{"poiid":"B2094654DB6BA4FB469F","title":"卓维700上海创意产业集聚区","lon":"121.47692","lat":"31.21411","category":"45","category_name":"产业园区","address":"黄陂南路700"},{"poiid":"B2094654DA6DA5FD4599","title":"新电大厦","lon":"121.479","lat":"31.2154","category":"46","category_name":"楼宇","address":"沈河区文化东路8号"},{"poiid":"B2094655D26CA4F54592","title":"建德坊","lon":"121.47675","lat":"31.212887","category":"47","category_name":"住宅区","address":"建国东路328弄1-22号"},{"poiid":"B2094654DA6FA3FC499D","title":"上海市卢湾区人民法院","lon":"121.47657","lat":"31.21483","category":"608","category_name":"法院","address":"合肥路213"},{"poiid":"B2094654DA6FA3FF429A","title":"邦德造型设计","lon":"121.47606","lat":"31.21234","category":"148","category_name":"美容美发店","address":"卢湾区建国东路342号(近马当路)"},{"poiid":"B2094654DB6BA4FB469D","title":"豪享来中西餐厅(马当路)","lon":"121.47533","lat":"31.21392","category":"94","category_name":"西餐厅","address":"卢湾区马当路428号(近合肥路)"},{"poiid":"B2094654DA6FA3FF409E","title":"沧浪亭(马当路)","lon":"121.47561","lat":"31.21362","category":"87","category_name":"特色／地方风味餐厅","address":"卢湾区马当路355号(近合肥路)"},{"poiid":"B2094757D069A2F8469F","title":"大同商务楼","lon":"121.47528076","lat":"31.216138839","category":"46","category_name":"楼宇","address":"上海卢湾区复兴中路369号"},{"poiid":"B2094655D36CA1FF419B","title":"顺昌路建国东路","lon":"121.47906","lat":"31.21428","category":"38","category_name":"公交车站","address":""},{"poiid":"B2094654DA6FA3FF409F","title":"马当小区","lon":"121.47568","lat":"31.21344","category":"47","category_name":"住宅区","address":"马当路357弄1-8号"},{"poiid":"B2094757D16DA1F54699","title":"京世造型","lon":"121.476757","lat":"31.212887","category":"148","category_name":"美容美发店","address":"上海卢湾区建国东路318号"},{"poiid":"B2094757D769A4F94699","title":"上海砂锅饭店","lon":"121.47780999365","lat":"31.21249952881","category":"76","category_name":"上海菜","address":"卢湾区建国东路125号(顺昌路)"},{"poiid":"B2094757D069ABF84992","title":"吉旺港式餐厅(虹口龙之梦店)","lon":"121.477626988","lat":"31.2160295975","category":"247","category_name":"餐饮美食","address":"上海虹口区西江湾路388号凯德龙之梦虹口广场A区6层"},{"poiid":"B2094654DA6FA3FD489E","title":"福悦楼酒家","lon":"121.47520771349","lat":"31.214405676936","category":"76","category_name":"上海菜","address":"卢湾区马当路408号(近合肥路)"},{"poiid":"B2094757D06BA3F44498","title":"Musee platinum","lon":"121.47511773","lat":"31.216438006","category":"500","category_name":"未知分类","address":"上海市卢湾区马当路 新天地时尚2楼"},{"poiid":"B2094655D26AA0F9489F","title":"地铁马当路站","lon":"121.47497","lat":"31.21624","category":"36","category_name":"地铁站","address":""},{"poiid":"B2094757DA69A2FC449E","title":"esee英模","lon":"121.47759646043","lat":"31.21278052027","category":"180","category_name":"剧场","address":"黄陂南路751号1号楼502室"},{"poiid":"B2094757D069A1FE4999","title":"宝宝文具店","lon":"121.475321","lat":"31.213992","category":"139","category_name":"文化用品店","address":"卢湾区马当路420号(近合肥路)"},{"poiid":"B2094757D76AA6FC4192","title":"湘聚缘湘菜馆 黄陂南路店","lon":"121.476572054","lat":"31.216518793","category":"77","category_name":"湖南菜","address":"卢湾区黄陂南路567号(复兴中路口)"},{"poiid":"B2094752D665A2F9439C","title":"韵色","lon":"121.478048","lat":"31.215633","category":"247","category_name":"餐饮美食","address":"方斜路446号"},{"poiid":"B2094654DA6DA5FC469F","title":"天天花园","lon":"121.478","lat":"31.2133","category":"47","category_name":"住宅区","address":"徐家汇路518-528"},{"poiid":"B209475CD16EABFC459A","title":"瑞金医院","lon":"121.477035","lat":"31.215791","category":"162","category_name":"医院","address":"上海市 瑞金二路197号"},{"poiid":"B2094655D26CA4F9429D","title":"光明邨","lon":"121.47763","lat":"31.2158","category":"47","category_name":"住宅区","address":"合肥路148弄1-83号"},{"poiid":"B2094757D064A4F94598","title":"复兴苑","lon":"121.47475","lat":"31.213816","category":"252","category_name":"楼宇机构","address":"上海合肥路淡水路"},{"poiid":"B2094655D26AA1FB419F","title":"索尼专业维修合肥路店","lon":"121.47608","lat":"31.21477","category":"247","category_name":"餐饮美食","address":"卢湾区合肥路219号"},{"poiid":"B2094757D16FABF4429C","title":"老仓浪亭何师傅羊肉面","lon":"121.476678","lat":"31.216334","category":"247","category_name":"餐饮美食","address":"上海黄彼南路"},{"poiid":"B2094655D26CA4F4469B","title":"健乐小区","lon":"121.47493","lat":"31.2132","category":"47","category_name":"住宅区","address":"淡水路345弄1-32号"},{"poiid":"B2094654DA6EAAF44099","title":"凹凸大厦","lon":"121.4784","lat":"31.21583","category":"46","category_name":"楼宇","address":"顺昌路330号"},{"poiid":"B2094655D26CA4F5449D","title":"梅兰坊","lon":"121.47658","lat":"31.21573","category":"47","category_name":"住宅区","address":"黄陂南路596弄1-58号"},{"poiid":"B2094654DA6DA6F5499F","title":"华仑大厦","lon":"121.476","lat":"31.2124","category":"46","category_name":"楼宇","address":"徐家汇路560号"},{"poiid":"B2094655D26FA3F8489F","title":"避风塘街景No.910","lon":"121.47754","lat":"31.21701","category":"66","category_name":"茶艺馆","address":""},{"poiid":"B2094655D36CA6FF4398","title":"复兴中路黄陂南路","lon":"121.47711","lat":"31.21702","category":"38","category_name":"公交车站","address":""},{"poiid":"B2094757D06FA2FD4399","title":"吉祥草","lon":"121.47559","lat":"31.21365","category":"89","category_name":"中式素餐馆","address":"卢湾区马当路428号2楼(近合肥路)"},{"poiid":"B2094757D06FA3FC459D","title":"COSTA COFFEE(马当路店)","lon":"121.47564265","lat":"31.2161755734","category":"65","category_name":"咖啡厅","address":"卢湾区马当路245号新天地时尚购物广场L117、L220、L243室(近复兴中路)"},{"poiid":"B2094757D06FA4FA4192","title":"SMUDGEstore(林俊杰SMG)","lon":"121.47483764","lat":"31.215852575","category":"141","category_name":"服装鞋帽皮具店","address":"上海市卢湾区马当路新天地时尚B108号"},{"poiid":"B2094753D76FAAFA449C","title":"上海滩国泰旗舰店","lon":"121.466011","lat":"31.216125","category":"249","category_name":"购物服务","address":"淮海中路868号"},{"poiid":"B209475CD564A7F84292","title":"上海滩新天地店","lon":"121.47463","lat":"31.22164","category":"119","category_name":"商场","address":"\"太仓路181弄新天地北里15号\r\n\""},{"poiid":"B209475CD564A7F8439E","title":"上海滩中信泰富店","lon":"121.45602","lat":"31.22851","category":"119","category_name":"商场","address":"\"南京西路1168号中信泰富广场，店铺号221.\r\n\""},{"poiid":"B2094751D56BA1F44893","title":"壹品饼家（新天地店）","lon":"121.47524","lat":"31.21418","category":"67","category_name":"甜品店","address":"卢湾区卢湾区马当路245号新天地时尚B1楼(近复兴中路)"},{"poiid":"B2094757D06FA4F44098","title":"何师傅面馆","lon":"121.47698","lat":"31.21536","category":"68","category_name":"快餐厅","address":"卢湾区黄陂南路618号(近合肥路)"},{"poiid":"B2094757D06AA6FE469C","title":"新天地style","lon":"121.47919464","lat":"31.214149475","category":"500","category_name":"未知分类","address":"上海复兴中路马当路"},{"poiid":"B2094757D66AA5FC419D","title":"吴记老锅底麻辣火锅 黄陂南路店","lon":"121.47667530833","lat":"31.216400943765","category":"86","category_name":"火锅店","address":"卢湾区黄陂南路577号(复兴中路合肥路间)"},{"poiid":"B2094757D06EAAFB4592","title":"新天地地铁站","lon":"121.47513982","lat":"31.216345887","category":"36","category_name":"地铁站","address":"上海轨道交通 十号线 轨交新天地站 10"},{"poiid":"B2094655D26EA5F4429B","title":"夜上海(新天地店)","lon":"121.47749","lat":"31.21282","category":"248","category_name":"生活娱乐","address":"卢湾区黄陂南路338号"},{"poiid":"B2094757D068A1F5429E","title":"顺昌路","lon":"121.478856","lat":"31.214754","category":"500","category_name":"未知分类","address":"上海卢湾区顺昌路"},{"poiid":"B2094757D16EA4F44398","title":"黃陂南路751號創意園區","lon":"121.47749573","lat":"31.213613946","category":"500","category_name":"未知分类","address":"上海黃陂南路751"},{"poiid":"B2094750D26EABFA499F","title":"吉祥草素食馆 Lucky  Zen&Veg  Restaurant","lon":"121.47517238998","lat":"31.213610898688","category":"89","category_name":"中式素餐馆","address":"马当路428号2楼近合肥路"},{"poiid":"B2094757D06EAAFD4992","title":"地铁十号线","lon":"121.47509765","lat":"31.216314315","category":"36","category_name":"地铁站","address":"上海虹桥火车站/航中路- 新江湾城 轨道交通十号线 轨交 10"},{"poiid":"B2094757D06AA4F5499E","title":"central studios奂镜","lon":"121.477864","lat":"31.213331","category":"500","category_name":"未知分类","address":"上海市黄陂南路751号1号楼1楼"},{"poiid":"B2094750D565A1F4469D","title":"CASA700","lon":"121.476936","lat":"31.215234","category":"247","category_name":"餐饮美食","address":"黄陂南路700号"},{"poiid":"B2094654DB6BA4FB469F","title":"卓维700上海创意产业集聚区","lon":"121.47692","lat":"31.21411","category":"45","category_name":"产业园区","address":"黄陂南路700"},{"poiid":"B2094654DA6DA5FD4599","title":"新电大厦","lon":"121.479","lat":"31.2154","category":"46","category_name":"楼宇","address":"沈河区文化东路8号"},{"poiid":"B2094655D26CA4F54592","title":"建德坊","lon":"121.47675","lat":"31.212887","category":"47","category_name":"住宅区","address":"建国东路328弄1-22号"},{"poiid":"B2094654DA6FA3FC499D","title":"上海市卢湾区人民法院","lon":"121.47657","lat":"31.21483","category":"608","category_name":"法院","address":"合肥路213"},{"poiid":"B2094654DA6FA3FF429A","title":"邦德造型设计","lon":"121.47606","lat":"31.21234","category":"148","category_name":"美容美发店","address":"卢湾区建国东路342号(近马当路)"},{"poiid":"B2094654DB6BA4FB469D","title":"豪享来中西餐厅(马当路)","lon":"121.47533","lat":"31.21392","category":"94","category_name":"西餐厅","address":"卢湾区马当路428号(近合肥路)"},{"poiid":"B2094654DA6FA3FF409E","title":"沧浪亭(马当路)","lon":"121.47561","lat":"31.21362","category":"87","category_name":"特色／地方风味餐厅","address":"卢湾区马当路355号(近合肥路)"},{"poiid":"B2094757D069A2F8469F","title":"大同商务楼","lon":"121.47528076","lat":"31.216138839","category":"46","category_name":"楼宇","address":"上海卢湾区复兴中路369号"},{"poiid":"B2094655D36CA1FF419B","title":"顺昌路建国东路","lon":"121.47906","lat":"31.21428","category":"38","category_name":"公交车站","address":""},{"poiid":"B2094654DA6FA3FF409F","title":"马当小区","lon":"121.47568","lat":"31.21344","category":"47","category_name":"住宅区","address":"马当路357弄1-8号"},{"poiid":"B2094757D16DA1F54699","title":"京世造型","lon":"121.476757","lat":"31.212887","category":"148","category_name":"美容美发店","address":"上海卢湾区建国东路318号"},{"poiid":"B2094757D769A4F94699","title":"上海砂锅饭店","lon":"121.47780999365","lat":"31.21249952881","category":"76","category_name":"上海菜","address":"卢湾区建国东路125号(顺昌路)"},{"poiid":"B2094757D069ABF84992","title":"吉旺港式餐厅(虹口龙之梦店)","lon":"121.477626988","lat":"31.2160295975","category":"247","category_name":"餐饮美食","address":"上海虹口区西江湾路388号凯德龙之梦虹口广场A区6层"},{"poiid":"B2094654DA6FA3FD489E","title":"福悦楼酒家","lon":"121.47520771349","lat":"31.214405676936","category":"76","category_name":"上海菜","address":"卢湾区马当路408号(近合肥路)"},{"poiid":"B2094757D06BA3F44498","title":"Musee platinum","lon":"121.47511773","lat":"31.216438006","category":"500","category_name":"未知分类","address":"上海市卢湾区马当路 新天地时尚2楼"},{"poiid":"B2094655D26AA0F9489F","title":"地铁马当路站","lon":"121.47497","lat":"31.21624","category":"36","category_name":"地铁站","address":""},{"poiid":"B2094757DA69A2FC449E","title":"esee英模","lon":"121.47759646043","lat":"31.21278052027","category":"180","category_name":"剧场","address":"黄陂南路751号1号楼502室"},{"poiid":"B2094757D069A1FE4999","title":"宝宝文具店","lon":"121.475321","lat":"31.213992","category":"139","category_name":"文化用品店","address":"卢湾区马当路420号(近合肥路)"},{"poiid":"B2094757D76AA6FC4192","title":"湘聚缘湘菜馆 黄陂南路店","lon":"121.476572054","lat":"31.216518793","category":"77","category_name":"湖南菜","address":"卢湾区黄陂南路567号(复兴中路口)"},{"poiid":"B2094752D665A2F9439C","title":"韵色","lon":"121.478048","lat":"31.215633","category":"247","category_name":"餐饮美食","address":"方斜路446号"},{"poiid":"B2094654DA6DA5FC469F","title":"天天花园","lon":"121.478","lat":"31.2133","category":"47","category_name":"住宅区","address":"徐家汇路518-528"},{"poiid":"B209475CD16EABFC459A","title":"瑞金医院","lon":"121.477035","lat":"31.215791","category":"162","category_name":"医院","address":"上海市 瑞金二路197号"},{"poiid":"B2094655D26CA4F9429D","title":"光明邨","lon":"121.47763","lat":"31.2158","category":"47","category_name":"住宅区","address":"合肥路148弄1-83号"},{"poiid":"B2094757D064A4F94598","title":"复兴苑","lon":"121.47475","lat":"31.213816","category":"252","category_name":"楼宇机构","address":"上海合肥路淡水路"},{"poiid":"B2094655D26AA1FB419F","title":"索尼专业维修合肥路店","lon":"121.47608","lat":"31.21477","category":"247","category_name":"餐饮美食","address":"卢湾区合肥路219号"},{"poiid":"B2094757D16FABF4429C","title":"老仓浪亭何师傅羊肉面","lon":"121.476678","lat":"31.216334","category":"247","category_name":"餐饮美食","address":"上海黄彼南路"},{"poiid":"B2094655D26CA4F4469B","title":"健乐小区","lon":"121.47493","lat":"31.2132","category":"47","category_name":"住宅区","address":"淡水路345弄1-32号"},{"poiid":"B2094654DA6EAAF44099","title":"凹凸大厦","lon":"121.4784","lat":"31.21583","category":"46","category_name":"楼宇","address":"顺昌路330号"},{"poiid":"B2094655D26CA4F5449D","title":"梅兰坊","lon":"121.47658","lat":"31.21573","category":"47","category_name":"住宅区","address":"黄陂南路596弄1-58号"},{"poiid":"B2094654DA6DA6F5499F","title":"华仑大厦","lon":"121.476","lat":"31.2124","category":"46","category_name":"楼宇","address":"徐家汇路560号"},{"poiid":"B2094655D26FA3F8489F","title":"避风塘街景No.910","lon":"121.47754","lat":"31.21701","category":"66","category_name":"茶艺馆","address":""},{"poiid":"B2094655D36CA6FF4398","title":"复兴中路黄陂南路","lon":"121.47711","lat":"31.21702","category":"38","category_name":"公交车站","address":""},{"poiid":"B2094757D06FA2FD4399","title":"吉祥草","lon":"121.47559","lat":"31.21365","category":"89","category_name":"中式素餐馆","address":"卢湾区马当路428号2楼(近合肥路)"},{"poiid":"B2094757D06FA3FC459D","title":"COSTA COFFEE(马当路店)","lon":"121.47564265","lat":"31.2161755734","category":"65","category_name":"咖啡厅","address":"卢湾区马当路245号新天地时尚购物广场L117、L220、L243室(近复兴中路)"},{"poiid":"B2094757D06FA4FA4192","title":"SMUDGEstore(林俊杰SMG)","lon":"121.47483764","lat":"31.215852575","category":"141","category_name":"服装鞋帽皮具店","address":"上海市卢湾区马当路新天地时尚B108号"},{"poiid":"B2094753D76FAAFA449C","title":"上海滩国泰旗舰店","lon":"121.466011","lat":"31.216125","category":"249","category_name":"购物服务","address":"淮海中路868号"},{"poiid":"B209475CD564A7F84292","title":"上海滩新天地店","lon":"121.47463","lat":"31.22164","category":"119","category_name":"商场","address":"\"太仓路181弄新天地北里15号\r\n\""},{"poiid":"B209475CD564A7F8439E","title":"上海滩中信泰富店","lon":"121.45602","lat":"31.22851","category":"119","category_name":"商场","address":"\"南京西路1168号中信泰富广场，店铺号221.\r\n\""},{"poiid":"B2094751D56BA1F44893","title":"壹品饼家（新天地店）","lon":"121.47524","lat":"31.21418","category":"67","category_name":"甜品店","address":"卢湾区卢湾区马当路245号新天地时尚B1楼(近复兴中路)"},{"poiid":"B2094757D06FA4F44098","title":"何师傅面馆","lon":"121.47698","lat":"31.21536","category":"68","category_name":"快餐厅","address":"卢湾区黄陂南路618号(近合肥路)"},{"poiid":"B2094757D06AA6FE469C","title":"新天地style","lon":"121.47919464","lat":"31.214149475","category":"500","category_name":"未知分类","address":"上海复兴中路马当路"},{"poiid":"B2094757D66AA5FC419D","title":"吴记老锅底麻辣火锅 黄陂南路店","lon":"121.47667530833","lat":"31.216400943765","category":"86","category_name":"火锅店","address":"卢湾区黄陂南路577号(复兴中路合肥路间)"},{"poiid":"B2094757D06EAAFB4592","title":"新天地地铁站","lon":"121.47513982","lat":"31.216345887","category":"36","category_name":"地铁站","address":"上海轨道交通 十号线 轨交新天地站 10"},{"poiid":"B2094655D26EA5F4429B","title":"夜上海(新天地店)","lon":"121.47749","lat":"31.21282","category":"248","category_name":"生活娱乐","address":"卢湾区黄陂南路338号"},{"poiid":"B2094757D068A1F5429E","title":"顺昌路","lon":"121.478856","lat":"31.214754","category":"500","category_name":"未知分类","address":"上海卢湾区顺昌路"},{"poiid":"B2094757D16EA4F44398","title":"黃陂南路751號創意園區","lon":"121.47749573","lat":"31.213613946","category":"500","category_name":"未知分类","address":"上海黃陂南路751"},{"poiid":"B2094750D26EABFA499F","title":"吉祥草素食馆 Lucky  Zen&Veg  Restaurant","lon":"121.47517238998","lat":"31.213610898688","category":"89","category_name":"中式素餐馆","address":"马当路428号2楼近合肥路"},{"poiid":"B2094757D06EAAFD4992","title":"地铁十号线","lon":"121.47509765","lat":"31.216314315","category":"36","category_name":"地铁站","address":"上海虹桥火车站/航中路- 新江湾城 轨道交通十号线 轨交 10"},{"poiid":"B2094757D06AA4F5499E","title":"central studios奂镜","lon":"121.477864","lat":"31.213331","category":"500","category_name":"未知分类","address":"上海市黄陂南路751号1号楼1楼"},{"poiid":"B2094750D565A1F4469D","title":"CASA700","lon":"121.476936","lat":"31.215234","category":"247","category_name":"餐饮美食","address":"黄陂南路700号"},{"poiid":"B2094654DB6BA4FB469F","title":"卓维700上海创意产业集聚区","lon":"121.47692","lat":"31.21411","category":"45","category_name":"产业园区","address":"黄陂南路700"},{"poiid":"B2094654DA6DA5FD4599","title":"新电大厦","lon":"121.479","lat":"31.2154","category":"46","category_name":"楼宇","address":"沈河区文化东路8号"},{"poiid":"B2094655D26CA4F54592","title":"建德坊","lon":"121.47675","lat":"31.212887","category":"47","category_name":"住宅区","address":"建国东路328弄1-22号"},{"poiid":"B2094654DA6FA3FC499D","title":"上海市卢湾区人民法院","lon":"121.47657","lat":"31.21483","category":"608","category_name":"法院","address":"合肥路213"},{"poiid":"B2094654DA6FA3FF429A","title":"邦德造型设计","lon":"121.47606","lat":"31.21234","category":"148","category_name":"美容美发店","address":"卢湾区建国东路342号(近马当路)"},{"poiid":"B2094654DB6BA4FB469D","title":"豪享来中西餐厅(马当路)","lon":"121.47533","lat":"31.21392","category":"94","category_name":"西餐厅","address":"卢湾区马当路428号(近合肥路)"},{"poiid":"B2094654DA6FA3FF409E","title":"沧浪亭(马当路)","lon":"121.47561","lat":"31.21362","category":"87","category_name":"特色／地方风味餐厅","address":"卢湾区马当路355号(近合肥路)"},{"poiid":"B2094757D069A2F8469F","title":"大同商务楼","lon":"121.47528076","lat":"31.216138839","category":"46","category_name":"楼宇","address":"上海卢湾区复兴中路369号"},{"poiid":"B2094655D36CA1FF419B","title":"顺昌路建国东路","lon":"121.47906","lat":"31.21428","category":"38","category_name":"公交车站","address":""},{"poiid":"B2094654DA6FA3FF409F","title":"马当小区","lon":"121.47568","lat":"31.21344","category":"47","category_name":"住宅区","address":"马当路357弄1-8号"},{"poiid":"B2094757D16DA1F54699","title":"京世造型","lon":"121.476757","lat":"31.212887","category":"148","category_name":"美容美发店","address":"上海卢湾区建国东路318号"},{"poiid":"B2094757D769A4F94699","title":"上海砂锅饭店","lon":"121.47780999365","lat":"31.21249952881","category":"76","category_name":"上海菜","address":"卢湾区建国东路125号(顺昌路)"},{"poiid":"B2094757D069ABF84992","title":"吉旺港式餐厅(虹口龙之梦店)","lon":"121.477626988","lat":"31.2160295975","category":"247","category_name":"餐饮美食","address":"上海虹口区西江湾路388号凯德龙之梦虹口广场A区6层"},{"poiid":"B2094654DA6FA3FD489E","title":"福悦楼酒家","lon":"121.47520771349","lat":"31.214405676936","category":"76","category_name":"上海菜","address":"卢湾区马当路408号(近合肥路)"},{"poiid":"B2094757D06BA3F44498","title":"Musee platinum","lon":"121.47511773","lat":"31.216438006","category":"500","category_name":"未知分类","address":"上海市卢湾区马当路 新天地时尚2楼"},{"poiid":"B2094655D26AA0F9489F","title":"地铁马当路站","lon":"121.47497","lat":"31.21624","category":"36","category_name":"地铁站","address":""},{"poiid":"B2094757DA69A2FC449E","title":"esee英模","lon":"121.47759646043","lat":"31.21278052027","category":"180","category_name":"剧场","address":"黄陂南路751号1号楼502室"},{"poiid":"B2094757D069A1FE4999","title":"宝宝文具店","lon":"121.475321","lat":"31.213992","category":"139","category_name":"文化用品店","address":"卢湾区马当路420号(近合肥路)"},{"poiid":"B2094757D76AA6FC4192","title":"湘聚缘湘菜馆 黄陂南路店","lon":"121.476572054","lat":"31.216518793","category":"77","category_name":"湖南菜","address":"卢湾区黄陂南路567号(复兴中路口)"},{"poiid":"B2094752D665A2F9439C","title":"韵色","lon":"121.478048","lat":"31.215633","category":"247","category_name":"餐饮美食","address":"方斜路446号"},{"poiid":"B2094654DA6DA5FC469F","title":"天天花园","lon":"121.478","lat":"31.2133","category":"47","category_name":"住宅区","address":"徐家汇路518-528"},{"poiid":"B209475CD16EABFC459A","title":"瑞金医院","lon":"121.477035","lat":"31.215791","category":"162","category_name":"医院","address":"上海市 瑞金二路197号"},{"poiid":"B2094655D26CA4F9429D","title":"光明邨","lon":"121.47763","lat":"31.2158","category":"47","category_name":"住宅区","address":"合肥路148弄1-83号"},{"poiid":"B2094757D064A4F94598","title":"复兴苑","lon":"121.47475","lat":"31.213816","category":"252","category_name":"楼宇机构","address":"上海合肥路淡水路"},{"poiid":"B2094655D26AA1FB419F","title":"索尼专业维修合肥路店","lon":"121.47608","lat":"31.21477","category":"247","category_name":"餐饮美食","address":"卢湾区合肥路219号"},{"poiid":"B2094757D16FABF4429C","title":"老仓浪亭何师傅羊肉面","lon":"121.476678","lat":"31.216334","category":"247","category_name":"餐饮美食","address":"上海黄彼南路"},{"poiid":"B2094655D26CA4F4469B","title":"健乐小区","lon":"121.47493","lat":"31.2132","category":"47","category_name":"住宅区","address":"淡水路345弄1-32号"},{"poiid":"B2094654DA6EAAF44099","title":"凹凸大厦","lon":"121.4784","lat":"31.21583","category":"46","category_name":"楼宇","address":"顺昌路330号"},{"poiid":"B2094655D26CA4F5449D","title":"梅兰坊","lon":"121.47658","lat":"31.21573","category":"47","category_name":"住宅区","address":"黄陂南路596弄1-58号"},{"poiid":"B2094654DA6DA6F5499F","title":"华仑大厦","lon":"121.476","lat":"31.2124","category":"46","category_name":"楼宇","address":"徐家汇路560号"},{"poiid":"B2094655D26FA3F8489F","title":"避风塘街景No.910","lon":"121.47754","lat":"31.21701","category":"66","category_name":"茶艺馆","address":""},{"poiid":"B2094655D36CA6FF4398","title":"复兴中路黄陂南路","lon":"121.47711","lat":"31.21702","category":"38","category_name":"公交车站","address":""},{"poiid":"B2094757D06FA2FD4399","title":"吉祥草","lon":"121.47559","lat":"31.21365","category":"89","category_name":"中式素餐馆","address":"卢湾区马当路428号2楼(近合肥路)"},{"poiid":"B2094757D06FA3FC459D","title":"COSTA COFFEE(马当路店)","lon":"121.47564265","lat":"31.2161755734","category":"65","category_name":"咖啡厅","address":"卢湾区马当路245号新天地时尚购物广场L117、L220、L243室(近复兴中路)"},{"poiid":"B2094757D06FA4FA4192","title":"SMUDGEstore(林俊杰SMG)","lon":"121.47483764","lat":"31.215852575","category":"141","category_name":"服装鞋帽皮具店","address":"上海市卢湾区马当路新天地时尚B108号"},{"poiid":"B2094753D76FAAFA449C","title":"上海滩国泰旗舰店","lon":"121.466011","lat":"31.216125","category":"249","category_name":"购物服务","address":"淮海中路868号"},{"poiid":"B209475CD564A7F84292","title":"上海滩新天地店","lon":"121.47463","lat":"31.22164","category":"119","category_name":"商场","address":"\"太仓路181弄新天地北里15号\r\n\""},{"poiid":"B209475CD564A7F8439E","title":"上海滩中信泰富店","lon":"121.45602","lat":"31.22851","category":"119","category_name":"商场","address":"\"南京西路1168号中信泰富广场，店铺号221.\r\n\""},{"poiid":"B2094751D56BA1F44893","title":"壹品饼家（新天地店）","lon":"121.47524","lat":"31.21418","category":"67","category_name":"甜品店","address":"卢湾区卢湾区马当路245号新天地时尚B1楼(近复兴中路)"},{"poiid":"B2094757D06FA4F44098","title":"何师傅面馆","lon":"121.47698","lat":"31.21536","category":"68","category_name":"快餐厅","address":"卢湾区黄陂南路618号(近合肥路)"},{"poiid":"B2094757D06AA6FE469C","title":"新天地style","lon":"121.47919464","lat":"31.214149475","category":"500","category_name":"未知分类","address":"上海复兴中路马当路"},{"poiid":"B2094757D66AA5FC419D","title":"吴记老锅底麻辣火锅 黄陂南路店","lon":"121.47667530833","lat":"31.216400943765","category":"86","category_name":"火锅店","address":"卢湾区黄陂南路577号(复兴中路合肥路间)"},{"poiid":"B2094757D06EAAFB4592","title":"新天地地铁站","lon":"121.47513982","lat":"31.216345887","category":"36","category_name":"地铁站","address":"上海轨道交通 十号线 轨交新天地站 10"},{"poiid":"B2094655D26EA5F4429B","title":"夜上海(新天地店)","lon":"121.47749","lat":"31.21282","category":"248","category_name":"生活娱乐","address":"卢湾区黄陂南路338号"},{"poiid":"B2094757D068A1F5429E","title":"顺昌路","lon":"121.478856","lat":"31.214754","category":"500","category_name":"未知分类","address":"上海卢湾区顺昌路"},{"poiid":"B2094757D16EA4F44398","title":"黃陂南路751號創意園區","lon":"121.47749573","lat":"31.213613946","category":"500","category_name":"未知分类","address":"上海黃陂南路751"},{"poiid":"B2094750D26EABFA499F","title":"吉祥草素食馆 Lucky  Zen&Veg  Restaurant","lon":"121.47517238998","lat":"31.213610898688","category":"89","category_name":"中式素餐馆","address":"马当路428号2楼近合肥路"},{"poiid":"B2094757D06EAAFD4992","title":"地铁十号线","lon":"121.47509765","lat":"31.216314315","category":"36","category_name":"地铁站","address":"上海虹桥火车站/航中路- 新江湾城 轨道交通十号线 轨交 10"},{"poiid":"B2094757D06AA4F5499E","title":"central studios奂镜","lon":"121.477864","lat":"31.213331","category":"500","category_name":"未知分类","address":"上海市黄陂南路751号1号楼1楼"},{"poiid":"B2094750D565A1F4469D","title":"CASA700","lon":"121.476936","lat":"31.215234","category":"247","category_name":"餐饮美食","address":"黄陂南路700号"},{"poiid":"B2094654DB6BA4FB469F","title":"卓维700上海创意产业集聚区","lon":"121.47692","lat":"31.21411","category":"45","category_name":"产业园区","address":"黄陂南路700"},{"poiid":"B2094654DA6DA5FD4599","title":"新电大厦","lon":"121.479","lat":"31.2154","category":"46","category_name":"楼宇","address":"沈河区文化东路8号"},{"poiid":"B2094655D26CA4F54592","title":"建德坊","lon":"121.47675","lat":"31.212887","category":"47","category_name":"住宅区","address":"建国东路328弄1-22号"},{"poiid":"B2094654DA6FA3FC499D","title":"上海市卢湾区人民法院","lon":"121.47657","lat":"31.21483","category":"608","category_name":"法院","address":"合肥路213"},{"poiid":"B2094654DA6FA3FF429A","title":"邦德造型设计","lon":"121.47606","lat":"31.21234","category":"148","category_name":"美容美发店","address":"卢湾区建国东路342号(近马当路)"},{"poiid":"B2094654DB6BA4FB469D","title":"豪享来中西餐厅(马当路)","lon":"121.47533","lat":"31.21392","category":"94","category_name":"西餐厅","address":"卢湾区马当路428号(近合肥路)"},{"poiid":"B2094654DA6FA3FF409E","title":"沧浪亭(马当路)","lon":"121.47561","lat":"31.21362","category":"87","category_name":"特色／地方风味餐厅","address":"卢湾区马当路355号(近合肥路)"},{"poiid":"B2094757D069A2F8469F","title":"大同商务楼","lon":"121.47528076","lat":"31.216138839","category":"46","category_name":"楼宇","address":"上海卢湾区复兴中路369号"},{"poiid":"B2094655D36CA1FF419B","title":"顺昌路建国东路","lon":"121.47906","lat":"31.21428","category":"38","category_name":"公交车站","address":""},{"poiid":"B2094654DA6FA3FF409F","title":"马当小区","lon":"121.47568","lat":"31.21344","category":"47","category_name":"住宅区","address":"马当路357弄1-8号"},{"poiid":"B2094757D16DA1F54699","title":"京世造型","lon":"121.476757","lat":"31.212887","category":"148","category_name":"美容美发店","address":"上海卢湾区建国东路318号"},{"poiid":"B2094757D769A4F94699","title":"上海砂锅饭店","lon":"121.47780999365","lat":"31.21249952881","category":"76","category_name":"上海菜","address":"卢湾区建国东路125号(顺昌路)"},{"poiid":"B2094757D069ABF84992","title":"吉旺港式餐厅(虹口龙之梦店)","lon":"121.477626988","lat":"31.2160295975","category":"247","category_name":"餐饮美食","address":"上海虹口区西江湾路388号凯德龙之梦虹口广场A区6层"},{"poiid":"B2094654DA6FA3FD489E","title":"福悦楼酒家","lon":"121.47520771349","lat":"31.214405676936","category":"76","category_name":"上海菜","address":"卢湾区马当路408号(近合肥路)"},{"poiid":"B2094757D06BA3F44498","title":"Musee platinum","lon":"121.47511773","lat":"31.216438006","category":"500","category_name":"未知分类","address":"上海市卢湾区马当路 新天地时尚2楼"},{"poiid":"B2094655D26AA0F9489F","title":"地铁马当路站","lon":"121.47497","lat":"31.21624","category":"36","category_name":"地铁站","address":""},{"poiid":"B2094757DA69A2FC449E","title":"esee英模","lon":"121.47759646043","lat":"31.21278052027","category":"180","category_name":"剧场","address":"黄陂南路751号1号楼502室"},{"poiid":"B2094757D069A1FE4999","title":"宝宝文具店","lon":"121.475321","lat":"31.213992","category":"139","category_name":"文化用品店","address":"卢湾区马当路420号(近合肥路)"},{"poiid":"B2094757D76AA6FC4192","title":"湘聚缘湘菜馆 黄陂南路店","lon":"121.476572054","lat":"31.216518793","category":"77","category_name":"湖南菜","address":"卢湾区黄陂南路567号(复兴中路口)"},{"poiid":"B2094752D665A2F9439C","title":"韵色","lon":"121.478048","lat":"31.215633","category":"247","category_name":"餐饮美食","address":"方斜路446号"},{"poiid":"B2094654DA6DA5FC469F","title":"天天花园","lon":"121.478","lat":"31.2133","category":"47","category_name":"住宅区","address":"徐家汇路518-528"},{"poiid":"B209475CD16EABFC459A","title":"瑞金医院","lon":"121.477035","lat":"31.215791","category":"162","category_name":"医院","address":"上海市 瑞金二路197号"},{"poiid":"B2094655D26CA4F9429D","title":"光明邨","lon":"121.47763","lat":"31.2158","category":"47","category_name":"住宅区","address":"合肥路148弄1-83号"},{"poiid":"B2094757D064A4F94598","title":"复兴苑","lon":"121.47475","lat":"31.213816","category":"252","category_name":"楼宇机构","address":"上海合肥路淡水路"},{"poiid":"B2094655D26AA1FB419F","title":"索尼专业维修合肥路店","lon":"121.47608","lat":"31.21477","category":"247","category_name":"餐饮美食","address":"卢湾区合肥路219号"},{"poiid":"B2094757D16FABF4429C","title":"老仓浪亭何师傅羊肉面","lon":"121.476678","lat":"31.216334","category":"247","category_name":"餐饮美食","address":"上海黄彼南路"},{"poiid":"B2094655D26CA4F4469B","title":"健乐小区","lon":"121.47493","lat":"31.2132","category":"47","category_name":"住宅区","address":"淡水路345弄1-32号"},{"poiid":"B2094654DA6EAAF44099","title":"凹凸大厦","lon":"121.4784","lat":"31.21583","category":"46","category_name":"楼宇","address":"顺昌路330号"},{"poiid":"B2094655D26CA4F5449D","title":"梅兰坊","lon":"121.47658","lat":"31.21573","category":"47","category_name":"住宅区","address":"黄陂南路596弄1-58号"},{"poiid":"B2094654DA6DA6F5499F","title":"华仑大厦","lon":"121.476","lat":"31.2124","category":"46","category_name":"楼宇","address":"徐家汇路560号"},{"poiid":"B2094655D26FA3F8489F","title":"避风塘街景No.910","lon":"121.47754","lat":"31.21701","category":"66","category_name":"茶艺馆","address":""},{"poiid":"B2094655D36CA6FF4398","title":"复兴中路黄陂南路","lon":"121.47711","lat":"31.21702","category":"38","category_name":"公交车站","address":""}]