[{"poiid":"B2094750D66FA4F44999","title":"上海浦东四季酒店","lon":"121.509437","lat":"31.233774","category":"252","category_name":"楼宇机构","address":"世纪大道210号"},{"poiid":"B2094757D06BA4F5429A","title":"环球金融中心100层观光厅","lon":"121.512176738","lat":"31.2328213553","category":"500","category_name":"未知分类","address":"上海市浦东新区陆家嘴东路"},{"poiid":"B2094757D06FA7FC4799","title":"环球金融中心92楼柏悦酒店Bar","lon":"121.51080173","lat":"31.234288386","category":"217","category_name":"旅馆招待所","address":"上海市浦东新区陆家嘴东路"},{"poiid":"B209475CD564A7F84392","title":"上海滩浦东香格里拉店","lon":"121.50058","lat":"31.23634","category":"119","category_name":"商场","address":"浦东富成路33号香格里拉酒店内大堂层"},{"poiid":"B2094655D26FA6F8499F","title":"浦发大厦","lon":"121.51171","lat":"31.23523","category":"46","category_name":"楼宇","address":"上海市浦东新区浦东南路588号"},{"poiid":"B2094757D169A0FE4799","title":"大茴香环球店","lon":"121.510028638","lat":"31.2347699968","category":"110","category_name":"其他亚洲菜","address":"浦东新区世纪大道100号环球金融中心2楼206室(近东泰路)"},{"poiid":"B2094757D068A2FB4693","title":"世纪100餐厅 100Century Avenue","lon":"121.507588054","lat":"31.235582793","category":"76","category_name":"上海菜","address":"浦东新区世纪大道100号环球金融中心上海柏悦酒店91-93楼(近东泰路)"},{"poiid":"B2094757D064A4FE409D","title":"环球金融中心赤板亭","lon":"121.510870738","lat":"31.2351694054","category":"247","category_name":"餐饮美食","address":"上海世纪大道100号"},{"poiid":"B2094757D16FA0FC4699","title":"环球金融中心 DADA Hair SaIon","lon":"121.50961873","lat":"31.234726395","category":"500","category_name":"未知分类","address":"上海市浦东新区陆家嘴东路"},{"poiid":"B2094757D06FA3F5499D","title":"上海信息大楼","lon":"121.5111618","lat":"31.23515129","category":"46","category_name":"楼宇","address":"上海市浦东新区张杨路500号"},{"poiid":"B2094757D465A0F44699","title":"尼藏花园餐厅酒吧 Nizang Himalaya","lon":"121.51071683753","lat":"31.232122106704","category":"110","category_name":"其他亚洲菜","address":"浦东新区东昌路498号东园一村内(近浦东南路)"},{"poiid":"B2094757D068A3FE4798","title":"恒悦轩(陆家嘴店)","lon":"121.50985","lat":"31.2354","category":"72","category_name":"广东菜","address":"浦东新区世纪大道201号渣打银行3-4楼(近浦东南路)"},{"poiid":"B2094750DB6BAAFD4799","title":"一风堂","lon":"121.509391","lat":"31.233442","category":"247","category_name":"餐饮美食","address":"浦东新区世纪大道8号国金中心LG1-79-80号(近正大广场)"},{"poiid":"B2094750D56DA2FB4098","title":"浦东四季酒店Camelia餐厅","lon":"121.5101528358764","lat":"31.234307759796852","category":"94","category_name":"西餐厅","address":"浦东新区世纪大道210号上海浦东四季酒店1楼(近浦成路)"},{"poiid":"B2094757D068A0FA409A","title":"Living Room","lon":"121.51033273","lat":"31.233739374","category":"260","category_name":"其他","address":"浦东新区世纪大道100号环球金融中心上海柏悦酒店87楼(近东泰路)"},{"poiid":"B2094752D16CAAFD489B","title":"Brotzeit 博璨摩登德国啤酒餐厅","lon":"121.509171","lat":"31.234161","category":"247","category_name":"餐饮美食","address":"世纪大道100号环球金融中心2楼"},{"poiid":"B2094757D068A4F4489F","title":"4号线世纪大道站","lon":"121.51115343","lat":"31.233440868","category":"36","category_name":"地铁站","address":"上海世纪大道站"},{"poiid":"B2094654DB69A4F8449C","title":"星巴克(信息大厦店)","lon":"121.511113","lat":"31.235658","category":"65","category_name":"咖啡厅","address":"浦东新区世纪大道211号上海信息大厦大堂(近浦东南路)"},{"poiid":"B2094757D66FA6FE4999","title":"星巴克 STARBUCKS (浦发大厦店)","lon":"121.510271838","lat":"31.2337665755","category":"260","category_name":"其他","address":"浦东新区浦东南路588号浦发大厦1楼(近世纪大道)"},{"poiid":"B2094757D06FA0FF489D","title":"人民路隧道","lon":"121.50976562","lat":"31.232780456","category":"47","category_name":"住宅区","address":"上海黄浦区人民路-浦东新区东昌路"},{"poiid":"B209475CDA64A2F9459A","title":"翠華餐廳","lon":"121.509361","lat":"31.233362","category":"500","category_name":"未知分类","address":"上海市 浦東世紀大道8号國金中心"},{"poiid":"B2094752DB6BA7F54698","title":"王鼎.玉食","lon":"121.512244","lat":"31.23297","category":"500","category_name":"未知分类","address":"上海市 商城路665号"},{"poiid":"B2094757D064A6FD4893","title":"法拉利玛莎拉蒂上海","lon":"121.51089973","lat":"31.233486369","category":"500","category_name":"未知分类","address":"上海世纪大道210号"},{"poiid":"B2094757D16CABFA409E","title":"轨道交通2号线(陆家嘴)","lon":"121.512001738","lat":"31.2323463452","category":"500","category_name":"未知分类","address":"上海陆家嘴"},{"poiid":"B2094757D065A6F9419B","title":"丽斯卡尔顿58楼露天酒吧","lon":"121.51087073","lat":"31.235169405","category":"172","category_name":"酒吧","address":"上海市浦东新区世纪大道8号"},{"poiid":"B2094757D66FA2FD4199","title":"东昌路","lon":"121.509850738","lat":"31.2350904037","category":"500","category_name":"未知分类","address":"上海市浦东新区陆家嘴东路"},{"poiid":"B2094757D06FA7FA409D","title":"席永记苏州汤包馆(东昌店)","lon":"121.512973","lat":"31.233044","category":"68","category_name":"快餐厅","address":"浦东新区东昌路567号(近浦东南路)"},{"poiid":"B2094757D06BAAFE4893","title":"21世纪大厦","lon":"121.50967136","lat":"31.234596161","category":"252","category_name":"楼宇机构","address":"上海世纪大道210号"},{"poiid":"B2094654DA69A6FD4292","title":"古都梅盲人保健按摩","lon":"121.51275","lat":"31.23296","category":"149","category_name":"洗浴推拿场所","address":"东昌路565"},{"poiid":"B2094750D76EA7F8489B","title":"西安印象肉夹馍名小吃(东昌路店)","lon":"121.511","lat":"31.2324","category":"68","category_name":"快餐厅","address":"浦东新区东昌路511号(近浦东南路)"},{"poiid":"B2094757D068A6F5409D","title":"新吉士酒楼(中保店)","lon":"121.50981","lat":"31.23561","category":"76","category_name":"上海菜","address":"浦东新区陆家嘴东路166号中国保险大厦2楼(近银城中路)"},{"poiid":"B2094750D669A2FC439F","title":"世纪100酒吧","lon":"121.508346","lat":"31.234354","category":"260","category_name":"其他","address":"浦东新区世纪大道100号环球金融中心上海柏悦酒店92楼(近东泰路)"},{"poiid":"B2094757D66EA3FB419A","title":"浦東機場T1國內到達","lon":"121.512009738","lat":"31.2345040912","category":"500","category_name":"未知分类","address":"上海浦東國際機場T1國內到達"},{"poiid":"B2094655D26DA4F9489A","title":"重庆鸡公煲碳烤鱼东昌店","lon":"121.51134","lat":"31.23213","category":"71","category_name":"四川菜","address":"浦东新区东昌路462号(近浦城路)"},{"poiid":"B2094655D26DA1FA469B","title":"东昌小区","lon":"121.51117","lat":"31.233072","category":"47","category_name":"住宅区","address":"东宁路348号"},{"poiid":"B2094757D16FAAFF4298","title":"四川江湖菜馆 东昌路店","lon":"121.511340054","lat":"31.232892793","category":"71","category_name":"四川菜","address":"浦东新区东昌路507号(近浦东南路)"},{"poiid":"B2094757D165A5FF4398","title":"宾家国际青年旅舍","lon":"121.5121","lat":"31.232","category":"216","category_name":"经济型连锁酒店","address":"上海浦东新区东昌路490弄东园二村210号(近浦东南路)  "},{"poiid":"B2094750D76EA2F54892","title":"渝客麻辣烫","lon":"121.512","lat":"31.2329","category":"68","category_name":"快餐厅","address":"浦东新区东昌路545号(近浦东南路)"},{"poiid":"B2094757D06BABF4419F","title":"Coco都可茶饮　东昌路店","lon":"121.51151373","lat":"31.232043338","category":"113","category_name":"冷饮店","address":"浦东新区东昌路508-1号(浦东南路浦城路间)"},{"poiid":"B2094751D26FA1FA4892","title":"古意湘味濃","lon":"121.509201","lat":"31.233366","category":"247","category_name":"餐饮美食","address":"Ifc"},{"poiid":"B2094655D26BA1FC409E","title":"浦城路东昌路","lon":"121.50976","lat":"31.23278","category":"38","category_name":"公交车站","address":""},{"poiid":"B2094654DA69A6FC4893","title":"克丽缇娜东昌路店","lon":"121.51076","lat":"31.23233","category":"148","category_name":"美容美发店","address":"浦东新区东昌路447号(近浦东南路)"},{"poiid":"B2094752D764AAFA469D","title":"Big E","lon":"121.50978","lat":"31.23427","category":"248","category_name":"生活娱乐","address":"浦东南路855号世界广场B2"},{"poiid":"B209475DD66BA3F9419C","title":"大蔬无界（环球金融中心美素馆）","lon":"121.508857","lat":"31.233985","category":"247","category_name":"餐饮美食","address":"上海市 世纪大道100号 上海环球金融中心3楼"},{"poiid":"B209475CD16FAAFA4498","title":"老爷子烧肉","lon":"121.511085","lat":"31.233346","category":"247","category_name":"餐饮美食","address":"世纪大道100号上海环球金融中心"},{"poiid":"B2094750D26EA0FE489B","title":"浦东四季酒店","lon":"121.509033","lat":"31.234413","category":"217","category_name":"旅馆招待所","address":"浦东新区世纪大道210号二十一世纪大厦30-41楼(近浦成路)"},{"poiid":"B2094757D168ABFE4993","title":"东之川","lon":"121.512430191","lat":"31.2337575915","category":"247","category_name":"餐饮美食","address":"上海东昌路568号"},{"poiid":"B2094757D16DAAFA4292","title":"二十一世纪大厦","lon":"121.50976273","lat":"31.234319387","category":"500","category_name":"未知分类","address":"上海市世纪大道210号"},{"poiid":"B2094750DB64A0FA459F","title":"金茂大厦88层观光厅","lon":"121.509979","lat":"31.233541","category":"500","category_name":"未知分类","address":null},{"poiid":"B2094757D165A4F9449C","title":"南洋商业银行","lon":"121.51000173","lat":"31.232407346","category":"150","category_name":"银行","address":"上海市浦东新区世纪大道"},{"poiid":"B2094750D66FA4F44999","title":"上海浦东四季酒店","lon":"121.509437","lat":"31.233774","category":"252","category_name":"楼宇机构","address":"世纪大道210号"},{"poiid":"B2094757D06BA4F5429A","title":"环球金融中心100层观光厅","lon":"121.512176738","lat":"31.2328213553","category":"500","category_name":"未知分类","address":"上海市浦东新区陆家嘴东路"},{"poiid":"B2094757D06FA7FC4799","title":"环球金融中心92楼柏悦酒店Bar","lon":"121.51080173","lat":"31.234288386","category":"217","category_name":"旅馆招待所","address":"上海市浦东新区陆家嘴东路"},{"poiid":"B209475CD564A7F84392","title":"上海滩浦东香格里拉店","lon":"121.50058","lat":"31.23634","category":"119","category_name":"商场","address":"浦东富成路33号香格里拉酒店内大堂层"},{"poiid":"B2094655D26FA6F8499F","title":"浦发大厦","lon":"121.51171","lat":"31.23523","category":"46","category_name":"楼宇","address":"上海市浦东新区浦东南路588号"},{"poiid":"B2094757D169A0FE4799","title":"大茴香环球店","lon":"121.510028638","lat":"31.2347699968","category":"110","category_name":"其他亚洲菜","address":"浦东新区世纪大道100号环球金融中心2楼206室(近东泰路)"},{"poiid":"B2094757D068A2FB4693","title":"世纪100餐厅 100Century Avenue","lon":"121.507588054","lat":"31.235582793","category":"76","category_name":"上海菜","address":"浦东新区世纪大道100号环球金融中心上海柏悦酒店91-93楼(近东泰路)"},{"poiid":"B2094757D064A4FE409D","title":"环球金融中心赤板亭","lon":"121.510870738","lat":"31.2351694054","category":"247","category_name":"餐饮美食","address":"上海世纪大道100号"},{"poiid":"B2094757D16FA0FC4699","title":"环球金融中心 DADA Hair SaIon","lon":"121.50961873","lat":"31.234726395","category":"500","category_name":"未知分类","address":"上海市浦东新区陆家嘴东路"},{"poiid":"B2094757D06FA3F5499D","title":"上海信息大楼","lon":"121.5111618","lat":"31.23515129","category":"46","category_name":"楼宇","address":"上海市浦东新区张杨路500号"},{"poiid":"B2094757D465A0F44699","title":"尼藏花园餐厅酒吧 Nizang Himalaya","lon":"121.51071683753","lat":"31.232122106704","category":"110","category_name":"其他亚洲菜","address":"浦东新区东昌路498号东园一村内(近浦东南路)"},{"poiid":"B2094757D068A3FE4798","title":"恒悦轩(陆家嘴店)","lon":"121.50985","lat":"31.2354","category":"72","category_name":"广东菜","address":"浦东新区世纪大道201号渣打银行3-4楼(近浦东南路)"},{"poiid":"B2094750DB6BAAFD4799","title":"一风堂","lon":"121.509391","lat":"31.233442","category":"247","category_name":"餐饮美食","address":"浦东新区世纪大道8号国金中心LG1-79-80号(近正大广场)"},{"poiid":"B2094750D56DA2FB4098","title":"浦东四季酒店Camelia餐厅","lon":"121.5101528358764","lat":"31.234307759796852","category":"94","category_name":"西餐厅","address":"浦东新区世纪大道210号上海浦东四季酒店1楼(近浦成路)"},{"poiid":"B2094757D068A0FA409A","title":"Living Room","lon":"121.51033273","lat":"31.233739374","category":"260","category_name":"其他","address":"浦东新区世纪大道100号环球金融中心上海柏悦酒店87楼(近东泰路)"},{"poiid":"B2094752D16CAAFD489B","title":"Brotzeit 博璨摩登德国啤酒餐厅","lon":"121.509171","lat":"31.234161","category":"247","category_name":"餐饮美食","address":"世纪大道100号环球金融中心2楼"},{"poiid":"B2094757D068A4F4489F","title":"4号线世纪大道站","lon":"121.51115343","lat":"31.233440868","category":"36","category_name":"地铁站","address":"上海世纪大道站"},{"poiid":"B2094654DB69A4F8449C","title":"星巴克(信息大厦店)","lon":"121.511113","lat":"31.235658","category":"65","category_name":"咖啡厅","address":"浦东新区世纪大道211号上海信息大厦大堂(近浦东南路)"},{"poiid":"B2094757D66FA6FE4999","title":"星巴克 STARBUCKS (浦发大厦店)","lon":"121.510271838","lat":"31.2337665755","category":"260","category_name":"其他","address":"浦东新区浦东南路588号浦发大厦1楼(近世纪大道)"},{"poiid":"B2094757D06FA0FF489D","title":"人民路隧道","lon":"121.50976562","lat":"31.232780456","category":"47","category_name":"住宅区","address":"上海黄浦区人民路-浦东新区东昌路"},{"poiid":"B209475CDA64A2F9459A","title":"翠華餐廳","lon":"121.509361","lat":"31.233362","category":"500","category_name":"未知分类","address":"上海市 浦東世紀大道8号國金中心"},{"poiid":"B2094752DB6BA7F54698","title":"王鼎.玉食","lon":"121.512244","lat":"31.23297","category":"500","category_name":"未知分类","address":"上海市 商城路665号"},{"poiid":"B2094757D064A6FD4893","title":"法拉利玛莎拉蒂上海","lon":"121.51089973","lat":"31.233486369","category":"500","category_name":"未知分类","address":"上海世纪大道210号"},{"poiid":"B2094757D16CABFA409E","title":"轨道交通2号线(陆家嘴)","lon":"121.512001738","lat":"31.2323463452","category":"500","category_name":"未知分类","address":"上海陆家嘴"},{"poiid":"B2094757D065A6F9419B","title":"丽斯卡尔顿58楼露天酒吧","lon":"121.51087073","lat":"31.235169405","category":"172","category_name":"酒吧","address":"上海市浦东新区世纪大道8号"},{"poiid":"B2094757D66FA2FD4199","title":"东昌路","lon":"121.509850738","lat":"31.2350904037","category":"500","category_name":"未知分类","address":"上海市浦东新区陆家嘴东路"},{"poiid":"B2094757D06FA7FA409D","title":"席永记苏州汤包馆(东昌店)","lon":"121.512973","lat":"31.233044","category":"68","category_name":"快餐厅","address":"浦东新区东昌路567号(近浦东南路)"},{"poiid":"B2094757D06BAAFE4893","title":"21世纪大厦","lon":"121.50967136","lat":"31.234596161","category":"252","category_name":"楼宇机构","address":"上海世纪大道210号"},{"poiid":"B2094654DA69A6FD4292","title":"古都梅盲人保健按摩","lon":"121.51275","lat":"31.23296","category":"149","category_name":"洗浴推拿场所","address":"东昌路565"},{"poiid":"B2094750D76EA7F8489B","title":"西安印象肉夹馍名小吃(东昌路店)","lon":"121.511","lat":"31.2324","category":"68","category_name":"快餐厅","address":"浦东新区东昌路511号(近浦东南路)"},{"poiid":"B2094757D068A6F5409D","title":"新吉士酒楼(中保店)","lon":"121.50981","lat":"31.23561","category":"76","category_name":"上海菜","address":"浦东新区陆家嘴东路166号中国保险大厦2楼(近银城中路)"},{"poiid":"B2094750D669A2FC439F","title":"世纪100酒吧","lon":"121.508346","lat":"31.234354","category":"260","category_name":"其他","address":"浦东新区世纪大道100号环球金融中心上海柏悦酒店92楼(近东泰路)"},{"poiid":"B2094757D66EA3FB419A","title":"浦東機場T1國內到達","lon":"121.512009738","lat":"31.2345040912","category":"500","category_name":"未知分类","address":"上海浦東國際機場T1國內到達"},{"poiid":"B2094655D26DA4F9489A","title":"重庆鸡公煲碳烤鱼东昌店","lon":"121.51134","lat":"31.23213","category":"71","category_name":"四川菜","address":"浦东新区东昌路462号(近浦城路)"},{"poiid":"B2094655D26DA1FA469B","title":"东昌小区","lon":"121.51117","lat":"31.233072","category":"47","category_name":"住宅区","address":"东宁路348号"},{"poiid":"B2094757D16FAAFF4298","title":"四川江湖菜馆 东昌路店","lon":"121.511340054","lat":"31.232892793","category":"71","category_name":"四川菜","address":"浦东新区东昌路507号(近浦东南路)"},{"poiid":"B2094757D165A5FF4398","title":"宾家国际青年旅舍","lon":"121.5121","lat":"31.232","category":"216","category_name":"经济型连锁酒店","address":"上海浦东新区东昌路490弄东园二村210号(近浦东南路)  "},{"poiid":"B2094750D76EA2F54892","title":"渝客麻辣烫","lon":"121.512","lat":"31.2329","category":"68","category_name":"快餐厅","address":"浦东新区东昌路545号(近浦东南路)"},{"poiid":"B2094757D06BABF4419F","title":"Coco都可茶饮　东昌路店","lon":"121.51151373","lat":"31.232043338","category":"113","category_name":"冷饮店","address":"浦东新区东昌路508-1号(浦东南路浦城路间)"},{"poiid":"B2094751D26FA1FA4892","title":"古意湘味濃","lon":"121.509201","lat":"31.233366","category":"247","category_name":"餐饮美食","address":"Ifc"},{"poiid":"B2094655D26BA1FC409E","title":"浦城路东昌路","lon":"121.50976","lat":"31.23278","category":"38","category_name":"公交车站","address":""},{"poiid":"B2094654DA69A6FC4893","title":"克丽缇娜东昌路店","lon":"121.51076","lat":"31.23233","category":"148","category_name":"美容美发店","address":"浦东新区东昌路447号(近浦东南路)"},{"poiid":"B2094752D764AAFA469D","title":"Big E","lon":"121.50978","lat":"31.23427","category":"248","category_name":"生活娱乐","address":"浦东南路855号世界广场B2"},{"poiid":"B209475DD66BA3F9419C","title":"大蔬无界（环球金融中心美素馆）","lon":"121.508857","lat":"31.233985","category":"247","category_name":"餐饮美食","address":"上海市 世纪大道100号 上海环球金融中心3楼"},{"poiid":"B209475CD16FAAFA4498","title":"老爷子烧肉","lon":"121.511085","lat":"31.233346","category":"247","category_name":"餐饮美食","address":"世纪大道100号上海环球金融中心"},{"poiid":"B2094750D26EA0FE489B","title":"浦东四季酒店","lon":"121.509033","lat":"31.234413","category":"217","category_name":"旅馆招待所","address":"浦东新区世纪大道210号二十一世纪大厦30-41楼(近浦成路)"},{"poiid":"B2094757D168ABFE4993","title":"东之川","lon":"121.512430191","lat":"31.2337575915","category":"247","category_name":"餐饮美食","address":"上海东昌路568号"},{"poiid":"B2094757D16DAAFA4292","title":"二十一世纪大厦","lon":"121.50976273","lat":"31.234319387","category":"500","category_name":"未知分类","address":"上海市世纪大道210号"},{"poiid":"B2094750DB64A0FA459F","title":"金茂大厦88层观光厅","lon":"121.509979","lat":"31.233541","category":"500","category_name":"未知分类","address":null},{"poiid":"B2094757D165A4F9449C","title":"南洋商业银行","lon":"121.51000173","lat":"31.232407346","category":"150","category_name":"银行","address":"上海市浦东新区世纪大道"},{"poiid":"B2094750D66FA4F44999","title":"上海浦东四季酒店","lon":"121.509437","lat":"31.233774","category":"252","category_name":"楼宇机构","address":"世纪大道210号"},{"poiid":"B2094757D06BA4F5429A","title":"环球金融中心100层观光厅","lon":"121.512176738","lat":"31.2328213553","category":"500","category_name":"未知分类","address":"上海市浦东新区陆家嘴东路"},{"poiid":"B2094757D06FA7FC4799","title":"环球金融中心92楼柏悦酒店Bar","lon":"121.51080173","lat":"31.234288386","category":"217","category_name":"旅馆招待所","address":"上海市浦东新区陆家嘴东路"},{"poiid":"B209475CD564A7F84392","title":"上海滩浦东香格里拉店","lon":"121.50058","lat":"31.23634","category":"119","category_name":"商场","address":"浦东富成路33号香格里拉酒店内大堂层"},{"poiid":"B2094655D26FA6F8499F","title":"浦发大厦","lon":"121.51171","lat":"31.23523","category":"46","category_name":"楼宇","address":"上海市浦东新区浦东南路588号"},{"poiid":"B2094757D169A0FE4799","title":"大茴香环球店","lon":"121.510028638","lat":"31.2347699968","category":"110","category_name":"其他亚洲菜","address":"浦东新区世纪大道100号环球金融中心2楼206室(近东泰路)"},{"poiid":"B2094757D068A2FB4693","title":"世纪100餐厅 100Century Avenue","lon":"121.507588054","lat":"31.235582793","category":"76","category_name":"上海菜","address":"浦东新区世纪大道100号环球金融中心上海柏悦酒店91-93楼(近东泰路)"},{"poiid":"B2094757D064A4FE409D","title":"环球金融中心赤板亭","lon":"121.510870738","lat":"31.2351694054","category":"247","category_name":"餐饮美食","address":"上海世纪大道100号"},{"poiid":"B2094757D16FA0FC4699","title":"环球金融中心 DADA Hair SaIon","lon":"121.50961873","lat":"31.234726395","category":"500","category_name":"未知分类","address":"上海市浦东新区陆家嘴东路"},{"poiid":"B2094757D06FA3F5499D","title":"上海信息大楼","lon":"121.5111618","lat":"31.23515129","category":"46","category_name":"楼宇","address":"上海市浦东新区张杨路500号"},{"poiid":"B2094757D465A0F44699","title":"尼藏花园餐厅酒吧 Nizang Himalaya","lon":"121.51071683753","lat":"31.232122106704","category":"110","category_name":"其他亚洲菜","address":"浦东新区东昌路498号东园一村内(近浦东南路)"},{"poiid":"B2094757D068A3FE4798","title":"恒悦轩(陆家嘴店)","lon":"121.50985","lat":"31.2354","category":"72","category_name":"广东菜","address":"浦东新区世纪大道201号渣打银行3-4楼(近浦东南路)"},{"poiid":"B2094750DB6BAAFD4799","title":"一风堂","lon":"121.509391","lat":"31.233442","category":"247","category_name":"餐饮美食","address":"浦东新区世纪大道8号国金中心LG1-79-80号(近正大广场)"},{"poiid":"B2094750D56DA2FB4098","title":"浦东四季酒店Camelia餐厅","lon":"121.5101528358764","lat":"31.234307759796852","category":"94","category_name":"西餐厅","address":"浦东新区世纪大道210号上海浦东四季酒店1楼(近浦成路)"},{"poiid":"B2094757D068A0FA409A","title":"Living Room","lon":"121.51033273","lat":"31.233739374","category":"260","category_name":"其他","address":"浦东新区世纪大道100号环球金融中心上海柏悦酒店87楼(近东泰路)"},{"poiid":"B2094752D16CAAFD489B","title":"Brotzeit 博璨摩登德国啤酒餐厅","lon":"121.509171","lat":"31.234161","category":"247","category_name":"餐饮美食","address":"世纪大道100号环球金融中心2楼"},{"poiid":"B2094757D068A4F4489F","title":"4号线世纪大道站","lon":"121.51115343","lat":"31.233440868","category":"36","category_name":"地铁站","address":"上海世纪大道站"},{"poiid":"B2094654DB69A4F8449C","title":"星巴克(信息大厦店)","lon":"121.511113","lat":"31.235658","category":"65","category_name":"咖啡厅","address":"浦东新区世纪大道211号上海信息大厦大堂(近浦东南路)"},{"poiid":"B2094757D66FA6FE4999","title":"星巴克 STARBUCKS (浦发大厦店)","lon":"121.510271838","lat":"31.2337665755","category":"260","category_name":"其他","address":"浦东新区浦东南路588号浦发大厦1楼(近世纪大道)"},{"poiid":"B2094757D06FA0FF489D","title":"人民路隧道","lon":"121.50976562","lat":"31.232780456","category":"47","category_name":"住宅区","address":"上海黄浦区人民路-浦东新区东昌路"},{"poiid":"B209475CDA64A2F9459A","title":"翠華餐廳","lon":"121.509361","lat":"31.233362","category":"500","category_name":"未知分类","address":"上海市 浦東世紀大道8号國金中心"},{"poiid":"B2094752DB6BA7F54698","title":"王鼎.玉食","lon":"121.512244","lat":"31.23297","category":"500","category_name":"未知分类","address":"上海市 商城路665号"},{"poiid":"B2094757D064A6FD4893","title":"法拉利玛莎拉蒂上海","lon":"121.51089973","lat":"31.233486369","category":"500","category_name":"未知分类","address":"上海世纪大道210号"},{"poiid":"B2094757D16CABFA409E","title":"轨道交通2号线(陆家嘴)","lon":"121.512001738","lat":"31.2323463452","category":"500","category_name":"未知分类","address":"上海陆家嘴"},{"poiid":"B2094757D065A6F9419B","title":"丽斯卡尔顿58楼露天酒吧","lon":"121.51087073","lat":"31.235169405","category":"172","category_name":"酒吧","address":"上海市浦东新区世纪大道8号"},{"poiid":"B2094757D66FA2FD4199","title":"东昌路","lon":"121.509850738","lat":"31.2350904037","category":"500","category_name":"未知分类","address":"上海市浦东新区陆家嘴东路"},{"poiid":"B2094757D06FA7FA409D","title":"席永记苏州汤包馆(东昌店)","lon":"121.512973","lat":"31.233044","category":"68","category_name":"快餐厅","address":"浦东新区东昌路567号(近浦东南路)"},{"poiid":"B2094757D06BAAFE4893","title":"21世纪大厦","lon":"121.50967136","lat":"31.234596161","category":"252","category_name":"楼宇机构","address":"上海世纪大道210号"},{"poiid":"B2094654DA69A6FD4292","title":"古都梅盲人保健按摩","lon":"121.51275","lat":"31.23296","category":"149","category_name":"洗浴推拿场所","address":"东昌路565"},{"poiid":"B2094750D76EA7F8489B","title":"西安印象肉夹馍名小吃(东昌路店)","lon":"121.511","lat":"31.2324","category":"68","category_name":"快餐厅","address":"浦东新区东昌路511号(近浦东南路)"},{"poiid":"B2094757D068A6F5409D","title":"新吉士酒楼(中保店)","lon":"121.50981","lat":"31.23561","category":"76","category_name":"上海菜","address":"浦东新区陆家嘴东路166号中国保险大厦2楼(近银城中路)"},{"poiid":"B2094750D669A2FC439F","title":"世纪100酒吧","lon":"121.508346","lat":"31.234354","category":"260","category_name":"其他","address":"浦东新区世纪大道100号环球金融中心上海柏悦酒店92楼(近东泰路)"},{"poiid":"B2094757D66EA3FB419A","title":"浦東機場T1國內到達","lon":"121.512009738","lat":"31.2345040912","category":"500","category_name":"未知分类","address":"上海浦東國際機場T1國內到達"},{"poiid":"B2094655D26DA4F9489A","title":"重庆鸡公煲碳烤鱼东昌店","lon":"121.51134","lat":"31.23213","category":"71","category_name":"四川菜","address":"浦东新区东昌路462号(近浦城路)"},{"poiid":"B2094655D26DA1FA469B","title":"东昌小区","lon":"121.51117","lat":"31.233072","category":"47","category_name":"住宅区","address":"东宁路348号"},{"poiid":"B2094757D16FAAFF4298","title":"四川江湖菜馆 东昌路店","lon":"121.511340054","lat":"31.232892793","category":"71","category_name":"四川菜","address":"浦东新区东昌路507号(近浦东南路)"},{"poiid":"B2094757D165A5FF4398","title":"宾家国际青年旅舍","lon":"121.5121","lat":"31.232","category":"216","category_name":"经济型连锁酒店","address":"上海浦东新区东昌路490弄东园二村210号(近浦东南路)  "},{"poiid":"B2094750D76EA2F54892","title":"渝客麻辣烫","lon":"121.512","lat":"31.2329","category":"68","category_name":"快餐厅","address":"浦东新区东昌路545号(近浦东南路)"},{"poiid":"B2094757D06BABF4419F","title":"Coco都可茶饮　东昌路店","lon":"121.51151373","lat":"31.232043338","category":"113","category_name":"冷饮店","address":"浦东新区东昌路508-1号(浦东南路浦城路间)"},{"poiid":"B2094751D26FA1FA4892","title":"古意湘味濃","lon":"121.509201","lat":"31.233366","category":"247","category_name":"餐饮美食","address":"Ifc"},{"poiid":"B2094655D26BA1FC409E","title":"浦城路东昌路","lon":"121.50976","lat":"31.23278","category":"38","category_name":"公交车站","address":""},{"poiid":"B2094654DA69A6FC4893","title":"克丽缇娜东昌路店","lon":"121.51076","lat":"31.23233","category":"148","category_name":"美容美发店","address":"浦东新区东昌路447号(近浦东南路)"},{"poiid":"B2094752D764AAFA469D","title":"Big E","lon":"121.50978","lat":"31.23427","category":"248","category_name":"生活娱乐","address":"浦东南路855号世界广场B2"},{"poiid":"B209475DD66BA3F9419C","title":"大蔬无界（环球金融中心美素馆）","lon":"121.508857","lat":"31.233985","category":"247","category_name":"餐饮美食","address":"上海市 世纪大道100号 上海环球金融中心3楼"},{"poiid":"B209475CD16FAAFA4498","title":"老爷子烧肉","lon":"121.511085","lat":"31.233346","category":"247","category_name":"餐饮美食","address":"世纪大道100号上海环球金融中心"},{"poiid":"B2094750D26EA0FE489B","title":"浦东四季酒店","lon":"121.509033","lat":"31.234413","category":"217","category_name":"旅馆招待所","address":"浦东新区世纪大道210号二十一世纪大厦30-41楼(近浦成路)"},{"poiid":"B2094757D168ABFE4993","title":"东之川","lon":"121.512430191","lat":"31.2337575915","category":"247","category_name":"餐饮美食","address":"上海东昌路568号"},{"poiid":"B2094757D16DAAFA4292","title":"二十一世纪大厦","lon":"121.50976273","lat":"31.234319387","category":"500","category_name":"未知分类","address":"上海市世纪大道210号"},{"poiid":"B2094750DB64A0FA459F","title":"金茂大厦88层观光厅","lon":"121.509979","lat":"31.233541","category":"500","category_name":"未知分类","address":null},{"poiid":"B2094757D165A4F9449C","title":"南洋商业银行","lon":"121.51000173","lat":"31.232407346","category":"150","category_name":"银行","address":"上海市浦东新区世纪大道"},{"poiid":"B2094750D66FA4F44999","title":"上海浦东四季酒店","lon":"121.509437","lat":"31.233774","category":"252","category_name":"楼宇机构","address":"世纪大道210号"},{"poiid":"B2094757D06BA4F5429A","title":"环球金融中心100层观光厅","lon":"121.512176738","lat":"31.2328213553","category":"500","category_name":"未知分类","address":"上海市浦东新区陆家嘴东路"},{"poiid":"B2094757D06FA7FC4799","title":"环球金融中心92楼柏悦酒店Bar","lon":"121.51080173","lat":"31.234288386","category":"217","category_name":"旅馆招待所","address":"上海市浦东新区陆家嘴东路"},{"poiid":"B209475CD564A7F84392","title":"上海滩浦东香格里拉店","lon":"121.50058","lat":"31.23634","category":"119","category_name":"商场","address":"浦东富成路33号香格里拉酒店内大堂层"},{"poiid":"B2094655D26FA6F8499F","title":"浦发大厦","lon":"121.51171","lat":"31.23523","category":"46","category_name":"楼宇","address":"上海市浦东新区浦东南路588号"},{"poiid":"B2094757D169A0FE4799","title":"大茴香环球店","lon":"121.510028638","lat":"31.2347699968","category":"110","category_name":"其他亚洲菜","address":"浦东新区世纪大道100号环球金融中心2楼206室(近东泰路)"},{"poiid":"B2094757D068A2FB4693","title":"世纪100餐厅 100Century Avenue","lon":"121.507588054","lat":"31.235582793","category":"76","category_name":"上海菜","address":"浦东新区世纪大道100号环球金融中心上海柏悦酒店91-93楼(近东泰路)"},{"poiid":"B2094757D064A4FE409D","title":"环球金融中心赤板亭","lon":"121.510870738","lat":"31.2351694054","category":"247","category_name":"餐饮美食","address":"上海世纪大道100号"},{"poiid":"B2094757D16FA0FC4699","title":"环球金融中心 DADA Hair SaIon","lon":"121.50961873","lat":"31.234726395","category":"500","category_name":"未知分类","address":"上海市浦东新区陆家嘴东路"},{"poiid":"B2094757D06FA3F5499D","title":"上海信息大楼","lon":"121.5111618","lat":"31.23515129","category":"46","category_name":"楼宇","address":"上海市浦东新区张杨路500号"},{"poiid":"B2094757D465A0F44699","title":"尼藏花园餐厅酒吧 Nizang Himalaya","lon":"121.51071683753","lat":"31.232122106704","category":"110","category_name":"其他亚洲菜","address":"浦东新区东昌路498号东园一村内(近浦东南路)"},{"poiid":"B2094757D068A3FE4798","title":"恒悦轩(陆家嘴店)","lon":"121.50985","lat":"31.2354","category":"72","category_name":"广东菜","address":"浦东新区世纪大道201号渣打银行3-4楼(近浦东南路)"},{"poiid":"B2094750DB6BAAFD4799","title":"一风堂","lon":"121.509391","lat":"31.233442","category":"247","category_name":"餐饮美食","address":"浦东新区世纪大道8号国金中心LG1-79-80号(近正大广场)"},{"poiid":"B2094750D56DA2FB4098","title":"浦东四季酒店Camelia餐厅","lon":"121.5101528358764","lat":"31.234307759796852","category":"94","category_name":"西餐厅","address":"浦东新区世纪大道210号上海浦东四季酒店1楼(近浦成路)"},{"poiid":"B2094757D068A0FA409A","title":"Living Room","lon":"121.51033273","lat":"31.233739374","category":"260","category_name":"其他","address":"浦东新区世纪大道100号环球金融中心上海柏悦酒店87楼(近东泰路)"},{"poiid":"B2094752D16CAAFD489B","title":"Brotzeit 博璨摩登德国啤酒餐厅","lon":"121.509171","lat":"31.234161","category":"247","category_name":"餐饮美食","address":"世纪大道100号环球金融中心2楼"},{"poiid":"B2094757D068A4F4489F","title":"4号线世纪大道站","lon":"121.51115343","lat":"31.233440868","category":"36","category_name":"地铁站","address":"上海世纪大道站"},{"poiid":"B2094654DB69A4F8449C","title":"星巴克(信息大厦店)","lon":"121.511113","lat":"31.235658","category":"65","category_name":"咖啡厅","address":"浦东新区世纪大道211号上海信息大厦大堂(近浦东南路)"},{"poiid":"B2094757D66FA6FE4999","title":"星巴克 STARBUCKS (浦发大厦店)","lon":"121.510271838","lat":"31.2337665755","category":"260","category_name":"其他","address":"浦东新区浦东南路588号浦发大厦1楼(近世纪大道)"},{"poiid":"B2094757D06FA0FF489D","title":"人民路隧道","lon":"121.50976562","lat":"31.232780456","category":"47","category_name":"住宅区","address":"上海黄浦区人民路-浦东新区东昌路"},{"poiid":"B209475CDA64A2F9459A","title":"翠華餐廳","lon":"121.509361","lat":"31.233362","category":"500","category_name":"未知分类","address":"上海市 浦東世紀大道8号國金中心"},{"poiid":"B2094752DB6BA7F54698","title":"王鼎.玉食","lon":"121.512244","lat":"31.23297","category":"500","category_name":"未知分类","address":"上海市 商城路665号"},{"poiid":"B2094757D064A6FD4893","title":"法拉利玛莎拉蒂上海","lon":"121.51089973","lat":"31.233486369","category":"500","category_name":"未知分类","address":"上海世纪大道210号"},{"poiid":"B2094757D16CABFA409E","title":"轨道交通2号线(陆家嘴)","lon":"121.512001738","lat":"31.2323463452","category":"500","category_name":"未知分类","address":"上海陆家嘴"},{"poiid":"B2094757D065A6F9419B","title":"丽斯卡尔顿58楼露天酒吧","lon":"121.51087073","lat":"31.235169405","category":"172","category_name":"酒吧","address":"上海市浦东新区世纪大道8号"},{"poiid":"B2094757D66FA2FD4199","title":"东昌路","lon":"121.509850738","lat":"31.2350904037","category":"500","category_name":"未知分类","address":"上海市浦东新区陆家嘴东路"},{"poiid":"B2094757D06FA7FA409D","title":"席永记苏州汤包馆(东昌店)","lon":"121.512973","lat":"31.233044","category":"68","category_name":"快餐厅","address":"浦东新区东昌路567号(近浦东南路)"},{"poiid":"B2094757D06BAAFE4893","title":"21世纪大厦","lon":"121.50967136","lat":"31.234596161","category":"252","category_name":"楼宇机构","address":"上海世纪大道210号"},{"poiid":"B2094654DA69A6FD4292","title":"古都梅盲人保健按摩","lon":"121.51275","lat":"31.23296","category":"149","category_name":"洗浴推拿场所","address":"东昌路565"},{"poiid":"B2094750D76EA7F8489B","title":"西安印象肉夹馍名小吃(东昌路店)","lon":"121.511","lat":"31.2324","category":"68","category_name":"快餐厅","address":"浦东新区东昌路511号(近浦东南路)"},{"poiid":"B2094757D068A6F5409D","title":"新吉士酒楼(中保店)","lon":"121.50981","lat":"31.23561","category":"76","category_name":"上海菜","address":"浦东新区陆家嘴东路166号中国保险大厦2楼(近银城中路)"},{"poiid":"B2094750D669A2FC439F","title":"世纪100酒吧","lon":"121.508346","lat":"31.234354","category":"260","category_name":"其他","address":"浦东新区世纪大道100号环球金融中心上海柏悦酒店92楼(近东泰路)"},{"poiid":"B2094757D66EA3FB419A","title":"浦東機場T1國內到達","lon":"121.512009738","lat":"31.2345040912","category":"500","category_name":"未知分类","address":"上海浦東國際機場T1國內到達"},{"poiid":"B2094655D26DA4F9489A","title":"重庆鸡公煲碳烤鱼东昌店","lon":"121.51134","lat":"31.23213","category":"71","category_name":"四川菜","address":"浦东新区东昌路462号(近浦城路)"},{"poiid":"B2094655D26DA1FA469B","title":"东昌小区","lon":"121.51117","lat":"31.233072","category":"47","category_name":"住宅区","address":"东宁路348号"},{"poiid":"B2094757D16FAAFF4298","title":"四川江湖菜馆 东昌路店","lon":"121.511340054","lat":"31.232892793","category":"71","category_name":"四川菜","address":"浦东新区东昌路507号(近浦东南路)"},{"poiid":"B2094757D165A5FF4398","title":"宾家国际青年旅舍","lon":"121.5121","lat":"31.232","category":"216","category_name":"经济型连锁酒店","address":"上海浦东新区东昌路490弄东园二村210号(近浦东南路)  "},{"poiid":"B2094750D76EA2F54892","title":"渝客麻辣烫","lon":"121.512","lat":"31.2329","category":"68","category_name":"快餐厅","address":"浦东新区东昌路545号(近浦东南路)"},{"poiid":"B2094757D06BABF4419F","title":"Coco都可茶饮　东昌路店","lon":"121.51151373","lat":"31.232043338","category":"113","category_name":"冷饮店","address":"浦东新区东昌路508-1号(浦东南路浦城路间)"},{"poiid":"B2094751D26FA1FA4892","title":"古意湘味濃","lon":"121.509201","lat":"31.233366","category":"247","category_name":"餐饮美食","address":"Ifc"},{"poiid":"B2094655D26BA1FC409E","title":"浦城路东昌路","lon":"121.50976","lat":"31.23278","category":"38","category_name":"公交车站","address":""},{"poiid":"B2094654DA69A6FC4893","title":"克丽缇娜东昌路店","lon":"121.51076","lat":"31.23233","category":"148","category_name":"美容美发店","address":"浦东新区东昌路447号(近浦东南路)"},{"poiid":"B2094752D764AAFA469D","title":"Big E","lon":"121.50978","lat":"31.23427","category":"248","category_name":"生活娱乐","address":"浦东南路855号世界广场B2"},{"poiid":"B209475DD66BA3F9419C","title":"大蔬无界（环球金融中心美素馆）","lon":"121.508857","lat":"31.233985","category":"247","category_name":"餐饮美食","address":"上海市 世纪大道100号 上海环球金融中心3楼"},{"poiid":"B209475CD16FAAFA4498","title":"老爷子烧肉","lon":"121.511085","lat":"31.233346","category":"247","category_name":"餐饮美食","address":"世纪大道100号上海环球金融中心"},{"poiid":"B2094750D26EA0FE489B","title":"浦东四季酒店","lon":"121.509033","lat":"31.234413","category":"217","category_name":"旅馆招待所","address":"浦东新区世纪大道210号二十一世纪大厦30-41楼(近浦成路)"},{"poiid":"B2094757D168ABFE4993","title":"东之川","lon":"121.512430191","lat":"31.2337575915","category":"247","category_name":"餐饮美食","address":"上海东昌路568号"},{"poiid":"B2094757D16DAAFA4292","title":"二十一世纪大厦","lon":"121.50976273","lat":"31.234319387","category":"500","category_name":"未知分类","address":"上海市世纪大道210号"},{"poiid":"B2094750DB64A0FA459F","title":"金茂大厦88层观光厅","lon":"121.509979","lat":"31.233541","category":"500","category_name":"未知分类","address":null},{"poiid":"B2094757D165A4F9449C","title":"南洋商业银行","lon":"121.51000173","lat":"31.232407346","category":"150","category_name":"银行","address":"上海市浦东新区世纪大道"}]