[{"poiid":"B2094655D268A4F9409F","title":"上海国金中心IFC","lon":"121.50226752034189","lat":"31.2362712719287","category":"119","category_name":"商场","address":"浦东新区世纪大道8号(近东泰路)"},{"poiid":"B2094757D06EAAF8419D","title":"国金百丽宫影院","lon":"121.504060766","lat":"31.2365280728","category":"178","category_name":"电影院","address":"上海浦东新区世纪大道8号国际金融中心B1-B2楼(东泰路世纪大道)"},{"poiid":"B2094654DB6AA6FF459C","title":"上海金茂君悦大酒店","lon":"121.50588","lat":"31.23522","category":"213","category_name":"五星级宾馆","address":"浦东新区世纪大道88号金茂大厦53-87楼(近二号线陆家嘴站)"},{"poiid":"B209475CD564A7F84392","title":"上海滩浦东香格里拉店","lon":"121.50058","lat":"31.23634","category":"119","category_name":"商场","address":"浦东富成路33号香格里拉酒店内大堂层"},{"poiid":"B2094757D06EAAFF429C","title":"正斗粥面专家","lon":"121.50097","lat":"31.23665","category":"72","category_name":"广东菜","address":"浦东新区世纪大道8号国金中心D座L3楼L3-9室(近银城西路)"},{"poiid":"B2094757D068A3FC499B","title":"天泰餐厅(国金店)","lon":"121.502658488","lat":"31.2353811506","category":"99","category_name":"泰国／越南菜品餐厅","address":"浦东新区世纪大道8号国金中心4楼(近浦东大道)"},{"poiid":"B2094750D26CA3FE4592","title":"鹿港小镇 正大店","lon":"121.5044996","lat":"31.2354647","category":"91","category_name":"台湾菜","address":"浦东新区陆家嘴西路168号正大广场8楼810室(近东方明珠)"},{"poiid":"B2094757D06FA2FE4493","title":"仁清•东京新怀石料理(金茂店)","lon":"121.50594","lat":"31.23477","category":"95","category_name":"日本料理","address":"浦东新区世纪大道88号金茂大厦裙楼3楼(近二号线陆家嘴站)"},{"poiid":"B2094757D06FA4FB4799","title":"国金中心，CitySuper","lon":"121.503941738","lat":"31.2363154298","category":"500","category_name":"未知分类","address":"上海陆家嘴"},{"poiid":"B2094750DA6AA4F4489F","title":"一风堂拉面","lon":"121.505241","lat":"31.235317","category":"247","category_name":"餐饮美食","address":"国金商场LG1"},{"poiid":"B2094757D06FA4F54099","title":"炉匠(炉端烧•酒)","lon":"121.50304973","lat":"31.236487433","category":"269","category_name":"烧烤","address":"浦东新区世纪大道8号国金中心商场L4-22号商铺(近银城西路)"},{"poiid":"B2094757D06FA0FB439D","title":"银座梅林","lon":"121.50311726","lat":"31.236394374","category":"95","category_name":"日本料理","address":"浦东新区世纪大道8号国金中心商场L4楼(近浦东大道)"},{"poiid":"B2094757D06FA7FD4099","title":"Godiva(国金中心店)","lon":"121.502431321","lat":"31.2363452182","category":"67","category_name":"甜品店","address":"浦东新区陆家嘴世纪大道8号国际金融中心B2楼LG2-36、37号铺(近东泰路)"},{"poiid":"B2094757D164A3FD419A","title":"Baker&Spice(国金中心店)","lon":"121.50242473","lat":"31.237036445","category":"67","category_name":"甜品店","address":"浦东新区世纪大道8号国金中心IFC商场LG层16室(近浦东大道)"},{"poiid":"B2094757D06FA5FB4292","title":"安薇塔英国茶体系 国金中心店 Annvita English Tea Company","lon":"121.50131","lat":"31.23663","category":"260","category_name":"其他","address":"浦东新区世纪大道8号国金中心商场LG2楼(近浦东大道)"},{"poiid":"B2094757D06FA2FD4698","title":"星巴克 STARBUCKS (金茂大厦店)","lon":"121.505466","lat":"31.235254","category":"65","category_name":"咖啡厅","address":"浦东新区世纪大道88号金茂大厦JLIFE时尚生活中心2楼(近二号线陆家嘴站)"},{"poiid":"B2094757D068A7FF469C","title":"Cova","lon":"121.50131","lat":"31.23663","category":"67","category_name":"甜品店","address":"浦东新区世纪大道8号国金中心商场L1楼30号商铺(近东泰路)"},{"poiid":"B2094757D06FA6FF439A","title":"金茂君悦咖啡厅","lon":"121.50615","lat":"31.23475","category":"268","category_name":"自助","address":"浦东新区世纪大道88号金茂君悦大酒店54楼(近二号线陆家嘴站6号口)"},{"poiid":"B2094757D66EA0F9489C","title":"金茂大厦88层","lon":"121.50547323","lat":"31.236578735","category":"252","category_name":"楼宇机构","address":"上海金茂大厦"},{"poiid":"B2094757D06FA2FE4099","title":"Ritz-Carlton Flair Pub","lon":"121.505996","lat":"31.235922","category":"172","category_name":"酒吧","address":"上海浦东新区世纪大道8号丽思卡尔顿酒店58层"},{"poiid":"B2094757D06FA3FC439A","title":"金牛苑(国金中心店)","lon":"121.50623","lat":"31.23564","category":"47","category_name":"住宅区","address":"浦东新区世纪大道8号世纪大道8号上海国金中心L3-19"},{"poiid":"B2094654DA69A7FB4792","title":"拉图餐厅 La Tour","lon":"121.50515","lat":"31.23502","category":"94","category_name":"西餐厅","address":"浦东新区世纪大道88号金茂大厦裙楼5楼(近二号线陆家嘴站)"},{"poiid":"B2094750D268A4FC499B","title":"小金牛越南餐厅","lon":"121.5044996","lat":"31.2354647","category":"99","category_name":"泰国／越南菜品餐厅","address":"浦东新区陆家嘴西路168号正大广场8楼21号铺(近东方明珠)"},{"poiid":"B2094757D06FA6FC459C","title":"Isola Bar & Grill","lon":"121.506157","lat":"31.235234","category":"94","category_name":"西餐厅","address":"浦东新区世纪大道8号上海国金中心L4楼17号铺(近银城中路)"},{"poiid":"B2094750D26BA1FA4898","title":"玛托 MATTO","lon":"121.5044996","lat":"31.2354647","category":"94","category_name":"西餐厅","address":"浦东新区陆家嘴西路168号正大广场1楼GF50铺(近富城路)"},{"poiid":"B2094757D06FA0FB429F","title":"威尔士健身会所(金茂店)","lon":"121.50616","lat":"31.23493","category":"221","category_name":"健身中心","address":"浦东新区世纪大道88号金茂大厦裙楼生活时尚中心J.LIFE3-4楼(近二号线陆家嘴站)"},{"poiid":"B2094757D068A6FF4099","title":"Whittard of Chelsea","lon":"121.502784738","lat":"31.2368724417","category":"113","category_name":"冷饮店","address":"陆家嘴世纪大道8号上海国金中心D座四层L4-12室"},{"poiid":"B2094757DB68A3F9419D","title":"梅赛德斯-奔驰文化中心","lon":"121.50617587","lat":"31.23635451999999","category":"500","category_name":"未知分类","address":"世博大道1200号"},{"poiid":"B2094757D068A3F94898","title":"天萃庭","lon":"121.50614","lat":"31.23497","category":"72","category_name":"广东菜","address":"浦东新区世纪大道88号金茂大厦裙楼6楼(近二号线陆家嘴站)"},{"poiid":"B2094654DA69A7FB459E","title":"上海金茂大厦88层观光厅","lon":"121.50562","lat":"31.23524","category":"240","category_name":"国家级景点","address":"上海市浦东新区世纪大道88号金茂大厦"},{"poiid":"B2094757D66CABFF4198","title":"蘇浙總會(国金中心店)","lon":"121.502735738","lat":"31.2373164511","category":"248","category_name":"生活娱乐","address":"上海浦东新区世纪大道8号国金中心L4"},{"poiid":"B2094757D06AA1FC409E","title":"上海国金中心二期写字楼","lon":"121.502999494","lat":"31.2355211523","category":"46","category_name":"楼宇","address":"上海浦东新区世纪大道8号(近陆家嘴环路)"},{"poiid":"B2094757D16CA2FF4899","title":"麦当劳国金中心店","lon":"121.50513081","lat":"31.236093145","category":"68","category_name":"快餐厅","address":"浦东新区世纪大道8号国金中心商场LG1-17号商铺(近东泰路)"},{"poiid":"B2094757D068A0F9449A","title":"上海国金中心苹果旗舰店","lon":"121.503650738","lat":"31.2357334174","category":"500","category_name":"未知分类","address":"上海"},{"poiid":"B2094757D468A7F54892","title":"丽思卡尔顿大堂酒廊 Aura","lon":"121.50596","lat":"31.23591","category":"172","category_name":"酒吧","address":"浦东新区世纪大道8号上海国金中心丽思卡尔顿酒店(东泰路世纪大道)"},{"poiid":"B2094750DB6DA0FC459A","title":"一風堂（IPPUDO SH）","lon":"121.50502","lat":"31.235397","category":"247","category_name":"餐饮美食","address":null},{"poiid":"B2094757D16DAAFB4693","title":"ifc俏江南","lon":"121.503631738","lat":"31.2372784503","category":"500","category_name":"未知分类","address":"上海市浦东新区世纪大道"},{"poiid":"B2094655D26EA6FF409F","title":"金茂君悦宴会厅","lon":"121.50546","lat":"31.23525","category":"257","category_name":"中餐厅","address":"浦东新区世纪大道88号金茂大厦裙楼2楼(近陆家嘴东路)查看地图"},{"poiid":"B2094654DB69A7FE409C","title":"日珍日本餐厅","lon":"121.505615054","lat":"31.235306793","category":"95","category_name":"日本料理","address":"浦东新区世纪大道88号金茂君悦大酒店56楼(近二号线陆家嘴站)"},{"poiid":"B2094757D169A3F84892","title":"金茂大厦56楼意庐Cucina","lon":"121.50576283","lat":"31.235074653","category":"500","category_name":"未知分类","address":"上海世纪大道88号"},{"poiid":"B2094751D56DA6F4479F","title":"ifc 一风堂","lon":"121.504761","lat":"31.235413","category":"247","category_name":"餐饮美食","address":"上海浦东新区世纪大道8号国金中心LG1 79-80"},{"poiid":"B2094757D06AABF4439D","title":"釜山料理","lon":"121.50271673","lat":"31.236967443","category":"247","category_name":"餐饮美食","address":"上海世纪大道8号国金中心商场4楼"},{"poiid":"B2094757D06BA1FC429F","title":"科瓦齿科(金茂店)","lon":"121.505166736","lat":"31.235647382","category":"162","category_name":"医院","address":"浦东新区世纪大道88号金茂大厦裙房时尚生活中心3N1-3N3(近二号线陆家嘴站)"},{"poiid":"B2094757D469A2FD499B","title":"天庭 Patio Lounge","lon":"121.505615054","lat":"31.235306793","category":"65","category_name":"咖啡厅","address":"世纪大道88号金茂大厦56楼近东泰路"},{"poiid":"B2094757D16CA2FA439B","title":"品面","lon":"121.502659738","lat":"31.2365974358","category":"68","category_name":"快餐厅","address":"浦东新区世纪大道8号国金中心商场LG2楼B座11号(近正大广场)"},{"poiid":"B2094757D06FA1FB429E","title":"鱿鱼烧みなせん","lon":"121.50348773","lat":"31.237087446","category":"95","category_name":"日本料理","address":"浦东新区世纪大道8号国金中心LG2-B2商铺(近东泰路)"},{"poiid":"B2094757D068AAFC459E","title":"DQ(冰雪皇后)陆家嘴店","lon":"121.506171738","lat":"31.2361194256","category":"113","category_name":"冷饮店","address":"上海市浦东新区世纪大道2F-55(陆家嘴天桥)"},{"poiid":"B2094757D06AA0FE4093","title":"LV ifc","lon":"121.50325473","lat":"31.236260428","category":"500","category_name":"未知分类","address":"上海陸家嘴國金"},{"poiid":"B2094654DB69A0F94493","title":"金茂俱乐部上海餐厅","lon":"121.50546","lat":"31.23525","category":"76","category_name":"上海菜","address":"浦东新区世纪大道88号金茂君悦大酒店86楼(近二号线陆家嘴站)"},{"poiid":"B2094757D069A4FB489E","title":"普京餐厅","lon":"121.50502014","lat":"31.234098434","category":"500","category_name":"未知分类","address":"上海正大广埸"},{"poiid":"B2094655D268A4F9409F","title":"上海国金中心IFC","lon":"121.50226752034189","lat":"31.2362712719287","category":"119","category_name":"商场","address":"浦东新区世纪大道8号(近东泰路)"},{"poiid":"B2094757D06EAAF8419D","title":"国金百丽宫影院","lon":"121.504060766","lat":"31.2365280728","category":"178","category_name":"电影院","address":"上海浦东新区世纪大道8号国际金融中心B1-B2楼(东泰路世纪大道)"},{"poiid":"B2094654DB6AA6FF459C","title":"上海金茂君悦大酒店","lon":"121.50588","lat":"31.23522","category":"213","category_name":"五星级宾馆","address":"浦东新区世纪大道88号金茂大厦53-87楼(近二号线陆家嘴站)"},{"poiid":"B209475CD564A7F84392","title":"上海滩浦东香格里拉店","lon":"121.50058","lat":"31.23634","category":"119","category_name":"商场","address":"浦东富成路33号香格里拉酒店内大堂层"},{"poiid":"B2094757D06EAAFF429C","title":"正斗粥面专家","lon":"121.50097","lat":"31.23665","category":"72","category_name":"广东菜","address":"浦东新区世纪大道8号国金中心D座L3楼L3-9室(近银城西路)"},{"poiid":"B2094757D068A3FC499B","title":"天泰餐厅(国金店)","lon":"121.502658488","lat":"31.2353811506","category":"99","category_name":"泰国／越南菜品餐厅","address":"浦东新区世纪大道8号国金中心4楼(近浦东大道)"},{"poiid":"B2094750D26CA3FE4592","title":"鹿港小镇 正大店","lon":"121.5044996","lat":"31.2354647","category":"91","category_name":"台湾菜","address":"浦东新区陆家嘴西路168号正大广场8楼810室(近东方明珠)"},{"poiid":"B2094757D06FA2FE4493","title":"仁清•东京新怀石料理(金茂店)","lon":"121.50594","lat":"31.23477","category":"95","category_name":"日本料理","address":"浦东新区世纪大道88号金茂大厦裙楼3楼(近二号线陆家嘴站)"},{"poiid":"B2094757D06FA4FB4799","title":"国金中心，CitySuper","lon":"121.503941738","lat":"31.2363154298","category":"500","category_name":"未知分类","address":"上海陆家嘴"},{"poiid":"B2094750DA6AA4F4489F","title":"一风堂拉面","lon":"121.505241","lat":"31.235317","category":"247","category_name":"餐饮美食","address":"国金商场LG1"},{"poiid":"B2094757D06FA4F54099","title":"炉匠(炉端烧•酒)","lon":"121.50304973","lat":"31.236487433","category":"269","category_name":"烧烤","address":"浦东新区世纪大道8号国金中心商场L4-22号商铺(近银城西路)"},{"poiid":"B2094757D06FA0FB439D","title":"银座梅林","lon":"121.50311726","lat":"31.236394374","category":"95","category_name":"日本料理","address":"浦东新区世纪大道8号国金中心商场L4楼(近浦东大道)"},{"poiid":"B2094757D06FA7FD4099","title":"Godiva(国金中心店)","lon":"121.502431321","lat":"31.2363452182","category":"67","category_name":"甜品店","address":"浦东新区陆家嘴世纪大道8号国际金融中心B2楼LG2-36、37号铺(近东泰路)"},{"poiid":"B2094757D164A3FD419A","title":"Baker&Spice(国金中心店)","lon":"121.50242473","lat":"31.237036445","category":"67","category_name":"甜品店","address":"浦东新区世纪大道8号国金中心IFC商场LG层16室(近浦东大道)"},{"poiid":"B2094757D06FA5FB4292","title":"安薇塔英国茶体系 国金中心店 Annvita English Tea Company","lon":"121.50131","lat":"31.23663","category":"260","category_name":"其他","address":"浦东新区世纪大道8号国金中心商场LG2楼(近浦东大道)"},{"poiid":"B2094757D06FA2FD4698","title":"星巴克 STARBUCKS (金茂大厦店)","lon":"121.505466","lat":"31.235254","category":"65","category_name":"咖啡厅","address":"浦东新区世纪大道88号金茂大厦JLIFE时尚生活中心2楼(近二号线陆家嘴站)"},{"poiid":"B2094757D068A7FF469C","title":"Cova","lon":"121.50131","lat":"31.23663","category":"67","category_name":"甜品店","address":"浦东新区世纪大道8号国金中心商场L1楼30号商铺(近东泰路)"},{"poiid":"B2094757D06FA6FF439A","title":"金茂君悦咖啡厅","lon":"121.50615","lat":"31.23475","category":"268","category_name":"自助","address":"浦东新区世纪大道88号金茂君悦大酒店54楼(近二号线陆家嘴站6号口)"},{"poiid":"B2094757D66EA0F9489C","title":"金茂大厦88层","lon":"121.50547323","lat":"31.236578735","category":"252","category_name":"楼宇机构","address":"上海金茂大厦"},{"poiid":"B2094757D06FA2FE4099","title":"Ritz-Carlton Flair Pub","lon":"121.505996","lat":"31.235922","category":"172","category_name":"酒吧","address":"上海浦东新区世纪大道8号丽思卡尔顿酒店58层"},{"poiid":"B2094757D06FA3FC439A","title":"金牛苑(国金中心店)","lon":"121.50623","lat":"31.23564","category":"47","category_name":"住宅区","address":"浦东新区世纪大道8号世纪大道8号上海国金中心L3-19"},{"poiid":"B2094654DA69A7FB4792","title":"拉图餐厅 La Tour","lon":"121.50515","lat":"31.23502","category":"94","category_name":"西餐厅","address":"浦东新区世纪大道88号金茂大厦裙楼5楼(近二号线陆家嘴站)"},{"poiid":"B2094750D268A4FC499B","title":"小金牛越南餐厅","lon":"121.5044996","lat":"31.2354647","category":"99","category_name":"泰国／越南菜品餐厅","address":"浦东新区陆家嘴西路168号正大广场8楼21号铺(近东方明珠)"},{"poiid":"B2094757D06FA6FC459C","title":"Isola Bar & Grill","lon":"121.506157","lat":"31.235234","category":"94","category_name":"西餐厅","address":"浦东新区世纪大道8号上海国金中心L4楼17号铺(近银城中路)"},{"poiid":"B2094750D26BA1FA4898","title":"玛托 MATTO","lon":"121.5044996","lat":"31.2354647","category":"94","category_name":"西餐厅","address":"浦东新区陆家嘴西路168号正大广场1楼GF50铺(近富城路)"},{"poiid":"B2094757D06FA0FB429F","title":"威尔士健身会所(金茂店)","lon":"121.50616","lat":"31.23493","category":"221","category_name":"健身中心","address":"浦东新区世纪大道88号金茂大厦裙楼生活时尚中心J.LIFE3-4楼(近二号线陆家嘴站)"},{"poiid":"B2094757D068A6FF4099","title":"Whittard of Chelsea","lon":"121.502784738","lat":"31.2368724417","category":"113","category_name":"冷饮店","address":"陆家嘴世纪大道8号上海国金中心D座四层L4-12室"},{"poiid":"B2094757DB68A3F9419D","title":"梅赛德斯-奔驰文化中心","lon":"121.50617587","lat":"31.23635451999999","category":"500","category_name":"未知分类","address":"世博大道1200号"},{"poiid":"B2094757D068A3F94898","title":"天萃庭","lon":"121.50614","lat":"31.23497","category":"72","category_name":"广东菜","address":"浦东新区世纪大道88号金茂大厦裙楼6楼(近二号线陆家嘴站)"},{"poiid":"B2094654DA69A7FB459E","title":"上海金茂大厦88层观光厅","lon":"121.50562","lat":"31.23524","category":"240","category_name":"国家级景点","address":"上海市浦东新区世纪大道88号金茂大厦"},{"poiid":"B2094757D66CABFF4198","title":"蘇浙總會(国金中心店)","lon":"121.502735738","lat":"31.2373164511","category":"248","category_name":"生活娱乐","address":"上海浦东新区世纪大道8号国金中心L4"},{"poiid":"B2094757D06AA1FC409E","title":"上海国金中心二期写字楼","lon":"121.502999494","lat":"31.2355211523","category":"46","category_name":"楼宇","address":"上海浦东新区世纪大道8号(近陆家嘴环路)"},{"poiid":"B2094757D16CA2FF4899","title":"麦当劳国金中心店","lon":"121.50513081","lat":"31.236093145","category":"68","category_name":"快餐厅","address":"浦东新区世纪大道8号国金中心商场LG1-17号商铺(近东泰路)"},{"poiid":"B2094757D068A0F9449A","title":"上海国金中心苹果旗舰店","lon":"121.503650738","lat":"31.2357334174","category":"500","category_name":"未知分类","address":"上海"},{"poiid":"B2094757D468A7F54892","title":"丽思卡尔顿大堂酒廊 Aura","lon":"121.50596","lat":"31.23591","category":"172","category_name":"酒吧","address":"浦东新区世纪大道8号上海国金中心丽思卡尔顿酒店(东泰路世纪大道)"},{"poiid":"B2094750DB6DA0FC459A","title":"一風堂（IPPUDO SH）","lon":"121.50502","lat":"31.235397","category":"247","category_name":"餐饮美食","address":null},{"poiid":"B2094757D16DAAFB4693","title":"ifc俏江南","lon":"121.503631738","lat":"31.2372784503","category":"500","category_name":"未知分类","address":"上海市浦东新区世纪大道"},{"poiid":"B2094655D26EA6FF409F","title":"金茂君悦宴会厅","lon":"121.50546","lat":"31.23525","category":"257","category_name":"中餐厅","address":"浦东新区世纪大道88号金茂大厦裙楼2楼(近陆家嘴东路)查看地图"},{"poiid":"B2094654DB69A7FE409C","title":"日珍日本餐厅","lon":"121.505615054","lat":"31.235306793","category":"95","category_name":"日本料理","address":"浦东新区世纪大道88号金茂君悦大酒店56楼(近二号线陆家嘴站)"},{"poiid":"B2094757D169A3F84892","title":"金茂大厦56楼意庐Cucina","lon":"121.50576283","lat":"31.235074653","category":"500","category_name":"未知分类","address":"上海世纪大道88号"},{"poiid":"B2094751D56DA6F4479F","title":"ifc 一风堂","lon":"121.504761","lat":"31.235413","category":"247","category_name":"餐饮美食","address":"上海浦东新区世纪大道8号国金中心LG1 79-80"},{"poiid":"B2094757D06AABF4439D","title":"釜山料理","lon":"121.50271673","lat":"31.236967443","category":"247","category_name":"餐饮美食","address":"上海世纪大道8号国金中心商场4楼"},{"poiid":"B2094757D06BA1FC429F","title":"科瓦齿科(金茂店)","lon":"121.505166736","lat":"31.235647382","category":"162","category_name":"医院","address":"浦东新区世纪大道88号金茂大厦裙房时尚生活中心3N1-3N3(近二号线陆家嘴站)"},{"poiid":"B2094757D469A2FD499B","title":"天庭 Patio Lounge","lon":"121.505615054","lat":"31.235306793","category":"65","category_name":"咖啡厅","address":"世纪大道88号金茂大厦56楼近东泰路"},{"poiid":"B2094757D16CA2FA439B","title":"品面","lon":"121.502659738","lat":"31.2365974358","category":"68","category_name":"快餐厅","address":"浦东新区世纪大道8号国金中心商场LG2楼B座11号(近正大广场)"},{"poiid":"B2094757D06FA1FB429E","title":"鱿鱼烧みなせん","lon":"121.50348773","lat":"31.237087446","category":"95","category_name":"日本料理","address":"浦东新区世纪大道8号国金中心LG2-B2商铺(近东泰路)"},{"poiid":"B2094757D068AAFC459E","title":"DQ(冰雪皇后)陆家嘴店","lon":"121.506171738","lat":"31.2361194256","category":"113","category_name":"冷饮店","address":"上海市浦东新区世纪大道2F-55(陆家嘴天桥)"},{"poiid":"B2094757D06AA0FE4093","title":"LV ifc","lon":"121.50325473","lat":"31.236260428","category":"500","category_name":"未知分类","address":"上海陸家嘴國金"},{"poiid":"B2094654DB69A0F94493","title":"金茂俱乐部上海餐厅","lon":"121.50546","lat":"31.23525","category":"76","category_name":"上海菜","address":"浦东新区世纪大道88号金茂君悦大酒店86楼(近二号线陆家嘴站)"},{"poiid":"B2094757D069A4FB489E","title":"普京餐厅","lon":"121.50502014","lat":"31.234098434","category":"500","category_name":"未知分类","address":"上海正大广埸"},{"poiid":"B2094655D268A4F9409F","title":"上海国金中心IFC","lon":"121.50226752034189","lat":"31.2362712719287","category":"119","category_name":"商场","address":"浦东新区世纪大道8号(近东泰路)"},{"poiid":"B2094757D06EAAF8419D","title":"国金百丽宫影院","lon":"121.504060766","lat":"31.2365280728","category":"178","category_name":"电影院","address":"上海浦东新区世纪大道8号国际金融中心B1-B2楼(东泰路世纪大道)"},{"poiid":"B2094654DB6AA6FF459C","title":"上海金茂君悦大酒店","lon":"121.50588","lat":"31.23522","category":"213","category_name":"五星级宾馆","address":"浦东新区世纪大道88号金茂大厦53-87楼(近二号线陆家嘴站)"},{"poiid":"B209475CD564A7F84392","title":"上海滩浦东香格里拉店","lon":"121.50058","lat":"31.23634","category":"119","category_name":"商场","address":"浦东富成路33号香格里拉酒店内大堂层"},{"poiid":"B2094757D06EAAFF429C","title":"正斗粥面专家","lon":"121.50097","lat":"31.23665","category":"72","category_name":"广东菜","address":"浦东新区世纪大道8号国金中心D座L3楼L3-9室(近银城西路)"},{"poiid":"B2094757D068A3FC499B","title":"天泰餐厅(国金店)","lon":"121.502658488","lat":"31.2353811506","category":"99","category_name":"泰国／越南菜品餐厅","address":"浦东新区世纪大道8号国金中心4楼(近浦东大道)"},{"poiid":"B2094750D26CA3FE4592","title":"鹿港小镇 正大店","lon":"121.5044996","lat":"31.2354647","category":"91","category_name":"台湾菜","address":"浦东新区陆家嘴西路168号正大广场8楼810室(近东方明珠)"},{"poiid":"B2094757D06FA2FE4493","title":"仁清•东京新怀石料理(金茂店)","lon":"121.50594","lat":"31.23477","category":"95","category_name":"日本料理","address":"浦东新区世纪大道88号金茂大厦裙楼3楼(近二号线陆家嘴站)"},{"poiid":"B2094757D06FA4FB4799","title":"国金中心，CitySuper","lon":"121.503941738","lat":"31.2363154298","category":"500","category_name":"未知分类","address":"上海陆家嘴"},{"poiid":"B2094750DA6AA4F4489F","title":"一风堂拉面","lon":"121.505241","lat":"31.235317","category":"247","category_name":"餐饮美食","address":"国金商场LG1"},{"poiid":"B2094757D06FA4F54099","title":"炉匠(炉端烧•酒)","lon":"121.50304973","lat":"31.236487433","category":"269","category_name":"烧烤","address":"浦东新区世纪大道8号国金中心商场L4-22号商铺(近银城西路)"},{"poiid":"B2094757D06FA0FB439D","title":"银座梅林","lon":"121.50311726","lat":"31.236394374","category":"95","category_name":"日本料理","address":"浦东新区世纪大道8号国金中心商场L4楼(近浦东大道)"},{"poiid":"B2094757D06FA7FD4099","title":"Godiva(国金中心店)","lon":"121.502431321","lat":"31.2363452182","category":"67","category_name":"甜品店","address":"浦东新区陆家嘴世纪大道8号国际金融中心B2楼LG2-36、37号铺(近东泰路)"},{"poiid":"B2094757D164A3FD419A","title":"Baker&Spice(国金中心店)","lon":"121.50242473","lat":"31.237036445","category":"67","category_name":"甜品店","address":"浦东新区世纪大道8号国金中心IFC商场LG层16室(近浦东大道)"},{"poiid":"B2094757D06FA5FB4292","title":"安薇塔英国茶体系 国金中心店 Annvita English Tea Company","lon":"121.50131","lat":"31.23663","category":"260","category_name":"其他","address":"浦东新区世纪大道8号国金中心商场LG2楼(近浦东大道)"},{"poiid":"B2094757D06FA2FD4698","title":"星巴克 STARBUCKS (金茂大厦店)","lon":"121.505466","lat":"31.235254","category":"65","category_name":"咖啡厅","address":"浦东新区世纪大道88号金茂大厦JLIFE时尚生活中心2楼(近二号线陆家嘴站)"},{"poiid":"B2094757D068A7FF469C","title":"Cova","lon":"121.50131","lat":"31.23663","category":"67","category_name":"甜品店","address":"浦东新区世纪大道8号国金中心商场L1楼30号商铺(近东泰路)"},{"poiid":"B2094757D06FA6FF439A","title":"金茂君悦咖啡厅","lon":"121.50615","lat":"31.23475","category":"268","category_name":"自助","address":"浦东新区世纪大道88号金茂君悦大酒店54楼(近二号线陆家嘴站6号口)"},{"poiid":"B2094757D66EA0F9489C","title":"金茂大厦88层","lon":"121.50547323","lat":"31.236578735","category":"252","category_name":"楼宇机构","address":"上海金茂大厦"},{"poiid":"B2094757D06FA2FE4099","title":"Ritz-Carlton Flair Pub","lon":"121.505996","lat":"31.235922","category":"172","category_name":"酒吧","address":"上海浦东新区世纪大道8号丽思卡尔顿酒店58层"},{"poiid":"B2094757D06FA3FC439A","title":"金牛苑(国金中心店)","lon":"121.50623","lat":"31.23564","category":"47","category_name":"住宅区","address":"浦东新区世纪大道8号世纪大道8号上海国金中心L3-19"},{"poiid":"B2094654DA69A7FB4792","title":"拉图餐厅 La Tour","lon":"121.50515","lat":"31.23502","category":"94","category_name":"西餐厅","address":"浦东新区世纪大道88号金茂大厦裙楼5楼(近二号线陆家嘴站)"},{"poiid":"B2094750D268A4FC499B","title":"小金牛越南餐厅","lon":"121.5044996","lat":"31.2354647","category":"99","category_name":"泰国／越南菜品餐厅","address":"浦东新区陆家嘴西路168号正大广场8楼21号铺(近东方明珠)"},{"poiid":"B2094757D06FA6FC459C","title":"Isola Bar & Grill","lon":"121.506157","lat":"31.235234","category":"94","category_name":"西餐厅","address":"浦东新区世纪大道8号上海国金中心L4楼17号铺(近银城中路)"},{"poiid":"B2094750D26BA1FA4898","title":"玛托 MATTO","lon":"121.5044996","lat":"31.2354647","category":"94","category_name":"西餐厅","address":"浦东新区陆家嘴西路168号正大广场1楼GF50铺(近富城路)"},{"poiid":"B2094757D06FA0FB429F","title":"威尔士健身会所(金茂店)","lon":"121.50616","lat":"31.23493","category":"221","category_name":"健身中心","address":"浦东新区世纪大道88号金茂大厦裙楼生活时尚中心J.LIFE3-4楼(近二号线陆家嘴站)"},{"poiid":"B2094757D068A6FF4099","title":"Whittard of Chelsea","lon":"121.502784738","lat":"31.2368724417","category":"113","category_name":"冷饮店","address":"陆家嘴世纪大道8号上海国金中心D座四层L4-12室"},{"poiid":"B2094757DB68A3F9419D","title":"梅赛德斯-奔驰文化中心","lon":"121.50617587","lat":"31.23635451999999","category":"500","category_name":"未知分类","address":"世博大道1200号"},{"poiid":"B2094757D068A3F94898","title":"天萃庭","lon":"121.50614","lat":"31.23497","category":"72","category_name":"广东菜","address":"浦东新区世纪大道88号金茂大厦裙楼6楼(近二号线陆家嘴站)"},{"poiid":"B2094654DA69A7FB459E","title":"上海金茂大厦88层观光厅","lon":"121.50562","lat":"31.23524","category":"240","category_name":"国家级景点","address":"上海市浦东新区世纪大道88号金茂大厦"},{"poiid":"B2094757D66CABFF4198","title":"蘇浙總會(国金中心店)","lon":"121.502735738","lat":"31.2373164511","category":"248","category_name":"生活娱乐","address":"上海浦东新区世纪大道8号国金中心L4"},{"poiid":"B2094757D06AA1FC409E","title":"上海国金中心二期写字楼","lon":"121.502999494","lat":"31.2355211523","category":"46","category_name":"楼宇","address":"上海浦东新区世纪大道8号(近陆家嘴环路)"},{"poiid":"B2094757D16CA2FF4899","title":"麦当劳国金中心店","lon":"121.50513081","lat":"31.236093145","category":"68","category_name":"快餐厅","address":"浦东新区世纪大道8号国金中心商场LG1-17号商铺(近东泰路)"},{"poiid":"B2094757D068A0F9449A","title":"上海国金中心苹果旗舰店","lon":"121.503650738","lat":"31.2357334174","category":"500","category_name":"未知分类","address":"上海"},{"poiid":"B2094757D468A7F54892","title":"丽思卡尔顿大堂酒廊 Aura","lon":"121.50596","lat":"31.23591","category":"172","category_name":"酒吧","address":"浦东新区世纪大道8号上海国金中心丽思卡尔顿酒店(东泰路世纪大道)"},{"poiid":"B2094750DB6DA0FC459A","title":"一風堂（IPPUDO SH）","lon":"121.50502","lat":"31.235397","category":"247","category_name":"餐饮美食","address":null},{"poiid":"B2094757D16DAAFB4693","title":"ifc俏江南","lon":"121.503631738","lat":"31.2372784503","category":"500","category_name":"未知分类","address":"上海市浦东新区世纪大道"},{"poiid":"B2094655D26EA6FF409F","title":"金茂君悦宴会厅","lon":"121.50546","lat":"31.23525","category":"257","category_name":"中餐厅","address":"浦东新区世纪大道88号金茂大厦裙楼2楼(近陆家嘴东路)查看地图"},{"poiid":"B2094654DB69A7FE409C","title":"日珍日本餐厅","lon":"121.505615054","lat":"31.235306793","category":"95","category_name":"日本料理","address":"浦东新区世纪大道88号金茂君悦大酒店56楼(近二号线陆家嘴站)"},{"poiid":"B2094757D169A3F84892","title":"金茂大厦56楼意庐Cucina","lon":"121.50576283","lat":"31.235074653","category":"500","category_name":"未知分类","address":"上海世纪大道88号"},{"poiid":"B2094751D56DA6F4479F","title":"ifc 一风堂","lon":"121.504761","lat":"31.235413","category":"247","category_name":"餐饮美食","address":"上海浦东新区世纪大道8号国金中心LG1 79-80"},{"poiid":"B2094757D06AABF4439D","title":"釜山料理","lon":"121.50271673","lat":"31.236967443","category":"247","category_name":"餐饮美食","address":"上海世纪大道8号国金中心商场4楼"},{"poiid":"B2094757D06BA1FC429F","title":"科瓦齿科(金茂店)","lon":"121.505166736","lat":"31.235647382","category":"162","category_name":"医院","address":"浦东新区世纪大道88号金茂大厦裙房时尚生活中心3N1-3N3(近二号线陆家嘴站)"},{"poiid":"B2094757D469A2FD499B","title":"天庭 Patio Lounge","lon":"121.505615054","lat":"31.235306793","category":"65","category_name":"咖啡厅","address":"世纪大道88号金茂大厦56楼近东泰路"},{"poiid":"B2094757D16CA2FA439B","title":"品面","lon":"121.502659738","lat":"31.2365974358","category":"68","category_name":"快餐厅","address":"浦东新区世纪大道8号国金中心商场LG2楼B座11号(近正大广场)"},{"poiid":"B2094757D06FA1FB429E","title":"鱿鱼烧みなせん","lon":"121.50348773","lat":"31.237087446","category":"95","category_name":"日本料理","address":"浦东新区世纪大道8号国金中心LG2-B2商铺(近东泰路)"},{"poiid":"B2094757D068AAFC459E","title":"DQ(冰雪皇后)陆家嘴店","lon":"121.506171738","lat":"31.2361194256","category":"113","category_name":"冷饮店","address":"上海市浦东新区世纪大道2F-55(陆家嘴天桥)"},{"poiid":"B2094757D06AA0FE4093","title":"LV ifc","lon":"121.50325473","lat":"31.236260428","category":"500","category_name":"未知分类","address":"上海陸家嘴國金"},{"poiid":"B2094654DB69A0F94493","title":"金茂俱乐部上海餐厅","lon":"121.50546","lat":"31.23525","category":"76","category_name":"上海菜","address":"浦东新区世纪大道88号金茂君悦大酒店86楼(近二号线陆家嘴站)"},{"poiid":"B2094757D069A4FB489E","title":"普京餐厅","lon":"121.50502014","lat":"31.234098434","category":"500","category_name":"未知分类","address":"上海正大广埸"},{"poiid":"B2094655D268A4F9409F","title":"上海国金中心IFC","lon":"121.50226752034189","lat":"31.2362712719287","category":"119","category_name":"商场","address":"浦东新区世纪大道8号(近东泰路)"},{"poiid":"B2094757D06EAAF8419D","title":"国金百丽宫影院","lon":"121.504060766","lat":"31.2365280728","category":"178","category_name":"电影院","address":"上海浦东新区世纪大道8号国际金融中心B1-B2楼(东泰路世纪大道)"},{"poiid":"B2094654DB6AA6FF459C","title":"上海金茂君悦大酒店","lon":"121.50588","lat":"31.23522","category":"213","category_name":"五星级宾馆","address":"浦东新区世纪大道88号金茂大厦53-87楼(近二号线陆家嘴站)"},{"poiid":"B209475CD564A7F84392","title":"上海滩浦东香格里拉店","lon":"121.50058","lat":"31.23634","category":"119","category_name":"商场","address":"浦东富成路33号香格里拉酒店内大堂层"},{"poiid":"B2094757D06EAAFF429C","title":"正斗粥面专家","lon":"121.50097","lat":"31.23665","category":"72","category_name":"广东菜","address":"浦东新区世纪大道8号国金中心D座L3楼L3-9室(近银城西路)"},{"poiid":"B2094757D068A3FC499B","title":"天泰餐厅(国金店)","lon":"121.502658488","lat":"31.2353811506","category":"99","category_name":"泰国／越南菜品餐厅","address":"浦东新区世纪大道8号国金中心4楼(近浦东大道)"},{"poiid":"B2094750D26CA3FE4592","title":"鹿港小镇 正大店","lon":"121.5044996","lat":"31.2354647","category":"91","category_name":"台湾菜","address":"浦东新区陆家嘴西路168号正大广场8楼810室(近东方明珠)"},{"poiid":"B2094757D06FA2FE4493","title":"仁清•东京新怀石料理(金茂店)","lon":"121.50594","lat":"31.23477","category":"95","category_name":"日本料理","address":"浦东新区世纪大道88号金茂大厦裙楼3楼(近二号线陆家嘴站)"},{"poiid":"B2094757D06FA4FB4799","title":"国金中心，CitySuper","lon":"121.503941738","lat":"31.2363154298","category":"500","category_name":"未知分类","address":"上海陆家嘴"},{"poiid":"B2094750DA6AA4F4489F","title":"一风堂拉面","lon":"121.505241","lat":"31.235317","category":"247","category_name":"餐饮美食","address":"国金商场LG1"},{"poiid":"B2094757D06FA4F54099","title":"炉匠(炉端烧•酒)","lon":"121.50304973","lat":"31.236487433","category":"269","category_name":"烧烤","address":"浦东新区世纪大道8号国金中心商场L4-22号商铺(近银城西路)"},{"poiid":"B2094757D06FA0FB439D","title":"银座梅林","lon":"121.50311726","lat":"31.236394374","category":"95","category_name":"日本料理","address":"浦东新区世纪大道8号国金中心商场L4楼(近浦东大道)"},{"poiid":"B2094757D06FA7FD4099","title":"Godiva(国金中心店)","lon":"121.502431321","lat":"31.2363452182","category":"67","category_name":"甜品店","address":"浦东新区陆家嘴世纪大道8号国际金融中心B2楼LG2-36、37号铺(近东泰路)"},{"poiid":"B2094757D164A3FD419A","title":"Baker&Spice(国金中心店)","lon":"121.50242473","lat":"31.237036445","category":"67","category_name":"甜品店","address":"浦东新区世纪大道8号国金中心IFC商场LG层16室(近浦东大道)"},{"poiid":"B2094757D06FA5FB4292","title":"安薇塔英国茶体系 国金中心店 Annvita English Tea Company","lon":"121.50131","lat":"31.23663","category":"260","category_name":"其他","address":"浦东新区世纪大道8号国金中心商场LG2楼(近浦东大道)"},{"poiid":"B2094757D06FA2FD4698","title":"星巴克 STARBUCKS (金茂大厦店)","lon":"121.505466","lat":"31.235254","category":"65","category_name":"咖啡厅","address":"浦东新区世纪大道88号金茂大厦JLIFE时尚生活中心2楼(近二号线陆家嘴站)"},{"poiid":"B2094757D068A7FF469C","title":"Cova","lon":"121.50131","lat":"31.23663","category":"67","category_name":"甜品店","address":"浦东新区世纪大道8号国金中心商场L1楼30号商铺(近东泰路)"},{"poiid":"B2094757D06FA6FF439A","title":"金茂君悦咖啡厅","lon":"121.50615","lat":"31.23475","category":"268","category_name":"自助","address":"浦东新区世纪大道88号金茂君悦大酒店54楼(近二号线陆家嘴站6号口)"},{"poiid":"B2094757D66EA0F9489C","title":"金茂大厦88层","lon":"121.50547323","lat":"31.236578735","category":"252","category_name":"楼宇机构","address":"上海金茂大厦"},{"poiid":"B2094757D06FA2FE4099","title":"Ritz-Carlton Flair Pub","lon":"121.505996","lat":"31.235922","category":"172","category_name":"酒吧","address":"上海浦东新区世纪大道8号丽思卡尔顿酒店58层"},{"poiid":"B2094757D06FA3FC439A","title":"金牛苑(国金中心店)","lon":"121.50623","lat":"31.23564","category":"47","category_name":"住宅区","address":"浦东新区世纪大道8号世纪大道8号上海国金中心L3-19"},{"poiid":"B2094654DA69A7FB4792","title":"拉图餐厅 La Tour","lon":"121.50515","lat":"31.23502","category":"94","category_name":"西餐厅","address":"浦东新区世纪大道88号金茂大厦裙楼5楼(近二号线陆家嘴站)"},{"poiid":"B2094750D268A4FC499B","title":"小金牛越南餐厅","lon":"121.5044996","lat":"31.2354647","category":"99","category_name":"泰国／越南菜品餐厅","address":"浦东新区陆家嘴西路168号正大广场8楼21号铺(近东方明珠)"},{"poiid":"B2094757D06FA6FC459C","title":"Isola Bar & Grill","lon":"121.506157","lat":"31.235234","category":"94","category_name":"西餐厅","address":"浦东新区世纪大道8号上海国金中心L4楼17号铺(近银城中路)"},{"poiid":"B2094750D26BA1FA4898","title":"玛托 MATTO","lon":"121.5044996","lat":"31.2354647","category":"94","category_name":"西餐厅","address":"浦东新区陆家嘴西路168号正大广场1楼GF50铺(近富城路)"},{"poiid":"B2094757D06FA0FB429F","title":"威尔士健身会所(金茂店)","lon":"121.50616","lat":"31.23493","category":"221","category_name":"健身中心","address":"浦东新区世纪大道88号金茂大厦裙楼生活时尚中心J.LIFE3-4楼(近二号线陆家嘴站)"},{"poiid":"B2094757D068A6FF4099","title":"Whittard of Chelsea","lon":"121.502784738","lat":"31.2368724417","category":"113","category_name":"冷饮店","address":"陆家嘴世纪大道8号上海国金中心D座四层L4-12室"},{"poiid":"B2094757DB68A3F9419D","title":"梅赛德斯-奔驰文化中心","lon":"121.50617587","lat":"31.23635451999999","category":"500","category_name":"未知分类","address":"世博大道1200号"},{"poiid":"B2094757D068A3F94898","title":"天萃庭","lon":"121.50614","lat":"31.23497","category":"72","category_name":"广东菜","address":"浦东新区世纪大道88号金茂大厦裙楼6楼(近二号线陆家嘴站)"},{"poiid":"B2094654DA69A7FB459E","title":"上海金茂大厦88层观光厅","lon":"121.50562","lat":"31.23524","category":"240","category_name":"国家级景点","address":"上海市浦东新区世纪大道88号金茂大厦"},{"poiid":"B2094757D66CABFF4198","title":"蘇浙總會(国金中心店)","lon":"121.502735738","lat":"31.2373164511","category":"248","category_name":"生活娱乐","address":"上海浦东新区世纪大道8号国金中心L4"},{"poiid":"B2094757D06AA1FC409E","title":"上海国金中心二期写字楼","lon":"121.502999494","lat":"31.2355211523","category":"46","category_name":"楼宇","address":"上海浦东新区世纪大道8号(近陆家嘴环路)"},{"poiid":"B2094757D16CA2FF4899","title":"麦当劳国金中心店","lon":"121.50513081","lat":"31.236093145","category":"68","category_name":"快餐厅","address":"浦东新区世纪大道8号国金中心商场LG1-17号商铺(近东泰路)"},{"poiid":"B2094757D068A0F9449A","title":"上海国金中心苹果旗舰店","lon":"121.503650738","lat":"31.2357334174","category":"500","category_name":"未知分类","address":"上海"},{"poiid":"B2094757D468A7F54892","title":"丽思卡尔顿大堂酒廊 Aura","lon":"121.50596","lat":"31.23591","category":"172","category_name":"酒吧","address":"浦东新区世纪大道8号上海国金中心丽思卡尔顿酒店(东泰路世纪大道)"},{"poiid":"B2094750DB6DA0FC459A","title":"一風堂（IPPUDO SH）","lon":"121.50502","lat":"31.235397","category":"247","category_name":"餐饮美食","address":null},{"poiid":"B2094757D16DAAFB4693","title":"ifc俏江南","lon":"121.503631738","lat":"31.2372784503","category":"500","category_name":"未知分类","address":"上海市浦东新区世纪大道"},{"poiid":"B2094655D26EA6FF409F","title":"金茂君悦宴会厅","lon":"121.50546","lat":"31.23525","category":"257","category_name":"中餐厅","address":"浦东新区世纪大道88号金茂大厦裙楼2楼(近陆家嘴东路)查看地图"},{"poiid":"B2094654DB69A7FE409C","title":"日珍日本餐厅","lon":"121.505615054","lat":"31.235306793","category":"95","category_name":"日本料理","address":"浦东新区世纪大道88号金茂君悦大酒店56楼(近二号线陆家嘴站)"},{"poiid":"B2094757D169A3F84892","title":"金茂大厦56楼意庐Cucina","lon":"121.50576283","lat":"31.235074653","category":"500","category_name":"未知分类","address":"上海世纪大道88号"},{"poiid":"B2094751D56DA6F4479F","title":"ifc 一风堂","lon":"121.504761","lat":"31.235413","category":"247","category_name":"餐饮美食","address":"上海浦东新区世纪大道8号国金中心LG1 79-80"},{"poiid":"B2094757D06AABF4439D","title":"釜山料理","lon":"121.50271673","lat":"31.236967443","category":"247","category_name":"餐饮美食","address":"上海世纪大道8号国金中心商场4楼"},{"poiid":"B2094757D06BA1FC429F","title":"科瓦齿科(金茂店)","lon":"121.505166736","lat":"31.235647382","category":"162","category_name":"医院","address":"浦东新区世纪大道88号金茂大厦裙房时尚生活中心3N1-3N3(近二号线陆家嘴站)"},{"poiid":"B2094757D469A2FD499B","title":"天庭 Patio Lounge","lon":"121.505615054","lat":"31.235306793","category":"65","category_name":"咖啡厅","address":"世纪大道88号金茂大厦56楼近东泰路"},{"poiid":"B2094757D16CA2FA439B","title":"品面","lon":"121.502659738","lat":"31.2365974358","category":"68","category_name":"快餐厅","address":"浦东新区世纪大道8号国金中心商场LG2楼B座11号(近正大广场)"},{"poiid":"B2094757D06FA1FB429E","title":"鱿鱼烧みなせん","lon":"121.50348773","lat":"31.237087446","category":"95","category_name":"日本料理","address":"浦东新区世纪大道8号国金中心LG2-B2商铺(近东泰路)"},{"poiid":"B2094757D068AAFC459E","title":"DQ(冰雪皇后)陆家嘴店","lon":"121.506171738","lat":"31.2361194256","category":"113","category_name":"冷饮店","address":"上海市浦东新区世纪大道2F-55(陆家嘴天桥)"},{"poiid":"B2094757D06AA0FE4093","title":"LV ifc","lon":"121.50325473","lat":"31.236260428","category":"500","category_name":"未知分类","address":"上海陸家嘴國金"},{"poiid":"B2094654DB69A0F94493","title":"金茂俱乐部上海餐厅","lon":"121.50546","lat":"31.23525","category":"76","category_name":"上海菜","address":"浦东新区世纪大道88号金茂君悦大酒店86楼(近二号线陆家嘴站)"},{"poiid":"B2094757D069A4FB489E","title":"普京餐厅","lon":"121.50502014","lat":"31.234098434","category":"500","category_name":"未知分类","address":"上海正大广埸"},{"poiid":"B2094655D268A4F9409F","title":"上海国金中心IFC","lon":"121.50226752034189","lat":"31.2362712719287","category":"119","category_name":"商场","address":"浦东新区世纪大道8号(近东泰路)"},{"poiid":"B2094757D06EAAF8419D","title":"国金百丽宫影院","lon":"121.504060766","lat":"31.2365280728","category":"178","category_name":"电影院","address":"上海浦东新区世纪大道8号国际金融中心B1-B2楼(东泰路世纪大道)"},{"poiid":"B2094654DB6AA6FF459C","title":"上海金茂君悦大酒店","lon":"121.50588","lat":"31.23522","category":"213","category_name":"五星级宾馆","address":"浦东新区世纪大道88号金茂大厦53-87楼(近二号线陆家嘴站)"},{"poiid":"B209475CD564A7F84392","title":"上海滩浦东香格里拉店","lon":"121.50058","lat":"31.23634","category":"119","category_name":"商场","address":"浦东富成路33号香格里拉酒店内大堂层"},{"poiid":"B2094757D06EAAFF429C","title":"正斗粥面专家","lon":"121.50097","lat":"31.23665","category":"72","category_name":"广东菜","address":"浦东新区世纪大道8号国金中心D座L3楼L3-9室(近银城西路)"},{"poiid":"B2094757D068A3FC499B","title":"天泰餐厅(国金店)","lon":"121.502658488","lat":"31.2353811506","category":"99","category_name":"泰国／越南菜品餐厅","address":"浦东新区世纪大道8号国金中心4楼(近浦东大道)"},{"poiid":"B2094750D26CA3FE4592","title":"鹿港小镇 正大店","lon":"121.5044996","lat":"31.2354647","category":"91","category_name":"台湾菜","address":"浦东新区陆家嘴西路168号正大广场8楼810室(近东方明珠)"},{"poiid":"B2094757D06FA2FE4493","title":"仁清•东京新怀石料理(金茂店)","lon":"121.50594","lat":"31.23477","category":"95","category_name":"日本料理","address":"浦东新区世纪大道88号金茂大厦裙楼3楼(近二号线陆家嘴站)"},{"poiid":"B2094757D06FA4FB4799","title":"国金中心，CitySuper","lon":"121.503941738","lat":"31.2363154298","category":"500","category_name":"未知分类","address":"上海陆家嘴"},{"poiid":"B2094750DA6AA4F4489F","title":"一风堂拉面","lon":"121.505241","lat":"31.235317","category":"247","category_name":"餐饮美食","address":"国金商场LG1"},{"poiid":"B2094757D06FA4F54099","title":"炉匠(炉端烧•酒)","lon":"121.50304973","lat":"31.236487433","category":"269","category_name":"烧烤","address":"浦东新区世纪大道8号国金中心商场L4-22号商铺(近银城西路)"},{"poiid":"B2094757D06FA0FB439D","title":"银座梅林","lon":"121.50311726","lat":"31.236394374","category":"95","category_name":"日本料理","address":"浦东新区世纪大道8号国金中心商场L4楼(近浦东大道)"},{"poiid":"B2094757D06FA7FD4099","title":"Godiva(国金中心店)","lon":"121.502431321","lat":"31.2363452182","category":"67","category_name":"甜品店","address":"浦东新区陆家嘴世纪大道8号国际金融中心B2楼LG2-36、37号铺(近东泰路)"},{"poiid":"B2094757D164A3FD419A","title":"Baker&Spice(国金中心店)","lon":"121.50242473","lat":"31.237036445","category":"67","category_name":"甜品店","address":"浦东新区世纪大道8号国金中心IFC商场LG层16室(近浦东大道)"},{"poiid":"B2094757D06FA5FB4292","title":"安薇塔英国茶体系 国金中心店 Annvita English Tea Company","lon":"121.50131","lat":"31.23663","category":"260","category_name":"其他","address":"浦东新区世纪大道8号国金中心商场LG2楼(近浦东大道)"},{"poiid":"B2094757D06FA2FD4698","title":"星巴克 STARBUCKS (金茂大厦店)","lon":"121.505466","lat":"31.235254","category":"65","category_name":"咖啡厅","address":"浦东新区世纪大道88号金茂大厦JLIFE时尚生活中心2楼(近二号线陆家嘴站)"},{"poiid":"B2094757D068A7FF469C","title":"Cova","lon":"121.50131","lat":"31.23663","category":"67","category_name":"甜品店","address":"浦东新区世纪大道8号国金中心商场L1楼30号商铺(近东泰路)"},{"poiid":"B2094757D06FA6FF439A","title":"金茂君悦咖啡厅","lon":"121.50615","lat":"31.23475","category":"268","category_name":"自助","address":"浦东新区世纪大道88号金茂君悦大酒店54楼(近二号线陆家嘴站6号口)"},{"poiid":"B2094757D66EA0F9489C","title":"金茂大厦88层","lon":"121.50547323","lat":"31.236578735","category":"252","category_name":"楼宇机构","address":"上海金茂大厦"},{"poiid":"B2094757D06FA2FE4099","title":"Ritz-Carlton Flair Pub","lon":"121.505996","lat":"31.235922","category":"172","category_name":"酒吧","address":"上海浦东新区世纪大道8号丽思卡尔顿酒店58层"},{"poiid":"B2094757D06FA3FC439A","title":"金牛苑(国金中心店)","lon":"121.50623","lat":"31.23564","category":"47","category_name":"住宅区","address":"浦东新区世纪大道8号世纪大道8号上海国金中心L3-19"},{"poiid":"B2094654DA69A7FB4792","title":"拉图餐厅 La Tour","lon":"121.50515","lat":"31.23502","category":"94","category_name":"西餐厅","address":"浦东新区世纪大道88号金茂大厦裙楼5楼(近二号线陆家嘴站)"},{"poiid":"B2094750D268A4FC499B","title":"小金牛越南餐厅","lon":"121.5044996","lat":"31.2354647","category":"99","category_name":"泰国／越南菜品餐厅","address":"浦东新区陆家嘴西路168号正大广场8楼21号铺(近东方明珠)"},{"poiid":"B2094757D06FA6FC459C","title":"Isola Bar & Grill","lon":"121.506157","lat":"31.235234","category":"94","category_name":"西餐厅","address":"浦东新区世纪大道8号上海国金中心L4楼17号铺(近银城中路)"},{"poiid":"B2094750D26BA1FA4898","title":"玛托 MATTO","lon":"121.5044996","lat":"31.2354647","category":"94","category_name":"西餐厅","address":"浦东新区陆家嘴西路168号正大广场1楼GF50铺(近富城路)"},{"poiid":"B2094757D06FA0FB429F","title":"威尔士健身会所(金茂店)","lon":"121.50616","lat":"31.23493","category":"221","category_name":"健身中心","address":"浦东新区世纪大道88号金茂大厦裙楼生活时尚中心J.LIFE3-4楼(近二号线陆家嘴站)"},{"poiid":"B2094757D068A6FF4099","title":"Whittard of Chelsea","lon":"121.502784738","lat":"31.2368724417","category":"113","category_name":"冷饮店","address":"陆家嘴世纪大道8号上海国金中心D座四层L4-12室"},{"poiid":"B2094757DB68A3F9419D","title":"梅赛德斯-奔驰文化中心","lon":"121.50617587","lat":"31.23635451999999","category":"500","category_name":"未知分类","address":"世博大道1200号"},{"poiid":"B2094757D068A3F94898","title":"天萃庭","lon":"121.50614","lat":"31.23497","category":"72","category_name":"广东菜","address":"浦东新区世纪大道88号金茂大厦裙楼6楼(近二号线陆家嘴站)"},{"poiid":"B2094654DA69A7FB459E","title":"上海金茂大厦88层观光厅","lon":"121.50562","lat":"31.23524","category":"240","category_name":"国家级景点","address":"上海市浦东新区世纪大道88号金茂大厦"},{"poiid":"B2094757D66CABFF4198","title":"蘇浙總會(国金中心店)","lon":"121.502735738","lat":"31.2373164511","category":"248","category_name":"生活娱乐","address":"上海浦东新区世纪大道8号国金中心L4"},{"poiid":"B2094757D06AA1FC409E","title":"上海国金中心二期写字楼","lon":"121.502999494","lat":"31.2355211523","category":"46","category_name":"楼宇","address":"上海浦东新区世纪大道8号(近陆家嘴环路)"},{"poiid":"B2094757D16CA2FF4899","title":"麦当劳国金中心店","lon":"121.50513081","lat":"31.236093145","category":"68","category_name":"快餐厅","address":"浦东新区世纪大道8号国金中心商场LG1-17号商铺(近东泰路)"},{"poiid":"B2094757D068A0F9449A","title":"上海国金中心苹果旗舰店","lon":"121.503650738","lat":"31.2357334174","category":"500","category_name":"未知分类","address":"上海"},{"poiid":"B2094757D468A7F54892","title":"丽思卡尔顿大堂酒廊 Aura","lon":"121.50596","lat":"31.23591","category":"172","category_name":"酒吧","address":"浦东新区世纪大道8号上海国金中心丽思卡尔顿酒店(东泰路世纪大道)"},{"poiid":"B2094750DB6DA0FC459A","title":"一風堂（IPPUDO SH）","lon":"121.50502","lat":"31.235397","category":"247","category_name":"餐饮美食","address":null},{"poiid":"B2094757D16DAAFB4693","title":"ifc俏江南","lon":"121.503631738","lat":"31.2372784503","category":"500","category_name":"未知分类","address":"上海市浦东新区世纪大道"},{"poiid":"B2094655D26EA6FF409F","title":"金茂君悦宴会厅","lon":"121.50546","lat":"31.23525","category":"257","category_name":"中餐厅","address":"浦东新区世纪大道88号金茂大厦裙楼2楼(近陆家嘴东路)查看地图"},{"poiid":"B2094654DB69A7FE409C","title":"日珍日本餐厅","lon":"121.505615054","lat":"31.235306793","category":"95","category_name":"日本料理","address":"浦东新区世纪大道88号金茂君悦大酒店56楼(近二号线陆家嘴站)"},{"poiid":"B2094757D169A3F84892","title":"金茂大厦56楼意庐Cucina","lon":"121.50576283","lat":"31.235074653","category":"500","category_name":"未知分类","address":"上海世纪大道88号"},{"poiid":"B2094751D56DA6F4479F","title":"ifc 一风堂","lon":"121.504761","lat":"31.235413","category":"247","category_name":"餐饮美食","address":"上海浦东新区世纪大道8号国金中心LG1 79-80"},{"poiid":"B2094757D06AABF4439D","title":"釜山料理","lon":"121.50271673","lat":"31.236967443","category":"247","category_name":"餐饮美食","address":"上海世纪大道8号国金中心商场4楼"},{"poiid":"B2094757D06BA1FC429F","title":"科瓦齿科(金茂店)","lon":"121.505166736","lat":"31.235647382","category":"162","category_name":"医院","address":"浦东新区世纪大道88号金茂大厦裙房时尚生活中心3N1-3N3(近二号线陆家嘴站)"},{"poiid":"B2094757D469A2FD499B","title":"天庭 Patio Lounge","lon":"121.505615054","lat":"31.235306793","category":"65","category_name":"咖啡厅","address":"世纪大道88号金茂大厦56楼近东泰路"},{"poiid":"B2094757D16CA2FA439B","title":"品面","lon":"121.502659738","lat":"31.2365974358","category":"68","category_name":"快餐厅","address":"浦东新区世纪大道8号国金中心商场LG2楼B座11号(近正大广场)"},{"poiid":"B2094757D06FA1FB429E","title":"鱿鱼烧みなせん","lon":"121.50348773","lat":"31.237087446","category":"95","category_name":"日本料理","address":"浦东新区世纪大道8号国金中心LG2-B2商铺(近东泰路)"},{"poiid":"B2094757D068AAFC459E","title":"DQ(冰雪皇后)陆家嘴店","lon":"121.506171738","lat":"31.2361194256","category":"113","category_name":"冷饮店","address":"上海市浦东新区世纪大道2F-55(陆家嘴天桥)"},{"poiid":"B2094757D06AA0FE4093","title":"LV ifc","lon":"121.50325473","lat":"31.236260428","category":"500","category_name":"未知分类","address":"上海陸家嘴國金"},{"poiid":"B2094654DB69A0F94493","title":"金茂俱乐部上海餐厅","lon":"121.50546","lat":"31.23525","category":"76","category_name":"上海菜","address":"浦东新区世纪大道88号金茂君悦大酒店86楼(近二号线陆家嘴站)"},{"poiid":"B2094757D069A4FB489E","title":"普京餐厅","lon":"121.50502014","lat":"31.234098434","category":"500","category_name":"未知分类","address":"上海正大广埸"}]