[{"poiid":"B2094750D56CA4F9459E","title":"上海外滩悅榕庄","lon":"121.50667204830165","lat":"31.249798205624163","category":"251","category_name":"出行住宿","address":"虹口区海平路19号"},{"poiid":"B2094757D06FA1FD4592","title":"上海外滩浦华大酒店","lon":"121.50274","lat":"31.25086","category":"213","category_name":"五星级宾馆","address":"上海市虹口区高阳路168号(北外滩地区 近东大名路)"},{"poiid":"B2094757D06FA7FA4993","title":"北外滩","lon":"121.50491413","lat":"31.250150968","category":"260","category_name":"其他","address":"虹口区高阳路(近东大名路)"},{"poiid":"B209475CD564A7F84392","title":"上海滩浦东香格里拉店","lon":"121.50058","lat":"31.23634","category":"119","category_name":"商场","address":"浦东富成路33号香格里拉酒店内大堂层"},{"poiid":"B2094757D06FA6F54893","title":"上海港国际客运中心","lon":"121.50271","lat":"31.24954","category":"35","category_name":"长途汽车站","address":"虹口区东大名路800号(近高阳路)"},{"poiid":"B2094757D06FA5F94593","title":"前城酒家","lon":"121.50457","lat":"31.25358","category":"68","category_name":"快餐厅","address":"虹口区唐山路408号(近丹徒路)"},{"poiid":"B2094757D068A3F54592","title":"金岸大厦","lon":"121.50537716","lat":"31.250616563","category":"46","category_name":"楼宇","address":"丰台学城海鹰路1号,3号"},{"poiid":"B2094757D068ABFF429C","title":"老船长酒吧","lon":"121.502755758","lat":"31.2507747333","category":"172","category_name":"酒吧","address":"虹口区高阳路168号外滩浦华大酒店(东长治路高阳路)"},{"poiid":"B2094757D068A6F4459F","title":"芳庭海鲜酒店","lon":"121.50299835","lat":"31.25","category":"88","category_name":"海鲜酒楼","address":"虹口区东大名路809号(近高阳路)"},{"poiid":"B2094654DA6FA7F8429D","title":"远洋大厦","lon":"121.503","lat":"31.2527","category":"46","category_name":"楼宇","address":"静安区长寿路(万航渡路口)"},{"poiid":"B2094757D068A7FE4598","title":"东大名路","lon":"121.504487","lat":"31.250967","category":"247","category_name":"餐饮美食","address":"上海东大名路"},{"poiid":"B2094757D064A3F8429D","title":"上海建工集团总公司","lon":"121.501623103","lat":"31.2491349775","category":"263","category_name":"公司","address":"上海市虹口区东大名路666号"},{"poiid":"B2094655D26CA6FA429E","title":"公平路轮渡站","lon":"121.50744","lat":"31.24948","category":"34","category_name":"港口码头","address":"公平路60号"},{"poiid":"B2094757D16EA1FB429E","title":"白金湾广场","lon":"121.506182","lat":"31.2502193","category":"500","category_name":"未知分类","address":"相城区阳澄湖西路南、人民路西"},{"poiid":"B2094655D264A6F4409D","title":"上海轮渡游船码头","lon":"121.50722","lat":"31.24959","category":"34","category_name":"港口码头","address":"公平路1"},{"poiid":"B2094757D06FABF9489F","title":"公平路码头摆渡口","lon":"121.50965815","lat":"31.251916889","category":"34","category_name":"港口码头","address":"上海公平路东大名路"},{"poiid":"B2094750DA6FA7FB4198","title":"桔子水晶酒店","lon":"121.502227","lat":"31.252765","category":"251","category_name":"出行住宿","address":"上海市虹口区公平路369号"},{"poiid":"B2094757D06AA2F4479B","title":"航交所","lon":"121.50562865","lat":"31.250870177","category":"500","category_name":"未知分类","address":"上海航交所"},{"poiid":"B2094757D568A1FD429C","title":"上海港国际客运中心1号游艇码头","lon":"121.503768","lat":"31.248825","category":"35","category_name":"长途汽车站","address":"中国上海市虹口区"},{"poiid":"B2094757D16CABFD429F","title":"浦江二号","lon":"121.5048131","lat":"31.248448963","category":"252","category_name":"楼宇机构","address":"上海市浦东新区滨江大道2050号"},{"poiid":"B2094654D56DA4FA409E","title":"高阳商务中心","lon":"121.50376","lat":"31.25102","category":"46","category_name":"楼宇","address":"虹口区东大名路879号"},{"poiid":"B2094757D06AA3FF499C","title":"中国海运","lon":"121.50300508","lat":"31.249953241","category":"46","category_name":"楼宇","address":"上海东大名路700号"},{"poiid":"B2094757D06BABF5469F","title":"白金灣府邸","lon":"121.50593167","lat":"31.25022437","category":"47","category_name":"住宅区","address":"上海海平路18號"},{"poiid":"B2094757D16DA7FA4793","title":"远洋宾馆怡珀璇宫","lon":"121.5092591","lat":"31.252241042","category":"217","category_name":"旅馆招待所","address":"虹口区东大名路1171号远洋宾馆27楼(近霍山路)"},{"poiid":"B2094655D26BAAFF499E","title":"东方海港国际大厦","lon":"121.5085","lat":"31.25176","category":"46","category_name":"楼宇","address":"东大名路1080号"},{"poiid":"B2094751D26BAAFB469B","title":"4号线杨树浦路站","lon":"121.506646","lat":"31.2512858","category":"500","category_name":"未知分类","address":null},{"poiid":"B2094751D464A7FC4999","title":"上海外滩悦榕庄","lon":"121.508204","lat":"31.249116","category":"251","category_name":"出行住宿","address":"中国上海市虹口区海平路19号"},{"poiid":"B2094751DA64A0FE489E","title":"Banyan Tree Shanghai On The Bund","lon":"121.505994","lat":"31.252041","category":"500","category_name":"未知分类","address":"上海市虹口区海平路19号上海悦榕庄"},{"poiid":"B2094655D36CA6F5459C","title":"丹徒路","lon":"121.50511","lat":"31.25103","category":"38","category_name":"公交车站","address":""},{"poiid":"B2094757D16FA0FB4792","title":"韶山湘菜","lon":"121.501586","lat":"31.249933","category":"77","category_name":"湖南菜","address":"虹口区东大名路713号"},{"poiid":"B2094654D56DA4FB459E","title":"晟隆大厦","lon":"121.50245","lat":"31.25159","category":"46","category_name":"楼宇","address":"鲁尔大厦位于铁西兴华南街5号"},{"poiid":"B2094757D66BA2FB419F","title":"松涛","lon":"121.502962","lat":"31.250636","category":"95","category_name":"日本料理","address":"虹口区高阳路168号上海外滩浦华大酒店2楼(近东长治路)"},{"poiid":"B2094753D768A3FB4698","title":"外滩悦蓉庄","lon":"121.506011","lat":"31.250209","category":"500","category_name":"未知分类","address":"上海市 海平路19号"},{"poiid":"B2094757D065A7FE459A","title":"歌诗达号游轮","lon":"121.50376","lat":"31.24992","category":"247","category_name":"餐饮美食","address":"上海虹口区东大名路800号(近高阳路)  "},{"poiid":"B2094655D26EA2FA479B","title":"大湘园","lon":"121.50313243813","lat":"31.250423762667","category":"77","category_name":"湖南菜","address":"虹口区东大名路799号(近高阳路)"},{"poiid":"B2094655D36CA6F4449B","title":"东长治路公平路","lon":"121.5039","lat":"31.2506","category":"38","category_name":"公交车站","address":""},{"poiid":"B2094655D26BA3FD4599","title":"959会所","lon":"121.50521","lat":"31.25114","category":"170","category_name":"KTV","address":"虹口区东大名路959号近四平路;;"},{"poiid":"B2094655D36CA6F4409E","title":"东大名路高阳路","lon":"121.50246","lat":"31.25008","category":"38","category_name":"公交车站","address":""},{"poiid":"B2094655D269AAF5469D","title":"交运高速东大名路客运站","lon":"121.50521","lat":"31.25114","category":"247","category_name":"餐饮美食","address":"虹口区东大名路959号(丹徒路口)"},{"poiid":"B2094655D26AA4F5459D","title":"沪东长途客运总站停车场","lon":"121.50521","lat":"31.25114","category":"247","category_name":"餐饮美食","address":"虹口区东大名路959号(近公平路)"},{"poiid":"B2094757D065A4F54698","title":"临江大厦","lon":"121.505254603","lat":"31.2515369277","category":"252","category_name":"楼宇机构","address":"上海市松江区涞坊路599弄"},{"poiid":"B2094654D56FA1FF419A","title":"招商银行上海新外滩支行","lon":"121.50528","lat":"31.25051","category":"150","category_name":"银行","address":"虹口区东大名路908号(丹徒路东大名路)"},{"poiid":"B2094655D26EAAF4429F","title":"台州海鲜","lon":"121.50655846818","lat":"31.251646474636","category":"247","category_name":"餐饮美食","address":"东大名路959号近公平路"},{"poiid":"B2094654D56DA4F9489A","title":"高阳宾馆","lon":"121.50429","lat":"31.25087","category":"250","category_name":"公园户外","address":"上海东大名路879号"},{"poiid":"B2094757D464A0F9459A","title":"台南担仔面","lon":"121.50247","lat":"31.25113","category":"91","category_name":"台湾菜","address":"虹口区高阳路168号外滩浦华大酒店2楼(近东长治路)"},{"poiid":"B2094757D66FA7F4469B","title":"海平路","lon":"121.506397","lat":"31.250271","category":"500","category_name":"未知分类","address":"上海海平路"},{"poiid":"B2094752D76AA5F44992","title":"悅榕酒廊Banyan Lounge","lon":"121.506072","lat":"31.251753","category":"247","category_name":"餐饮美食","address":"虹口区公平路19号"},{"poiid":"B209475DD169A2FD4598","title":"12号线大连路地铁站","lon":"121.504058","lat":"31.248817","category":"500","category_name":"未知分类","address":"上海市 上海市大连路"},{"poiid":"B2094654DB6BA2FE4798","title":"好德便利No.997","lon":"121.50618","lat":"31.25151","category":"117","category_name":"便民商店/便利店","address":""},{"poiid":"B2094655D26FA1FE459B","title":"临江大厦(北门)","lon":"121.50799","lat":"31.2511","category":"47","category_name":"住宅区","address":"东大名路1062弄"},{"poiid":"B2094750D56CA4F9459E","title":"上海外滩悅榕庄","lon":"121.50667204830165","lat":"31.249798205624163","category":"251","category_name":"出行住宿","address":"虹口区海平路19号"},{"poiid":"B2094757D06FA1FD4592","title":"上海外滩浦华大酒店","lon":"121.50274","lat":"31.25086","category":"213","category_name":"五星级宾馆","address":"上海市虹口区高阳路168号(北外滩地区 近东大名路)"},{"poiid":"B2094757D06FA7FA4993","title":"北外滩","lon":"121.50491413","lat":"31.250150968","category":"260","category_name":"其他","address":"虹口区高阳路(近东大名路)"},{"poiid":"B209475CD564A7F84392","title":"上海滩浦东香格里拉店","lon":"121.50058","lat":"31.23634","category":"119","category_name":"商场","address":"浦东富成路33号香格里拉酒店内大堂层"},{"poiid":"B2094757D06FA6F54893","title":"上海港国际客运中心","lon":"121.50271","lat":"31.24954","category":"35","category_name":"长途汽车站","address":"虹口区东大名路800号(近高阳路)"},{"poiid":"B2094757D06FA5F94593","title":"前城酒家","lon":"121.50457","lat":"31.25358","category":"68","category_name":"快餐厅","address":"虹口区唐山路408号(近丹徒路)"},{"poiid":"B2094757D068A3F54592","title":"金岸大厦","lon":"121.50537716","lat":"31.250616563","category":"46","category_name":"楼宇","address":"丰台学城海鹰路1号,3号"},{"poiid":"B2094757D068ABFF429C","title":"老船长酒吧","lon":"121.502755758","lat":"31.2507747333","category":"172","category_name":"酒吧","address":"虹口区高阳路168号外滩浦华大酒店(东长治路高阳路)"},{"poiid":"B2094757D068A6F4459F","title":"芳庭海鲜酒店","lon":"121.50299835","lat":"31.25","category":"88","category_name":"海鲜酒楼","address":"虹口区东大名路809号(近高阳路)"},{"poiid":"B2094654DA6FA7F8429D","title":"远洋大厦","lon":"121.503","lat":"31.2527","category":"46","category_name":"楼宇","address":"静安区长寿路(万航渡路口)"},{"poiid":"B2094757D068A7FE4598","title":"东大名路","lon":"121.504487","lat":"31.250967","category":"247","category_name":"餐饮美食","address":"上海东大名路"},{"poiid":"B2094757D064A3F8429D","title":"上海建工集团总公司","lon":"121.501623103","lat":"31.2491349775","category":"263","category_name":"公司","address":"上海市虹口区东大名路666号"},{"poiid":"B2094655D26CA6FA429E","title":"公平路轮渡站","lon":"121.50744","lat":"31.24948","category":"34","category_name":"港口码头","address":"公平路60号"},{"poiid":"B2094757D16EA1FB429E","title":"白金湾广场","lon":"121.506182","lat":"31.2502193","category":"500","category_name":"未知分类","address":"相城区阳澄湖西路南、人民路西"},{"poiid":"B2094655D264A6F4409D","title":"上海轮渡游船码头","lon":"121.50722","lat":"31.24959","category":"34","category_name":"港口码头","address":"公平路1"},{"poiid":"B2094757D06FABF9489F","title":"公平路码头摆渡口","lon":"121.50965815","lat":"31.251916889","category":"34","category_name":"港口码头","address":"上海公平路东大名路"},{"poiid":"B2094750DA6FA7FB4198","title":"桔子水晶酒店","lon":"121.502227","lat":"31.252765","category":"251","category_name":"出行住宿","address":"上海市虹口区公平路369号"},{"poiid":"B2094757D06AA2F4479B","title":"航交所","lon":"121.50562865","lat":"31.250870177","category":"500","category_name":"未知分类","address":"上海航交所"},{"poiid":"B2094757D568A1FD429C","title":"上海港国际客运中心1号游艇码头","lon":"121.503768","lat":"31.248825","category":"35","category_name":"长途汽车站","address":"中国上海市虹口区"},{"poiid":"B2094757D16CABFD429F","title":"浦江二号","lon":"121.5048131","lat":"31.248448963","category":"252","category_name":"楼宇机构","address":"上海市浦东新区滨江大道2050号"},{"poiid":"B2094654D56DA4FA409E","title":"高阳商务中心","lon":"121.50376","lat":"31.25102","category":"46","category_name":"楼宇","address":"虹口区东大名路879号"},{"poiid":"B2094757D06AA3FF499C","title":"中国海运","lon":"121.50300508","lat":"31.249953241","category":"46","category_name":"楼宇","address":"上海东大名路700号"},{"poiid":"B2094757D06BABF5469F","title":"白金灣府邸","lon":"121.50593167","lat":"31.25022437","category":"47","category_name":"住宅区","address":"上海海平路18號"},{"poiid":"B2094757D16DA7FA4793","title":"远洋宾馆怡珀璇宫","lon":"121.5092591","lat":"31.252241042","category":"217","category_name":"旅馆招待所","address":"虹口区东大名路1171号远洋宾馆27楼(近霍山路)"},{"poiid":"B2094655D26BAAFF499E","title":"东方海港国际大厦","lon":"121.5085","lat":"31.25176","category":"46","category_name":"楼宇","address":"东大名路1080号"},{"poiid":"B2094751D26BAAFB469B","title":"4号线杨树浦路站","lon":"121.506646","lat":"31.2512858","category":"500","category_name":"未知分类","address":null},{"poiid":"B2094751D464A7FC4999","title":"上海外滩悦榕庄","lon":"121.508204","lat":"31.249116","category":"251","category_name":"出行住宿","address":"中国上海市虹口区海平路19号"},{"poiid":"B2094751DA64A0FE489E","title":"Banyan Tree Shanghai On The Bund","lon":"121.505994","lat":"31.252041","category":"500","category_name":"未知分类","address":"上海市虹口区海平路19号上海悦榕庄"},{"poiid":"B2094655D36CA6F5459C","title":"丹徒路","lon":"121.50511","lat":"31.25103","category":"38","category_name":"公交车站","address":""},{"poiid":"B2094757D16FA0FB4792","title":"韶山湘菜","lon":"121.501586","lat":"31.249933","category":"77","category_name":"湖南菜","address":"虹口区东大名路713号"},{"poiid":"B2094654D56DA4FB459E","title":"晟隆大厦","lon":"121.50245","lat":"31.25159","category":"46","category_name":"楼宇","address":"鲁尔大厦位于铁西兴华南街5号"},{"poiid":"B2094757D66BA2FB419F","title":"松涛","lon":"121.502962","lat":"31.250636","category":"95","category_name":"日本料理","address":"虹口区高阳路168号上海外滩浦华大酒店2楼(近东长治路)"},{"poiid":"B2094753D768A3FB4698","title":"外滩悦蓉庄","lon":"121.506011","lat":"31.250209","category":"500","category_name":"未知分类","address":"上海市 海平路19号"},{"poiid":"B2094757D065A7FE459A","title":"歌诗达号游轮","lon":"121.50376","lat":"31.24992","category":"247","category_name":"餐饮美食","address":"上海虹口区东大名路800号(近高阳路)  "},{"poiid":"B2094655D26EA2FA479B","title":"大湘园","lon":"121.50313243813","lat":"31.250423762667","category":"77","category_name":"湖南菜","address":"虹口区东大名路799号(近高阳路)"},{"poiid":"B2094655D36CA6F4449B","title":"东长治路公平路","lon":"121.5039","lat":"31.2506","category":"38","category_name":"公交车站","address":""},{"poiid":"B2094655D26BA3FD4599","title":"959会所","lon":"121.50521","lat":"31.25114","category":"170","category_name":"KTV","address":"虹口区东大名路959号近四平路;;"},{"poiid":"B2094655D36CA6F4409E","title":"东大名路高阳路","lon":"121.50246","lat":"31.25008","category":"38","category_name":"公交车站","address":""},{"poiid":"B2094655D269AAF5469D","title":"交运高速东大名路客运站","lon":"121.50521","lat":"31.25114","category":"247","category_name":"餐饮美食","address":"虹口区东大名路959号(丹徒路口)"},{"poiid":"B2094655D26AA4F5459D","title":"沪东长途客运总站停车场","lon":"121.50521","lat":"31.25114","category":"247","category_name":"餐饮美食","address":"虹口区东大名路959号(近公平路)"},{"poiid":"B2094757D065A4F54698","title":"临江大厦","lon":"121.505254603","lat":"31.2515369277","category":"252","category_name":"楼宇机构","address":"上海市松江区涞坊路599弄"},{"poiid":"B2094654D56FA1FF419A","title":"招商银行上海新外滩支行","lon":"121.50528","lat":"31.25051","category":"150","category_name":"银行","address":"虹口区东大名路908号(丹徒路东大名路)"},{"poiid":"B2094655D26EAAF4429F","title":"台州海鲜","lon":"121.50655846818","lat":"31.251646474636","category":"247","category_name":"餐饮美食","address":"东大名路959号近公平路"},{"poiid":"B2094654D56DA4F9489A","title":"高阳宾馆","lon":"121.50429","lat":"31.25087","category":"250","category_name":"公园户外","address":"上海东大名路879号"},{"poiid":"B2094757D464A0F9459A","title":"台南担仔面","lon":"121.50247","lat":"31.25113","category":"91","category_name":"台湾菜","address":"虹口区高阳路168号外滩浦华大酒店2楼(近东长治路)"},{"poiid":"B2094757D66FA7F4469B","title":"海平路","lon":"121.506397","lat":"31.250271","category":"500","category_name":"未知分类","address":"上海海平路"},{"poiid":"B2094752D76AA5F44992","title":"悅榕酒廊Banyan Lounge","lon":"121.506072","lat":"31.251753","category":"247","category_name":"餐饮美食","address":"虹口区公平路19号"},{"poiid":"B209475DD169A2FD4598","title":"12号线大连路地铁站","lon":"121.504058","lat":"31.248817","category":"500","category_name":"未知分类","address":"上海市 上海市大连路"},{"poiid":"B2094654DB6BA2FE4798","title":"好德便利No.997","lon":"121.50618","lat":"31.25151","category":"117","category_name":"便民商店/便利店","address":""},{"poiid":"B2094655D26FA1FE459B","title":"临江大厦(北门)","lon":"121.50799","lat":"31.2511","category":"47","category_name":"住宅区","address":"东大名路1062弄"},{"poiid":"B2094750D56CA4F9459E","title":"上海外滩悅榕庄","lon":"121.50667204830165","lat":"31.249798205624163","category":"251","category_name":"出行住宿","address":"虹口区海平路19号"},{"poiid":"B2094757D06FA1FD4592","title":"上海外滩浦华大酒店","lon":"121.50274","lat":"31.25086","category":"213","category_name":"五星级宾馆","address":"上海市虹口区高阳路168号(北外滩地区 近东大名路)"},{"poiid":"B2094757D06FA7FA4993","title":"北外滩","lon":"121.50491413","lat":"31.250150968","category":"260","category_name":"其他","address":"虹口区高阳路(近东大名路)"},{"poiid":"B209475CD564A7F84392","title":"上海滩浦东香格里拉店","lon":"121.50058","lat":"31.23634","category":"119","category_name":"商场","address":"浦东富成路33号香格里拉酒店内大堂层"},{"poiid":"B2094757D06FA6F54893","title":"上海港国际客运中心","lon":"121.50271","lat":"31.24954","category":"35","category_name":"长途汽车站","address":"虹口区东大名路800号(近高阳路)"},{"poiid":"B2094757D06FA5F94593","title":"前城酒家","lon":"121.50457","lat":"31.25358","category":"68","category_name":"快餐厅","address":"虹口区唐山路408号(近丹徒路)"},{"poiid":"B2094757D068A3F54592","title":"金岸大厦","lon":"121.50537716","lat":"31.250616563","category":"46","category_name":"楼宇","address":"丰台学城海鹰路1号,3号"},{"poiid":"B2094757D068ABFF429C","title":"老船长酒吧","lon":"121.502755758","lat":"31.2507747333","category":"172","category_name":"酒吧","address":"虹口区高阳路168号外滩浦华大酒店(东长治路高阳路)"},{"poiid":"B2094757D068A6F4459F","title":"芳庭海鲜酒店","lon":"121.50299835","lat":"31.25","category":"88","category_name":"海鲜酒楼","address":"虹口区东大名路809号(近高阳路)"},{"poiid":"B2094654DA6FA7F8429D","title":"远洋大厦","lon":"121.503","lat":"31.2527","category":"46","category_name":"楼宇","address":"静安区长寿路(万航渡路口)"},{"poiid":"B2094757D068A7FE4598","title":"东大名路","lon":"121.504487","lat":"31.250967","category":"247","category_name":"餐饮美食","address":"上海东大名路"},{"poiid":"B2094757D064A3F8429D","title":"上海建工集团总公司","lon":"121.501623103","lat":"31.2491349775","category":"263","category_name":"公司","address":"上海市虹口区东大名路666号"},{"poiid":"B2094655D26CA6FA429E","title":"公平路轮渡站","lon":"121.50744","lat":"31.24948","category":"34","category_name":"港口码头","address":"公平路60号"},{"poiid":"B2094757D16EA1FB429E","title":"白金湾广场","lon":"121.506182","lat":"31.2502193","category":"500","category_name":"未知分类","address":"相城区阳澄湖西路南、人民路西"},{"poiid":"B2094655D264A6F4409D","title":"上海轮渡游船码头","lon":"121.50722","lat":"31.24959","category":"34","category_name":"港口码头","address":"公平路1"},{"poiid":"B2094757D06FABF9489F","title":"公平路码头摆渡口","lon":"121.50965815","lat":"31.251916889","category":"34","category_name":"港口码头","address":"上海公平路东大名路"},{"poiid":"B2094750DA6FA7FB4198","title":"桔子水晶酒店","lon":"121.502227","lat":"31.252765","category":"251","category_name":"出行住宿","address":"上海市虹口区公平路369号"},{"poiid":"B2094757D06AA2F4479B","title":"航交所","lon":"121.50562865","lat":"31.250870177","category":"500","category_name":"未知分类","address":"上海航交所"},{"poiid":"B2094757D568A1FD429C","title":"上海港国际客运中心1号游艇码头","lon":"121.503768","lat":"31.248825","category":"35","category_name":"长途汽车站","address":"中国上海市虹口区"},{"poiid":"B2094757D16CABFD429F","title":"浦江二号","lon":"121.5048131","lat":"31.248448963","category":"252","category_name":"楼宇机构","address":"上海市浦东新区滨江大道2050号"},{"poiid":"B2094654D56DA4FA409E","title":"高阳商务中心","lon":"121.50376","lat":"31.25102","category":"46","category_name":"楼宇","address":"虹口区东大名路879号"},{"poiid":"B2094757D06AA3FF499C","title":"中国海运","lon":"121.50300508","lat":"31.249953241","category":"46","category_name":"楼宇","address":"上海东大名路700号"},{"poiid":"B2094757D06BABF5469F","title":"白金灣府邸","lon":"121.50593167","lat":"31.25022437","category":"47","category_name":"住宅区","address":"上海海平路18號"},{"poiid":"B2094757D16DA7FA4793","title":"远洋宾馆怡珀璇宫","lon":"121.5092591","lat":"31.252241042","category":"217","category_name":"旅馆招待所","address":"虹口区东大名路1171号远洋宾馆27楼(近霍山路)"},{"poiid":"B2094655D26BAAFF499E","title":"东方海港国际大厦","lon":"121.5085","lat":"31.25176","category":"46","category_name":"楼宇","address":"东大名路1080号"},{"poiid":"B2094751D26BAAFB469B","title":"4号线杨树浦路站","lon":"121.506646","lat":"31.2512858","category":"500","category_name":"未知分类","address":null},{"poiid":"B2094751D464A7FC4999","title":"上海外滩悦榕庄","lon":"121.508204","lat":"31.249116","category":"251","category_name":"出行住宿","address":"中国上海市虹口区海平路19号"},{"poiid":"B2094751DA64A0FE489E","title":"Banyan Tree Shanghai On The Bund","lon":"121.505994","lat":"31.252041","category":"500","category_name":"未知分类","address":"上海市虹口区海平路19号上海悦榕庄"},{"poiid":"B2094655D36CA6F5459C","title":"丹徒路","lon":"121.50511","lat":"31.25103","category":"38","category_name":"公交车站","address":""},{"poiid":"B2094757D16FA0FB4792","title":"韶山湘菜","lon":"121.501586","lat":"31.249933","category":"77","category_name":"湖南菜","address":"虹口区东大名路713号"},{"poiid":"B2094654D56DA4FB459E","title":"晟隆大厦","lon":"121.50245","lat":"31.25159","category":"46","category_name":"楼宇","address":"鲁尔大厦位于铁西兴华南街5号"},{"poiid":"B2094757D66BA2FB419F","title":"松涛","lon":"121.502962","lat":"31.250636","category":"95","category_name":"日本料理","address":"虹口区高阳路168号上海外滩浦华大酒店2楼(近东长治路)"},{"poiid":"B2094753D768A3FB4698","title":"外滩悦蓉庄","lon":"121.506011","lat":"31.250209","category":"500","category_name":"未知分类","address":"上海市 海平路19号"},{"poiid":"B2094757D065A7FE459A","title":"歌诗达号游轮","lon":"121.50376","lat":"31.24992","category":"247","category_name":"餐饮美食","address":"上海虹口区东大名路800号(近高阳路)  "},{"poiid":"B2094655D26EA2FA479B","title":"大湘园","lon":"121.50313243813","lat":"31.250423762667","category":"77","category_name":"湖南菜","address":"虹口区东大名路799号(近高阳路)"},{"poiid":"B2094655D36CA6F4449B","title":"东长治路公平路","lon":"121.5039","lat":"31.2506","category":"38","category_name":"公交车站","address":""},{"poiid":"B2094655D26BA3FD4599","title":"959会所","lon":"121.50521","lat":"31.25114","category":"170","category_name":"KTV","address":"虹口区东大名路959号近四平路;;"},{"poiid":"B2094655D36CA6F4409E","title":"东大名路高阳路","lon":"121.50246","lat":"31.25008","category":"38","category_name":"公交车站","address":""},{"poiid":"B2094655D269AAF5469D","title":"交运高速东大名路客运站","lon":"121.50521","lat":"31.25114","category":"247","category_name":"餐饮美食","address":"虹口区东大名路959号(丹徒路口)"},{"poiid":"B2094655D26AA4F5459D","title":"沪东长途客运总站停车场","lon":"121.50521","lat":"31.25114","category":"247","category_name":"餐饮美食","address":"虹口区东大名路959号(近公平路)"},{"poiid":"B2094757D065A4F54698","title":"临江大厦","lon":"121.505254603","lat":"31.2515369277","category":"252","category_name":"楼宇机构","address":"上海市松江区涞坊路599弄"},{"poiid":"B2094654D56FA1FF419A","title":"招商银行上海新外滩支行","lon":"121.50528","lat":"31.25051","category":"150","category_name":"银行","address":"虹口区东大名路908号(丹徒路东大名路)"},{"poiid":"B2094655D26EAAF4429F","title":"台州海鲜","lon":"121.50655846818","lat":"31.251646474636","category":"247","category_name":"餐饮美食","address":"东大名路959号近公平路"},{"poiid":"B2094654D56DA4F9489A","title":"高阳宾馆","lon":"121.50429","lat":"31.25087","category":"250","category_name":"公园户外","address":"上海东大名路879号"},{"poiid":"B2094757D464A0F9459A","title":"台南担仔面","lon":"121.50247","lat":"31.25113","category":"91","category_name":"台湾菜","address":"虹口区高阳路168号外滩浦华大酒店2楼(近东长治路)"},{"poiid":"B2094757D66FA7F4469B","title":"海平路","lon":"121.506397","lat":"31.250271","category":"500","category_name":"未知分类","address":"上海海平路"},{"poiid":"B2094752D76AA5F44992","title":"悅榕酒廊Banyan Lounge","lon":"121.506072","lat":"31.251753","category":"247","category_name":"餐饮美食","address":"虹口区公平路19号"},{"poiid":"B209475DD169A2FD4598","title":"12号线大连路地铁站","lon":"121.504058","lat":"31.248817","category":"500","category_name":"未知分类","address":"上海市 上海市大连路"},{"poiid":"B2094654DB6BA2FE4798","title":"好德便利No.997","lon":"121.50618","lat":"31.25151","category":"117","category_name":"便民商店/便利店","address":""},{"poiid":"B2094655D26FA1FE459B","title":"临江大厦(北门)","lon":"121.50799","lat":"31.2511","category":"47","category_name":"住宅区","address":"东大名路1062弄"}]