[{"poiid":"B2094654DA6DABFE439D","title":"衡山电影院","lon":"121.440528","lat":"31.197432","category":"178","category_name":"电影院","address":"衡山路838"},{"poiid":"B2094654DB65A1FE489B","title":"徐家汇公园","lon":"121.44232","lat":"31.19693","category":"196","category_name":"公园","address":"上海市肇嘉浜路"},{"poiid":"B2094757D06EAAFD449F","title":"新利查西餐馆(广元路店)","lon":"121.43839813","lat":"31.198795189","category":"94","category_name":"西餐厅","address":"徐汇区广元路196号甲(近天平路)"},{"poiid":"B2094751DA6CA6F84298","title":"initial Restaurant & Wine","lon":"121.441311","lat":"31.197225","category":"247","category_name":"餐饮美食","address":"上海市徐汇区衡山路838-2号1-2层(衡山电影院旁)"},{"poiid":"B2094654DB6AA6F8479F","title":"天平宾馆","lon":"121.43934","lat":"31.19739","category":"215","category_name":"三星级宾馆","address":"徐汇区天平路185号(近衡山路)"},{"poiid":"B2094654DA6DA3FF429B","title":"城开国际大厦","lon":"121.438","lat":"31.1994","category":"46","category_name":"楼宇","address":"宝山区友谊路1588弄"},{"poiid":"B2094757D06BA1FE499A","title":"大蔬WJ","lon":"121.44187058","lat":"31.19594176","category":"89","category_name":"中式素餐馆","address":"上海市徐汇区天平路392号"},{"poiid":"B2094757D068A2FD469D","title":"小紅樓 La Villa Rouge","lon":"121.44154357","lat":"31.198003768","category":"247","category_name":"餐饮美食","address":"中国上海市徐匯區衡山路811号"},{"poiid":"B2094750D56EA6FB429E","title":"新衡山电影院","lon":"121.438407","lat":"31.1975","category":"178","category_name":"电影院","address":"徐汇区衡山路838号(天平路口)"},{"poiid":"B2094757D068A0F4489B","title":"The Park Tavern","lon":"121.4408","lat":"31.1965","category":"500","category_name":"未知分类","address":"徐汇区衡山路840号(近天平路)"},{"poiid":"B2094752D76FAAF5409D","title":"Sunday Brunch","lon":"121.443327","lat":"31.199718","category":"247","category_name":"餐饮美食","address":"上海市徐汇区宛平路189弄1号（近衡山路徐家汇公园）"},{"poiid":"B2094752D265A4FC479F","title":"70后饭吧","lon":"121.438988","lat":"31.197917","category":"247","category_name":"餐饮美食","address":"徐家汇汇金商厦"},{"poiid":"B2094757D66CA4FA469A","title":"新衡山电影院3号厅","lon":"121.442303586","lat":"31.1990408211","category":"178","category_name":"电影院","address":null},{"poiid":"B2094655D268A6FB439C","title":"徐家汇公园运动场","lon":"121.44355","lat":"31.1984","category":"220","category_name":"运动场所","address":""},{"poiid":"B2094655D26BA3FD469E","title":"美华轩","lon":"121.43977","lat":"31.19708","category":"76","category_name":"上海菜","address":"徐汇区天平路245号巾帼园底层(近衡山路)"},{"poiid":"B2094654DA6CAAFD4093","title":"元福大厦","lon":"121.43874095254","lat":"31.19830331843","category":"46","category_name":"楼宇","address":"上海市徐汇区虹桥路188号"},{"poiid":"B2094757D06AA1FE449A","title":"正宜丰","lon":"121.43801933","lat":"31.199464491","category":"257","category_name":"中餐厅","address":"徐汇区天平路137号(康平路与广元路中间)"},{"poiid":"B2094753DA64A6FA4393","title":"港汇恒隆广场","lon":"121.438941","lat":"31.198213","category":"500","category_name":"未知分类","address":"上海市 徐家汇"},{"poiid":"B2094751D565A1FC4499","title":"百嘉乐vshow","lon":"121.438392","lat":"31.198287","category":"248","category_name":"生活娱乐","address":"天钥桥路123号"},{"poiid":"B2094655D268A1FC489C","title":"天平小区","lon":"121.43919","lat":"31.198286","category":"47","category_name":"住宅区","address":"天平路179弄1-32号"},{"poiid":"B2094654DA6DABFE499F","title":"上海交通大学医学院附属国际和平妇幼保健院生殖医学中心","lon":"121.43977","lat":"31.1989","category":"162","category_name":"医院","address":"广元路145"},{"poiid":"B2094757D068AAF54292","title":"辣肉面大王","lon":"121.43841","lat":"31.19983","category":"68","category_name":"快餐厅","address":"徐汇区天平路220号(近康平路)"},{"poiid":"B2094751D364ABFE419C","title":"大蔬无界 美素馆","lon":"121.440125","lat":"31.19577","category":"247","category_name":"餐饮美食","address":"天平路392号"},{"poiid":"B2094757D064A4F84692","title":"上海交通大学徐汇校区图书馆","lon":"121.43806457","lat":"31.198844909","category":"253","category_name":"校园生活","address":"徐汇区华山路1954号上海交通大学内"},{"poiid":"B2094757D465ABFB4592","title":"豪生酒家","lon":"121.4401481823","lat":"31.198960808646","category":"68","category_name":"快餐厅","address":"徐汇区广元路156号(近天平路)"},{"poiid":"B2094757D16EA3FD449E","title":"余庆路","lon":"121.44194858","lat":"31.198873817","category":"500","category_name":"未知分类","address":"上海徐汇区余庆路"},{"poiid":"B2094752D16CA3F54393","title":"上海港汇恒隆广场5F小辉哥火锅","lon":"121.438755","lat":"31.197921","category":"500","category_name":"未知分类","address":null},{"poiid":"B2094654DB69A6F54298","title":"瑞尔齿科(徐家汇诊所)","lon":"121.43977","lat":"31.19708","category":"162","category_name":"医院","address":"徐汇区天平路245号巾帼园201"},{"poiid":"B2094757D469A3FE4893","title":"广元路村夫烤鱼","lon":"121.44056","lat":"31.19932","category":"68","category_name":"快餐厅","address":"徐汇区广元路289号(近天平路)"},{"poiid":"B2094757D065A0FF459B","title":"汇金百货B1超市","lon":"121.438954586","lat":"31.1975307916","category":"118","category_name":"超级市场","address":"上海肇嘉浜路1000号"},{"poiid":"B2094757D069A1FD439F","title":"市委机关第一幼儿园","lon":"121.4410631","lat":"31.198131264","category":"57","category_name":"幼儿园","address":"上海余庆路190号"},{"poiid":"B2094757D66BA3F94298","title":"村夫烤鱼 广元路店","lon":"121.43862","lat":"31.19887","category":"68","category_name":"快餐厅","address":"徐汇区广元路196号(近天平路)"},{"poiid":"B2094757D169A0F9499B","title":"九号线徐家汇15号出口","lon":"121.440753686","lat":"31.1989666197","category":"500","category_name":"未知分类","address":"上海华山路"},{"poiid":"B2094750DA6BA4FB419E","title":"港丽","lon":"121.441497","lat":"31.198242","category":"249","category_name":"购物服务","address":"港汇广场"},{"poiid":"B2094750D66AABFB4999","title":"港汇广场longchamp","lon":"121.440254","lat":"31.198394","category":"500","category_name":"未知分类","address":"虹桥路1号"},{"poiid":"B2094654DA6DABFE499B","title":"上海市计划生育技术指导所","lon":"121.43977","lat":"31.19891","category":"162","category_name":"医院","address":"广元路145"},{"poiid":"B2094757D069A2F9409F","title":"台金兰 徐汇店","lon":"121.438875054","lat":"31.197519793","category":"68","category_name":"快餐厅","address":"徐汇区天平路290号(近衡山路)"},{"poiid":"B2094750DB6FA5F9449F","title":"港汇广场5楼","lon":"121.438949","lat":"31.19844","category":"247","category_name":"餐饮美食","address":null},{"poiid":"B2094757D16EAAF5489B","title":"徐家汇公园儿童乐园","lon":"121.443157586","lat":"31.1997056341","category":"196","category_name":"公园","address":"上海肇嘉浜路天平路"},{"poiid":"B2094750DA64A0F8429F","title":"Godiva","lon":"121.438926","lat":"31.198425","category":"247","category_name":"餐饮美食","address":"虹桥路1号"},{"poiid":"B2094654DA6DABFE4999","title":"中国计划生育技术指导中心","lon":"121.43976","lat":"31.19891","category":"162","category_name":"医院","address":"广元路145"},{"poiid":"B2094752D568A7FA4493","title":"pizzamarzano","lon":"121.438778","lat":"31.197621","category":"247","category_name":"餐饮美食","address":"港汇广场"},{"poiid":"B2094757D16BA1F94992","title":"建工锦江","lon":"121.440443746","lat":"31.1981699841","category":"500","category_name":"未知分类","address":"建国西路691号建工锦江大酒店2楼"},{"poiid":"B2094757D064A1FB439B","title":"秦淮坊一品灌汤包(广元路店)","lon":"121.4386","lat":"31.19852","category":"68","category_name":"快餐厅","address":"徐汇区广元路196号(近天平路)"},{"poiid":"B2094757D06BA2FC479C","title":"華山路廣元路路口","lon":"121.439448","lat":"31.199027","category":"500","category_name":"未知分类","address":"上海華山路廣元路路口"},{"poiid":"B2094757D66EA5F4479B","title":"天平路街道图书馆","lon":"121.44138","lat":"31.19931","category":"181","category_name":"图书馆","address":"上海徐汇区广元路153号3楼(近天平路)  "},{"poiid":"B2094655D265A0FB459B","title":"宁村(南门)","lon":"121.43968","lat":"31.19917","category":"47","category_name":"住宅区","address":"广元路158弄1-21号"},{"poiid":"B2094757D06BA7FB4299","title":"宛平南路肇嘉浜路","lon":"121.441858","lat":"31.198515","category":"500","category_name":"未知分类","address":"上海宛平路"},{"poiid":"B2094757D064A5FD4998","title":"汉方紫鼎会馆","lon":"121.439772","lat":"31.197087","category":"500","category_name":"未知分类","address":"徐汇区天平路245号巾帼园大楼B1楼(近广元路)"},{"poiid":"B2094757D165ABF9499D","title":"佳佳小厨面饭餐厅","lon":"121.440262586","lat":"31.1991918241","category":"500","category_name":"未知分类","address":"上海市徐汇区广元路139号"},{"poiid":"B2094654DA6DABFE439D","title":"衡山电影院","lon":"121.440528","lat":"31.197432","category":"178","category_name":"电影院","address":"衡山路838"},{"poiid":"B2094654DB65A1FE489B","title":"徐家汇公园","lon":"121.44232","lat":"31.19693","category":"196","category_name":"公园","address":"上海市肇嘉浜路"},{"poiid":"B2094757D06EAAFD449F","title":"新利查西餐馆(广元路店)","lon":"121.43839813","lat":"31.198795189","category":"94","category_name":"西餐厅","address":"徐汇区广元路196号甲(近天平路)"},{"poiid":"B2094751DA6CA6F84298","title":"initial Restaurant & Wine","lon":"121.441311","lat":"31.197225","category":"247","category_name":"餐饮美食","address":"上海市徐汇区衡山路838-2号1-2层(衡山电影院旁)"},{"poiid":"B2094654DB6AA6F8479F","title":"天平宾馆","lon":"121.43934","lat":"31.19739","category":"215","category_name":"三星级宾馆","address":"徐汇区天平路185号(近衡山路)"},{"poiid":"B2094654DA6DA3FF429B","title":"城开国际大厦","lon":"121.438","lat":"31.1994","category":"46","category_name":"楼宇","address":"宝山区友谊路1588弄"},{"poiid":"B2094757D06BA1FE499A","title":"大蔬WJ","lon":"121.44187058","lat":"31.19594176","category":"89","category_name":"中式素餐馆","address":"上海市徐汇区天平路392号"},{"poiid":"B2094757D068A2FD469D","title":"小紅樓 La Villa Rouge","lon":"121.44154357","lat":"31.198003768","category":"247","category_name":"餐饮美食","address":"中国上海市徐匯區衡山路811号"},{"poiid":"B2094750D56EA6FB429E","title":"新衡山电影院","lon":"121.438407","lat":"31.1975","category":"178","category_name":"电影院","address":"徐汇区衡山路838号(天平路口)"},{"poiid":"B2094757D068A0F4489B","title":"The Park Tavern","lon":"121.4408","lat":"31.1965","category":"500","category_name":"未知分类","address":"徐汇区衡山路840号(近天平路)"},{"poiid":"B2094752D76FAAF5409D","title":"Sunday Brunch","lon":"121.443327","lat":"31.199718","category":"247","category_name":"餐饮美食","address":"上海市徐汇区宛平路189弄1号（近衡山路徐家汇公园）"},{"poiid":"B2094752D265A4FC479F","title":"70后饭吧","lon":"121.438988","lat":"31.197917","category":"247","category_name":"餐饮美食","address":"徐家汇汇金商厦"},{"poiid":"B2094757D66CA4FA469A","title":"新衡山电影院3号厅","lon":"121.442303586","lat":"31.1990408211","category":"178","category_name":"电影院","address":null},{"poiid":"B2094655D268A6FB439C","title":"徐家汇公园运动场","lon":"121.44355","lat":"31.1984","category":"220","category_name":"运动场所","address":""},{"poiid":"B2094655D26BA3FD469E","title":"美华轩","lon":"121.43977","lat":"31.19708","category":"76","category_name":"上海菜","address":"徐汇区天平路245号巾帼园底层(近衡山路)"},{"poiid":"B2094654DA6CAAFD4093","title":"元福大厦","lon":"121.43874095254","lat":"31.19830331843","category":"46","category_name":"楼宇","address":"上海市徐汇区虹桥路188号"},{"poiid":"B2094757D06AA1FE449A","title":"正宜丰","lon":"121.43801933","lat":"31.199464491","category":"257","category_name":"中餐厅","address":"徐汇区天平路137号(康平路与广元路中间)"},{"poiid":"B2094753DA64A6FA4393","title":"港汇恒隆广场","lon":"121.438941","lat":"31.198213","category":"500","category_name":"未知分类","address":"上海市 徐家汇"},{"poiid":"B2094751D565A1FC4499","title":"百嘉乐vshow","lon":"121.438392","lat":"31.198287","category":"248","category_name":"生活娱乐","address":"天钥桥路123号"},{"poiid":"B2094655D268A1FC489C","title":"天平小区","lon":"121.43919","lat":"31.198286","category":"47","category_name":"住宅区","address":"天平路179弄1-32号"},{"poiid":"B2094654DA6DABFE499F","title":"上海交通大学医学院附属国际和平妇幼保健院生殖医学中心","lon":"121.43977","lat":"31.1989","category":"162","category_name":"医院","address":"广元路145"},{"poiid":"B2094757D068AAF54292","title":"辣肉面大王","lon":"121.43841","lat":"31.19983","category":"68","category_name":"快餐厅","address":"徐汇区天平路220号(近康平路)"},{"poiid":"B2094751D364ABFE419C","title":"大蔬无界 美素馆","lon":"121.440125","lat":"31.19577","category":"247","category_name":"餐饮美食","address":"天平路392号"},{"poiid":"B2094757D064A4F84692","title":"上海交通大学徐汇校区图书馆","lon":"121.43806457","lat":"31.198844909","category":"253","category_name":"校园生活","address":"徐汇区华山路1954号上海交通大学内"},{"poiid":"B2094757D465ABFB4592","title":"豪生酒家","lon":"121.4401481823","lat":"31.198960808646","category":"68","category_name":"快餐厅","address":"徐汇区广元路156号(近天平路)"},{"poiid":"B2094757D16EA3FD449E","title":"余庆路","lon":"121.44194858","lat":"31.198873817","category":"500","category_name":"未知分类","address":"上海徐汇区余庆路"},{"poiid":"B2094752D16CA3F54393","title":"上海港汇恒隆广场5F小辉哥火锅","lon":"121.438755","lat":"31.197921","category":"500","category_name":"未知分类","address":null},{"poiid":"B2094654DB69A6F54298","title":"瑞尔齿科(徐家汇诊所)","lon":"121.43977","lat":"31.19708","category":"162","category_name":"医院","address":"徐汇区天平路245号巾帼园201"},{"poiid":"B2094757D469A3FE4893","title":"广元路村夫烤鱼","lon":"121.44056","lat":"31.19932","category":"68","category_name":"快餐厅","address":"徐汇区广元路289号(近天平路)"},{"poiid":"B2094757D065A0FF459B","title":"汇金百货B1超市","lon":"121.438954586","lat":"31.1975307916","category":"118","category_name":"超级市场","address":"上海肇嘉浜路1000号"},{"poiid":"B2094757D069A1FD439F","title":"市委机关第一幼儿园","lon":"121.4410631","lat":"31.198131264","category":"57","category_name":"幼儿园","address":"上海余庆路190号"},{"poiid":"B2094757D66BA3F94298","title":"村夫烤鱼 广元路店","lon":"121.43862","lat":"31.19887","category":"68","category_name":"快餐厅","address":"徐汇区广元路196号(近天平路)"},{"poiid":"B2094757D169A0F9499B","title":"九号线徐家汇15号出口","lon":"121.440753686","lat":"31.1989666197","category":"500","category_name":"未知分类","address":"上海华山路"},{"poiid":"B2094750DA6BA4FB419E","title":"港丽","lon":"121.441497","lat":"31.198242","category":"249","category_name":"购物服务","address":"港汇广场"},{"poiid":"B2094750D66AABFB4999","title":"港汇广场longchamp","lon":"121.440254","lat":"31.198394","category":"500","category_name":"未知分类","address":"虹桥路1号"},{"poiid":"B2094654DA6DABFE499B","title":"上海市计划生育技术指导所","lon":"121.43977","lat":"31.19891","category":"162","category_name":"医院","address":"广元路145"},{"poiid":"B2094757D069A2F9409F","title":"台金兰 徐汇店","lon":"121.438875054","lat":"31.197519793","category":"68","category_name":"快餐厅","address":"徐汇区天平路290号(近衡山路)"},{"poiid":"B2094750DB6FA5F9449F","title":"港汇广场5楼","lon":"121.438949","lat":"31.19844","category":"247","category_name":"餐饮美食","address":null},{"poiid":"B2094757D16EAAF5489B","title":"徐家汇公园儿童乐园","lon":"121.443157586","lat":"31.1997056341","category":"196","category_name":"公园","address":"上海肇嘉浜路天平路"},{"poiid":"B2094750DA64A0F8429F","title":"Godiva","lon":"121.438926","lat":"31.198425","category":"247","category_name":"餐饮美食","address":"虹桥路1号"},{"poiid":"B2094654DA6DABFE4999","title":"中国计划生育技术指导中心","lon":"121.43976","lat":"31.19891","category":"162","category_name":"医院","address":"广元路145"},{"poiid":"B2094752D568A7FA4493","title":"pizzamarzano","lon":"121.438778","lat":"31.197621","category":"247","category_name":"餐饮美食","address":"港汇广场"},{"poiid":"B2094757D16BA1F94992","title":"建工锦江","lon":"121.440443746","lat":"31.1981699841","category":"500","category_name":"未知分类","address":"建国西路691号建工锦江大酒店2楼"},{"poiid":"B2094757D064A1FB439B","title":"秦淮坊一品灌汤包(广元路店)","lon":"121.4386","lat":"31.19852","category":"68","category_name":"快餐厅","address":"徐汇区广元路196号(近天平路)"},{"poiid":"B2094757D06BA2FC479C","title":"華山路廣元路路口","lon":"121.439448","lat":"31.199027","category":"500","category_name":"未知分类","address":"上海華山路廣元路路口"},{"poiid":"B2094757D66EA5F4479B","title":"天平路街道图书馆","lon":"121.44138","lat":"31.19931","category":"181","category_name":"图书馆","address":"上海徐汇区广元路153号3楼(近天平路)  "},{"poiid":"B2094655D265A0FB459B","title":"宁村(南门)","lon":"121.43968","lat":"31.19917","category":"47","category_name":"住宅区","address":"广元路158弄1-21号"},{"poiid":"B2094757D06BA7FB4299","title":"宛平南路肇嘉浜路","lon":"121.441858","lat":"31.198515","category":"500","category_name":"未知分类","address":"上海宛平路"},{"poiid":"B2094757D064A5FD4998","title":"汉方紫鼎会馆","lon":"121.439772","lat":"31.197087","category":"500","category_name":"未知分类","address":"徐汇区天平路245号巾帼园大楼B1楼(近广元路)"},{"poiid":"B2094757D165ABF9499D","title":"佳佳小厨面饭餐厅","lon":"121.440262586","lat":"31.1991918241","category":"500","category_name":"未知分类","address":"上海市徐汇区广元路139号"},{"poiid":"B2094654DA6DABFE439D","title":"衡山电影院","lon":"121.440528","lat":"31.197432","category":"178","category_name":"电影院","address":"衡山路838"},{"poiid":"B2094654DB65A1FE489B","title":"徐家汇公园","lon":"121.44232","lat":"31.19693","category":"196","category_name":"公园","address":"上海市肇嘉浜路"},{"poiid":"B2094757D06EAAFD449F","title":"新利查西餐馆(广元路店)","lon":"121.43839813","lat":"31.198795189","category":"94","category_name":"西餐厅","address":"徐汇区广元路196号甲(近天平路)"},{"poiid":"B2094751DA6CA6F84298","title":"initial Restaurant & Wine","lon":"121.441311","lat":"31.197225","category":"247","category_name":"餐饮美食","address":"上海市徐汇区衡山路838-2号1-2层(衡山电影院旁)"},{"poiid":"B2094654DB6AA6F8479F","title":"天平宾馆","lon":"121.43934","lat":"31.19739","category":"215","category_name":"三星级宾馆","address":"徐汇区天平路185号(近衡山路)"},{"poiid":"B2094654DA6DA3FF429B","title":"城开国际大厦","lon":"121.438","lat":"31.1994","category":"46","category_name":"楼宇","address":"宝山区友谊路1588弄"},{"poiid":"B2094757D06BA1FE499A","title":"大蔬WJ","lon":"121.44187058","lat":"31.19594176","category":"89","category_name":"中式素餐馆","address":"上海市徐汇区天平路392号"},{"poiid":"B2094757D068A2FD469D","title":"小紅樓 La Villa Rouge","lon":"121.44154357","lat":"31.198003768","category":"247","category_name":"餐饮美食","address":"中国上海市徐匯區衡山路811号"},{"poiid":"B2094750D56EA6FB429E","title":"新衡山电影院","lon":"121.438407","lat":"31.1975","category":"178","category_name":"电影院","address":"徐汇区衡山路838号(天平路口)"},{"poiid":"B2094757D068A0F4489B","title":"The Park Tavern","lon":"121.4408","lat":"31.1965","category":"500","category_name":"未知分类","address":"徐汇区衡山路840号(近天平路)"},{"poiid":"B2094752D76FAAF5409D","title":"Sunday Brunch","lon":"121.443327","lat":"31.199718","category":"247","category_name":"餐饮美食","address":"上海市徐汇区宛平路189弄1号（近衡山路徐家汇公园）"},{"poiid":"B2094752D265A4FC479F","title":"70后饭吧","lon":"121.438988","lat":"31.197917","category":"247","category_name":"餐饮美食","address":"徐家汇汇金商厦"},{"poiid":"B2094757D66CA4FA469A","title":"新衡山电影院3号厅","lon":"121.442303586","lat":"31.1990408211","category":"178","category_name":"电影院","address":null},{"poiid":"B2094655D268A6FB439C","title":"徐家汇公园运动场","lon":"121.44355","lat":"31.1984","category":"220","category_name":"运动场所","address":""},{"poiid":"B2094655D26BA3FD469E","title":"美华轩","lon":"121.43977","lat":"31.19708","category":"76","category_name":"上海菜","address":"徐汇区天平路245号巾帼园底层(近衡山路)"},{"poiid":"B2094654DA6CAAFD4093","title":"元福大厦","lon":"121.43874095254","lat":"31.19830331843","category":"46","category_name":"楼宇","address":"上海市徐汇区虹桥路188号"},{"poiid":"B2094757D06AA1FE449A","title":"正宜丰","lon":"121.43801933","lat":"31.199464491","category":"257","category_name":"中餐厅","address":"徐汇区天平路137号(康平路与广元路中间)"},{"poiid":"B2094753DA64A6FA4393","title":"港汇恒隆广场","lon":"121.438941","lat":"31.198213","category":"500","category_name":"未知分类","address":"上海市 徐家汇"},{"poiid":"B2094751D565A1FC4499","title":"百嘉乐vshow","lon":"121.438392","lat":"31.198287","category":"248","category_name":"生活娱乐","address":"天钥桥路123号"},{"poiid":"B2094655D268A1FC489C","title":"天平小区","lon":"121.43919","lat":"31.198286","category":"47","category_name":"住宅区","address":"天平路179弄1-32号"},{"poiid":"B2094654DA6DABFE499F","title":"上海交通大学医学院附属国际和平妇幼保健院生殖医学中心","lon":"121.43977","lat":"31.1989","category":"162","category_name":"医院","address":"广元路145"},{"poiid":"B2094757D068AAF54292","title":"辣肉面大王","lon":"121.43841","lat":"31.19983","category":"68","category_name":"快餐厅","address":"徐汇区天平路220号(近康平路)"},{"poiid":"B2094751D364ABFE419C","title":"大蔬无界 美素馆","lon":"121.440125","lat":"31.19577","category":"247","category_name":"餐饮美食","address":"天平路392号"},{"poiid":"B2094757D064A4F84692","title":"上海交通大学徐汇校区图书馆","lon":"121.43806457","lat":"31.198844909","category":"253","category_name":"校园生活","address":"徐汇区华山路1954号上海交通大学内"},{"poiid":"B2094757D465ABFB4592","title":"豪生酒家","lon":"121.4401481823","lat":"31.198960808646","category":"68","category_name":"快餐厅","address":"徐汇区广元路156号(近天平路)"},{"poiid":"B2094757D16EA3FD449E","title":"余庆路","lon":"121.44194858","lat":"31.198873817","category":"500","category_name":"未知分类","address":"上海徐汇区余庆路"},{"poiid":"B2094752D16CA3F54393","title":"上海港汇恒隆广场5F小辉哥火锅","lon":"121.438755","lat":"31.197921","category":"500","category_name":"未知分类","address":null},{"poiid":"B2094654DB69A6F54298","title":"瑞尔齿科(徐家汇诊所)","lon":"121.43977","lat":"31.19708","category":"162","category_name":"医院","address":"徐汇区天平路245号巾帼园201"},{"poiid":"B2094757D469A3FE4893","title":"广元路村夫烤鱼","lon":"121.44056","lat":"31.19932","category":"68","category_name":"快餐厅","address":"徐汇区广元路289号(近天平路)"},{"poiid":"B2094757D065A0FF459B","title":"汇金百货B1超市","lon":"121.438954586","lat":"31.1975307916","category":"118","category_name":"超级市场","address":"上海肇嘉浜路1000号"},{"poiid":"B2094757D069A1FD439F","title":"市委机关第一幼儿园","lon":"121.4410631","lat":"31.198131264","category":"57","category_name":"幼儿园","address":"上海余庆路190号"},{"poiid":"B2094757D66BA3F94298","title":"村夫烤鱼 广元路店","lon":"121.43862","lat":"31.19887","category":"68","category_name":"快餐厅","address":"徐汇区广元路196号(近天平路)"},{"poiid":"B2094757D169A0F9499B","title":"九号线徐家汇15号出口","lon":"121.440753686","lat":"31.1989666197","category":"500","category_name":"未知分类","address":"上海华山路"},{"poiid":"B2094750DA6BA4FB419E","title":"港丽","lon":"121.441497","lat":"31.198242","category":"249","category_name":"购物服务","address":"港汇广场"},{"poiid":"B2094750D66AABFB4999","title":"港汇广场longchamp","lon":"121.440254","lat":"31.198394","category":"500","category_name":"未知分类","address":"虹桥路1号"},{"poiid":"B2094654DA6DABFE499B","title":"上海市计划生育技术指导所","lon":"121.43977","lat":"31.19891","category":"162","category_name":"医院","address":"广元路145"},{"poiid":"B2094757D069A2F9409F","title":"台金兰 徐汇店","lon":"121.438875054","lat":"31.197519793","category":"68","category_name":"快餐厅","address":"徐汇区天平路290号(近衡山路)"},{"poiid":"B2094750DB6FA5F9449F","title":"港汇广场5楼","lon":"121.438949","lat":"31.19844","category":"247","category_name":"餐饮美食","address":null},{"poiid":"B2094757D16EAAF5489B","title":"徐家汇公园儿童乐园","lon":"121.443157586","lat":"31.1997056341","category":"196","category_name":"公园","address":"上海肇嘉浜路天平路"},{"poiid":"B2094750DA64A0F8429F","title":"Godiva","lon":"121.438926","lat":"31.198425","category":"247","category_name":"餐饮美食","address":"虹桥路1号"},{"poiid":"B2094654DA6DABFE4999","title":"中国计划生育技术指导中心","lon":"121.43976","lat":"31.19891","category":"162","category_name":"医院","address":"广元路145"},{"poiid":"B2094752D568A7FA4493","title":"pizzamarzano","lon":"121.438778","lat":"31.197621","category":"247","category_name":"餐饮美食","address":"港汇广场"},{"poiid":"B2094757D16BA1F94992","title":"建工锦江","lon":"121.440443746","lat":"31.1981699841","category":"500","category_name":"未知分类","address":"建国西路691号建工锦江大酒店2楼"},{"poiid":"B2094757D064A1FB439B","title":"秦淮坊一品灌汤包(广元路店)","lon":"121.4386","lat":"31.19852","category":"68","category_name":"快餐厅","address":"徐汇区广元路196号(近天平路)"},{"poiid":"B2094757D06BA2FC479C","title":"華山路廣元路路口","lon":"121.439448","lat":"31.199027","category":"500","category_name":"未知分类","address":"上海華山路廣元路路口"},{"poiid":"B2094757D66EA5F4479B","title":"天平路街道图书馆","lon":"121.44138","lat":"31.19931","category":"181","category_name":"图书馆","address":"上海徐汇区广元路153号3楼(近天平路)  "},{"poiid":"B2094655D265A0FB459B","title":"宁村(南门)","lon":"121.43968","lat":"31.19917","category":"47","category_name":"住宅区","address":"广元路158弄1-21号"},{"poiid":"B2094757D06BA7FB4299","title":"宛平南路肇嘉浜路","lon":"121.441858","lat":"31.198515","category":"500","category_name":"未知分类","address":"上海宛平路"},{"poiid":"B2094757D064A5FD4998","title":"汉方紫鼎会馆","lon":"121.439772","lat":"31.197087","category":"500","category_name":"未知分类","address":"徐汇区天平路245号巾帼园大楼B1楼(近广元路)"},{"poiid":"B2094757D165ABF9499D","title":"佳佳小厨面饭餐厅","lon":"121.440262586","lat":"31.1991918241","category":"500","category_name":"未知分类","address":"上海市徐汇区广元路139号"},{"poiid":"B2094654DA6DABFE439D","title":"衡山电影院","lon":"121.440528","lat":"31.197432","category":"178","category_name":"电影院","address":"衡山路838"},{"poiid":"B2094654DB65A1FE489B","title":"徐家汇公园","lon":"121.44232","lat":"31.19693","category":"196","category_name":"公园","address":"上海市肇嘉浜路"},{"poiid":"B2094757D06EAAFD449F","title":"新利查西餐馆(广元路店)","lon":"121.43839813","lat":"31.198795189","category":"94","category_name":"西餐厅","address":"徐汇区广元路196号甲(近天平路)"},{"poiid":"B2094751DA6CA6F84298","title":"initial Restaurant & Wine","lon":"121.441311","lat":"31.197225","category":"247","category_name":"餐饮美食","address":"上海市徐汇区衡山路838-2号1-2层(衡山电影院旁)"},{"poiid":"B2094654DB6AA6F8479F","title":"天平宾馆","lon":"121.43934","lat":"31.19739","category":"215","category_name":"三星级宾馆","address":"徐汇区天平路185号(近衡山路)"},{"poiid":"B2094654DA6DA3FF429B","title":"城开国际大厦","lon":"121.438","lat":"31.1994","category":"46","category_name":"楼宇","address":"宝山区友谊路1588弄"},{"poiid":"B2094757D06BA1FE499A","title":"大蔬WJ","lon":"121.44187058","lat":"31.19594176","category":"89","category_name":"中式素餐馆","address":"上海市徐汇区天平路392号"},{"poiid":"B2094757D068A2FD469D","title":"小紅樓 La Villa Rouge","lon":"121.44154357","lat":"31.198003768","category":"247","category_name":"餐饮美食","address":"中国上海市徐匯區衡山路811号"},{"poiid":"B2094750D56EA6FB429E","title":"新衡山电影院","lon":"121.438407","lat":"31.1975","category":"178","category_name":"电影院","address":"徐汇区衡山路838号(天平路口)"},{"poiid":"B2094757D068A0F4489B","title":"The Park Tavern","lon":"121.4408","lat":"31.1965","category":"500","category_name":"未知分类","address":"徐汇区衡山路840号(近天平路)"},{"poiid":"B2094752D76FAAF5409D","title":"Sunday Brunch","lon":"121.443327","lat":"31.199718","category":"247","category_name":"餐饮美食","address":"上海市徐汇区宛平路189弄1号（近衡山路徐家汇公园）"},{"poiid":"B2094752D265A4FC479F","title":"70后饭吧","lon":"121.438988","lat":"31.197917","category":"247","category_name":"餐饮美食","address":"徐家汇汇金商厦"},{"poiid":"B2094757D66CA4FA469A","title":"新衡山电影院3号厅","lon":"121.442303586","lat":"31.1990408211","category":"178","category_name":"电影院","address":null},{"poiid":"B2094655D268A6FB439C","title":"徐家汇公园运动场","lon":"121.44355","lat":"31.1984","category":"220","category_name":"运动场所","address":""},{"poiid":"B2094655D26BA3FD469E","title":"美华轩","lon":"121.43977","lat":"31.19708","category":"76","category_name":"上海菜","address":"徐汇区天平路245号巾帼园底层(近衡山路)"},{"poiid":"B2094654DA6CAAFD4093","title":"元福大厦","lon":"121.43874095254","lat":"31.19830331843","category":"46","category_name":"楼宇","address":"上海市徐汇区虹桥路188号"},{"poiid":"B2094757D06AA1FE449A","title":"正宜丰","lon":"121.43801933","lat":"31.199464491","category":"257","category_name":"中餐厅","address":"徐汇区天平路137号(康平路与广元路中间)"},{"poiid":"B2094753DA64A6FA4393","title":"港汇恒隆广场","lon":"121.438941","lat":"31.198213","category":"500","category_name":"未知分类","address":"上海市 徐家汇"},{"poiid":"B2094751D565A1FC4499","title":"百嘉乐vshow","lon":"121.438392","lat":"31.198287","category":"248","category_name":"生活娱乐","address":"天钥桥路123号"},{"poiid":"B2094655D268A1FC489C","title":"天平小区","lon":"121.43919","lat":"31.198286","category":"47","category_name":"住宅区","address":"天平路179弄1-32号"},{"poiid":"B2094654DA6DABFE499F","title":"上海交通大学医学院附属国际和平妇幼保健院生殖医学中心","lon":"121.43977","lat":"31.1989","category":"162","category_name":"医院","address":"广元路145"},{"poiid":"B2094757D068AAF54292","title":"辣肉面大王","lon":"121.43841","lat":"31.19983","category":"68","category_name":"快餐厅","address":"徐汇区天平路220号(近康平路)"},{"poiid":"B2094751D364ABFE419C","title":"大蔬无界 美素馆","lon":"121.440125","lat":"31.19577","category":"247","category_name":"餐饮美食","address":"天平路392号"},{"poiid":"B2094757D064A4F84692","title":"上海交通大学徐汇校区图书馆","lon":"121.43806457","lat":"31.198844909","category":"253","category_name":"校园生活","address":"徐汇区华山路1954号上海交通大学内"},{"poiid":"B2094757D465ABFB4592","title":"豪生酒家","lon":"121.4401481823","lat":"31.198960808646","category":"68","category_name":"快餐厅","address":"徐汇区广元路156号(近天平路)"},{"poiid":"B2094757D16EA3FD449E","title":"余庆路","lon":"121.44194858","lat":"31.198873817","category":"500","category_name":"未知分类","address":"上海徐汇区余庆路"},{"poiid":"B2094752D16CA3F54393","title":"上海港汇恒隆广场5F小辉哥火锅","lon":"121.438755","lat":"31.197921","category":"500","category_name":"未知分类","address":null},{"poiid":"B2094654DB69A6F54298","title":"瑞尔齿科(徐家汇诊所)","lon":"121.43977","lat":"31.19708","category":"162","category_name":"医院","address":"徐汇区天平路245号巾帼园201"},{"poiid":"B2094757D469A3FE4893","title":"广元路村夫烤鱼","lon":"121.44056","lat":"31.19932","category":"68","category_name":"快餐厅","address":"徐汇区广元路289号(近天平路)"},{"poiid":"B2094757D065A0FF459B","title":"汇金百货B1超市","lon":"121.438954586","lat":"31.1975307916","category":"118","category_name":"超级市场","address":"上海肇嘉浜路1000号"},{"poiid":"B2094757D069A1FD439F","title":"市委机关第一幼儿园","lon":"121.4410631","lat":"31.198131264","category":"57","category_name":"幼儿园","address":"上海余庆路190号"},{"poiid":"B2094757D66BA3F94298","title":"村夫烤鱼 广元路店","lon":"121.43862","lat":"31.19887","category":"68","category_name":"快餐厅","address":"徐汇区广元路196号(近天平路)"},{"poiid":"B2094757D169A0F9499B","title":"九号线徐家汇15号出口","lon":"121.440753686","lat":"31.1989666197","category":"500","category_name":"未知分类","address":"上海华山路"},{"poiid":"B2094750DA6BA4FB419E","title":"港丽","lon":"121.441497","lat":"31.198242","category":"249","category_name":"购物服务","address":"港汇广场"},{"poiid":"B2094750D66AABFB4999","title":"港汇广场longchamp","lon":"121.440254","lat":"31.198394","category":"500","category_name":"未知分类","address":"虹桥路1号"},{"poiid":"B2094654DA6DABFE499B","title":"上海市计划生育技术指导所","lon":"121.43977","lat":"31.19891","category":"162","category_name":"医院","address":"广元路145"},{"poiid":"B2094757D069A2F9409F","title":"台金兰 徐汇店","lon":"121.438875054","lat":"31.197519793","category":"68","category_name":"快餐厅","address":"徐汇区天平路290号(近衡山路)"},{"poiid":"B2094750DB6FA5F9449F","title":"港汇广场5楼","lon":"121.438949","lat":"31.19844","category":"247","category_name":"餐饮美食","address":null},{"poiid":"B2094757D16EAAF5489B","title":"徐家汇公园儿童乐园","lon":"121.443157586","lat":"31.1997056341","category":"196","category_name":"公园","address":"上海肇嘉浜路天平路"},{"poiid":"B2094750DA64A0F8429F","title":"Godiva","lon":"121.438926","lat":"31.198425","category":"247","category_name":"餐饮美食","address":"虹桥路1号"},{"poiid":"B2094654DA6DABFE4999","title":"中国计划生育技术指导中心","lon":"121.43976","lat":"31.19891","category":"162","category_name":"医院","address":"广元路145"},{"poiid":"B2094752D568A7FA4493","title":"pizzamarzano","lon":"121.438778","lat":"31.197621","category":"247","category_name":"餐饮美食","address":"港汇广场"},{"poiid":"B2094757D16BA1F94992","title":"建工锦江","lon":"121.440443746","lat":"31.1981699841","category":"500","category_name":"未知分类","address":"建国西路691号建工锦江大酒店2楼"},{"poiid":"B2094757D064A1FB439B","title":"秦淮坊一品灌汤包(广元路店)","lon":"121.4386","lat":"31.19852","category":"68","category_name":"快餐厅","address":"徐汇区广元路196号(近天平路)"},{"poiid":"B2094757D06BA2FC479C","title":"華山路廣元路路口","lon":"121.439448","lat":"31.199027","category":"500","category_name":"未知分类","address":"上海華山路廣元路路口"},{"poiid":"B2094757D66EA5F4479B","title":"天平路街道图书馆","lon":"121.44138","lat":"31.19931","category":"181","category_name":"图书馆","address":"上海徐汇区广元路153号3楼(近天平路)  "},{"poiid":"B2094655D265A0FB459B","title":"宁村(南门)","lon":"121.43968","lat":"31.19917","category":"47","category_name":"住宅区","address":"广元路158弄1-21号"},{"poiid":"B2094757D06BA7FB4299","title":"宛平南路肇嘉浜路","lon":"121.441858","lat":"31.198515","category":"500","category_name":"未知分类","address":"上海宛平路"},{"poiid":"B2094757D064A5FD4998","title":"汉方紫鼎会馆","lon":"121.439772","lat":"31.197087","category":"500","category_name":"未知分类","address":"徐汇区天平路245号巾帼园大楼B1楼(近广元路)"},{"poiid":"B2094757D165ABF9499D","title":"佳佳小厨面饭餐厅","lon":"121.440262586","lat":"31.1991918241","category":"500","category_name":"未知分类","address":"上海市徐汇区广元路139号"}]