[{"poiid":"B2094757D06EAAFF419E","title":"金沙江路地铁站","lon":"121.413113","lat":"31.231701","category":"36","category_name":"地铁站","address":"上海轨道交通 三号线 四号线 轨交金沙江路站 轻轨 3 4"},{"poiid":"B2094655D36CA7FD419F","title":"华东师大","lon":"121.41048","lat":"31.22808","category":"38","category_name":"公交车站","address":""},{"poiid":"B2094751DB6BA4FF469B","title":"Godiva(月星环球港店)","lon":"121.41192","lat":"31.23411","category":"67","category_name":"甜品店","address":"普陀区中山北路3300号月星环球港LIF105号铺(近凯旋北路)"},{"poiid":"B2094753D46AA7F8439B","title":"环球港 global harbor","lon":"121.411529","lat":"31.231267","category":"500","category_name":"未知分类","address":"上海市 宁夏路中山北路"},{"poiid":"B2094753D469A4F4449B","title":"环球港","lon":"121.412582","lat":"31.2332","category":"500","category_name":"未知分类","address":"上海市 普陀区"},{"poiid":"B2094757D06FA1FA409E","title":"中山北路金沙江路路口","lon":"121.409865","lat":"31.230699","category":"260","category_name":"其他","address":"上海中山北路金沙江路路口"},{"poiid":"B2094753D56DA4FE499C","title":"海上国际影城（环球港店）","lon":"121.41167675064844","lat":"31.232325361226586","category":"178","category_name":"电影院","address":"上海市普陀区中山北路3300号环球港4楼"},{"poiid":"B2094655D36DA7F8429A","title":"中山北路华东师大","lon":"121.41023","lat":"31.22893","category":"38","category_name":"公交车站","address":""},{"poiid":"B2094757D068AAFF439B","title":"华师大后门","lon":"121.410097","lat":"31.230933","category":"253","category_name":"校园生活","address":"上海金沙江路"},{"poiid":"B2094654DB6BA7FF409E","title":"克莉丝汀 金沙江路旗舰店","lon":"121.409886054","lat":"31.231223793","category":"112","category_name":"糕饼店","address":"普陀区金沙江路33号(近中山北路)"},{"poiid":"B2094753D46BA2FA449A","title":"斯比特花园（月星环球港店）","lon":"121.411338","lat":"31.233142","category":"47","category_name":"住宅区","address":"上海市 上海市中山北路3300号2楼"},{"poiid":"B2094757D06AA6FA4993","title":"一米香潮汕砂锅粥（凯旋店）","lon":"121.411997586","lat":"31.2286764006","category":"72","category_name":"广东菜","address":"长宁区凯旋北路1600号"},{"poiid":"B2094655D36CA0FE4792","title":"金沙江路","lon":"121.40897","lat":"31.2314","category":"38","category_name":"公交车站","address":""},{"poiid":"B2094757D06FA4FD479B","title":"伸大厦","lon":"121.41031458","lat":"31.229270412","category":"46","category_name":"楼宇","address":"上海中山北路3553号"},{"poiid":"B2094753D464AAFF429B","title":"新旺茶餐厅(月星环球港店)","lon":"121.411415","lat":"31.233217","category":"500","category_name":"未知分类","address":"上海市 月星环球港3F"},{"poiid":"B2094654DB69A4FD489D","title":"锦江之星(华师大店)","lon":"121.41065","lat":"31.23022","category":"216","category_name":"经济型连锁酒店","address":"上海普陀区中山北路3500号5幢(近宁夏路)"},{"poiid":"B209475CD26BA2FD459B","title":"天辣绿色时尚","lon":"121.411506","lat":"31.233102","category":"500","category_name":"未知分类","address":"上海市 中山北路3300号月星环球港4楼 L4059"},{"poiid":"B2094753DA68A2F8429E","title":"环球港宝珠奶酪","lon":"121.410911","lat":"31.231159","category":"500","category_name":"未知分类","address":"上海市 上海市普陀区中山北路3222"},{"poiid":"B2094753DB6FA7F9489B","title":"smiley peat garden","lon":"121.410995","lat":"31.233293","category":"500","category_name":"未知分类","address":"上海市 中山北路3300号月星环球港2楼"},{"poiid":"B2094753D469AAFC439B","title":"环球港","lon":"121.411834","lat":"31.23167","category":"500","category_name":"未知分类","address":"上海市 普陀区中山北路3300电"},{"poiid":"B2094757D06FA4F4419D","title":"华东师范大学 大学生活动中心","lon":"121.41018676","lat":"31.228923797","category":"249","category_name":"购物服务","address":"上海闵行区中山北路3663号华东师范大学中山北路校区"},{"poiid":"B2094757D068A5FD479E","title":"盘湾方舟","lon":"121.41329","lat":"31.23001","category":"76","category_name":"上海菜","address":"普陀区凯旋北路1555弄5号(近宁夏路)"},{"poiid":"B2094655D26AA0F9419A","title":"地铁金沙江路站","lon":"121.41309","lat":"31.23171","category":"36","category_name":"地铁站","address":""},{"poiid":"B209475DD269A2FA4092","title":"太兴餐厅","lon":"121.411796","lat":"31.232086","category":"500","category_name":"未知分类","address":"上海市 环球港"},{"poiid":"B2094757D069A3FD419E","title":"吴记老锅底麻辣火锅(凯旋店)","lon":"121.41347","lat":"31.2306","category":"86","category_name":"火锅店","address":"普陀区凯旋北路1600号(近金沙江路)"},{"poiid":"B2094757D06AA4FE409A","title":"胖阿姨朝鲜冷面","lon":"121.41027358","lat":"31.229402414","category":"247","category_name":"餐饮美食","address":"上海市普陀区中山北路3636号"},{"poiid":"B2094757D068ABF5439E","title":"九香牛蛙店(凯旋北路店)","lon":"121.41244","lat":"31.22907","category":"71","category_name":"四川菜","address":"普陀区凯旋北路1600号(清水湾对面)"},{"poiid":"B209475CDA6AA3FD4698","title":"coco party","lon":"121.411605","lat":"31.231664","category":"500","category_name":"未知分类","address":"上海市 环球港B1017"},{"poiid":"B209475CD66DA6FC479A","title":"居食屋和民（月星环球港店）","lon":"121.412536","lat":"31.233232","category":"247","category_name":"餐饮美食","address":"上海市 中山北路3300号月星环球港B1楼B1047室(近宁夏路)"},{"poiid":"B209475CD564AAF5479B","title":"月星环球港","lon":"121.41011","lat":"31.229398","category":"500","category_name":"未知分类","address":"上海市 中山北路3567号"},{"poiid":"B209475CD16EA4F54093","title":"awfully chocolate","lon":"121.412048","lat":"31.231857","category":"500","category_name":"未知分类","address":"上海市 月星环球港"},{"poiid":"B2094655D26EA2F84892","title":"上海财通坤田汽车销售服务","lon":"121.41171","lat":"31.23074","category":"158","category_name":"汽车销售","address":"普陀区宁夏路777号(凯旋北路宁夏路)"},{"poiid":"B2094654D56BA4FA489D","title":"甜蜜恋人","lon":"121.408980054","lat":"31.231046793","category":"67","category_name":"甜品店","address":"普陀区金沙江路33号(中山北路)"},{"poiid":"B2094655D36CA0FE4693","title":"金沙江路中山北路","lon":"121.4086","lat":"31.23148","category":"38","category_name":"公交车站","address":""},{"poiid":"B2094654D56BA3F9489E","title":"春之声大厦","lon":"121.41134","lat":"31.23399","category":"46","category_name":"楼宇","address":"越秀区广州沿江中路298号"},{"poiid":"B209475CD26BA4FA429B","title":"MS'Teppanyaki峯铁板烧","lon":"121.411483","lat":"31.23314","category":"247","category_name":"餐饮美食","address":"上海市 月星环球港四楼"},{"poiid":"B2094753D664A4FA4093","title":"中山公园站","lon":"121.411003","lat":"31.231197","category":"500","category_name":"未知分类","address":"上海市 中山北路"},{"poiid":"B2094757D065A4FC439F","title":"薇拉之谷","lon":"121.40611","lat":"31.23033","category":"47","category_name":"住宅区","address":"普陀区中山北路3676号(近金沙江路)"},{"poiid":"B209475CD46CA3F5449C","title":"LeCame凯玫丽亚上海环球港店","lon":"121.410116","lat":"31.231069","category":"247","category_name":"餐饮美食","address":"普陀区中山北路3300号月星环球港4楼L4051室"},{"poiid":"B2094654DB6BA6FD489A","title":"上海中汽丰田","lon":"121.41217","lat":"31.23074","category":"159","category_name":"汽车维修","address":"宁夏路711号"},{"poiid":"B209475CD56BA2F44198","title":"天家（月星環球港店）","lon":"121.412597","lat":"31.233264","category":"247","category_name":"餐饮美食","address":"上海市 上海中山北路3300號L3029-3032"},{"poiid":"B2094757D06AA3FA4992","title":"华东师范大学大礼堂","lon":"121.41011553","lat":"31.22816887","category":"253","category_name":"校园生活","address":"上海华东师范大学大礼堂"},{"poiid":"B2094757D16FA4F54592","title":"224路公交车陆家宅站","lon":"121.41025458","lat":"31.231111448","category":"38","category_name":"公交车站","address":"上海市普陀区中山北路武宁路"},{"poiid":"B2094753D46AA1FD469A","title":"土司新语","lon":"121.412765","lat":"31.23281","category":"247","category_name":"餐饮美食","address":"上海市 月星环球港"},{"poiid":"B2094757D06BA5F5479A","title":"中汽丰田4S店","lon":"121.41197458","lat":"31.231055447","category":"500","category_name":"未知分类","address":"上海市普陀区宁夏路711号"},{"poiid":"B2094753D469A4FE4993","title":"上海环港城","lon":"121.411804","lat":"31.231727","category":"47","category_name":"住宅区","address":"上海市 中山北路3300号"},{"poiid":"B209475CD76CA5FB4192","title":"gloria jeans coffee","lon":"121.411582","lat":"31.231664","category":"500","category_name":"未知分类","address":"上海市 环球港"},{"poiid":"B209475DD665A5FF4498","title":"玛加朵520","lon":"121.410423","lat":"31.22929","category":"247","category_name":"餐饮美食","address":"上海市 上海市普陀区中山北路3612号"},{"poiid":"B2094751D56BABFC4798","title":"依桑泰国厨房","lon":"121.412385","lat":"31.229113","category":"247","category_name":"餐饮美食","address":"凯旋北路1758号"},{"poiid":"B2094757D068A3F9459E","title":"清水湾大酒店","lon":"121.41295","lat":"31.22963","category":"217","category_name":"旅馆招待所","address":"普陀区凯旋北路1305号(近宁夏路)"},{"poiid":"B2094757D06EAAFF419E","title":"金沙江路地铁站","lon":"121.413113","lat":"31.231701","category":"36","category_name":"地铁站","address":"上海轨道交通 三号线 四号线 轨交金沙江路站 轻轨 3 4"},{"poiid":"B2094655D36CA7FD419F","title":"华东师大","lon":"121.41048","lat":"31.22808","category":"38","category_name":"公交车站","address":""},{"poiid":"B2094751DB6BA4FF469B","title":"Godiva(月星环球港店)","lon":"121.41192","lat":"31.23411","category":"67","category_name":"甜品店","address":"普陀区中山北路3300号月星环球港LIF105号铺(近凯旋北路)"},{"poiid":"B2094753D46AA7F8439B","title":"环球港 global harbor","lon":"121.411529","lat":"31.231267","category":"500","category_name":"未知分类","address":"上海市 宁夏路中山北路"},{"poiid":"B2094753D469A4F4449B","title":"环球港","lon":"121.412582","lat":"31.2332","category":"500","category_name":"未知分类","address":"上海市 普陀区"},{"poiid":"B2094757D06FA1FA409E","title":"中山北路金沙江路路口","lon":"121.409865","lat":"31.230699","category":"260","category_name":"其他","address":"上海中山北路金沙江路路口"},{"poiid":"B2094753D56DA4FE499C","title":"海上国际影城（环球港店）","lon":"121.41167675064844","lat":"31.232325361226586","category":"178","category_name":"电影院","address":"上海市普陀区中山北路3300号环球港4楼"},{"poiid":"B2094655D36DA7F8429A","title":"中山北路华东师大","lon":"121.41023","lat":"31.22893","category":"38","category_name":"公交车站","address":""},{"poiid":"B2094757D068AAFF439B","title":"华师大后门","lon":"121.410097","lat":"31.230933","category":"253","category_name":"校园生活","address":"上海金沙江路"},{"poiid":"B2094654DB6BA7FF409E","title":"克莉丝汀 金沙江路旗舰店","lon":"121.409886054","lat":"31.231223793","category":"112","category_name":"糕饼店","address":"普陀区金沙江路33号(近中山北路)"},{"poiid":"B2094753D46BA2FA449A","title":"斯比特花园（月星环球港店）","lon":"121.411338","lat":"31.233142","category":"47","category_name":"住宅区","address":"上海市 上海市中山北路3300号2楼"},{"poiid":"B2094757D06AA6FA4993","title":"一米香潮汕砂锅粥（凯旋店）","lon":"121.411997586","lat":"31.2286764006","category":"72","category_name":"广东菜","address":"长宁区凯旋北路1600号"},{"poiid":"B2094655D36CA0FE4792","title":"金沙江路","lon":"121.40897","lat":"31.2314","category":"38","category_name":"公交车站","address":""},{"poiid":"B2094757D06FA4FD479B","title":"伸大厦","lon":"121.41031458","lat":"31.229270412","category":"46","category_name":"楼宇","address":"上海中山北路3553号"},{"poiid":"B2094753D464AAFF429B","title":"新旺茶餐厅(月星环球港店)","lon":"121.411415","lat":"31.233217","category":"500","category_name":"未知分类","address":"上海市 月星环球港3F"},{"poiid":"B2094654DB69A4FD489D","title":"锦江之星(华师大店)","lon":"121.41065","lat":"31.23022","category":"216","category_name":"经济型连锁酒店","address":"上海普陀区中山北路3500号5幢(近宁夏路)"},{"poiid":"B209475CD26BA2FD459B","title":"天辣绿色时尚","lon":"121.411506","lat":"31.233102","category":"500","category_name":"未知分类","address":"上海市 中山北路3300号月星环球港4楼 L4059"},{"poiid":"B2094753DA68A2F8429E","title":"环球港宝珠奶酪","lon":"121.410911","lat":"31.231159","category":"500","category_name":"未知分类","address":"上海市 上海市普陀区中山北路3222"},{"poiid":"B2094753DB6FA7F9489B","title":"smiley peat garden","lon":"121.410995","lat":"31.233293","category":"500","category_name":"未知分类","address":"上海市 中山北路3300号月星环球港2楼"},{"poiid":"B2094753D469AAFC439B","title":"环球港","lon":"121.411834","lat":"31.23167","category":"500","category_name":"未知分类","address":"上海市 普陀区中山北路3300电"},{"poiid":"B2094757D06FA4F4419D","title":"华东师范大学 大学生活动中心","lon":"121.41018676","lat":"31.228923797","category":"249","category_name":"购物服务","address":"上海闵行区中山北路3663号华东师范大学中山北路校区"},{"poiid":"B2094757D068A5FD479E","title":"盘湾方舟","lon":"121.41329","lat":"31.23001","category":"76","category_name":"上海菜","address":"普陀区凯旋北路1555弄5号(近宁夏路)"},{"poiid":"B2094655D26AA0F9419A","title":"地铁金沙江路站","lon":"121.41309","lat":"31.23171","category":"36","category_name":"地铁站","address":""},{"poiid":"B209475DD269A2FA4092","title":"太兴餐厅","lon":"121.411796","lat":"31.232086","category":"500","category_name":"未知分类","address":"上海市 环球港"},{"poiid":"B2094757D069A3FD419E","title":"吴记老锅底麻辣火锅(凯旋店)","lon":"121.41347","lat":"31.2306","category":"86","category_name":"火锅店","address":"普陀区凯旋北路1600号(近金沙江路)"},{"poiid":"B2094757D06AA4FE409A","title":"胖阿姨朝鲜冷面","lon":"121.41027358","lat":"31.229402414","category":"247","category_name":"餐饮美食","address":"上海市普陀区中山北路3636号"},{"poiid":"B2094757D068ABF5439E","title":"九香牛蛙店(凯旋北路店)","lon":"121.41244","lat":"31.22907","category":"71","category_name":"四川菜","address":"普陀区凯旋北路1600号(清水湾对面)"},{"poiid":"B209475CDA6AA3FD4698","title":"coco party","lon":"121.411605","lat":"31.231664","category":"500","category_name":"未知分类","address":"上海市 环球港B1017"},{"poiid":"B209475CD66DA6FC479A","title":"居食屋和民（月星环球港店）","lon":"121.412536","lat":"31.233232","category":"247","category_name":"餐饮美食","address":"上海市 中山北路3300号月星环球港B1楼B1047室(近宁夏路)"},{"poiid":"B209475CD564AAF5479B","title":"月星环球港","lon":"121.41011","lat":"31.229398","category":"500","category_name":"未知分类","address":"上海市 中山北路3567号"},{"poiid":"B209475CD16EA4F54093","title":"awfully chocolate","lon":"121.412048","lat":"31.231857","category":"500","category_name":"未知分类","address":"上海市 月星环球港"},{"poiid":"B2094655D26EA2F84892","title":"上海财通坤田汽车销售服务","lon":"121.41171","lat":"31.23074","category":"158","category_name":"汽车销售","address":"普陀区宁夏路777号(凯旋北路宁夏路)"},{"poiid":"B2094654D56BA4FA489D","title":"甜蜜恋人","lon":"121.408980054","lat":"31.231046793","category":"67","category_name":"甜品店","address":"普陀区金沙江路33号(中山北路)"},{"poiid":"B2094655D36CA0FE4693","title":"金沙江路中山北路","lon":"121.4086","lat":"31.23148","category":"38","category_name":"公交车站","address":""},{"poiid":"B2094654D56BA3F9489E","title":"春之声大厦","lon":"121.41134","lat":"31.23399","category":"46","category_name":"楼宇","address":"越秀区广州沿江中路298号"},{"poiid":"B209475CD26BA4FA429B","title":"MS'Teppanyaki峯铁板烧","lon":"121.411483","lat":"31.23314","category":"247","category_name":"餐饮美食","address":"上海市 月星环球港四楼"},{"poiid":"B2094753D664A4FA4093","title":"中山公园站","lon":"121.411003","lat":"31.231197","category":"500","category_name":"未知分类","address":"上海市 中山北路"},{"poiid":"B2094757D065A4FC439F","title":"薇拉之谷","lon":"121.40611","lat":"31.23033","category":"47","category_name":"住宅区","address":"普陀区中山北路3676号(近金沙江路)"},{"poiid":"B209475CD46CA3F5449C","title":"LeCame凯玫丽亚上海环球港店","lon":"121.410116","lat":"31.231069","category":"247","category_name":"餐饮美食","address":"普陀区中山北路3300号月星环球港4楼L4051室"},{"poiid":"B2094654DB6BA6FD489A","title":"上海中汽丰田","lon":"121.41217","lat":"31.23074","category":"159","category_name":"汽车维修","address":"宁夏路711号"},{"poiid":"B209475CD56BA2F44198","title":"天家（月星環球港店）","lon":"121.412597","lat":"31.233264","category":"247","category_name":"餐饮美食","address":"上海市 上海中山北路3300號L3029-3032"},{"poiid":"B2094757D06AA3FA4992","title":"华东师范大学大礼堂","lon":"121.41011553","lat":"31.22816887","category":"253","category_name":"校园生活","address":"上海华东师范大学大礼堂"},{"poiid":"B2094757D16FA4F54592","title":"224路公交车陆家宅站","lon":"121.41025458","lat":"31.231111448","category":"38","category_name":"公交车站","address":"上海市普陀区中山北路武宁路"},{"poiid":"B2094753D46AA1FD469A","title":"土司新语","lon":"121.412765","lat":"31.23281","category":"247","category_name":"餐饮美食","address":"上海市 月星环球港"},{"poiid":"B2094757D06BA5F5479A","title":"中汽丰田4S店","lon":"121.41197458","lat":"31.231055447","category":"500","category_name":"未知分类","address":"上海市普陀区宁夏路711号"},{"poiid":"B2094753D469A4FE4993","title":"上海环港城","lon":"121.411804","lat":"31.231727","category":"47","category_name":"住宅区","address":"上海市 中山北路3300号"},{"poiid":"B209475CD76CA5FB4192","title":"gloria jeans coffee","lon":"121.411582","lat":"31.231664","category":"500","category_name":"未知分类","address":"上海市 环球港"},{"poiid":"B209475DD665A5FF4498","title":"玛加朵520","lon":"121.410423","lat":"31.22929","category":"247","category_name":"餐饮美食","address":"上海市 上海市普陀区中山北路3612号"},{"poiid":"B2094751D56BABFC4798","title":"依桑泰国厨房","lon":"121.412385","lat":"31.229113","category":"247","category_name":"餐饮美食","address":"凯旋北路1758号"},{"poiid":"B2094757D068A3F9459E","title":"清水湾大酒店","lon":"121.41295","lat":"31.22963","category":"217","category_name":"旅馆招待所","address":"普陀区凯旋北路1305号(近宁夏路)"},{"poiid":"B2094757D06EAAFF419E","title":"金沙江路地铁站","lon":"121.413113","lat":"31.231701","category":"36","category_name":"地铁站","address":"上海轨道交通 三号线 四号线 轨交金沙江路站 轻轨 3 4"},{"poiid":"B2094655D36CA7FD419F","title":"华东师大","lon":"121.41048","lat":"31.22808","category":"38","category_name":"公交车站","address":""},{"poiid":"B2094751DB6BA4FF469B","title":"Godiva(月星环球港店)","lon":"121.41192","lat":"31.23411","category":"67","category_name":"甜品店","address":"普陀区中山北路3300号月星环球港LIF105号铺(近凯旋北路)"},{"poiid":"B2094753D46AA7F8439B","title":"环球港 global harbor","lon":"121.411529","lat":"31.231267","category":"500","category_name":"未知分类","address":"上海市 宁夏路中山北路"},{"poiid":"B2094753D469A4F4449B","title":"环球港","lon":"121.412582","lat":"31.2332","category":"500","category_name":"未知分类","address":"上海市 普陀区"},{"poiid":"B2094757D06FA1FA409E","title":"中山北路金沙江路路口","lon":"121.409865","lat":"31.230699","category":"260","category_name":"其他","address":"上海中山北路金沙江路路口"},{"poiid":"B2094753D56DA4FE499C","title":"海上国际影城（环球港店）","lon":"121.41167675064844","lat":"31.232325361226586","category":"178","category_name":"电影院","address":"上海市普陀区中山北路3300号环球港4楼"},{"poiid":"B2094655D36DA7F8429A","title":"中山北路华东师大","lon":"121.41023","lat":"31.22893","category":"38","category_name":"公交车站","address":""},{"poiid":"B2094757D068AAFF439B","title":"华师大后门","lon":"121.410097","lat":"31.230933","category":"253","category_name":"校园生活","address":"上海金沙江路"},{"poiid":"B2094654DB6BA7FF409E","title":"克莉丝汀 金沙江路旗舰店","lon":"121.409886054","lat":"31.231223793","category":"112","category_name":"糕饼店","address":"普陀区金沙江路33号(近中山北路)"},{"poiid":"B2094753D46BA2FA449A","title":"斯比特花园（月星环球港店）","lon":"121.411338","lat":"31.233142","category":"47","category_name":"住宅区","address":"上海市 上海市中山北路3300号2楼"},{"poiid":"B2094757D06AA6FA4993","title":"一米香潮汕砂锅粥（凯旋店）","lon":"121.411997586","lat":"31.2286764006","category":"72","category_name":"广东菜","address":"长宁区凯旋北路1600号"},{"poiid":"B2094655D36CA0FE4792","title":"金沙江路","lon":"121.40897","lat":"31.2314","category":"38","category_name":"公交车站","address":""},{"poiid":"B2094757D06FA4FD479B","title":"伸大厦","lon":"121.41031458","lat":"31.229270412","category":"46","category_name":"楼宇","address":"上海中山北路3553号"},{"poiid":"B2094753D464AAFF429B","title":"新旺茶餐厅(月星环球港店)","lon":"121.411415","lat":"31.233217","category":"500","category_name":"未知分类","address":"上海市 月星环球港3F"},{"poiid":"B2094654DB69A4FD489D","title":"锦江之星(华师大店)","lon":"121.41065","lat":"31.23022","category":"216","category_name":"经济型连锁酒店","address":"上海普陀区中山北路3500号5幢(近宁夏路)"},{"poiid":"B209475CD26BA2FD459B","title":"天辣绿色时尚","lon":"121.411506","lat":"31.233102","category":"500","category_name":"未知分类","address":"上海市 中山北路3300号月星环球港4楼 L4059"},{"poiid":"B2094753DA68A2F8429E","title":"环球港宝珠奶酪","lon":"121.410911","lat":"31.231159","category":"500","category_name":"未知分类","address":"上海市 上海市普陀区中山北路3222"},{"poiid":"B2094753DB6FA7F9489B","title":"smiley peat garden","lon":"121.410995","lat":"31.233293","category":"500","category_name":"未知分类","address":"上海市 中山北路3300号月星环球港2楼"},{"poiid":"B2094753D469AAFC439B","title":"环球港","lon":"121.411834","lat":"31.23167","category":"500","category_name":"未知分类","address":"上海市 普陀区中山北路3300电"},{"poiid":"B2094757D06FA4F4419D","title":"华东师范大学 大学生活动中心","lon":"121.41018676","lat":"31.228923797","category":"249","category_name":"购物服务","address":"上海闵行区中山北路3663号华东师范大学中山北路校区"},{"poiid":"B2094757D068A5FD479E","title":"盘湾方舟","lon":"121.41329","lat":"31.23001","category":"76","category_name":"上海菜","address":"普陀区凯旋北路1555弄5号(近宁夏路)"},{"poiid":"B2094655D26AA0F9419A","title":"地铁金沙江路站","lon":"121.41309","lat":"31.23171","category":"36","category_name":"地铁站","address":""},{"poiid":"B209475DD269A2FA4092","title":"太兴餐厅","lon":"121.411796","lat":"31.232086","category":"500","category_name":"未知分类","address":"上海市 环球港"},{"poiid":"B2094757D069A3FD419E","title":"吴记老锅底麻辣火锅(凯旋店)","lon":"121.41347","lat":"31.2306","category":"86","category_name":"火锅店","address":"普陀区凯旋北路1600号(近金沙江路)"},{"poiid":"B2094757D06AA4FE409A","title":"胖阿姨朝鲜冷面","lon":"121.41027358","lat":"31.229402414","category":"247","category_name":"餐饮美食","address":"上海市普陀区中山北路3636号"},{"poiid":"B2094757D068ABF5439E","title":"九香牛蛙店(凯旋北路店)","lon":"121.41244","lat":"31.22907","category":"71","category_name":"四川菜","address":"普陀区凯旋北路1600号(清水湾对面)"},{"poiid":"B209475CDA6AA3FD4698","title":"coco party","lon":"121.411605","lat":"31.231664","category":"500","category_name":"未知分类","address":"上海市 环球港B1017"},{"poiid":"B209475CD66DA6FC479A","title":"居食屋和民（月星环球港店）","lon":"121.412536","lat":"31.233232","category":"247","category_name":"餐饮美食","address":"上海市 中山北路3300号月星环球港B1楼B1047室(近宁夏路)"},{"poiid":"B209475CD564AAF5479B","title":"月星环球港","lon":"121.41011","lat":"31.229398","category":"500","category_name":"未知分类","address":"上海市 中山北路3567号"},{"poiid":"B209475CD16EA4F54093","title":"awfully chocolate","lon":"121.412048","lat":"31.231857","category":"500","category_name":"未知分类","address":"上海市 月星环球港"},{"poiid":"B2094655D26EA2F84892","title":"上海财通坤田汽车销售服务","lon":"121.41171","lat":"31.23074","category":"158","category_name":"汽车销售","address":"普陀区宁夏路777号(凯旋北路宁夏路)"},{"poiid":"B2094654D56BA4FA489D","title":"甜蜜恋人","lon":"121.408980054","lat":"31.231046793","category":"67","category_name":"甜品店","address":"普陀区金沙江路33号(中山北路)"},{"poiid":"B2094655D36CA0FE4693","title":"金沙江路中山北路","lon":"121.4086","lat":"31.23148","category":"38","category_name":"公交车站","address":""},{"poiid":"B2094654D56BA3F9489E","title":"春之声大厦","lon":"121.41134","lat":"31.23399","category":"46","category_name":"楼宇","address":"越秀区广州沿江中路298号"},{"poiid":"B209475CD26BA4FA429B","title":"MS'Teppanyaki峯铁板烧","lon":"121.411483","lat":"31.23314","category":"247","category_name":"餐饮美食","address":"上海市 月星环球港四楼"},{"poiid":"B2094753D664A4FA4093","title":"中山公园站","lon":"121.411003","lat":"31.231197","category":"500","category_name":"未知分类","address":"上海市 中山北路"},{"poiid":"B2094757D065A4FC439F","title":"薇拉之谷","lon":"121.40611","lat":"31.23033","category":"47","category_name":"住宅区","address":"普陀区中山北路3676号(近金沙江路)"},{"poiid":"B209475CD46CA3F5449C","title":"LeCame凯玫丽亚上海环球港店","lon":"121.410116","lat":"31.231069","category":"247","category_name":"餐饮美食","address":"普陀区中山北路3300号月星环球港4楼L4051室"},{"poiid":"B2094654DB6BA6FD489A","title":"上海中汽丰田","lon":"121.41217","lat":"31.23074","category":"159","category_name":"汽车维修","address":"宁夏路711号"},{"poiid":"B209475CD56BA2F44198","title":"天家（月星環球港店）","lon":"121.412597","lat":"31.233264","category":"247","category_name":"餐饮美食","address":"上海市 上海中山北路3300號L3029-3032"},{"poiid":"B2094757D06AA3FA4992","title":"华东师范大学大礼堂","lon":"121.41011553","lat":"31.22816887","category":"253","category_name":"校园生活","address":"上海华东师范大学大礼堂"},{"poiid":"B2094757D16FA4F54592","title":"224路公交车陆家宅站","lon":"121.41025458","lat":"31.231111448","category":"38","category_name":"公交车站","address":"上海市普陀区中山北路武宁路"},{"poiid":"B2094753D46AA1FD469A","title":"土司新语","lon":"121.412765","lat":"31.23281","category":"247","category_name":"餐饮美食","address":"上海市 月星环球港"},{"poiid":"B2094757D06BA5F5479A","title":"中汽丰田4S店","lon":"121.41197458","lat":"31.231055447","category":"500","category_name":"未知分类","address":"上海市普陀区宁夏路711号"},{"poiid":"B2094753D469A4FE4993","title":"上海环港城","lon":"121.411804","lat":"31.231727","category":"47","category_name":"住宅区","address":"上海市 中山北路3300号"},{"poiid":"B209475CD76CA5FB4192","title":"gloria jeans coffee","lon":"121.411582","lat":"31.231664","category":"500","category_name":"未知分类","address":"上海市 环球港"},{"poiid":"B209475DD665A5FF4498","title":"玛加朵520","lon":"121.410423","lat":"31.22929","category":"247","category_name":"餐饮美食","address":"上海市 上海市普陀区中山北路3612号"},{"poiid":"B2094751D56BABFC4798","title":"依桑泰国厨房","lon":"121.412385","lat":"31.229113","category":"247","category_name":"餐饮美食","address":"凯旋北路1758号"},{"poiid":"B2094757D068A3F9459E","title":"清水湾大酒店","lon":"121.41295","lat":"31.22963","category":"217","category_name":"旅馆招待所","address":"普陀区凯旋北路1305号(近宁夏路)"},{"poiid":"B2094757D06EAAFF419E","title":"金沙江路地铁站","lon":"121.413113","lat":"31.231701","category":"36","category_name":"地铁站","address":"上海轨道交通 三号线 四号线 轨交金沙江路站 轻轨 3 4"},{"poiid":"B2094655D36CA7FD419F","title":"华东师大","lon":"121.41048","lat":"31.22808","category":"38","category_name":"公交车站","address":""},{"poiid":"B2094751DB6BA4FF469B","title":"Godiva(月星环球港店)","lon":"121.41192","lat":"31.23411","category":"67","category_name":"甜品店","address":"普陀区中山北路3300号月星环球港LIF105号铺(近凯旋北路)"},{"poiid":"B2094753D46AA7F8439B","title":"环球港 global harbor","lon":"121.411529","lat":"31.231267","category":"500","category_name":"未知分类","address":"上海市 宁夏路中山北路"},{"poiid":"B2094753D469A4F4449B","title":"环球港","lon":"121.412582","lat":"31.2332","category":"500","category_name":"未知分类","address":"上海市 普陀区"},{"poiid":"B2094757D06FA1FA409E","title":"中山北路金沙江路路口","lon":"121.409865","lat":"31.230699","category":"260","category_name":"其他","address":"上海中山北路金沙江路路口"},{"poiid":"B2094753D56DA4FE499C","title":"海上国际影城（环球港店）","lon":"121.41167675064844","lat":"31.232325361226586","category":"178","category_name":"电影院","address":"上海市普陀区中山北路3300号环球港4楼"},{"poiid":"B2094655D36DA7F8429A","title":"中山北路华东师大","lon":"121.41023","lat":"31.22893","category":"38","category_name":"公交车站","address":""},{"poiid":"B2094757D068AAFF439B","title":"华师大后门","lon":"121.410097","lat":"31.230933","category":"253","category_name":"校园生活","address":"上海金沙江路"},{"poiid":"B2094654DB6BA7FF409E","title":"克莉丝汀 金沙江路旗舰店","lon":"121.409886054","lat":"31.231223793","category":"112","category_name":"糕饼店","address":"普陀区金沙江路33号(近中山北路)"},{"poiid":"B2094753D46BA2FA449A","title":"斯比特花园（月星环球港店）","lon":"121.411338","lat":"31.233142","category":"47","category_name":"住宅区","address":"上海市 上海市中山北路3300号2楼"},{"poiid":"B2094757D06AA6FA4993","title":"一米香潮汕砂锅粥（凯旋店）","lon":"121.411997586","lat":"31.2286764006","category":"72","category_name":"广东菜","address":"长宁区凯旋北路1600号"},{"poiid":"B2094655D36CA0FE4792","title":"金沙江路","lon":"121.40897","lat":"31.2314","category":"38","category_name":"公交车站","address":""},{"poiid":"B2094757D06FA4FD479B","title":"伸大厦","lon":"121.41031458","lat":"31.229270412","category":"46","category_name":"楼宇","address":"上海中山北路3553号"},{"poiid":"B2094753D464AAFF429B","title":"新旺茶餐厅(月星环球港店)","lon":"121.411415","lat":"31.233217","category":"500","category_name":"未知分类","address":"上海市 月星环球港3F"},{"poiid":"B2094654DB69A4FD489D","title":"锦江之星(华师大店)","lon":"121.41065","lat":"31.23022","category":"216","category_name":"经济型连锁酒店","address":"上海普陀区中山北路3500号5幢(近宁夏路)"},{"poiid":"B209475CD26BA2FD459B","title":"天辣绿色时尚","lon":"121.411506","lat":"31.233102","category":"500","category_name":"未知分类","address":"上海市 中山北路3300号月星环球港4楼 L4059"},{"poiid":"B2094753DA68A2F8429E","title":"环球港宝珠奶酪","lon":"121.410911","lat":"31.231159","category":"500","category_name":"未知分类","address":"上海市 上海市普陀区中山北路3222"},{"poiid":"B2094753DB6FA7F9489B","title":"smiley peat garden","lon":"121.410995","lat":"31.233293","category":"500","category_name":"未知分类","address":"上海市 中山北路3300号月星环球港2楼"},{"poiid":"B2094753D469AAFC439B","title":"环球港","lon":"121.411834","lat":"31.23167","category":"500","category_name":"未知分类","address":"上海市 普陀区中山北路3300电"},{"poiid":"B2094757D06FA4F4419D","title":"华东师范大学 大学生活动中心","lon":"121.41018676","lat":"31.228923797","category":"249","category_name":"购物服务","address":"上海闵行区中山北路3663号华东师范大学中山北路校区"},{"poiid":"B2094757D068A5FD479E","title":"盘湾方舟","lon":"121.41329","lat":"31.23001","category":"76","category_name":"上海菜","address":"普陀区凯旋北路1555弄5号(近宁夏路)"},{"poiid":"B2094655D26AA0F9419A","title":"地铁金沙江路站","lon":"121.41309","lat":"31.23171","category":"36","category_name":"地铁站","address":""},{"poiid":"B209475DD269A2FA4092","title":"太兴餐厅","lon":"121.411796","lat":"31.232086","category":"500","category_name":"未知分类","address":"上海市 环球港"},{"poiid":"B2094757D069A3FD419E","title":"吴记老锅底麻辣火锅(凯旋店)","lon":"121.41347","lat":"31.2306","category":"86","category_name":"火锅店","address":"普陀区凯旋北路1600号(近金沙江路)"},{"poiid":"B2094757D06AA4FE409A","title":"胖阿姨朝鲜冷面","lon":"121.41027358","lat":"31.229402414","category":"247","category_name":"餐饮美食","address":"上海市普陀区中山北路3636号"},{"poiid":"B2094757D068ABF5439E","title":"九香牛蛙店(凯旋北路店)","lon":"121.41244","lat":"31.22907","category":"71","category_name":"四川菜","address":"普陀区凯旋北路1600号(清水湾对面)"},{"poiid":"B209475CDA6AA3FD4698","title":"coco party","lon":"121.411605","lat":"31.231664","category":"500","category_name":"未知分类","address":"上海市 环球港B1017"},{"poiid":"B209475CD66DA6FC479A","title":"居食屋和民（月星环球港店）","lon":"121.412536","lat":"31.233232","category":"247","category_name":"餐饮美食","address":"上海市 中山北路3300号月星环球港B1楼B1047室(近宁夏路)"},{"poiid":"B209475CD564AAF5479B","title":"月星环球港","lon":"121.41011","lat":"31.229398","category":"500","category_name":"未知分类","address":"上海市 中山北路3567号"},{"poiid":"B209475CD16EA4F54093","title":"awfully chocolate","lon":"121.412048","lat":"31.231857","category":"500","category_name":"未知分类","address":"上海市 月星环球港"},{"poiid":"B2094655D26EA2F84892","title":"上海财通坤田汽车销售服务","lon":"121.41171","lat":"31.23074","category":"158","category_name":"汽车销售","address":"普陀区宁夏路777号(凯旋北路宁夏路)"},{"poiid":"B2094654D56BA4FA489D","title":"甜蜜恋人","lon":"121.408980054","lat":"31.231046793","category":"67","category_name":"甜品店","address":"普陀区金沙江路33号(中山北路)"},{"poiid":"B2094655D36CA0FE4693","title":"金沙江路中山北路","lon":"121.4086","lat":"31.23148","category":"38","category_name":"公交车站","address":""},{"poiid":"B2094654D56BA3F9489E","title":"春之声大厦","lon":"121.41134","lat":"31.23399","category":"46","category_name":"楼宇","address":"越秀区广州沿江中路298号"},{"poiid":"B209475CD26BA4FA429B","title":"MS'Teppanyaki峯铁板烧","lon":"121.411483","lat":"31.23314","category":"247","category_name":"餐饮美食","address":"上海市 月星环球港四楼"},{"poiid":"B2094753D664A4FA4093","title":"中山公园站","lon":"121.411003","lat":"31.231197","category":"500","category_name":"未知分类","address":"上海市 中山北路"},{"poiid":"B2094757D065A4FC439F","title":"薇拉之谷","lon":"121.40611","lat":"31.23033","category":"47","category_name":"住宅区","address":"普陀区中山北路3676号(近金沙江路)"},{"poiid":"B209475CD46CA3F5449C","title":"LeCame凯玫丽亚上海环球港店","lon":"121.410116","lat":"31.231069","category":"247","category_name":"餐饮美食","address":"普陀区中山北路3300号月星环球港4楼L4051室"},{"poiid":"B2094654DB6BA6FD489A","title":"上海中汽丰田","lon":"121.41217","lat":"31.23074","category":"159","category_name":"汽车维修","address":"宁夏路711号"},{"poiid":"B209475CD56BA2F44198","title":"天家（月星環球港店）","lon":"121.412597","lat":"31.233264","category":"247","category_name":"餐饮美食","address":"上海市 上海中山北路3300號L3029-3032"},{"poiid":"B2094757D06AA3FA4992","title":"华东师范大学大礼堂","lon":"121.41011553","lat":"31.22816887","category":"253","category_name":"校园生活","address":"上海华东师范大学大礼堂"},{"poiid":"B2094757D16FA4F54592","title":"224路公交车陆家宅站","lon":"121.41025458","lat":"31.231111448","category":"38","category_name":"公交车站","address":"上海市普陀区中山北路武宁路"},{"poiid":"B2094753D46AA1FD469A","title":"土司新语","lon":"121.412765","lat":"31.23281","category":"247","category_name":"餐饮美食","address":"上海市 月星环球港"},{"poiid":"B2094757D06BA5F5479A","title":"中汽丰田4S店","lon":"121.41197458","lat":"31.231055447","category":"500","category_name":"未知分类","address":"上海市普陀区宁夏路711号"},{"poiid":"B2094753D469A4FE4993","title":"上海环港城","lon":"121.411804","lat":"31.231727","category":"47","category_name":"住宅区","address":"上海市 中山北路3300号"},{"poiid":"B209475CD76CA5FB4192","title":"gloria jeans coffee","lon":"121.411582","lat":"31.231664","category":"500","category_name":"未知分类","address":"上海市 环球港"},{"poiid":"B209475DD665A5FF4498","title":"玛加朵520","lon":"121.410423","lat":"31.22929","category":"247","category_name":"餐饮美食","address":"上海市 上海市普陀区中山北路3612号"},{"poiid":"B2094751D56BABFC4798","title":"依桑泰国厨房","lon":"121.412385","lat":"31.229113","category":"247","category_name":"餐饮美食","address":"凯旋北路1758号"},{"poiid":"B2094757D068A3F9459E","title":"清水湾大酒店","lon":"121.41295","lat":"31.22963","category":"217","category_name":"旅馆招待所","address":"普陀区凯旋北路1305号(近宁夏路)"}]