[{"poiid":"B2094757D06FA3FF409F","title":"新九龙塘(兰溪路店)","lon":"121.4018862681055","lat":"31.249494773574355","category":"88","category_name":"海鲜酒楼","address":"普陀区兰溪路419号(近铜川路)"},{"poiid":"B2094757D06FA1FF409B","title":"真如羊肉馆","lon":"121.40147","lat":"31.24845","category":"68","category_name":"快餐厅","address":"普陀区寺前街1号(近兰溪路)"},{"poiid":"B2094654D464AAF5449A","title":"真如寺","lon":"121.40148","lat":"31.24912","category":"244","category_name":"寺庙道观","address":"上海普陀区真如镇后山门5号"},{"poiid":"B2094757D06FA7F9419F","title":"毛胡子牛羊馆","lon":"121.3995","lat":"31.24469","category":"68","category_name":"快餐厅","address":"普陀区武宁路2132号(近杨柳青路)"},{"poiid":"B2094654D464AAF5459E","title":"天上来大酒店","lon":"121.4021632781","lat":"31.248501946268","category":"260","category_name":"其他","address":"普陀区兰溪路436号(近铜川路)"},{"poiid":"B2094757D06FA5F94798","title":"苏武牧羊(普陀店)","lon":"121.39745","lat":"31.24777","category":"86","category_name":"火锅店","address":"普陀区大渡河路1558号(近北石路)"},{"poiid":"B2094757D06FABFA439A","title":"云中酒楼","lon":"121.401710964","lat":"31.2503601854","category":"260","category_name":"其他","address":"普陀区兰溪路455号(近铜川路)"},{"poiid":"B2094757D068A3F5449B","title":"天鸿酒家","lon":"121.40336","lat":"31.25018","category":"260","category_name":"其他","address":"普陀区铜川路947号"},{"poiid":"B2094757D069A7FB4899","title":"普陀中心医院二楼输液室","lon":"121.40099014","lat":"31.246303745","category":"162","category_name":"医院","address":"上海普陀区兰溪路164号普陀中心医内"},{"poiid":"B2094654D464AAF5469C","title":"真如海鲜城","lon":"121.40215941072","lat":"31.248823280602","category":"260","category_name":"其他","address":"普陀区兰溪路437号(近铜川路)"},{"poiid":"B2094654D464AAF5469A","title":"金煌海鲜酒楼","lon":"121.40175","lat":"31.25047","category":"260","category_name":"其他","address":"普陀区兰溪路473号(铜川路口)"},{"poiid":"B2094757D069A5F84292","title":"真如体育场","lon":"121.399510261","lat":"31.2481169398","category":"220","category_name":"运动场所","address":"普陀区北石路208号(近兰溪路)"},{"poiid":"B2094757D069AAFA459A","title":"帝赋苑","lon":"121.40262","lat":"31.24722","category":"72","category_name":"广东菜","address":"普陀区兰溪路277-289号(近北石路)"},{"poiid":"B2094757D164A7F54192","title":"武宁路兰溪路","lon":"121.40194658","lat":"31.244209704","category":"500","category_name":"未知分类","address":"普陀区武宁路兰溪路"},{"poiid":"B2094654D464AAF5469D","title":"皇悦轩","lon":"121.40185507927","lat":"31.250357993092","category":"260","category_name":"其他","address":"普陀区兰溪路429号(近铜川路)"},{"poiid":"B2094757D064AAF9489F","title":"上海票据交换中心","lon":"121.39899731","lat":"31.247277164","category":"500","category_name":"未知分类","address":"上海市普陀区真光路1581号"},{"poiid":"B2094751D56CA5FB499F","title":"真如古镇羊肉馆","lon":"121.40113","lat":"31.24819","category":"68","category_name":"快餐厅","address":"普陀区穿心街9号(近北石路)"},{"poiid":"B2094654D465A3FC429E","title":"真如中学","lon":"121.39847","lat":"31.2503","category":"55","category_name":"中学","address":"普陀区铜川路1189号(近大渡河路)"},{"poiid":"B2094655D264A2F5479D","title":"重庆鸡公煲北石路店","lon":"121.40114","lat":"31.2482","category":"71","category_name":"四川菜","address":"普陀区北石路158号穿心街11号(快客超市对面)"},{"poiid":"B2094757D169ABF9409B","title":"帝苑壹号精菜坊","lon":"121.40226795","lat":"31.248455648","category":"247","category_name":"餐饮美食","address":"上海市普陀区大渡河路"},{"poiid":"B2094654DB6BA0F54099","title":"白玉兰甜品屋饮料站","lon":"121.401843054","lat":"31.248002793","category":"67","category_name":"甜品店","address":"普陀区兰溪路300号(近北石路)"},{"poiid":"B2094750D76DA5FF4299","title":"新招鲜本地鸡窝(北石路店)","lon":"121.4","lat":"31.2484","category":"86","category_name":"火锅店","address":"普陀区北石路(近兰溪路)"},{"poiid":"B2094655D26AA5FF409B","title":"真如烤鸭小方店","lon":"121.4021","lat":"31.24667","category":"68","category_name":"快餐厅","address":"普陀区兰溪路223号(近南石一路)"},{"poiid":"B2094654DB6AABF8429D","title":"快客(真如寺南)","lon":"121.40138","lat":"31.2483","category":"117","category_name":"便民商店/便利店","address":"兰溪路289号乙"},{"poiid":"B2094654D465A3FC419A","title":"中国联通真如营业厅","lon":"121.40139","lat":"31.24826","category":"151","category_name":"电讯营业厅","address":"兰溪路277号"},{"poiid":"B2094757D06FA0FB459D","title":"时代超级购物中心","lon":"121.39966","lat":"31.24413","category":"119","category_name":"商场","address":"上海普陀区武宁路768号2-3楼(杨柳青路口)"},{"poiid":"B2094655D26AA7F44199","title":"真如体育场羽毛球馆","lon":"121.39953","lat":"31.24829","category":"247","category_name":"餐饮美食","address":"普陀区北石路208号(近兰溪路)"},{"poiid":"B2094655D26DA3FE4293","title":"真如镇社区卫生服务中心","lon":"121.39818","lat":"31.24679","category":"162","category_name":"医院","address":"上海普陀区大渡河路真如西村115号"},{"poiid":"B2094654DB6BA0F5409B","title":"好德便利No.112","lon":"121.40226","lat":"31.24768","category":"117","category_name":"便民商店/便利店","address":"兰溪路290"},{"poiid":"B2094654D56BA3FF489D","title":"上海荣百百货经营部","lon":"121.40233","lat":"31.24728","category":"119","category_name":"商场","address":"兰溪路282号"},{"poiid":"B2094655D26EA4F54993","title":"红透小厨","lon":"121.39748569659","lat":"31.248376487628","category":"247","category_name":"餐饮美食","address":"兰溪路233号"},{"poiid":"B2094655D265AAF8429B","title":"老街汤团26号店","lon":"121.40256","lat":"31.24779","category":"257","category_name":"中餐厅","address":"七宝老街南大街26号"},{"poiid":"B2094655D264A7F94399","title":"上海真佳百货商场","lon":"121.40234","lat":"31.24716","category":"119","category_name":"商场","address":"兰溪路284"},{"poiid":"B2094654D465A3FC4499","title":"金鼎花苑","lon":"121.40331","lat":"31.250048","category":"47","category_name":"住宅区","address":"铜川路999弄"},{"poiid":"B2094757D069A4F4419E","title":"上海市公安局普陀分局","lon":"121.40164053","lat":"31.249383512","category":"500","category_name":"未知分类","address":"上海市普陀区大渡河路1895号"},{"poiid":"B2094757D06AA4F4499C","title":"新招鲜兰溪店","lon":"121.40199145","lat":"31.2484936493","category":"500","category_name":"未知分类","address":"上海普陀区兰溪路277号"},{"poiid":"B2094654D465A3FC409D","title":"真如水果大卖场(北石路)","lon":"121.40065","lat":"31.2483","category":"117","category_name":"便民商店/便利店","address":""},{"poiid":"B2094654D56BA3F8419F","title":"香港双皮奶","lon":"121.40265","lat":"31.24779","category":"247","category_name":"餐饮美食","address":""},{"poiid":"B2094757D66DA6FF479C","title":"久久丫鸭颈王(兰溪路店)","lon":"121.40198","lat":"31.24687","category":"247","category_name":"餐饮美食","address":"上海普陀区兰溪路109-6号  "},{"poiid":"B2094654D56BA3F8419C","title":"和家蟹味小馆","lon":"121.40255","lat":"31.24779","category":"257","category_name":"中餐厅","address":"南大街26"},{"poiid":"B2094757D069A7FE409C","title":"蒙自源云南过桥米线(武宁路店)","lon":"121.39968","lat":"31.24413","category":"68","category_name":"快餐厅","address":"普陀区武宁路768号乐天玛特购物中心1楼(近杨柳青路)"},{"poiid":"B2094757D06AA4FF4498","title":"花园鱼庄（原四川花园）(大渡河路店)","lon":"121.39785","lat":"31.2486","category":"71","category_name":"四川菜","address":"普陀区大渡河路1653号(近北石路)"},{"poiid":"B2094757D465A3FC499D","title":"圆缘园 兰溪路","lon":"121.40246165128","lat":"31.246893561568","category":"68","category_name":"快餐厅","address":"兰溪路258号近北石路"},{"poiid":"B2094654D56BA3F84298","title":"德清楼洗衣店","lon":"121.40115","lat":"31.24805","category":"249","category_name":"购物服务","address":"真如穿心街7"},{"poiid":"B2094757D065ABFB4292","title":"梅岭北路1168弄","lon":"121.401","lat":"31.2483","category":"500","category_name":"未知分类","address":"梅岭北路1168弄"},{"poiid":"B2094655D26CABFB479E","title":"兰溪苑(北门)","lon":"121.4016","lat":"31.24641","category":"47","category_name":"住宅区","address":"兰溪路221弄3支弄"},{"poiid":"B2094654D56BA3FF499D","title":"福建千里香馄饨(南大街)","lon":"121.40296","lat":"31.24795","category":"68","category_name":"快餐厅","address":"闵行区七宝老街(近富强街)"},{"poiid":"B2094654D56BA3F9419B","title":"久良财富休闲广场","lon":"121.39762","lat":"31.24669","category":"201","category_name":"城市广场","address":"普陀区大渡河路1501号"},{"poiid":"B2094655D26DA5F94392","title":"良友金伴No.377","lon":"121.39989","lat":"31.24658","category":"117","category_name":"便民商店/便利店","address":""},{"poiid":"B2094655D26AAAF4429F","title":"明捷万丽咖啡厅","lon":"121.40205","lat":"31.2513","category":"247","category_name":"餐饮美食","address":"普陀区铜川路50号明捷万丽酒店1楼(近地铁岚皋路站)"},{"poiid":"B2094757D06FA3FF409F","title":"新九龙塘(兰溪路店)","lon":"121.4018862681055","lat":"31.249494773574355","category":"88","category_name":"海鲜酒楼","address":"普陀区兰溪路419号(近铜川路)"},{"poiid":"B2094757D06FA1FF409B","title":"真如羊肉馆","lon":"121.40147","lat":"31.24845","category":"68","category_name":"快餐厅","address":"普陀区寺前街1号(近兰溪路)"},{"poiid":"B2094654D464AAF5449A","title":"真如寺","lon":"121.40148","lat":"31.24912","category":"244","category_name":"寺庙道观","address":"上海普陀区真如镇后山门5号"},{"poiid":"B2094757D06FA7F9419F","title":"毛胡子牛羊馆","lon":"121.3995","lat":"31.24469","category":"68","category_name":"快餐厅","address":"普陀区武宁路2132号(近杨柳青路)"},{"poiid":"B2094654D464AAF5459E","title":"天上来大酒店","lon":"121.4021632781","lat":"31.248501946268","category":"260","category_name":"其他","address":"普陀区兰溪路436号(近铜川路)"},{"poiid":"B2094757D06FA5F94798","title":"苏武牧羊(普陀店)","lon":"121.39745","lat":"31.24777","category":"86","category_name":"火锅店","address":"普陀区大渡河路1558号(近北石路)"},{"poiid":"B2094757D06FABFA439A","title":"云中酒楼","lon":"121.401710964","lat":"31.2503601854","category":"260","category_name":"其他","address":"普陀区兰溪路455号(近铜川路)"},{"poiid":"B2094757D068A3F5449B","title":"天鸿酒家","lon":"121.40336","lat":"31.25018","category":"260","category_name":"其他","address":"普陀区铜川路947号"},{"poiid":"B2094757D069A7FB4899","title":"普陀中心医院二楼输液室","lon":"121.40099014","lat":"31.246303745","category":"162","category_name":"医院","address":"上海普陀区兰溪路164号普陀中心医内"},{"poiid":"B2094654D464AAF5469C","title":"真如海鲜城","lon":"121.40215941072","lat":"31.248823280602","category":"260","category_name":"其他","address":"普陀区兰溪路437号(近铜川路)"},{"poiid":"B2094654D464AAF5469A","title":"金煌海鲜酒楼","lon":"121.40175","lat":"31.25047","category":"260","category_name":"其他","address":"普陀区兰溪路473号(铜川路口)"},{"poiid":"B2094757D069A5F84292","title":"真如体育场","lon":"121.399510261","lat":"31.2481169398","category":"220","category_name":"运动场所","address":"普陀区北石路208号(近兰溪路)"},{"poiid":"B2094757D069AAFA459A","title":"帝赋苑","lon":"121.40262","lat":"31.24722","category":"72","category_name":"广东菜","address":"普陀区兰溪路277-289号(近北石路)"},{"poiid":"B2094757D164A7F54192","title":"武宁路兰溪路","lon":"121.40194658","lat":"31.244209704","category":"500","category_name":"未知分类","address":"普陀区武宁路兰溪路"},{"poiid":"B2094654D464AAF5469D","title":"皇悦轩","lon":"121.40185507927","lat":"31.250357993092","category":"260","category_name":"其他","address":"普陀区兰溪路429号(近铜川路)"},{"poiid":"B2094757D064AAF9489F","title":"上海票据交换中心","lon":"121.39899731","lat":"31.247277164","category":"500","category_name":"未知分类","address":"上海市普陀区真光路1581号"},{"poiid":"B2094751D56CA5FB499F","title":"真如古镇羊肉馆","lon":"121.40113","lat":"31.24819","category":"68","category_name":"快餐厅","address":"普陀区穿心街9号(近北石路)"},{"poiid":"B2094654D465A3FC429E","title":"真如中学","lon":"121.39847","lat":"31.2503","category":"55","category_name":"中学","address":"普陀区铜川路1189号(近大渡河路)"},{"poiid":"B2094655D264A2F5479D","title":"重庆鸡公煲北石路店","lon":"121.40114","lat":"31.2482","category":"71","category_name":"四川菜","address":"普陀区北石路158号穿心街11号(快客超市对面)"},{"poiid":"B2094757D169ABF9409B","title":"帝苑壹号精菜坊","lon":"121.40226795","lat":"31.248455648","category":"247","category_name":"餐饮美食","address":"上海市普陀区大渡河路"},{"poiid":"B2094654DB6BA0F54099","title":"白玉兰甜品屋饮料站","lon":"121.401843054","lat":"31.248002793","category":"67","category_name":"甜品店","address":"普陀区兰溪路300号(近北石路)"},{"poiid":"B2094750D76DA5FF4299","title":"新招鲜本地鸡窝(北石路店)","lon":"121.4","lat":"31.2484","category":"86","category_name":"火锅店","address":"普陀区北石路(近兰溪路)"},{"poiid":"B2094655D26AA5FF409B","title":"真如烤鸭小方店","lon":"121.4021","lat":"31.24667","category":"68","category_name":"快餐厅","address":"普陀区兰溪路223号(近南石一路)"},{"poiid":"B2094654DB6AABF8429D","title":"快客(真如寺南)","lon":"121.40138","lat":"31.2483","category":"117","category_name":"便民商店/便利店","address":"兰溪路289号乙"},{"poiid":"B2094654D465A3FC419A","title":"中国联通真如营业厅","lon":"121.40139","lat":"31.24826","category":"151","category_name":"电讯营业厅","address":"兰溪路277号"},{"poiid":"B2094757D06FA0FB459D","title":"时代超级购物中心","lon":"121.39966","lat":"31.24413","category":"119","category_name":"商场","address":"上海普陀区武宁路768号2-3楼(杨柳青路口)"},{"poiid":"B2094655D26AA7F44199","title":"真如体育场羽毛球馆","lon":"121.39953","lat":"31.24829","category":"247","category_name":"餐饮美食","address":"普陀区北石路208号(近兰溪路)"},{"poiid":"B2094655D26DA3FE4293","title":"真如镇社区卫生服务中心","lon":"121.39818","lat":"31.24679","category":"162","category_name":"医院","address":"上海普陀区大渡河路真如西村115号"},{"poiid":"B2094654DB6BA0F5409B","title":"好德便利No.112","lon":"121.40226","lat":"31.24768","category":"117","category_name":"便民商店/便利店","address":"兰溪路290"},{"poiid":"B2094654D56BA3FF489D","title":"上海荣百百货经营部","lon":"121.40233","lat":"31.24728","category":"119","category_name":"商场","address":"兰溪路282号"},{"poiid":"B2094655D26EA4F54993","title":"红透小厨","lon":"121.39748569659","lat":"31.248376487628","category":"247","category_name":"餐饮美食","address":"兰溪路233号"},{"poiid":"B2094655D265AAF8429B","title":"老街汤团26号店","lon":"121.40256","lat":"31.24779","category":"257","category_name":"中餐厅","address":"七宝老街南大街26号"},{"poiid":"B2094655D264A7F94399","title":"上海真佳百货商场","lon":"121.40234","lat":"31.24716","category":"119","category_name":"商场","address":"兰溪路284"},{"poiid":"B2094654D465A3FC4499","title":"金鼎花苑","lon":"121.40331","lat":"31.250048","category":"47","category_name":"住宅区","address":"铜川路999弄"},{"poiid":"B2094757D069A4F4419E","title":"上海市公安局普陀分局","lon":"121.40164053","lat":"31.249383512","category":"500","category_name":"未知分类","address":"上海市普陀区大渡河路1895号"},{"poiid":"B2094757D06AA4F4499C","title":"新招鲜兰溪店","lon":"121.40199145","lat":"31.2484936493","category":"500","category_name":"未知分类","address":"上海普陀区兰溪路277号"},{"poiid":"B2094654D465A3FC409D","title":"真如水果大卖场(北石路)","lon":"121.40065","lat":"31.2483","category":"117","category_name":"便民商店/便利店","address":""},{"poiid":"B2094654D56BA3F8419F","title":"香港双皮奶","lon":"121.40265","lat":"31.24779","category":"247","category_name":"餐饮美食","address":""},{"poiid":"B2094757D66DA6FF479C","title":"久久丫鸭颈王(兰溪路店)","lon":"121.40198","lat":"31.24687","category":"247","category_name":"餐饮美食","address":"上海普陀区兰溪路109-6号  "},{"poiid":"B2094654D56BA3F8419C","title":"和家蟹味小馆","lon":"121.40255","lat":"31.24779","category":"257","category_name":"中餐厅","address":"南大街26"},{"poiid":"B2094757D069A7FE409C","title":"蒙自源云南过桥米线(武宁路店)","lon":"121.39968","lat":"31.24413","category":"68","category_name":"快餐厅","address":"普陀区武宁路768号乐天玛特购物中心1楼(近杨柳青路)"},{"poiid":"B2094757D06AA4FF4498","title":"花园鱼庄（原四川花园）(大渡河路店)","lon":"121.39785","lat":"31.2486","category":"71","category_name":"四川菜","address":"普陀区大渡河路1653号(近北石路)"},{"poiid":"B2094757D465A3FC499D","title":"圆缘园 兰溪路","lon":"121.40246165128","lat":"31.246893561568","category":"68","category_name":"快餐厅","address":"兰溪路258号近北石路"},{"poiid":"B2094654D56BA3F84298","title":"德清楼洗衣店","lon":"121.40115","lat":"31.24805","category":"249","category_name":"购物服务","address":"真如穿心街7"},{"poiid":"B2094757D065ABFB4292","title":"梅岭北路1168弄","lon":"121.401","lat":"31.2483","category":"500","category_name":"未知分类","address":"梅岭北路1168弄"},{"poiid":"B2094655D26CABFB479E","title":"兰溪苑(北门)","lon":"121.4016","lat":"31.24641","category":"47","category_name":"住宅区","address":"兰溪路221弄3支弄"},{"poiid":"B2094654D56BA3FF499D","title":"福建千里香馄饨(南大街)","lon":"121.40296","lat":"31.24795","category":"68","category_name":"快餐厅","address":"闵行区七宝老街(近富强街)"},{"poiid":"B2094654D56BA3F9419B","title":"久良财富休闲广场","lon":"121.39762","lat":"31.24669","category":"201","category_name":"城市广场","address":"普陀区大渡河路1501号"},{"poiid":"B2094655D26DA5F94392","title":"良友金伴No.377","lon":"121.39989","lat":"31.24658","category":"117","category_name":"便民商店/便利店","address":""},{"poiid":"B2094655D26AAAF4429F","title":"明捷万丽咖啡厅","lon":"121.40205","lat":"31.2513","category":"247","category_name":"餐饮美食","address":"普陀区铜川路50号明捷万丽酒店1楼(近地铁岚皋路站)"},{"poiid":"B2094757D06FA3FF409F","title":"新九龙塘(兰溪路店)","lon":"121.4018862681055","lat":"31.249494773574355","category":"88","category_name":"海鲜酒楼","address":"普陀区兰溪路419号(近铜川路)"},{"poiid":"B2094757D06FA1FF409B","title":"真如羊肉馆","lon":"121.40147","lat":"31.24845","category":"68","category_name":"快餐厅","address":"普陀区寺前街1号(近兰溪路)"},{"poiid":"B2094654D464AAF5449A","title":"真如寺","lon":"121.40148","lat":"31.24912","category":"244","category_name":"寺庙道观","address":"上海普陀区真如镇后山门5号"},{"poiid":"B2094757D06FA7F9419F","title":"毛胡子牛羊馆","lon":"121.3995","lat":"31.24469","category":"68","category_name":"快餐厅","address":"普陀区武宁路2132号(近杨柳青路)"},{"poiid":"B2094654D464AAF5459E","title":"天上来大酒店","lon":"121.4021632781","lat":"31.248501946268","category":"260","category_name":"其他","address":"普陀区兰溪路436号(近铜川路)"},{"poiid":"B2094757D06FA5F94798","title":"苏武牧羊(普陀店)","lon":"121.39745","lat":"31.24777","category":"86","category_name":"火锅店","address":"普陀区大渡河路1558号(近北石路)"},{"poiid":"B2094757D06FABFA439A","title":"云中酒楼","lon":"121.401710964","lat":"31.2503601854","category":"260","category_name":"其他","address":"普陀区兰溪路455号(近铜川路)"},{"poiid":"B2094757D068A3F5449B","title":"天鸿酒家","lon":"121.40336","lat":"31.25018","category":"260","category_name":"其他","address":"普陀区铜川路947号"},{"poiid":"B2094757D069A7FB4899","title":"普陀中心医院二楼输液室","lon":"121.40099014","lat":"31.246303745","category":"162","category_name":"医院","address":"上海普陀区兰溪路164号普陀中心医内"},{"poiid":"B2094654D464AAF5469C","title":"真如海鲜城","lon":"121.40215941072","lat":"31.248823280602","category":"260","category_name":"其他","address":"普陀区兰溪路437号(近铜川路)"},{"poiid":"B2094654D464AAF5469A","title":"金煌海鲜酒楼","lon":"121.40175","lat":"31.25047","category":"260","category_name":"其他","address":"普陀区兰溪路473号(铜川路口)"},{"poiid":"B2094757D069A5F84292","title":"真如体育场","lon":"121.399510261","lat":"31.2481169398","category":"220","category_name":"运动场所","address":"普陀区北石路208号(近兰溪路)"},{"poiid":"B2094757D069AAFA459A","title":"帝赋苑","lon":"121.40262","lat":"31.24722","category":"72","category_name":"广东菜","address":"普陀区兰溪路277-289号(近北石路)"},{"poiid":"B2094757D164A7F54192","title":"武宁路兰溪路","lon":"121.40194658","lat":"31.244209704","category":"500","category_name":"未知分类","address":"普陀区武宁路兰溪路"},{"poiid":"B2094654D464AAF5469D","title":"皇悦轩","lon":"121.40185507927","lat":"31.250357993092","category":"260","category_name":"其他","address":"普陀区兰溪路429号(近铜川路)"},{"poiid":"B2094757D064AAF9489F","title":"上海票据交换中心","lon":"121.39899731","lat":"31.247277164","category":"500","category_name":"未知分类","address":"上海市普陀区真光路1581号"},{"poiid":"B2094751D56CA5FB499F","title":"真如古镇羊肉馆","lon":"121.40113","lat":"31.24819","category":"68","category_name":"快餐厅","address":"普陀区穿心街9号(近北石路)"},{"poiid":"B2094654D465A3FC429E","title":"真如中学","lon":"121.39847","lat":"31.2503","category":"55","category_name":"中学","address":"普陀区铜川路1189号(近大渡河路)"},{"poiid":"B2094655D264A2F5479D","title":"重庆鸡公煲北石路店","lon":"121.40114","lat":"31.2482","category":"71","category_name":"四川菜","address":"普陀区北石路158号穿心街11号(快客超市对面)"},{"poiid":"B2094757D169ABF9409B","title":"帝苑壹号精菜坊","lon":"121.40226795","lat":"31.248455648","category":"247","category_name":"餐饮美食","address":"上海市普陀区大渡河路"},{"poiid":"B2094654DB6BA0F54099","title":"白玉兰甜品屋饮料站","lon":"121.401843054","lat":"31.248002793","category":"67","category_name":"甜品店","address":"普陀区兰溪路300号(近北石路)"},{"poiid":"B2094750D76DA5FF4299","title":"新招鲜本地鸡窝(北石路店)","lon":"121.4","lat":"31.2484","category":"86","category_name":"火锅店","address":"普陀区北石路(近兰溪路)"},{"poiid":"B2094655D26AA5FF409B","title":"真如烤鸭小方店","lon":"121.4021","lat":"31.24667","category":"68","category_name":"快餐厅","address":"普陀区兰溪路223号(近南石一路)"},{"poiid":"B2094654DB6AABF8429D","title":"快客(真如寺南)","lon":"121.40138","lat":"31.2483","category":"117","category_name":"便民商店/便利店","address":"兰溪路289号乙"},{"poiid":"B2094654D465A3FC419A","title":"中国联通真如营业厅","lon":"121.40139","lat":"31.24826","category":"151","category_name":"电讯营业厅","address":"兰溪路277号"},{"poiid":"B2094757D06FA0FB459D","title":"时代超级购物中心","lon":"121.39966","lat":"31.24413","category":"119","category_name":"商场","address":"上海普陀区武宁路768号2-3楼(杨柳青路口)"},{"poiid":"B2094655D26AA7F44199","title":"真如体育场羽毛球馆","lon":"121.39953","lat":"31.24829","category":"247","category_name":"餐饮美食","address":"普陀区北石路208号(近兰溪路)"},{"poiid":"B2094655D26DA3FE4293","title":"真如镇社区卫生服务中心","lon":"121.39818","lat":"31.24679","category":"162","category_name":"医院","address":"上海普陀区大渡河路真如西村115号"},{"poiid":"B2094654DB6BA0F5409B","title":"好德便利No.112","lon":"121.40226","lat":"31.24768","category":"117","category_name":"便民商店/便利店","address":"兰溪路290"},{"poiid":"B2094654D56BA3FF489D","title":"上海荣百百货经营部","lon":"121.40233","lat":"31.24728","category":"119","category_name":"商场","address":"兰溪路282号"},{"poiid":"B2094655D26EA4F54993","title":"红透小厨","lon":"121.39748569659","lat":"31.248376487628","category":"247","category_name":"餐饮美食","address":"兰溪路233号"},{"poiid":"B2094655D265AAF8429B","title":"老街汤团26号店","lon":"121.40256","lat":"31.24779","category":"257","category_name":"中餐厅","address":"七宝老街南大街26号"},{"poiid":"B2094655D264A7F94399","title":"上海真佳百货商场","lon":"121.40234","lat":"31.24716","category":"119","category_name":"商场","address":"兰溪路284"},{"poiid":"B2094654D465A3FC4499","title":"金鼎花苑","lon":"121.40331","lat":"31.250048","category":"47","category_name":"住宅区","address":"铜川路999弄"},{"poiid":"B2094757D069A4F4419E","title":"上海市公安局普陀分局","lon":"121.40164053","lat":"31.249383512","category":"500","category_name":"未知分类","address":"上海市普陀区大渡河路1895号"},{"poiid":"B2094757D06AA4F4499C","title":"新招鲜兰溪店","lon":"121.40199145","lat":"31.2484936493","category":"500","category_name":"未知分类","address":"上海普陀区兰溪路277号"},{"poiid":"B2094654D465A3FC409D","title":"真如水果大卖场(北石路)","lon":"121.40065","lat":"31.2483","category":"117","category_name":"便民商店/便利店","address":""},{"poiid":"B2094654D56BA3F8419F","title":"香港双皮奶","lon":"121.40265","lat":"31.24779","category":"247","category_name":"餐饮美食","address":""},{"poiid":"B2094757D66DA6FF479C","title":"久久丫鸭颈王(兰溪路店)","lon":"121.40198","lat":"31.24687","category":"247","category_name":"餐饮美食","address":"上海普陀区兰溪路109-6号  "},{"poiid":"B2094654D56BA3F8419C","title":"和家蟹味小馆","lon":"121.40255","lat":"31.24779","category":"257","category_name":"中餐厅","address":"南大街26"},{"poiid":"B2094757D069A7FE409C","title":"蒙自源云南过桥米线(武宁路店)","lon":"121.39968","lat":"31.24413","category":"68","category_name":"快餐厅","address":"普陀区武宁路768号乐天玛特购物中心1楼(近杨柳青路)"},{"poiid":"B2094757D06AA4FF4498","title":"花园鱼庄（原四川花园）(大渡河路店)","lon":"121.39785","lat":"31.2486","category":"71","category_name":"四川菜","address":"普陀区大渡河路1653号(近北石路)"},{"poiid":"B2094757D465A3FC499D","title":"圆缘园 兰溪路","lon":"121.40246165128","lat":"31.246893561568","category":"68","category_name":"快餐厅","address":"兰溪路258号近北石路"},{"poiid":"B2094654D56BA3F84298","title":"德清楼洗衣店","lon":"121.40115","lat":"31.24805","category":"249","category_name":"购物服务","address":"真如穿心街7"},{"poiid":"B2094757D065ABFB4292","title":"梅岭北路1168弄","lon":"121.401","lat":"31.2483","category":"500","category_name":"未知分类","address":"梅岭北路1168弄"},{"poiid":"B2094655D26CABFB479E","title":"兰溪苑(北门)","lon":"121.4016","lat":"31.24641","category":"47","category_name":"住宅区","address":"兰溪路221弄3支弄"},{"poiid":"B2094654D56BA3FF499D","title":"福建千里香馄饨(南大街)","lon":"121.40296","lat":"31.24795","category":"68","category_name":"快餐厅","address":"闵行区七宝老街(近富强街)"},{"poiid":"B2094654D56BA3F9419B","title":"久良财富休闲广场","lon":"121.39762","lat":"31.24669","category":"201","category_name":"城市广场","address":"普陀区大渡河路1501号"},{"poiid":"B2094655D26DA5F94392","title":"良友金伴No.377","lon":"121.39989","lat":"31.24658","category":"117","category_name":"便民商店/便利店","address":""},{"poiid":"B2094655D26AAAF4429F","title":"明捷万丽咖啡厅","lon":"121.40205","lat":"31.2513","category":"247","category_name":"餐饮美食","address":"普陀区铜川路50号明捷万丽酒店1楼(近地铁岚皋路站)"},{"poiid":"B2094757D06FA3FF409F","title":"新九龙塘(兰溪路店)","lon":"121.4018862681055","lat":"31.249494773574355","category":"88","category_name":"海鲜酒楼","address":"普陀区兰溪路419号(近铜川路)"},{"poiid":"B2094757D06FA1FF409B","title":"真如羊肉馆","lon":"121.40147","lat":"31.24845","category":"68","category_name":"快餐厅","address":"普陀区寺前街1号(近兰溪路)"},{"poiid":"B2094654D464AAF5449A","title":"真如寺","lon":"121.40148","lat":"31.24912","category":"244","category_name":"寺庙道观","address":"上海普陀区真如镇后山门5号"},{"poiid":"B2094757D06FA7F9419F","title":"毛胡子牛羊馆","lon":"121.3995","lat":"31.24469","category":"68","category_name":"快餐厅","address":"普陀区武宁路2132号(近杨柳青路)"},{"poiid":"B2094654D464AAF5459E","title":"天上来大酒店","lon":"121.4021632781","lat":"31.248501946268","category":"260","category_name":"其他","address":"普陀区兰溪路436号(近铜川路)"},{"poiid":"B2094757D06FA5F94798","title":"苏武牧羊(普陀店)","lon":"121.39745","lat":"31.24777","category":"86","category_name":"火锅店","address":"普陀区大渡河路1558号(近北石路)"},{"poiid":"B2094757D06FABFA439A","title":"云中酒楼","lon":"121.401710964","lat":"31.2503601854","category":"260","category_name":"其他","address":"普陀区兰溪路455号(近铜川路)"},{"poiid":"B2094757D068A3F5449B","title":"天鸿酒家","lon":"121.40336","lat":"31.25018","category":"260","category_name":"其他","address":"普陀区铜川路947号"},{"poiid":"B2094757D069A7FB4899","title":"普陀中心医院二楼输液室","lon":"121.40099014","lat":"31.246303745","category":"162","category_name":"医院","address":"上海普陀区兰溪路164号普陀中心医内"},{"poiid":"B2094654D464AAF5469C","title":"真如海鲜城","lon":"121.40215941072","lat":"31.248823280602","category":"260","category_name":"其他","address":"普陀区兰溪路437号(近铜川路)"},{"poiid":"B2094654D464AAF5469A","title":"金煌海鲜酒楼","lon":"121.40175","lat":"31.25047","category":"260","category_name":"其他","address":"普陀区兰溪路473号(铜川路口)"},{"poiid":"B2094757D069A5F84292","title":"真如体育场","lon":"121.399510261","lat":"31.2481169398","category":"220","category_name":"运动场所","address":"普陀区北石路208号(近兰溪路)"},{"poiid":"B2094757D069AAFA459A","title":"帝赋苑","lon":"121.40262","lat":"31.24722","category":"72","category_name":"广东菜","address":"普陀区兰溪路277-289号(近北石路)"},{"poiid":"B2094757D164A7F54192","title":"武宁路兰溪路","lon":"121.40194658","lat":"31.244209704","category":"500","category_name":"未知分类","address":"普陀区武宁路兰溪路"},{"poiid":"B2094654D464AAF5469D","title":"皇悦轩","lon":"121.40185507927","lat":"31.250357993092","category":"260","category_name":"其他","address":"普陀区兰溪路429号(近铜川路)"},{"poiid":"B2094757D064AAF9489F","title":"上海票据交换中心","lon":"121.39899731","lat":"31.247277164","category":"500","category_name":"未知分类","address":"上海市普陀区真光路1581号"},{"poiid":"B2094751D56CA5FB499F","title":"真如古镇羊肉馆","lon":"121.40113","lat":"31.24819","category":"68","category_name":"快餐厅","address":"普陀区穿心街9号(近北石路)"},{"poiid":"B2094654D465A3FC429E","title":"真如中学","lon":"121.39847","lat":"31.2503","category":"55","category_name":"中学","address":"普陀区铜川路1189号(近大渡河路)"},{"poiid":"B2094655D264A2F5479D","title":"重庆鸡公煲北石路店","lon":"121.40114","lat":"31.2482","category":"71","category_name":"四川菜","address":"普陀区北石路158号穿心街11号(快客超市对面)"},{"poiid":"B2094757D169ABF9409B","title":"帝苑壹号精菜坊","lon":"121.40226795","lat":"31.248455648","category":"247","category_name":"餐饮美食","address":"上海市普陀区大渡河路"},{"poiid":"B2094654DB6BA0F54099","title":"白玉兰甜品屋饮料站","lon":"121.401843054","lat":"31.248002793","category":"67","category_name":"甜品店","address":"普陀区兰溪路300号(近北石路)"},{"poiid":"B2094750D76DA5FF4299","title":"新招鲜本地鸡窝(北石路店)","lon":"121.4","lat":"31.2484","category":"86","category_name":"火锅店","address":"普陀区北石路(近兰溪路)"},{"poiid":"B2094655D26AA5FF409B","title":"真如烤鸭小方店","lon":"121.4021","lat":"31.24667","category":"68","category_name":"快餐厅","address":"普陀区兰溪路223号(近南石一路)"},{"poiid":"B2094654DB6AABF8429D","title":"快客(真如寺南)","lon":"121.40138","lat":"31.2483","category":"117","category_name":"便民商店/便利店","address":"兰溪路289号乙"},{"poiid":"B2094654D465A3FC419A","title":"中国联通真如营业厅","lon":"121.40139","lat":"31.24826","category":"151","category_name":"电讯营业厅","address":"兰溪路277号"},{"poiid":"B2094757D06FA0FB459D","title":"时代超级购物中心","lon":"121.39966","lat":"31.24413","category":"119","category_name":"商场","address":"上海普陀区武宁路768号2-3楼(杨柳青路口)"},{"poiid":"B2094655D26AA7F44199","title":"真如体育场羽毛球馆","lon":"121.39953","lat":"31.24829","category":"247","category_name":"餐饮美食","address":"普陀区北石路208号(近兰溪路)"},{"poiid":"B2094655D26DA3FE4293","title":"真如镇社区卫生服务中心","lon":"121.39818","lat":"31.24679","category":"162","category_name":"医院","address":"上海普陀区大渡河路真如西村115号"},{"poiid":"B2094654DB6BA0F5409B","title":"好德便利No.112","lon":"121.40226","lat":"31.24768","category":"117","category_name":"便民商店/便利店","address":"兰溪路290"},{"poiid":"B2094654D56BA3FF489D","title":"上海荣百百货经营部","lon":"121.40233","lat":"31.24728","category":"119","category_name":"商场","address":"兰溪路282号"},{"poiid":"B2094655D26EA4F54993","title":"红透小厨","lon":"121.39748569659","lat":"31.248376487628","category":"247","category_name":"餐饮美食","address":"兰溪路233号"},{"poiid":"B2094655D265AAF8429B","title":"老街汤团26号店","lon":"121.40256","lat":"31.24779","category":"257","category_name":"中餐厅","address":"七宝老街南大街26号"},{"poiid":"B2094655D264A7F94399","title":"上海真佳百货商场","lon":"121.40234","lat":"31.24716","category":"119","category_name":"商场","address":"兰溪路284"},{"poiid":"B2094654D465A3FC4499","title":"金鼎花苑","lon":"121.40331","lat":"31.250048","category":"47","category_name":"住宅区","address":"铜川路999弄"},{"poiid":"B2094757D069A4F4419E","title":"上海市公安局普陀分局","lon":"121.40164053","lat":"31.249383512","category":"500","category_name":"未知分类","address":"上海市普陀区大渡河路1895号"},{"poiid":"B2094757D06AA4F4499C","title":"新招鲜兰溪店","lon":"121.40199145","lat":"31.2484936493","category":"500","category_name":"未知分类","address":"上海普陀区兰溪路277号"},{"poiid":"B2094654D465A3FC409D","title":"真如水果大卖场(北石路)","lon":"121.40065","lat":"31.2483","category":"117","category_name":"便民商店/便利店","address":""},{"poiid":"B2094654D56BA3F8419F","title":"香港双皮奶","lon":"121.40265","lat":"31.24779","category":"247","category_name":"餐饮美食","address":""},{"poiid":"B2094757D66DA6FF479C","title":"久久丫鸭颈王(兰溪路店)","lon":"121.40198","lat":"31.24687","category":"247","category_name":"餐饮美食","address":"上海普陀区兰溪路109-6号  "},{"poiid":"B2094654D56BA3F8419C","title":"和家蟹味小馆","lon":"121.40255","lat":"31.24779","category":"257","category_name":"中餐厅","address":"南大街26"},{"poiid":"B2094757D069A7FE409C","title":"蒙自源云南过桥米线(武宁路店)","lon":"121.39968","lat":"31.24413","category":"68","category_name":"快餐厅","address":"普陀区武宁路768号乐天玛特购物中心1楼(近杨柳青路)"},{"poiid":"B2094757D06AA4FF4498","title":"花园鱼庄（原四川花园）(大渡河路店)","lon":"121.39785","lat":"31.2486","category":"71","category_name":"四川菜","address":"普陀区大渡河路1653号(近北石路)"},{"poiid":"B2094757D465A3FC499D","title":"圆缘园 兰溪路","lon":"121.40246165128","lat":"31.246893561568","category":"68","category_name":"快餐厅","address":"兰溪路258号近北石路"},{"poiid":"B2094654D56BA3F84298","title":"德清楼洗衣店","lon":"121.40115","lat":"31.24805","category":"249","category_name":"购物服务","address":"真如穿心街7"},{"poiid":"B2094757D065ABFB4292","title":"梅岭北路1168弄","lon":"121.401","lat":"31.2483","category":"500","category_name":"未知分类","address":"梅岭北路1168弄"},{"poiid":"B2094655D26CABFB479E","title":"兰溪苑(北门)","lon":"121.4016","lat":"31.24641","category":"47","category_name":"住宅区","address":"兰溪路221弄3支弄"},{"poiid":"B2094654D56BA3FF499D","title":"福建千里香馄饨(南大街)","lon":"121.40296","lat":"31.24795","category":"68","category_name":"快餐厅","address":"闵行区七宝老街(近富强街)"},{"poiid":"B2094654D56BA3F9419B","title":"久良财富休闲广场","lon":"121.39762","lat":"31.24669","category":"201","category_name":"城市广场","address":"普陀区大渡河路1501号"},{"poiid":"B2094655D26DA5F94392","title":"良友金伴No.377","lon":"121.39989","lat":"31.24658","category":"117","category_name":"便民商店/便利店","address":""},{"poiid":"B2094655D26AAAF4429F","title":"明捷万丽咖啡厅","lon":"121.40205","lat":"31.2513","category":"247","category_name":"餐饮美食","address":"普陀区铜川路50号明捷万丽酒店1楼(近地铁岚皋路站)"}]