[{"poiid":"B2094757D06FABFA439C","title":"宝燕海鲜(莘庄店)","lon":"121.39846","lat":"31.08808","category":"75","category_name":"浙江菜","address":"闵行区都市路3825弄好爱广场1楼(近金都路)"},{"poiid":"B2094757D06FA1F44793","title":"银都路地铁站","lon":"121.3920841","lat":"31.086243183","category":"36","category_name":"地铁站","address":"上海轨道交通 五号线 轨交银都路站 5"},{"poiid":"B2094757D06FA7FA419B","title":"银都新村","lon":"121.39397","lat":"31.093572","category":"47","category_name":"住宅区","address":"上海闵行区银都路3118弄"},{"poiid":"B2094757D069A3F9479B","title":"南美水疗(莘庄店)","lon":"121.3986","lat":"31.08809","category":"149","category_name":"洗浴推拿场所","address":"闵行区都市路"},{"poiid":"B2094655D36CA6FA4198","title":"都市路银都路","lon":"121.39567","lat":"31.09373","category":"38","category_name":"公交车站","address":"上海ShanghaiMinhangDushi,Rd"},{"poiid":"B2094757D068A0FD4499","title":"君临天下花园","lon":"121.39516","lat":"31.090305","category":"47","category_name":"住宅区","address":"君临天下花园位于闵行银都路3399号"},{"poiid":"B2094654DB6CABFE4499","title":"好世凤凰城","lon":"121.39156","lat":"31.092218","category":"47","category_name":"住宅区","address":"银都路3536弄"},{"poiid":"B2094757D06AA6FB4192","title":"虾满堂(都市路店)","lon":"121.39806366","lat":"31.0883331299","category":"500","category_name":"未知分类","address":"上海都市路3825弄7号"},{"poiid":"B2094757D068A5FF439B","title":"贵峰苑小区","lon":"121.39724333","lat":"31.081609039","category":"47","category_name":"住宅区","address":"上海闵行区金都路3019弄"},{"poiid":"B2094654DB6EABF54199","title":"上海市莘庄工业区","lon":"121.39472","lat":"31.07947","category":"45","category_name":"产业园区","address":"上海市闵行区中春路1988号(近颛兴路)"},{"poiid":"B2094654DB6CAAFA439C","title":"海燕精菜馆","lon":"121.398469054","lat":"31.087303793","category":"72","category_name":"广东菜","address":"闵行区都市路3825弄好爱广场1楼(近金都路)"},{"poiid":"B2094654DB6CAAFA429E","title":"黑三娘","lon":"121.39765","lat":"31.0886","category":"71","category_name":"四川菜","address":"闵行区都市路3825弄好爱广场149-151号(近金都路)"},{"poiid":"B2094757D06AA0F9449E","title":"颛桥寝园","lon":"121.391659","lat":"31.083204","category":"500","category_name":"未知分类","address":"上海沪闵路4044号"},{"poiid":"B2094757D06AA2FD4993","title":"S4金都路上匝道 (沪闵高架路方向)","lon":"121.40286185","lat":"31.085065063","category":"500","category_name":"未知分类","address":"上海闵行区金都路"},{"poiid":"B2094757D06AAAF8409E","title":"金都花好悦园","lon":"121.39911","lat":"31.091726","category":"500","category_name":"未知分类","address":"上海银都路3151弄"},{"poiid":"B2094655D268A5FC479A","title":"8号景观餐厅","lon":"121.39816","lat":"31.08872","category":"72","category_name":"广东菜","address":"闵行区都市路3825弄好爱广场内(近金都路)"},{"poiid":"B2094655D26EA5FC479B","title":"黑三娘 好爱店","lon":"121.398469054","lat":"31.087303793","category":"71","category_name":"四川菜","address":"闵行区都市路3825弄好爱广场149-151号(近金都路)"},{"poiid":"B2094757D06AA6F94498","title":"鸣宏象山渔港","lon":"121.39741","lat":"31.09162","category":"75","category_name":"浙江菜","address":"闵行区都市路4252号"},{"poiid":"B2094757D168A6FE4899","title":"一番日本料理","lon":"121.393818054","lat":"31.091940793","category":"95","category_name":"日本料理","address":"闵行区银都路3460号(近都市路)"},{"poiid":"B2094654DB6CA4F84692","title":"樱园","lon":"121.40267","lat":"31.083956","category":"47","category_name":"住宅区","address":"上海市闵行区都市路2566弄"},{"poiid":"B2094757D069ABFE429F","title":"上海市射击射箭运动中心","lon":"121.396578","lat":"31.086979","category":"500","category_name":"未知分类","address":"上海市闵行区金都路3028号"},{"poiid":"B2094757D66AA4F5419E","title":"虾满堂手抓龙虾 都市路店","lon":"121.398613","lat":"31.087572","category":"68","category_name":"快餐厅","address":"闵行区都市路3825弄好爱广场内(近金都路)"},{"poiid":"B2094655D36DA0FB429B","title":"银都路轻轨站","lon":"121.38961","lat":"31.08964","category":"37","category_name":"轻轨站","address":""},{"poiid":"B2094655D26EA2F54499","title":"攀宇健身","lon":"121.39348","lat":"31.08691","category":"221","category_name":"健身中心","address":"闵行区梅州路505号(近都市路)"},{"poiid":"B2094750D76CA6FA4699","title":"东北风情人家","lon":"121.398","lat":"31.0885","category":"82","category_name":"东北菜","address":"闵行区都市路3825弄好爱广场1号101座(近金都路)"},{"poiid":"B2094757D164A2F54999","title":"小沪人家(顓桥店)","lon":"121.39848","lat":"31.08829","category":"76","category_name":"上海菜","address":"闵行区都市路3825弄好爱广场10号148-150(近金都路)"},{"poiid":"B2094654DB64A1FF4793","title":"上海宝燕商务酒店(好爱店)","lon":"121.39663","lat":"31.0881","category":"250","category_name":"公园户外","address":"闵行区都市路好爱广场对面(都市路梅州路)"},{"poiid":"B2094757D169A0FB479F","title":"小嘴巴海鲜坊","lon":"121.39794685","lat":"31.087076103","category":"76","category_name":"上海菜","address":"闵行区都市路3825弄好爱广场1号105(近金都路)"},{"poiid":"B2094654DB6CAAFA409D","title":"田园","lon":"121.39551","lat":"31.08719","category":"196","category_name":"公园","address":"梅州路445"},{"poiid":"B2094757D16CA6FE4598","title":"好宴世家(银都店)","lon":"121.39779","lat":"31.09265","category":"76","category_name":"上海菜","address":"闵行区银都路3177号(近都市路)"},{"poiid":"B2094757D66BA0FD489C","title":"越岭阁 银都路店","lon":"121.394039","lat":"31.092091","category":"96","category_name":"韩国料理","address":"闵行区银都路3458号(近都市路)"},{"poiid":"B2094654DB6CAAFA419A","title":"君临颐和花园(梅州路)","lon":"121.39347","lat":"31.08693","category":"196","category_name":"公园","address":"上海市闵行区银都路3399号"},{"poiid":"B2094757D66EA7F94592","title":"象山海鲜城","lon":"121.39824","lat":"31.08699","category":"75","category_name":"浙江菜","address":"闵行区都市路3825弄好爱广场内(近金都路)"},{"poiid":"B2094757D66BA1F5429C","title":"大阿姐海派药膳鸡","lon":"121.398469054","lat":"31.087303793","category":"86","category_name":"火锅店","address":"闵行区都市路3825弄好爱广场7号115室(近金都路)"},{"poiid":"B2094757D465A1F84399","title":"香乡村大龙虾 都市路店","lon":"121.398469054","lat":"31.087303793","category":"68","category_name":"快餐厅","address":"闵行区都市路3825弄好爱广场7号3室(近金都路)"},{"poiid":"B2094757D464A0FB429A","title":"上岛咖啡 都市路店 UBC Coffee","lon":"121.398469054","lat":"31.087303793","category":"65","category_name":"咖啡厅","address":"都市路3825弄好爱广场近银都路"},{"poiid":"B2094757D66BA2F5419B","title":"铜官山","lon":"121.39815","lat":"31.08853","category":"87","category_name":"特色／地方风味餐厅","address":"闵行区都市路3825弄好爱广场7号(近金都路)"},{"poiid":"B2094757D764A5F4489A","title":"香啡缤 春东路店 Coffee Bean&Tea Leaf","lon":"121.388945","lat":"31.086143","category":"65","category_name":"咖啡厅","address":"闵行区春东路508号(近申旺路)"},{"poiid":"B2094757D16BA3FC4798","title":"银都路","lon":"121.391260157","lat":"31.0897174561","category":"260","category_name":"其他","address":"上海"},{"poiid":"B2094654DB6CAAF4439F","title":"柠檬树饮品屋","lon":"121.39827","lat":"31.0896","category":"94","category_name":"西餐厅","address":"闵行区都市路4160号(近银都路)"},{"poiid":"B2094757D064A7FA4498","title":"老城隍庙小吃","lon":"121.39199829","lat":"31.091100692","category":"68","category_name":"快餐厅","address":"闵行区银都路3458弄好世凤凰城内(近沪闵路)"},{"poiid":"B2094757D169A7FB459E","title":"桂菊酒楼 好爱广场店","lon":"121.398469054","lat":"31.087303793","category":"71","category_name":"四川菜","address":"闵行区都市路3825弄好爱广场2号108(近金都路)"},{"poiid":"B2094654DB6CAAFA4199","title":"橘子洲头湘菜馆","lon":"121.39749","lat":"31.08748","category":"77","category_name":"湖南菜","address":"闵行区都市路3825弄10号101"},{"poiid":"B2094654DB69A6F9419F","title":"原申健身俱乐部有限公司游泳馆","lon":"121.39347","lat":"31.08693","category":"231","category_name":"游泳馆","address":"闵行区梅州路505号"},{"poiid":"B2094655D26AA0F94498","title":"地铁银都路站","lon":"121.39213","lat":"31.08625","category":"36","category_name":"地铁站","address":""},{"poiid":"B2094757D16AA2FA439E","title":"上海大众汽车闵行销售服务有限公司","lon":"121.39069225","lat":"31.087798117","category":"500","category_name":"未知分类","address":"上海市沪闵路4288号"},{"poiid":"B2094654DB6CAAFA499B","title":"上海市田园高级中学","lon":"121.40107","lat":"31.09106","category":"55","category_name":"中学","address":"闵行区颛桥镇田园路455号(近都市路)"},{"poiid":"B2094654DB6CAAFA4193","title":"世纪华联都市店","lon":"121.39752","lat":"31.08857","category":"117","category_name":"便民商店/便利店","address":""},{"poiid":"B2094655D26FA4F5479D","title":"田园(北门)","lon":"121.39525","lat":"31.08764","category":"680","category_name":"楼宇机构","address":"梅州路445"},{"poiid":"B2094655D268A5F94193","title":"良友金伴No.198","lon":"121.39766","lat":"31.08703","category":"117","category_name":"便民商店/便利店","address":""},{"poiid":"B2094757D06FABFA439C","title":"宝燕海鲜(莘庄店)","lon":"121.39846","lat":"31.08808","category":"75","category_name":"浙江菜","address":"闵行区都市路3825弄好爱广场1楼(近金都路)"},{"poiid":"B2094757D06FA1F44793","title":"银都路地铁站","lon":"121.3920841","lat":"31.086243183","category":"36","category_name":"地铁站","address":"上海轨道交通 五号线 轨交银都路站 5"},{"poiid":"B2094757D06FA7FA419B","title":"银都新村","lon":"121.39397","lat":"31.093572","category":"47","category_name":"住宅区","address":"上海闵行区银都路3118弄"},{"poiid":"B2094757D069A3F9479B","title":"南美水疗(莘庄店)","lon":"121.3986","lat":"31.08809","category":"149","category_name":"洗浴推拿场所","address":"闵行区都市路"},{"poiid":"B2094655D36CA6FA4198","title":"都市路银都路","lon":"121.39567","lat":"31.09373","category":"38","category_name":"公交车站","address":"上海ShanghaiMinhangDushi,Rd"},{"poiid":"B2094757D068A0FD4499","title":"君临天下花园","lon":"121.39516","lat":"31.090305","category":"47","category_name":"住宅区","address":"君临天下花园位于闵行银都路3399号"},{"poiid":"B2094654DB6CABFE4499","title":"好世凤凰城","lon":"121.39156","lat":"31.092218","category":"47","category_name":"住宅区","address":"银都路3536弄"},{"poiid":"B2094757D06AA6FB4192","title":"虾满堂(都市路店)","lon":"121.39806366","lat":"31.0883331299","category":"500","category_name":"未知分类","address":"上海都市路3825弄7号"},{"poiid":"B2094757D068A5FF439B","title":"贵峰苑小区","lon":"121.39724333","lat":"31.081609039","category":"47","category_name":"住宅区","address":"上海闵行区金都路3019弄"},{"poiid":"B2094654DB6EABF54199","title":"上海市莘庄工业区","lon":"121.39472","lat":"31.07947","category":"45","category_name":"产业园区","address":"上海市闵行区中春路1988号(近颛兴路)"},{"poiid":"B2094654DB6CAAFA439C","title":"海燕精菜馆","lon":"121.398469054","lat":"31.087303793","category":"72","category_name":"广东菜","address":"闵行区都市路3825弄好爱广场1楼(近金都路)"},{"poiid":"B2094654DB6CAAFA429E","title":"黑三娘","lon":"121.39765","lat":"31.0886","category":"71","category_name":"四川菜","address":"闵行区都市路3825弄好爱广场149-151号(近金都路)"},{"poiid":"B2094757D06AA0F9449E","title":"颛桥寝园","lon":"121.391659","lat":"31.083204","category":"500","category_name":"未知分类","address":"上海沪闵路4044号"},{"poiid":"B2094757D06AA2FD4993","title":"S4金都路上匝道 (沪闵高架路方向)","lon":"121.40286185","lat":"31.085065063","category":"500","category_name":"未知分类","address":"上海闵行区金都路"},{"poiid":"B2094757D06AAAF8409E","title":"金都花好悦园","lon":"121.39911","lat":"31.091726","category":"500","category_name":"未知分类","address":"上海银都路3151弄"},{"poiid":"B2094655D268A5FC479A","title":"8号景观餐厅","lon":"121.39816","lat":"31.08872","category":"72","category_name":"广东菜","address":"闵行区都市路3825弄好爱广场内(近金都路)"},{"poiid":"B2094655D26EA5FC479B","title":"黑三娘 好爱店","lon":"121.398469054","lat":"31.087303793","category":"71","category_name":"四川菜","address":"闵行区都市路3825弄好爱广场149-151号(近金都路)"},{"poiid":"B2094757D06AA6F94498","title":"鸣宏象山渔港","lon":"121.39741","lat":"31.09162","category":"75","category_name":"浙江菜","address":"闵行区都市路4252号"},{"poiid":"B2094757D168A6FE4899","title":"一番日本料理","lon":"121.393818054","lat":"31.091940793","category":"95","category_name":"日本料理","address":"闵行区银都路3460号(近都市路)"},{"poiid":"B2094654DB6CA4F84692","title":"樱园","lon":"121.40267","lat":"31.083956","category":"47","category_name":"住宅区","address":"上海市闵行区都市路2566弄"},{"poiid":"B2094757D069ABFE429F","title":"上海市射击射箭运动中心","lon":"121.396578","lat":"31.086979","category":"500","category_name":"未知分类","address":"上海市闵行区金都路3028号"},{"poiid":"B2094757D66AA4F5419E","title":"虾满堂手抓龙虾 都市路店","lon":"121.398613","lat":"31.087572","category":"68","category_name":"快餐厅","address":"闵行区都市路3825弄好爱广场内(近金都路)"},{"poiid":"B2094655D36DA0FB429B","title":"银都路轻轨站","lon":"121.38961","lat":"31.08964","category":"37","category_name":"轻轨站","address":""},{"poiid":"B2094655D26EA2F54499","title":"攀宇健身","lon":"121.39348","lat":"31.08691","category":"221","category_name":"健身中心","address":"闵行区梅州路505号(近都市路)"},{"poiid":"B2094750D76CA6FA4699","title":"东北风情人家","lon":"121.398","lat":"31.0885","category":"82","category_name":"东北菜","address":"闵行区都市路3825弄好爱广场1号101座(近金都路)"},{"poiid":"B2094757D164A2F54999","title":"小沪人家(顓桥店)","lon":"121.39848","lat":"31.08829","category":"76","category_name":"上海菜","address":"闵行区都市路3825弄好爱广场10号148-150(近金都路)"},{"poiid":"B2094654DB64A1FF4793","title":"上海宝燕商务酒店(好爱店)","lon":"121.39663","lat":"31.0881","category":"250","category_name":"公园户外","address":"闵行区都市路好爱广场对面(都市路梅州路)"},{"poiid":"B2094757D169A0FB479F","title":"小嘴巴海鲜坊","lon":"121.39794685","lat":"31.087076103","category":"76","category_name":"上海菜","address":"闵行区都市路3825弄好爱广场1号105(近金都路)"},{"poiid":"B2094654DB6CAAFA409D","title":"田园","lon":"121.39551","lat":"31.08719","category":"196","category_name":"公园","address":"梅州路445"},{"poiid":"B2094757D16CA6FE4598","title":"好宴世家(银都店)","lon":"121.39779","lat":"31.09265","category":"76","category_name":"上海菜","address":"闵行区银都路3177号(近都市路)"},{"poiid":"B2094757D66BA0FD489C","title":"越岭阁 银都路店","lon":"121.394039","lat":"31.092091","category":"96","category_name":"韩国料理","address":"闵行区银都路3458号(近都市路)"},{"poiid":"B2094654DB6CAAFA419A","title":"君临颐和花园(梅州路)","lon":"121.39347","lat":"31.08693","category":"196","category_name":"公园","address":"上海市闵行区银都路3399号"},{"poiid":"B2094757D66EA7F94592","title":"象山海鲜城","lon":"121.39824","lat":"31.08699","category":"75","category_name":"浙江菜","address":"闵行区都市路3825弄好爱广场内(近金都路)"},{"poiid":"B2094757D66BA1F5429C","title":"大阿姐海派药膳鸡","lon":"121.398469054","lat":"31.087303793","category":"86","category_name":"火锅店","address":"闵行区都市路3825弄好爱广场7号115室(近金都路)"},{"poiid":"B2094757D465A1F84399","title":"香乡村大龙虾 都市路店","lon":"121.398469054","lat":"31.087303793","category":"68","category_name":"快餐厅","address":"闵行区都市路3825弄好爱广场7号3室(近金都路)"},{"poiid":"B2094757D464A0FB429A","title":"上岛咖啡 都市路店 UBC Coffee","lon":"121.398469054","lat":"31.087303793","category":"65","category_name":"咖啡厅","address":"都市路3825弄好爱广场近银都路"},{"poiid":"B2094757D66BA2F5419B","title":"铜官山","lon":"121.39815","lat":"31.08853","category":"87","category_name":"特色／地方风味餐厅","address":"闵行区都市路3825弄好爱广场7号(近金都路)"},{"poiid":"B2094757D764A5F4489A","title":"香啡缤 春东路店 Coffee Bean&Tea Leaf","lon":"121.388945","lat":"31.086143","category":"65","category_name":"咖啡厅","address":"闵行区春东路508号(近申旺路)"},{"poiid":"B2094757D16BA3FC4798","title":"银都路","lon":"121.391260157","lat":"31.0897174561","category":"260","category_name":"其他","address":"上海"},{"poiid":"B2094654DB6CAAF4439F","title":"柠檬树饮品屋","lon":"121.39827","lat":"31.0896","category":"94","category_name":"西餐厅","address":"闵行区都市路4160号(近银都路)"},{"poiid":"B2094757D064A7FA4498","title":"老城隍庙小吃","lon":"121.39199829","lat":"31.091100692","category":"68","category_name":"快餐厅","address":"闵行区银都路3458弄好世凤凰城内(近沪闵路)"},{"poiid":"B2094757D169A7FB459E","title":"桂菊酒楼 好爱广场店","lon":"121.398469054","lat":"31.087303793","category":"71","category_name":"四川菜","address":"闵行区都市路3825弄好爱广场2号108(近金都路)"},{"poiid":"B2094654DB6CAAFA4199","title":"橘子洲头湘菜馆","lon":"121.39749","lat":"31.08748","category":"77","category_name":"湖南菜","address":"闵行区都市路3825弄10号101"},{"poiid":"B2094654DB69A6F9419F","title":"原申健身俱乐部有限公司游泳馆","lon":"121.39347","lat":"31.08693","category":"231","category_name":"游泳馆","address":"闵行区梅州路505号"},{"poiid":"B2094655D26AA0F94498","title":"地铁银都路站","lon":"121.39213","lat":"31.08625","category":"36","category_name":"地铁站","address":""},{"poiid":"B2094757D16AA2FA439E","title":"上海大众汽车闵行销售服务有限公司","lon":"121.39069225","lat":"31.087798117","category":"500","category_name":"未知分类","address":"上海市沪闵路4288号"},{"poiid":"B2094654DB6CAAFA499B","title":"上海市田园高级中学","lon":"121.40107","lat":"31.09106","category":"55","category_name":"中学","address":"闵行区颛桥镇田园路455号(近都市路)"},{"poiid":"B2094654DB6CAAFA4193","title":"世纪华联都市店","lon":"121.39752","lat":"31.08857","category":"117","category_name":"便民商店/便利店","address":""},{"poiid":"B2094655D26FA4F5479D","title":"田园(北门)","lon":"121.39525","lat":"31.08764","category":"680","category_name":"楼宇机构","address":"梅州路445"},{"poiid":"B2094655D268A5F94193","title":"良友金伴No.198","lon":"121.39766","lat":"31.08703","category":"117","category_name":"便民商店/便利店","address":""},{"poiid":"B2094757D06FABFA439C","title":"宝燕海鲜(莘庄店)","lon":"121.39846","lat":"31.08808","category":"75","category_name":"浙江菜","address":"闵行区都市路3825弄好爱广场1楼(近金都路)"},{"poiid":"B2094757D06FA1F44793","title":"银都路地铁站","lon":"121.3920841","lat":"31.086243183","category":"36","category_name":"地铁站","address":"上海轨道交通 五号线 轨交银都路站 5"},{"poiid":"B2094757D06FA7FA419B","title":"银都新村","lon":"121.39397","lat":"31.093572","category":"47","category_name":"住宅区","address":"上海闵行区银都路3118弄"},{"poiid":"B2094757D069A3F9479B","title":"南美水疗(莘庄店)","lon":"121.3986","lat":"31.08809","category":"149","category_name":"洗浴推拿场所","address":"闵行区都市路"},{"poiid":"B2094655D36CA6FA4198","title":"都市路银都路","lon":"121.39567","lat":"31.09373","category":"38","category_name":"公交车站","address":"上海ShanghaiMinhangDushi,Rd"},{"poiid":"B2094757D068A0FD4499","title":"君临天下花园","lon":"121.39516","lat":"31.090305","category":"47","category_name":"住宅区","address":"君临天下花园位于闵行银都路3399号"},{"poiid":"B2094654DB6CABFE4499","title":"好世凤凰城","lon":"121.39156","lat":"31.092218","category":"47","category_name":"住宅区","address":"银都路3536弄"},{"poiid":"B2094757D06AA6FB4192","title":"虾满堂(都市路店)","lon":"121.39806366","lat":"31.0883331299","category":"500","category_name":"未知分类","address":"上海都市路3825弄7号"},{"poiid":"B2094757D068A5FF439B","title":"贵峰苑小区","lon":"121.39724333","lat":"31.081609039","category":"47","category_name":"住宅区","address":"上海闵行区金都路3019弄"},{"poiid":"B2094654DB6EABF54199","title":"上海市莘庄工业区","lon":"121.39472","lat":"31.07947","category":"45","category_name":"产业园区","address":"上海市闵行区中春路1988号(近颛兴路)"},{"poiid":"B2094654DB6CAAFA439C","title":"海燕精菜馆","lon":"121.398469054","lat":"31.087303793","category":"72","category_name":"广东菜","address":"闵行区都市路3825弄好爱广场1楼(近金都路)"},{"poiid":"B2094654DB6CAAFA429E","title":"黑三娘","lon":"121.39765","lat":"31.0886","category":"71","category_name":"四川菜","address":"闵行区都市路3825弄好爱广场149-151号(近金都路)"},{"poiid":"B2094757D06AA0F9449E","title":"颛桥寝园","lon":"121.391659","lat":"31.083204","category":"500","category_name":"未知分类","address":"上海沪闵路4044号"},{"poiid":"B2094757D06AA2FD4993","title":"S4金都路上匝道 (沪闵高架路方向)","lon":"121.40286185","lat":"31.085065063","category":"500","category_name":"未知分类","address":"上海闵行区金都路"},{"poiid":"B2094757D06AAAF8409E","title":"金都花好悦园","lon":"121.39911","lat":"31.091726","category":"500","category_name":"未知分类","address":"上海银都路3151弄"},{"poiid":"B2094655D268A5FC479A","title":"8号景观餐厅","lon":"121.39816","lat":"31.08872","category":"72","category_name":"广东菜","address":"闵行区都市路3825弄好爱广场内(近金都路)"},{"poiid":"B2094655D26EA5FC479B","title":"黑三娘 好爱店","lon":"121.398469054","lat":"31.087303793","category":"71","category_name":"四川菜","address":"闵行区都市路3825弄好爱广场149-151号(近金都路)"},{"poiid":"B2094757D06AA6F94498","title":"鸣宏象山渔港","lon":"121.39741","lat":"31.09162","category":"75","category_name":"浙江菜","address":"闵行区都市路4252号"},{"poiid":"B2094757D168A6FE4899","title":"一番日本料理","lon":"121.393818054","lat":"31.091940793","category":"95","category_name":"日本料理","address":"闵行区银都路3460号(近都市路)"},{"poiid":"B2094654DB6CA4F84692","title":"樱园","lon":"121.40267","lat":"31.083956","category":"47","category_name":"住宅区","address":"上海市闵行区都市路2566弄"},{"poiid":"B2094757D069ABFE429F","title":"上海市射击射箭运动中心","lon":"121.396578","lat":"31.086979","category":"500","category_name":"未知分类","address":"上海市闵行区金都路3028号"},{"poiid":"B2094757D66AA4F5419E","title":"虾满堂手抓龙虾 都市路店","lon":"121.398613","lat":"31.087572","category":"68","category_name":"快餐厅","address":"闵行区都市路3825弄好爱广场内(近金都路)"},{"poiid":"B2094655D36DA0FB429B","title":"银都路轻轨站","lon":"121.38961","lat":"31.08964","category":"37","category_name":"轻轨站","address":""},{"poiid":"B2094655D26EA2F54499","title":"攀宇健身","lon":"121.39348","lat":"31.08691","category":"221","category_name":"健身中心","address":"闵行区梅州路505号(近都市路)"},{"poiid":"B2094750D76CA6FA4699","title":"东北风情人家","lon":"121.398","lat":"31.0885","category":"82","category_name":"东北菜","address":"闵行区都市路3825弄好爱广场1号101座(近金都路)"},{"poiid":"B2094757D164A2F54999","title":"小沪人家(顓桥店)","lon":"121.39848","lat":"31.08829","category":"76","category_name":"上海菜","address":"闵行区都市路3825弄好爱广场10号148-150(近金都路)"},{"poiid":"B2094654DB64A1FF4793","title":"上海宝燕商务酒店(好爱店)","lon":"121.39663","lat":"31.0881","category":"250","category_name":"公园户外","address":"闵行区都市路好爱广场对面(都市路梅州路)"},{"poiid":"B2094757D169A0FB479F","title":"小嘴巴海鲜坊","lon":"121.39794685","lat":"31.087076103","category":"76","category_name":"上海菜","address":"闵行区都市路3825弄好爱广场1号105(近金都路)"},{"poiid":"B2094654DB6CAAFA409D","title":"田园","lon":"121.39551","lat":"31.08719","category":"196","category_name":"公园","address":"梅州路445"},{"poiid":"B2094757D16CA6FE4598","title":"好宴世家(银都店)","lon":"121.39779","lat":"31.09265","category":"76","category_name":"上海菜","address":"闵行区银都路3177号(近都市路)"},{"poiid":"B2094757D66BA0FD489C","title":"越岭阁 银都路店","lon":"121.394039","lat":"31.092091","category":"96","category_name":"韩国料理","address":"闵行区银都路3458号(近都市路)"},{"poiid":"B2094654DB6CAAFA419A","title":"君临颐和花园(梅州路)","lon":"121.39347","lat":"31.08693","category":"196","category_name":"公园","address":"上海市闵行区银都路3399号"},{"poiid":"B2094757D66EA7F94592","title":"象山海鲜城","lon":"121.39824","lat":"31.08699","category":"75","category_name":"浙江菜","address":"闵行区都市路3825弄好爱广场内(近金都路)"},{"poiid":"B2094757D66BA1F5429C","title":"大阿姐海派药膳鸡","lon":"121.398469054","lat":"31.087303793","category":"86","category_name":"火锅店","address":"闵行区都市路3825弄好爱广场7号115室(近金都路)"},{"poiid":"B2094757D465A1F84399","title":"香乡村大龙虾 都市路店","lon":"121.398469054","lat":"31.087303793","category":"68","category_name":"快餐厅","address":"闵行区都市路3825弄好爱广场7号3室(近金都路)"},{"poiid":"B2094757D464A0FB429A","title":"上岛咖啡 都市路店 UBC Coffee","lon":"121.398469054","lat":"31.087303793","category":"65","category_name":"咖啡厅","address":"都市路3825弄好爱广场近银都路"},{"poiid":"B2094757D66BA2F5419B","title":"铜官山","lon":"121.39815","lat":"31.08853","category":"87","category_name":"特色／地方风味餐厅","address":"闵行区都市路3825弄好爱广场7号(近金都路)"},{"poiid":"B2094757D764A5F4489A","title":"香啡缤 春东路店 Coffee Bean&Tea Leaf","lon":"121.388945","lat":"31.086143","category":"65","category_name":"咖啡厅","address":"闵行区春东路508号(近申旺路)"},{"poiid":"B2094757D16BA3FC4798","title":"银都路","lon":"121.391260157","lat":"31.0897174561","category":"260","category_name":"其他","address":"上海"},{"poiid":"B2094654DB6CAAF4439F","title":"柠檬树饮品屋","lon":"121.39827","lat":"31.0896","category":"94","category_name":"西餐厅","address":"闵行区都市路4160号(近银都路)"},{"poiid":"B2094757D064A7FA4498","title":"老城隍庙小吃","lon":"121.39199829","lat":"31.091100692","category":"68","category_name":"快餐厅","address":"闵行区银都路3458弄好世凤凰城内(近沪闵路)"},{"poiid":"B2094757D169A7FB459E","title":"桂菊酒楼 好爱广场店","lon":"121.398469054","lat":"31.087303793","category":"71","category_name":"四川菜","address":"闵行区都市路3825弄好爱广场2号108(近金都路)"},{"poiid":"B2094654DB6CAAFA4199","title":"橘子洲头湘菜馆","lon":"121.39749","lat":"31.08748","category":"77","category_name":"湖南菜","address":"闵行区都市路3825弄10号101"},{"poiid":"B2094654DB69A6F9419F","title":"原申健身俱乐部有限公司游泳馆","lon":"121.39347","lat":"31.08693","category":"231","category_name":"游泳馆","address":"闵行区梅州路505号"},{"poiid":"B2094655D26AA0F94498","title":"地铁银都路站","lon":"121.39213","lat":"31.08625","category":"36","category_name":"地铁站","address":""},{"poiid":"B2094757D16AA2FA439E","title":"上海大众汽车闵行销售服务有限公司","lon":"121.39069225","lat":"31.087798117","category":"500","category_name":"未知分类","address":"上海市沪闵路4288号"},{"poiid":"B2094654DB6CAAFA499B","title":"上海市田园高级中学","lon":"121.40107","lat":"31.09106","category":"55","category_name":"中学","address":"闵行区颛桥镇田园路455号(近都市路)"},{"poiid":"B2094654DB6CAAFA4193","title":"世纪华联都市店","lon":"121.39752","lat":"31.08857","category":"117","category_name":"便民商店/便利店","address":""},{"poiid":"B2094655D26FA4F5479D","title":"田园(北门)","lon":"121.39525","lat":"31.08764","category":"680","category_name":"楼宇机构","address":"梅州路445"},{"poiid":"B2094655D268A5F94193","title":"良友金伴No.198","lon":"121.39766","lat":"31.08703","category":"117","category_name":"便民商店/便利店","address":""},{"poiid":"B2094757D06FABFA439C","title":"宝燕海鲜(莘庄店)","lon":"121.39846","lat":"31.08808","category":"75","category_name":"浙江菜","address":"闵行区都市路3825弄好爱广场1楼(近金都路)"},{"poiid":"B2094757D06FA1F44793","title":"银都路地铁站","lon":"121.3920841","lat":"31.086243183","category":"36","category_name":"地铁站","address":"上海轨道交通 五号线 轨交银都路站 5"},{"poiid":"B2094757D06FA7FA419B","title":"银都新村","lon":"121.39397","lat":"31.093572","category":"47","category_name":"住宅区","address":"上海闵行区银都路3118弄"},{"poiid":"B2094757D069A3F9479B","title":"南美水疗(莘庄店)","lon":"121.3986","lat":"31.08809","category":"149","category_name":"洗浴推拿场所","address":"闵行区都市路"},{"poiid":"B2094655D36CA6FA4198","title":"都市路银都路","lon":"121.39567","lat":"31.09373","category":"38","category_name":"公交车站","address":"上海ShanghaiMinhangDushi,Rd"},{"poiid":"B2094757D068A0FD4499","title":"君临天下花园","lon":"121.39516","lat":"31.090305","category":"47","category_name":"住宅区","address":"君临天下花园位于闵行银都路3399号"},{"poiid":"B2094654DB6CABFE4499","title":"好世凤凰城","lon":"121.39156","lat":"31.092218","category":"47","category_name":"住宅区","address":"银都路3536弄"},{"poiid":"B2094757D06AA6FB4192","title":"虾满堂(都市路店)","lon":"121.39806366","lat":"31.0883331299","category":"500","category_name":"未知分类","address":"上海都市路3825弄7号"},{"poiid":"B2094757D068A5FF439B","title":"贵峰苑小区","lon":"121.39724333","lat":"31.081609039","category":"47","category_name":"住宅区","address":"上海闵行区金都路3019弄"},{"poiid":"B2094654DB6EABF54199","title":"上海市莘庄工业区","lon":"121.39472","lat":"31.07947","category":"45","category_name":"产业园区","address":"上海市闵行区中春路1988号(近颛兴路)"},{"poiid":"B2094654DB6CAAFA439C","title":"海燕精菜馆","lon":"121.398469054","lat":"31.087303793","category":"72","category_name":"广东菜","address":"闵行区都市路3825弄好爱广场1楼(近金都路)"},{"poiid":"B2094654DB6CAAFA429E","title":"黑三娘","lon":"121.39765","lat":"31.0886","category":"71","category_name":"四川菜","address":"闵行区都市路3825弄好爱广场149-151号(近金都路)"},{"poiid":"B2094757D06AA0F9449E","title":"颛桥寝园","lon":"121.391659","lat":"31.083204","category":"500","category_name":"未知分类","address":"上海沪闵路4044号"},{"poiid":"B2094757D06AA2FD4993","title":"S4金都路上匝道 (沪闵高架路方向)","lon":"121.40286185","lat":"31.085065063","category":"500","category_name":"未知分类","address":"上海闵行区金都路"},{"poiid":"B2094757D06AAAF8409E","title":"金都花好悦园","lon":"121.39911","lat":"31.091726","category":"500","category_name":"未知分类","address":"上海银都路3151弄"},{"poiid":"B2094655D268A5FC479A","title":"8号景观餐厅","lon":"121.39816","lat":"31.08872","category":"72","category_name":"广东菜","address":"闵行区都市路3825弄好爱广场内(近金都路)"},{"poiid":"B2094655D26EA5FC479B","title":"黑三娘 好爱店","lon":"121.398469054","lat":"31.087303793","category":"71","category_name":"四川菜","address":"闵行区都市路3825弄好爱广场149-151号(近金都路)"},{"poiid":"B2094757D06AA6F94498","title":"鸣宏象山渔港","lon":"121.39741","lat":"31.09162","category":"75","category_name":"浙江菜","address":"闵行区都市路4252号"},{"poiid":"B2094757D168A6FE4899","title":"一番日本料理","lon":"121.393818054","lat":"31.091940793","category":"95","category_name":"日本料理","address":"闵行区银都路3460号(近都市路)"},{"poiid":"B2094654DB6CA4F84692","title":"樱园","lon":"121.40267","lat":"31.083956","category":"47","category_name":"住宅区","address":"上海市闵行区都市路2566弄"},{"poiid":"B2094757D069ABFE429F","title":"上海市射击射箭运动中心","lon":"121.396578","lat":"31.086979","category":"500","category_name":"未知分类","address":"上海市闵行区金都路3028号"},{"poiid":"B2094757D66AA4F5419E","title":"虾满堂手抓龙虾 都市路店","lon":"121.398613","lat":"31.087572","category":"68","category_name":"快餐厅","address":"闵行区都市路3825弄好爱广场内(近金都路)"},{"poiid":"B2094655D36DA0FB429B","title":"银都路轻轨站","lon":"121.38961","lat":"31.08964","category":"37","category_name":"轻轨站","address":""},{"poiid":"B2094655D26EA2F54499","title":"攀宇健身","lon":"121.39348","lat":"31.08691","category":"221","category_name":"健身中心","address":"闵行区梅州路505号(近都市路)"},{"poiid":"B2094750D76CA6FA4699","title":"东北风情人家","lon":"121.398","lat":"31.0885","category":"82","category_name":"东北菜","address":"闵行区都市路3825弄好爱广场1号101座(近金都路)"},{"poiid":"B2094757D164A2F54999","title":"小沪人家(顓桥店)","lon":"121.39848","lat":"31.08829","category":"76","category_name":"上海菜","address":"闵行区都市路3825弄好爱广场10号148-150(近金都路)"},{"poiid":"B2094654DB64A1FF4793","title":"上海宝燕商务酒店(好爱店)","lon":"121.39663","lat":"31.0881","category":"250","category_name":"公园户外","address":"闵行区都市路好爱广场对面(都市路梅州路)"},{"poiid":"B2094757D169A0FB479F","title":"小嘴巴海鲜坊","lon":"121.39794685","lat":"31.087076103","category":"76","category_name":"上海菜","address":"闵行区都市路3825弄好爱广场1号105(近金都路)"},{"poiid":"B2094654DB6CAAFA409D","title":"田园","lon":"121.39551","lat":"31.08719","category":"196","category_name":"公园","address":"梅州路445"},{"poiid":"B2094757D16CA6FE4598","title":"好宴世家(银都店)","lon":"121.39779","lat":"31.09265","category":"76","category_name":"上海菜","address":"闵行区银都路3177号(近都市路)"},{"poiid":"B2094757D66BA0FD489C","title":"越岭阁 银都路店","lon":"121.394039","lat":"31.092091","category":"96","category_name":"韩国料理","address":"闵行区银都路3458号(近都市路)"},{"poiid":"B2094654DB6CAAFA419A","title":"君临颐和花园(梅州路)","lon":"121.39347","lat":"31.08693","category":"196","category_name":"公园","address":"上海市闵行区银都路3399号"},{"poiid":"B2094757D66EA7F94592","title":"象山海鲜城","lon":"121.39824","lat":"31.08699","category":"75","category_name":"浙江菜","address":"闵行区都市路3825弄好爱广场内(近金都路)"},{"poiid":"B2094757D66BA1F5429C","title":"大阿姐海派药膳鸡","lon":"121.398469054","lat":"31.087303793","category":"86","category_name":"火锅店","address":"闵行区都市路3825弄好爱广场7号115室(近金都路)"},{"poiid":"B2094757D465A1F84399","title":"香乡村大龙虾 都市路店","lon":"121.398469054","lat":"31.087303793","category":"68","category_name":"快餐厅","address":"闵行区都市路3825弄好爱广场7号3室(近金都路)"},{"poiid":"B2094757D464A0FB429A","title":"上岛咖啡 都市路店 UBC Coffee","lon":"121.398469054","lat":"31.087303793","category":"65","category_name":"咖啡厅","address":"都市路3825弄好爱广场近银都路"},{"poiid":"B2094757D66BA2F5419B","title":"铜官山","lon":"121.39815","lat":"31.08853","category":"87","category_name":"特色／地方风味餐厅","address":"闵行区都市路3825弄好爱广场7号(近金都路)"},{"poiid":"B2094757D764A5F4489A","title":"香啡缤 春东路店 Coffee Bean&Tea Leaf","lon":"121.388945","lat":"31.086143","category":"65","category_name":"咖啡厅","address":"闵行区春东路508号(近申旺路)"},{"poiid":"B2094757D16BA3FC4798","title":"银都路","lon":"121.391260157","lat":"31.0897174561","category":"260","category_name":"其他","address":"上海"},{"poiid":"B2094654DB6CAAF4439F","title":"柠檬树饮品屋","lon":"121.39827","lat":"31.0896","category":"94","category_name":"西餐厅","address":"闵行区都市路4160号(近银都路)"},{"poiid":"B2094757D064A7FA4498","title":"老城隍庙小吃","lon":"121.39199829","lat":"31.091100692","category":"68","category_name":"快餐厅","address":"闵行区银都路3458弄好世凤凰城内(近沪闵路)"},{"poiid":"B2094757D169A7FB459E","title":"桂菊酒楼 好爱广场店","lon":"121.398469054","lat":"31.087303793","category":"71","category_name":"四川菜","address":"闵行区都市路3825弄好爱广场2号108(近金都路)"},{"poiid":"B2094654DB6CAAFA4199","title":"橘子洲头湘菜馆","lon":"121.39749","lat":"31.08748","category":"77","category_name":"湖南菜","address":"闵行区都市路3825弄10号101"},{"poiid":"B2094654DB69A6F9419F","title":"原申健身俱乐部有限公司游泳馆","lon":"121.39347","lat":"31.08693","category":"231","category_name":"游泳馆","address":"闵行区梅州路505号"},{"poiid":"B2094655D26AA0F94498","title":"地铁银都路站","lon":"121.39213","lat":"31.08625","category":"36","category_name":"地铁站","address":""},{"poiid":"B2094757D16AA2FA439E","title":"上海大众汽车闵行销售服务有限公司","lon":"121.39069225","lat":"31.087798117","category":"500","category_name":"未知分类","address":"上海市沪闵路4288号"},{"poiid":"B2094654DB6CAAFA499B","title":"上海市田园高级中学","lon":"121.40107","lat":"31.09106","category":"55","category_name":"中学","address":"闵行区颛桥镇田园路455号(近都市路)"},{"poiid":"B2094654DB6CAAFA4193","title":"世纪华联都市店","lon":"121.39752","lat":"31.08857","category":"117","category_name":"便民商店/便利店","address":""},{"poiid":"B2094655D26FA4F5479D","title":"田园(北门)","lon":"121.39525","lat":"31.08764","category":"680","category_name":"楼宇机构","address":"梅州路445"},{"poiid":"B2094655D268A5F94193","title":"良友金伴No.198","lon":"121.39766","lat":"31.08703","category":"117","category_name":"便民商店/便利店","address":""}]