[{"poiid":"B2094655D26DA5FF489D","title":"华东理工大学","lon":"121.425","lat":"31.14313","category":"671","category_name":"高校中心点","address":"徐汇区梅陇路130号"},{"poiid":"B2094757D06FAAF84398","title":"华东理工大学图书馆","lon":"121.42208612","lat":"31.142591023","category":"253","category_name":"校园生活","address":"徐汇区梅陇路130号华东理工大学内(近天等路)"},{"poiid":"B2094757D06FA2F44192","title":"华东理工大学七教","lon":"121.42448527","lat":"31.141593448","category":"253","category_name":"校园生活","address":"上海徐汇区梅陇路130号"},{"poiid":"B2094757D068A7F94493","title":"上海地铁梅陇基地","lon":"121.42351945","lat":"31.149536729","category":"46","category_name":"楼宇","address":"上海市徐汇区老沪闵路1号(沪闵路口)"},{"poiid":"B2094757D06FA5FF449A","title":"梅陇文化馆","lon":"121.42175","lat":"31.13916","category":"260","category_name":"其他","address":"徐汇区梅陇路415号(近凌云路)"},{"poiid":"B2094757D06FA1F8419D","title":"华轻梅陇购物中心","lon":"121.421973848","lat":"31.1393005866","category":"119","category_name":"商场","address":"上海徐汇区梅陇路255号(近龙州路)"},{"poiid":"B2094757D068ABF4459B","title":"华东理工大学大操场","lon":"121.424847","lat":"31.143529","category":"253","category_name":"校园生活","address":"上海徐汇区梅陇路130号华东理工大学内"},{"poiid":"B2094655D26DAAFB4698","title":"凌云新村","lon":"121.41817","lat":"31.14193","category":"47","category_name":"住宅区","address":"虹梅南路126弄"},{"poiid":"B2094757D069A0FF459A","title":"华东理工大学研究生楼","lon":"121.42620086","lat":"31.141109466","category":"500","category_name":"未知分类","address":"上海徐汇区梅陇路130号华东理工大学徐汇校区"},{"poiid":"B2094757D06FA1F94898","title":"上海轨道交通梅陇基地","lon":"121.41984104","lat":"31.148421362","category":"260","category_name":"其他","address":"上海市徐汇区老沪闵路1号(沪闵路口)"},{"poiid":"B2094757D06FA5FA409D","title":"华东理工大学四教","lon":"121.42423009","lat":"31.142512028","category":"253","category_name":"校园生活","address":"上海徐汇区梅陇路130号"},{"poiid":"B2094757D068A0FB4493","title":"华东理工大学第三食堂","lon":"121.422156618","lat":"31.1459460993","category":"253","category_name":"校园生活","address":"徐汇区梅陇路130号华东理工大学内(近天等路)"},{"poiid":"B2094757D068A3FB4793","title":"华东理工大学八教","lon":"121.426987","lat":"31.142914","category":"253","category_name":"校园生活","address":"上海徐汇区梅陇路130号"},{"poiid":"B209475DD16EAAFC4499","title":"上海南站","lon":"121.422149","lat":"31.148414","category":"500","category_name":"未知分类","address":"上海市 上海南站"},{"poiid":"B2094757D068A2F8499C","title":"85度C(龙州店)","lon":"121.42244","lat":"31.13908","category":"112","category_name":"糕饼店","address":"徐汇区龙州路995号(近梅陇路)"},{"poiid":"B2094751DA69A4FB439E","title":"东方明珠","lon":"121.418119","lat":"31.145922","category":"500","category_name":"未知分类","address":"上海市黄浦区外滩"},{"poiid":"B2094655D26FA5FC4892","title":"华理苑","lon":"121.42076","lat":"31.144419","category":"47","category_name":"住宅区","address":"上海徐汇区梅陇路130弄"},{"poiid":"B2094757D16AAAFB429C","title":"华东理工大学健身房","lon":"121.421625","lat":"31.142972","category":"148","category_name":"美容美发店","address":"上海徐汇校区大操场旁"},{"poiid":"B2094757D06AA1FD469C","title":"市国资委党校","lon":"121.42493438","lat":"31.140525817","category":"500","category_name":"未知分类","address":"上海徐汇区天等路501号"},{"poiid":"B2094655D264ABFB409D","title":"华东理工大学商学院","lon":"121.42257","lat":"31.14301","category":"52","category_name":"高等院校","address":"上海市徐汇区梅陇路130号"},{"poiid":"B2094757D664AAFB4393","title":"华东理工教工食堂","lon":"121.42533","lat":"31.14084","category":"68","category_name":"快餐厅","address":"徐汇区梅陇路130号华东理工大学西门(近天等路)"},{"poiid":"B2094655D26BAAFD4092","title":"华东理工大学游泳池","lon":"121.42037","lat":"31.14171","category":"231","category_name":"游泳馆","address":"徐汇区梅陇路130号华东理工大学内(近天等路)"},{"poiid":"B2094655D265A1F4439B","title":"华东理工大学第二学生食堂","lon":"121.42208","lat":"31.14438","category":"257","category_name":"中餐厅","address":""},{"poiid":"B2094757D068AAF94293","title":"华东理工大学五教","lon":"121.425336","lat":"31.140846","category":"253","category_name":"校园生活","address":"上海徐汇区梅陇路130号"},{"poiid":"B2094757D06AA3F4439C","title":"华东理工大学14舍","lon":"121.42232985","lat":"31.145487273","category":"500","category_name":"未知分类","address":"上海徐汇区梅陇路130号华东理工大学徐汇校区"},{"poiid":"B2094757D568ABFC4093","title":"华东理工大学商学院MBA教育中心","lon":"121.423591","lat":"31.143171","category":"52","category_name":"高等院校","address":"中国上海市徐汇区"},{"poiid":"B2094655D26FA5F84093","title":"金塘小区","lon":"121.4259","lat":"31.148438","category":"47","category_name":"住宅区","address":"老沪闵路333弄1-97号"},{"poiid":"B2094757D169A6F44198","title":"百乐迪量贩KTV","lon":"121.425118857","lat":"31.1414194918","category":"170","category_name":"KTV","address":"徐汇区龙州路995号华轻轻纺市场4楼(近梅陇路)"},{"poiid":"B2094757D168A3F9499D","title":"华东理工大学八舍","lon":"121.423198798","lat":"31.1457553742","category":"500","category_name":"未知分类","address":"上海梅陇路130号"},{"poiid":"B2094757D16FA1FB499A","title":"华东理工大学大草坪","lon":"121.424604447","lat":"31.1439000415","category":"500","category_name":"未知分类","address":"上海市徐汇区梅陇路130号"},{"poiid":"B2094750DA6BA0FB4899","title":"华东理工大学学生宿舍15舍","lon":"121.421913","lat":"31.145402","category":"500","category_name":"未知分类","address":null},{"poiid":"B2094655D264A1FA4098","title":"华东理工大学化学与分子工程学院","lon":"121.42345","lat":"31.14424","category":"52","category_name":"高等院校","address":""},{"poiid":"B2094757D06AA6F8469F","title":"梅陇一村","lon":"121.42","lat":"31.1424","category":"500","category_name":"未知分类","address":"上海中环路梅陇路"},{"poiid":"B2094655D26BA6F94399","title":"华东理工大学化学实验教学中心","lon":"121.42345","lat":"31.14424","category":"52","category_name":"高等院校","address":""},{"poiid":"B2094757D16AABF44898","title":"国际妇幼保健医院产科","lon":"121.419334257","lat":"31.1462648889","category":"162","category_name":"医院","address":"上海市"},{"poiid":"B2094757D168A5FA459D","title":"吉龙豆捞","lon":"121.42448","lat":"31.13532","category":"86","category_name":"火锅店","address":"徐汇区龙州路925号(梅陇七村对面)"},{"poiid":"B2094757D064A3FB4798","title":"华东理工大学15舍537","lon":"121.4211959","lat":"31.145243068","category":"500","category_name":"未知分类","address":null},{"poiid":"B2094757D065A1FA4692","title":"华东理工华林餐厅","lon":"121.42533","lat":"31.14084","category":"68","category_name":"快餐厅","address":"徐汇区梅陇路130号华东理工大学内(近天等路)"},{"poiid":"B2094753D76EABF84398","title":"华东理工大学","lon":"121.421951","lat":"31.14623","category":"500","category_name":"未知分类","address":"上海市 梅陇路130号"},{"poiid":"B2094655D264ABF5429E","title":"留学生公寓2","lon":"121.42149","lat":"31.14342","category":"47","category_name":"住宅区","address":""},{"poiid":"B2094655D264AAFD429C","title":"华东理工大学物理系","lon":"121.42403","lat":"31.14386","category":"52","category_name":"高等院校","address":""},{"poiid":"B2094655D264ABF5409E","title":"华东理工大学数学系","lon":"121.42403","lat":"31.14385","category":"52","category_name":"高等院校","address":""},{"poiid":"B2094757D16FABF44993","title":"华东理工大学徐汇校区21舍","lon":"121.425744939","lat":"31.1469531584","category":"500","category_name":"未知分类","address":"上海徐汇区梅陇路130号华东理工大学徐汇校区"},{"poiid":"B2094655D264ABF5429F","title":"华东理工大学资源与环境专业实验教学中心","lon":"121.42497","lat":"31.14507","category":"52","category_name":"高等院校","address":""},{"poiid":"B2094757D06AA6FC459A","title":"华东理工大学八角亭","lon":"121.422180349","lat":"31.1411939693","category":"260","category_name":"其他","address":"上海华东理工大学内(徐汇区梅陇路130号)"},{"poiid":"B2094753D56AA1FE429E","title":"梅赛德斯-奔驰文化中心","lon":"121.418167","lat":"31.142641","category":"500","category_name":"未知分类","address":"上海市 上海市浦东新区世博大道1200号(近上南路)"},{"poiid":"B2094757D069A6F8439A","title":"coco都可茶饮(锦江乐园店)","lon":"121.42376891","lat":"31.144187647","category":"500","category_name":"未知分类","address":"上海1号线锦江乐园站旁边"},{"poiid":"B2094655D265AAF9459E","title":"华东理工大学发酵工程实验教学中心","lon":"121.42497","lat":"31.14507","category":"52","category_name":"高等院校","address":""},{"poiid":"B2094655D26EA2FE499B","title":"华理苑(南门)","lon":"121.41973","lat":"31.14396","category":"47","category_name":"住宅区","address":"凌云路"},{"poiid":"B2094757D069A3FA459A","title":"全家便利(锦江乐园站店)","lon":"121.419387817","lat":"31.1433238983","category":"117","category_name":"便民商店/便利店","address":"上海闵行区地铁一号线锦江乐园站北2口"},{"poiid":"B2094655D26DA5FF489D","title":"华东理工大学","lon":"121.425","lat":"31.14313","category":"671","category_name":"高校中心点","address":"徐汇区梅陇路130号"},{"poiid":"B2094757D06FAAF84398","title":"华东理工大学图书馆","lon":"121.42208612","lat":"31.142591023","category":"253","category_name":"校园生活","address":"徐汇区梅陇路130号华东理工大学内(近天等路)"},{"poiid":"B2094757D06FA2F44192","title":"华东理工大学七教","lon":"121.42448527","lat":"31.141593448","category":"253","category_name":"校园生活","address":"上海徐汇区梅陇路130号"},{"poiid":"B2094757D068A7F94493","title":"上海地铁梅陇基地","lon":"121.42351945","lat":"31.149536729","category":"46","category_name":"楼宇","address":"上海市徐汇区老沪闵路1号(沪闵路口)"},{"poiid":"B2094757D06FA5FF449A","title":"梅陇文化馆","lon":"121.42175","lat":"31.13916","category":"260","category_name":"其他","address":"徐汇区梅陇路415号(近凌云路)"},{"poiid":"B2094757D06FA1F8419D","title":"华轻梅陇购物中心","lon":"121.421973848","lat":"31.1393005866","category":"119","category_name":"商场","address":"上海徐汇区梅陇路255号(近龙州路)"},{"poiid":"B2094757D068ABF4459B","title":"华东理工大学大操场","lon":"121.424847","lat":"31.143529","category":"253","category_name":"校园生活","address":"上海徐汇区梅陇路130号华东理工大学内"},{"poiid":"B2094655D26DAAFB4698","title":"凌云新村","lon":"121.41817","lat":"31.14193","category":"47","category_name":"住宅区","address":"虹梅南路126弄"},{"poiid":"B2094757D069A0FF459A","title":"华东理工大学研究生楼","lon":"121.42620086","lat":"31.141109466","category":"500","category_name":"未知分类","address":"上海徐汇区梅陇路130号华东理工大学徐汇校区"},{"poiid":"B2094757D06FA1F94898","title":"上海轨道交通梅陇基地","lon":"121.41984104","lat":"31.148421362","category":"260","category_name":"其他","address":"上海市徐汇区老沪闵路1号(沪闵路口)"},{"poiid":"B2094757D06FA5FA409D","title":"华东理工大学四教","lon":"121.42423009","lat":"31.142512028","category":"253","category_name":"校园生活","address":"上海徐汇区梅陇路130号"},{"poiid":"B2094757D068A0FB4493","title":"华东理工大学第三食堂","lon":"121.422156618","lat":"31.1459460993","category":"253","category_name":"校园生活","address":"徐汇区梅陇路130号华东理工大学内(近天等路)"},{"poiid":"B2094757D068A3FB4793","title":"华东理工大学八教","lon":"121.426987","lat":"31.142914","category":"253","category_name":"校园生活","address":"上海徐汇区梅陇路130号"},{"poiid":"B209475DD16EAAFC4499","title":"上海南站","lon":"121.422149","lat":"31.148414","category":"500","category_name":"未知分类","address":"上海市 上海南站"},{"poiid":"B2094757D068A2F8499C","title":"85度C(龙州店)","lon":"121.42244","lat":"31.13908","category":"112","category_name":"糕饼店","address":"徐汇区龙州路995号(近梅陇路)"},{"poiid":"B2094751DA69A4FB439E","title":"东方明珠","lon":"121.418119","lat":"31.145922","category":"500","category_name":"未知分类","address":"上海市黄浦区外滩"},{"poiid":"B2094655D26FA5FC4892","title":"华理苑","lon":"121.42076","lat":"31.144419","category":"47","category_name":"住宅区","address":"上海徐汇区梅陇路130弄"},{"poiid":"B2094757D16AAAFB429C","title":"华东理工大学健身房","lon":"121.421625","lat":"31.142972","category":"148","category_name":"美容美发店","address":"上海徐汇校区大操场旁"},{"poiid":"B2094757D06AA1FD469C","title":"市国资委党校","lon":"121.42493438","lat":"31.140525817","category":"500","category_name":"未知分类","address":"上海徐汇区天等路501号"},{"poiid":"B2094655D264ABFB409D","title":"华东理工大学商学院","lon":"121.42257","lat":"31.14301","category":"52","category_name":"高等院校","address":"上海市徐汇区梅陇路130号"},{"poiid":"B2094757D664AAFB4393","title":"华东理工教工食堂","lon":"121.42533","lat":"31.14084","category":"68","category_name":"快餐厅","address":"徐汇区梅陇路130号华东理工大学西门(近天等路)"},{"poiid":"B2094655D26BAAFD4092","title":"华东理工大学游泳池","lon":"121.42037","lat":"31.14171","category":"231","category_name":"游泳馆","address":"徐汇区梅陇路130号华东理工大学内(近天等路)"},{"poiid":"B2094655D265A1F4439B","title":"华东理工大学第二学生食堂","lon":"121.42208","lat":"31.14438","category":"257","category_name":"中餐厅","address":""},{"poiid":"B2094757D068AAF94293","title":"华东理工大学五教","lon":"121.425336","lat":"31.140846","category":"253","category_name":"校园生活","address":"上海徐汇区梅陇路130号"},{"poiid":"B2094757D06AA3F4439C","title":"华东理工大学14舍","lon":"121.42232985","lat":"31.145487273","category":"500","category_name":"未知分类","address":"上海徐汇区梅陇路130号华东理工大学徐汇校区"},{"poiid":"B2094757D568ABFC4093","title":"华东理工大学商学院MBA教育中心","lon":"121.423591","lat":"31.143171","category":"52","category_name":"高等院校","address":"中国上海市徐汇区"},{"poiid":"B2094655D26FA5F84093","title":"金塘小区","lon":"121.4259","lat":"31.148438","category":"47","category_name":"住宅区","address":"老沪闵路333弄1-97号"},{"poiid":"B2094757D169A6F44198","title":"百乐迪量贩KTV","lon":"121.425118857","lat":"31.1414194918","category":"170","category_name":"KTV","address":"徐汇区龙州路995号华轻轻纺市场4楼(近梅陇路)"},{"poiid":"B2094757D168A3F9499D","title":"华东理工大学八舍","lon":"121.423198798","lat":"31.1457553742","category":"500","category_name":"未知分类","address":"上海梅陇路130号"},{"poiid":"B2094757D16FA1FB499A","title":"华东理工大学大草坪","lon":"121.424604447","lat":"31.1439000415","category":"500","category_name":"未知分类","address":"上海市徐汇区梅陇路130号"},{"poiid":"B2094750DA6BA0FB4899","title":"华东理工大学学生宿舍15舍","lon":"121.421913","lat":"31.145402","category":"500","category_name":"未知分类","address":null},{"poiid":"B2094655D264A1FA4098","title":"华东理工大学化学与分子工程学院","lon":"121.42345","lat":"31.14424","category":"52","category_name":"高等院校","address":""},{"poiid":"B2094757D06AA6F8469F","title":"梅陇一村","lon":"121.42","lat":"31.1424","category":"500","category_name":"未知分类","address":"上海中环路梅陇路"},{"poiid":"B2094655D26BA6F94399","title":"华东理工大学化学实验教学中心","lon":"121.42345","lat":"31.14424","category":"52","category_name":"高等院校","address":""},{"poiid":"B2094757D16AABF44898","title":"国际妇幼保健医院产科","lon":"121.419334257","lat":"31.1462648889","category":"162","category_name":"医院","address":"上海市"},{"poiid":"B2094757D168A5FA459D","title":"吉龙豆捞","lon":"121.42448","lat":"31.13532","category":"86","category_name":"火锅店","address":"徐汇区龙州路925号(梅陇七村对面)"},{"poiid":"B2094757D064A3FB4798","title":"华东理工大学15舍537","lon":"121.4211959","lat":"31.145243068","category":"500","category_name":"未知分类","address":null},{"poiid":"B2094757D065A1FA4692","title":"华东理工华林餐厅","lon":"121.42533","lat":"31.14084","category":"68","category_name":"快餐厅","address":"徐汇区梅陇路130号华东理工大学内(近天等路)"},{"poiid":"B2094753D76EABF84398","title":"华东理工大学","lon":"121.421951","lat":"31.14623","category":"500","category_name":"未知分类","address":"上海市 梅陇路130号"},{"poiid":"B2094655D264ABF5429E","title":"留学生公寓2","lon":"121.42149","lat":"31.14342","category":"47","category_name":"住宅区","address":""},{"poiid":"B2094655D264AAFD429C","title":"华东理工大学物理系","lon":"121.42403","lat":"31.14386","category":"52","category_name":"高等院校","address":""},{"poiid":"B2094655D264ABF5409E","title":"华东理工大学数学系","lon":"121.42403","lat":"31.14385","category":"52","category_name":"高等院校","address":""},{"poiid":"B2094757D16FABF44993","title":"华东理工大学徐汇校区21舍","lon":"121.425744939","lat":"31.1469531584","category":"500","category_name":"未知分类","address":"上海徐汇区梅陇路130号华东理工大学徐汇校区"},{"poiid":"B2094655D264ABF5429F","title":"华东理工大学资源与环境专业实验教学中心","lon":"121.42497","lat":"31.14507","category":"52","category_name":"高等院校","address":""},{"poiid":"B2094757D06AA6FC459A","title":"华东理工大学八角亭","lon":"121.422180349","lat":"31.1411939693","category":"260","category_name":"其他","address":"上海华东理工大学内(徐汇区梅陇路130号)"},{"poiid":"B2094753D56AA1FE429E","title":"梅赛德斯-奔驰文化中心","lon":"121.418167","lat":"31.142641","category":"500","category_name":"未知分类","address":"上海市 上海市浦东新区世博大道1200号(近上南路)"},{"poiid":"B2094757D069A6F8439A","title":"coco都可茶饮(锦江乐园店)","lon":"121.42376891","lat":"31.144187647","category":"500","category_name":"未知分类","address":"上海1号线锦江乐园站旁边"},{"poiid":"B2094655D265AAF9459E","title":"华东理工大学发酵工程实验教学中心","lon":"121.42497","lat":"31.14507","category":"52","category_name":"高等院校","address":""},{"poiid":"B2094655D26EA2FE499B","title":"华理苑(南门)","lon":"121.41973","lat":"31.14396","category":"47","category_name":"住宅区","address":"凌云路"},{"poiid":"B2094757D069A3FA459A","title":"全家便利(锦江乐园站店)","lon":"121.419387817","lat":"31.1433238983","category":"117","category_name":"便民商店/便利店","address":"上海闵行区地铁一号线锦江乐园站北2口"},{"poiid":"B2094655D26DA5FF489D","title":"华东理工大学","lon":"121.425","lat":"31.14313","category":"671","category_name":"高校中心点","address":"徐汇区梅陇路130号"},{"poiid":"B2094757D06FAAF84398","title":"华东理工大学图书馆","lon":"121.42208612","lat":"31.142591023","category":"253","category_name":"校园生活","address":"徐汇区梅陇路130号华东理工大学内(近天等路)"},{"poiid":"B2094757D06FA2F44192","title":"华东理工大学七教","lon":"121.42448527","lat":"31.141593448","category":"253","category_name":"校园生活","address":"上海徐汇区梅陇路130号"},{"poiid":"B2094757D068A7F94493","title":"上海地铁梅陇基地","lon":"121.42351945","lat":"31.149536729","category":"46","category_name":"楼宇","address":"上海市徐汇区老沪闵路1号(沪闵路口)"},{"poiid":"B2094757D06FA5FF449A","title":"梅陇文化馆","lon":"121.42175","lat":"31.13916","category":"260","category_name":"其他","address":"徐汇区梅陇路415号(近凌云路)"},{"poiid":"B2094757D06FA1F8419D","title":"华轻梅陇购物中心","lon":"121.421973848","lat":"31.1393005866","category":"119","category_name":"商场","address":"上海徐汇区梅陇路255号(近龙州路)"},{"poiid":"B2094757D068ABF4459B","title":"华东理工大学大操场","lon":"121.424847","lat":"31.143529","category":"253","category_name":"校园生活","address":"上海徐汇区梅陇路130号华东理工大学内"},{"poiid":"B2094655D26DAAFB4698","title":"凌云新村","lon":"121.41817","lat":"31.14193","category":"47","category_name":"住宅区","address":"虹梅南路126弄"},{"poiid":"B2094757D069A0FF459A","title":"华东理工大学研究生楼","lon":"121.42620086","lat":"31.141109466","category":"500","category_name":"未知分类","address":"上海徐汇区梅陇路130号华东理工大学徐汇校区"},{"poiid":"B2094757D06FA1F94898","title":"上海轨道交通梅陇基地","lon":"121.41984104","lat":"31.148421362","category":"260","category_name":"其他","address":"上海市徐汇区老沪闵路1号(沪闵路口)"},{"poiid":"B2094757D06FA5FA409D","title":"华东理工大学四教","lon":"121.42423009","lat":"31.142512028","category":"253","category_name":"校园生活","address":"上海徐汇区梅陇路130号"},{"poiid":"B2094757D068A0FB4493","title":"华东理工大学第三食堂","lon":"121.422156618","lat":"31.1459460993","category":"253","category_name":"校园生活","address":"徐汇区梅陇路130号华东理工大学内(近天等路)"},{"poiid":"B2094757D068A3FB4793","title":"华东理工大学八教","lon":"121.426987","lat":"31.142914","category":"253","category_name":"校园生活","address":"上海徐汇区梅陇路130号"},{"poiid":"B209475DD16EAAFC4499","title":"上海南站","lon":"121.422149","lat":"31.148414","category":"500","category_name":"未知分类","address":"上海市 上海南站"},{"poiid":"B2094757D068A2F8499C","title":"85度C(龙州店)","lon":"121.42244","lat":"31.13908","category":"112","category_name":"糕饼店","address":"徐汇区龙州路995号(近梅陇路)"},{"poiid":"B2094751DA69A4FB439E","title":"东方明珠","lon":"121.418119","lat":"31.145922","category":"500","category_name":"未知分类","address":"上海市黄浦区外滩"},{"poiid":"B2094655D26FA5FC4892","title":"华理苑","lon":"121.42076","lat":"31.144419","category":"47","category_name":"住宅区","address":"上海徐汇区梅陇路130弄"},{"poiid":"B2094757D16AAAFB429C","title":"华东理工大学健身房","lon":"121.421625","lat":"31.142972","category":"148","category_name":"美容美发店","address":"上海徐汇校区大操场旁"},{"poiid":"B2094757D06AA1FD469C","title":"市国资委党校","lon":"121.42493438","lat":"31.140525817","category":"500","category_name":"未知分类","address":"上海徐汇区天等路501号"},{"poiid":"B2094655D264ABFB409D","title":"华东理工大学商学院","lon":"121.42257","lat":"31.14301","category":"52","category_name":"高等院校","address":"上海市徐汇区梅陇路130号"},{"poiid":"B2094757D664AAFB4393","title":"华东理工教工食堂","lon":"121.42533","lat":"31.14084","category":"68","category_name":"快餐厅","address":"徐汇区梅陇路130号华东理工大学西门(近天等路)"},{"poiid":"B2094655D26BAAFD4092","title":"华东理工大学游泳池","lon":"121.42037","lat":"31.14171","category":"231","category_name":"游泳馆","address":"徐汇区梅陇路130号华东理工大学内(近天等路)"},{"poiid":"B2094655D265A1F4439B","title":"华东理工大学第二学生食堂","lon":"121.42208","lat":"31.14438","category":"257","category_name":"中餐厅","address":""},{"poiid":"B2094757D068AAF94293","title":"华东理工大学五教","lon":"121.425336","lat":"31.140846","category":"253","category_name":"校园生活","address":"上海徐汇区梅陇路130号"},{"poiid":"B2094757D06AA3F4439C","title":"华东理工大学14舍","lon":"121.42232985","lat":"31.145487273","category":"500","category_name":"未知分类","address":"上海徐汇区梅陇路130号华东理工大学徐汇校区"},{"poiid":"B2094757D568ABFC4093","title":"华东理工大学商学院MBA教育中心","lon":"121.423591","lat":"31.143171","category":"52","category_name":"高等院校","address":"中国上海市徐汇区"},{"poiid":"B2094655D26FA5F84093","title":"金塘小区","lon":"121.4259","lat":"31.148438","category":"47","category_name":"住宅区","address":"老沪闵路333弄1-97号"},{"poiid":"B2094757D169A6F44198","title":"百乐迪量贩KTV","lon":"121.425118857","lat":"31.1414194918","category":"170","category_name":"KTV","address":"徐汇区龙州路995号华轻轻纺市场4楼(近梅陇路)"},{"poiid":"B2094757D168A3F9499D","title":"华东理工大学八舍","lon":"121.423198798","lat":"31.1457553742","category":"500","category_name":"未知分类","address":"上海梅陇路130号"},{"poiid":"B2094757D16FA1FB499A","title":"华东理工大学大草坪","lon":"121.424604447","lat":"31.1439000415","category":"500","category_name":"未知分类","address":"上海市徐汇区梅陇路130号"},{"poiid":"B2094750DA6BA0FB4899","title":"华东理工大学学生宿舍15舍","lon":"121.421913","lat":"31.145402","category":"500","category_name":"未知分类","address":null},{"poiid":"B2094655D264A1FA4098","title":"华东理工大学化学与分子工程学院","lon":"121.42345","lat":"31.14424","category":"52","category_name":"高等院校","address":""},{"poiid":"B2094757D06AA6F8469F","title":"梅陇一村","lon":"121.42","lat":"31.1424","category":"500","category_name":"未知分类","address":"上海中环路梅陇路"},{"poiid":"B2094655D26BA6F94399","title":"华东理工大学化学实验教学中心","lon":"121.42345","lat":"31.14424","category":"52","category_name":"高等院校","address":""},{"poiid":"B2094757D16AABF44898","title":"国际妇幼保健医院产科","lon":"121.419334257","lat":"31.1462648889","category":"162","category_name":"医院","address":"上海市"},{"poiid":"B2094757D168A5FA459D","title":"吉龙豆捞","lon":"121.42448","lat":"31.13532","category":"86","category_name":"火锅店","address":"徐汇区龙州路925号(梅陇七村对面)"},{"poiid":"B2094757D064A3FB4798","title":"华东理工大学15舍537","lon":"121.4211959","lat":"31.145243068","category":"500","category_name":"未知分类","address":null},{"poiid":"B2094757D065A1FA4692","title":"华东理工华林餐厅","lon":"121.42533","lat":"31.14084","category":"68","category_name":"快餐厅","address":"徐汇区梅陇路130号华东理工大学内(近天等路)"},{"poiid":"B2094753D76EABF84398","title":"华东理工大学","lon":"121.421951","lat":"31.14623","category":"500","category_name":"未知分类","address":"上海市 梅陇路130号"},{"poiid":"B2094655D264ABF5429E","title":"留学生公寓2","lon":"121.42149","lat":"31.14342","category":"47","category_name":"住宅区","address":""},{"poiid":"B2094655D264AAFD429C","title":"华东理工大学物理系","lon":"121.42403","lat":"31.14386","category":"52","category_name":"高等院校","address":""},{"poiid":"B2094655D264ABF5409E","title":"华东理工大学数学系","lon":"121.42403","lat":"31.14385","category":"52","category_name":"高等院校","address":""},{"poiid":"B2094757D16FABF44993","title":"华东理工大学徐汇校区21舍","lon":"121.425744939","lat":"31.1469531584","category":"500","category_name":"未知分类","address":"上海徐汇区梅陇路130号华东理工大学徐汇校区"},{"poiid":"B2094655D264ABF5429F","title":"华东理工大学资源与环境专业实验教学中心","lon":"121.42497","lat":"31.14507","category":"52","category_name":"高等院校","address":""},{"poiid":"B2094757D06AA6FC459A","title":"华东理工大学八角亭","lon":"121.422180349","lat":"31.1411939693","category":"260","category_name":"其他","address":"上海华东理工大学内(徐汇区梅陇路130号)"},{"poiid":"B2094753D56AA1FE429E","title":"梅赛德斯-奔驰文化中心","lon":"121.418167","lat":"31.142641","category":"500","category_name":"未知分类","address":"上海市 上海市浦东新区世博大道1200号(近上南路)"},{"poiid":"B2094757D069A6F8439A","title":"coco都可茶饮(锦江乐园店)","lon":"121.42376891","lat":"31.144187647","category":"500","category_name":"未知分类","address":"上海1号线锦江乐园站旁边"},{"poiid":"B2094655D265AAF9459E","title":"华东理工大学发酵工程实验教学中心","lon":"121.42497","lat":"31.14507","category":"52","category_name":"高等院校","address":""},{"poiid":"B2094655D26EA2FE499B","title":"华理苑(南门)","lon":"121.41973","lat":"31.14396","category":"47","category_name":"住宅区","address":"凌云路"},{"poiid":"B2094757D069A3FA459A","title":"全家便利(锦江乐园站店)","lon":"121.419387817","lat":"31.1433238983","category":"117","category_name":"便民商店/便利店","address":"上海闵行区地铁一号线锦江乐园站北2口"},{"poiid":"B2094655D26DA5FF489D","title":"华东理工大学","lon":"121.425","lat":"31.14313","category":"671","category_name":"高校中心点","address":"徐汇区梅陇路130号"},{"poiid":"B2094757D06FAAF84398","title":"华东理工大学图书馆","lon":"121.42208612","lat":"31.142591023","category":"253","category_name":"校园生活","address":"徐汇区梅陇路130号华东理工大学内(近天等路)"},{"poiid":"B2094757D06FA2F44192","title":"华东理工大学七教","lon":"121.42448527","lat":"31.141593448","category":"253","category_name":"校园生活","address":"上海徐汇区梅陇路130号"},{"poiid":"B2094757D068A7F94493","title":"上海地铁梅陇基地","lon":"121.42351945","lat":"31.149536729","category":"46","category_name":"楼宇","address":"上海市徐汇区老沪闵路1号(沪闵路口)"},{"poiid":"B2094757D06FA5FF449A","title":"梅陇文化馆","lon":"121.42175","lat":"31.13916","category":"260","category_name":"其他","address":"徐汇区梅陇路415号(近凌云路)"},{"poiid":"B2094757D06FA1F8419D","title":"华轻梅陇购物中心","lon":"121.421973848","lat":"31.1393005866","category":"119","category_name":"商场","address":"上海徐汇区梅陇路255号(近龙州路)"},{"poiid":"B2094757D068ABF4459B","title":"华东理工大学大操场","lon":"121.424847","lat":"31.143529","category":"253","category_name":"校园生活","address":"上海徐汇区梅陇路130号华东理工大学内"},{"poiid":"B2094655D26DAAFB4698","title":"凌云新村","lon":"121.41817","lat":"31.14193","category":"47","category_name":"住宅区","address":"虹梅南路126弄"},{"poiid":"B2094757D069A0FF459A","title":"华东理工大学研究生楼","lon":"121.42620086","lat":"31.141109466","category":"500","category_name":"未知分类","address":"上海徐汇区梅陇路130号华东理工大学徐汇校区"},{"poiid":"B2094757D06FA1F94898","title":"上海轨道交通梅陇基地","lon":"121.41984104","lat":"31.148421362","category":"260","category_name":"其他","address":"上海市徐汇区老沪闵路1号(沪闵路口)"},{"poiid":"B2094757D06FA5FA409D","title":"华东理工大学四教","lon":"121.42423009","lat":"31.142512028","category":"253","category_name":"校园生活","address":"上海徐汇区梅陇路130号"},{"poiid":"B2094757D068A0FB4493","title":"华东理工大学第三食堂","lon":"121.422156618","lat":"31.1459460993","category":"253","category_name":"校园生活","address":"徐汇区梅陇路130号华东理工大学内(近天等路)"},{"poiid":"B2094757D068A3FB4793","title":"华东理工大学八教","lon":"121.426987","lat":"31.142914","category":"253","category_name":"校园生活","address":"上海徐汇区梅陇路130号"},{"poiid":"B209475DD16EAAFC4499","title":"上海南站","lon":"121.422149","lat":"31.148414","category":"500","category_name":"未知分类","address":"上海市 上海南站"},{"poiid":"B2094757D068A2F8499C","title":"85度C(龙州店)","lon":"121.42244","lat":"31.13908","category":"112","category_name":"糕饼店","address":"徐汇区龙州路995号(近梅陇路)"},{"poiid":"B2094751DA69A4FB439E","title":"东方明珠","lon":"121.418119","lat":"31.145922","category":"500","category_name":"未知分类","address":"上海市黄浦区外滩"},{"poiid":"B2094655D26FA5FC4892","title":"华理苑","lon":"121.42076","lat":"31.144419","category":"47","category_name":"住宅区","address":"上海徐汇区梅陇路130弄"},{"poiid":"B2094757D16AAAFB429C","title":"华东理工大学健身房","lon":"121.421625","lat":"31.142972","category":"148","category_name":"美容美发店","address":"上海徐汇校区大操场旁"},{"poiid":"B2094757D06AA1FD469C","title":"市国资委党校","lon":"121.42493438","lat":"31.140525817","category":"500","category_name":"未知分类","address":"上海徐汇区天等路501号"},{"poiid":"B2094655D264ABFB409D","title":"华东理工大学商学院","lon":"121.42257","lat":"31.14301","category":"52","category_name":"高等院校","address":"上海市徐汇区梅陇路130号"},{"poiid":"B2094757D664AAFB4393","title":"华东理工教工食堂","lon":"121.42533","lat":"31.14084","category":"68","category_name":"快餐厅","address":"徐汇区梅陇路130号华东理工大学西门(近天等路)"},{"poiid":"B2094655D26BAAFD4092","title":"华东理工大学游泳池","lon":"121.42037","lat":"31.14171","category":"231","category_name":"游泳馆","address":"徐汇区梅陇路130号华东理工大学内(近天等路)"},{"poiid":"B2094655D265A1F4439B","title":"华东理工大学第二学生食堂","lon":"121.42208","lat":"31.14438","category":"257","category_name":"中餐厅","address":""},{"poiid":"B2094757D068AAF94293","title":"华东理工大学五教","lon":"121.425336","lat":"31.140846","category":"253","category_name":"校园生活","address":"上海徐汇区梅陇路130号"},{"poiid":"B2094757D06AA3F4439C","title":"华东理工大学14舍","lon":"121.42232985","lat":"31.145487273","category":"500","category_name":"未知分类","address":"上海徐汇区梅陇路130号华东理工大学徐汇校区"},{"poiid":"B2094757D568ABFC4093","title":"华东理工大学商学院MBA教育中心","lon":"121.423591","lat":"31.143171","category":"52","category_name":"高等院校","address":"中国上海市徐汇区"},{"poiid":"B2094655D26FA5F84093","title":"金塘小区","lon":"121.4259","lat":"31.148438","category":"47","category_name":"住宅区","address":"老沪闵路333弄1-97号"},{"poiid":"B2094757D169A6F44198","title":"百乐迪量贩KTV","lon":"121.425118857","lat":"31.1414194918","category":"170","category_name":"KTV","address":"徐汇区龙州路995号华轻轻纺市场4楼(近梅陇路)"},{"poiid":"B2094757D168A3F9499D","title":"华东理工大学八舍","lon":"121.423198798","lat":"31.1457553742","category":"500","category_name":"未知分类","address":"上海梅陇路130号"},{"poiid":"B2094757D16FA1FB499A","title":"华东理工大学大草坪","lon":"121.424604447","lat":"31.1439000415","category":"500","category_name":"未知分类","address":"上海市徐汇区梅陇路130号"},{"poiid":"B2094750DA6BA0FB4899","title":"华东理工大学学生宿舍15舍","lon":"121.421913","lat":"31.145402","category":"500","category_name":"未知分类","address":null},{"poiid":"B2094655D264A1FA4098","title":"华东理工大学化学与分子工程学院","lon":"121.42345","lat":"31.14424","category":"52","category_name":"高等院校","address":""},{"poiid":"B2094757D06AA6F8469F","title":"梅陇一村","lon":"121.42","lat":"31.1424","category":"500","category_name":"未知分类","address":"上海中环路梅陇路"},{"poiid":"B2094655D26BA6F94399","title":"华东理工大学化学实验教学中心","lon":"121.42345","lat":"31.14424","category":"52","category_name":"高等院校","address":""},{"poiid":"B2094757D16AABF44898","title":"国际妇幼保健医院产科","lon":"121.419334257","lat":"31.1462648889","category":"162","category_name":"医院","address":"上海市"},{"poiid":"B2094757D168A5FA459D","title":"吉龙豆捞","lon":"121.42448","lat":"31.13532","category":"86","category_name":"火锅店","address":"徐汇区龙州路925号(梅陇七村对面)"},{"poiid":"B2094757D064A3FB4798","title":"华东理工大学15舍537","lon":"121.4211959","lat":"31.145243068","category":"500","category_name":"未知分类","address":null},{"poiid":"B2094757D065A1FA4692","title":"华东理工华林餐厅","lon":"121.42533","lat":"31.14084","category":"68","category_name":"快餐厅","address":"徐汇区梅陇路130号华东理工大学内(近天等路)"},{"poiid":"B2094753D76EABF84398","title":"华东理工大学","lon":"121.421951","lat":"31.14623","category":"500","category_name":"未知分类","address":"上海市 梅陇路130号"},{"poiid":"B2094655D264ABF5429E","title":"留学生公寓2","lon":"121.42149","lat":"31.14342","category":"47","category_name":"住宅区","address":""},{"poiid":"B2094655D264AAFD429C","title":"华东理工大学物理系","lon":"121.42403","lat":"31.14386","category":"52","category_name":"高等院校","address":""},{"poiid":"B2094655D264ABF5409E","title":"华东理工大学数学系","lon":"121.42403","lat":"31.14385","category":"52","category_name":"高等院校","address":""},{"poiid":"B2094757D16FABF44993","title":"华东理工大学徐汇校区21舍","lon":"121.425744939","lat":"31.1469531584","category":"500","category_name":"未知分类","address":"上海徐汇区梅陇路130号华东理工大学徐汇校区"},{"poiid":"B2094655D264ABF5429F","title":"华东理工大学资源与环境专业实验教学中心","lon":"121.42497","lat":"31.14507","category":"52","category_name":"高等院校","address":""},{"poiid":"B2094757D06AA6FC459A","title":"华东理工大学八角亭","lon":"121.422180349","lat":"31.1411939693","category":"260","category_name":"其他","address":"上海华东理工大学内(徐汇区梅陇路130号)"},{"poiid":"B2094753D56AA1FE429E","title":"梅赛德斯-奔驰文化中心","lon":"121.418167","lat":"31.142641","category":"500","category_name":"未知分类","address":"上海市 上海市浦东新区世博大道1200号(近上南路)"},{"poiid":"B2094757D069A6F8439A","title":"coco都可茶饮(锦江乐园店)","lon":"121.42376891","lat":"31.144187647","category":"500","category_name":"未知分类","address":"上海1号线锦江乐园站旁边"},{"poiid":"B2094655D265AAF9459E","title":"华东理工大学发酵工程实验教学中心","lon":"121.42497","lat":"31.14507","category":"52","category_name":"高等院校","address":""},{"poiid":"B2094655D26EA2FE499B","title":"华理苑(南门)","lon":"121.41973","lat":"31.14396","category":"47","category_name":"住宅区","address":"凌云路"},{"poiid":"B2094757D069A3FA459A","title":"全家便利(锦江乐园站店)","lon":"121.419387817","lat":"31.1433238983","category":"117","category_name":"便民商店/便利店","address":"上海闵行区地铁一号线锦江乐园站北2口"}]