[{"poiid":"B2094655D36CA5FD409A","title":"打浦桥","lon":"121.46726","lat":"31.20405","category":"38","category_name":"公交车站","address":""},{"poiid":"B2094655D264A7F5489C","title":"日月光中心广场","lon":"121.46825","lat":"31.20647","category":"46","category_name":"楼宇","address":"徐家汇路618号（靠近瑞金二路）"},{"poiid":"B2094757D06EAAFF4099","title":"BLACK MAGIC CHOCOLATE","lon":"121.468566087","lat":"31.2065334114","category":"67","category_name":"甜品店","address":"卢湾区徐家汇路618号日月光中心广场1楼F07号商铺(近瑞金二路)"},{"poiid":"B2094753D76FAAFA449C","title":"上海滩国泰旗舰店","lon":"121.466011","lat":"31.216125","category":"249","category_name":"购物服务","address":"淮海中路868号"},{"poiid":"B209475CD564A7F84292","title":"上海滩新天地店","lon":"121.47463","lat":"31.22164","category":"119","category_name":"商场","address":"\"太仓路181弄新天地北里15号\r\n\""},{"poiid":"B209475CD564A7F8439E","title":"上海滩中信泰富店","lon":"121.45602","lat":"31.22851","category":"119","category_name":"商场","address":"\"南京西路1168号中信泰富广场，店铺号221.\r\n\""},{"poiid":"B2094750D56EA4F8419D","title":"纯K(打浦桥店)","lon":"121.468788","lat":"31.206827","category":"170","category_name":"KTV","address":"上海市黄浦区瑞金二路泰康路口（日月光中心广场1楼）"},{"poiid":"B2094750D66CA6FE459E","title":"便所欢乐主题餐厅","lon":"121.468437","lat":"31.207887","category":"247","category_name":"餐饮美食","address":"卢湾区泰康路274弄田子坊5号(近谭木匠)"},{"poiid":"B2094750D56DA5FD469D","title":"日月光翠华茶餐厅","lon":"121.468162","lat":"31.207288","category":"247","category_name":"餐饮美食","address":null},{"poiid":"B2094757D06EABF5439F","title":"山茶花韩国家庭料理","lon":"121.467467","lat":"31.204069","category":"96","category_name":"韩国料理","address":"卢湾区徐家汇路618号日月光中心广场4楼F-11号商铺(近瑞金二路)"},{"poiid":"B2094757D06EAAFF489F","title":"谷乐滋意式屋 Cafe Grazie","lon":"121.46812","lat":"31.20555","category":"94","category_name":"西餐厅","address":"卢湾区徐家汇路618号日月光中心广场5楼F09号商铺(瑞金南路肇嘉浜路)"},{"poiid":"B2094752DB6FA0F44299","title":"DAZZLING CAFE","lon":"121.468246","lat":"31.206467","category":"65","category_name":"咖啡厅","address":"卢湾区徐家汇路618号日月光中心1楼中庭广场E-03铺位"},{"poiid":"B2094757D06EAAF8409B","title":"满记甜品 日月光广场店 Honeymoon Dessert","lon":"121.467979","lat":"31.206339","category":"67","category_name":"甜品店","address":"卢湾区徐家汇路618号日月光广场B2楼F-11(近瑞金二路)"},{"poiid":"B2094750D269A1FC439C","title":"摩休敦纳韩国年糕店","lon":"121.467727","lat":"31.207105","category":"247","category_name":"餐饮美食","address":"卢湾区徐家汇路618号B2美食广场F-38号铺(近瑞金二路)"},{"poiid":"B2094751D569A7FD469C","title":"Mizzi cafe","lon":"121.46782","lat":"31.206643","category":"247","category_name":"餐饮美食","address":"卢湾区徐家汇路618号日月光中心广场1楼E04号铺(近瑞金二路)"},{"poiid":"B2094757DA6EAAFD439E","title":"丸龟制面","lon":"121.468319892881","lat":"31.2061028718305","category":"68","category_name":"快餐厅","address":"卢湾区徐家汇路618号日月光中心广场B2楼F40商铺(近瑞金二路)"},{"poiid":"B2094757D06FA1F84692","title":"江户鱼米","lon":"121.468374028","lat":"31.2064564833","category":"95","category_name":"日本料理","address":"卢湾区徐家汇路618号日月光中心广场B2楼T20B(麦当劳对面)(靠近瑞金二路)"},{"poiid":"B2094757D168A5FA449A","title":"天辣","lon":"121.46813273","lat":"31.207001805","category":"247","category_name":"餐饮美食","address":"上海日月光"},{"poiid":"B2094750DA6DA6FF4198","title":"台北纯k","lon":"121.469184","lat":"31.207139","category":"500","category_name":"未知分类","address":"卢湾区日月光"},{"poiid":"B2094757D06FA2FA449C","title":"藏珑泰极(田子坊店)","lon":"121.4681","lat":"31.20708","category":"99","category_name":"泰国／越南菜品餐厅","address":"卢湾区泰康路田子坊248弄14号(近瑞金二路)"},{"poiid":"B2094750DB6DA5F4419C","title":"台北纯k日月光店","lon":"121.468612","lat":"31.207105","category":"500","category_name":"未知分类","address":null},{"poiid":"B2094757D06FA3F4489F","title":"PANKOO釜山料理(日月光广场店)","lon":"121.4689793","lat":"31.206212707","category":"96","category_name":"韩国料理","address":"上海卢湾区徐家汇路618号日月光广场5楼(近瑞金二路)"},{"poiid":"B2094751D564A2FD499B","title":"小辉哥火锅","lon":"121.468735","lat":"31.206894","category":"247","category_name":"餐饮美食","address":"卢湾区徐家汇路618号日月光中心广场1楼E-02室(近泰康路)"},{"poiid":"B2094757D06FA2FA499F","title":"大渔铁板烧 日月光中心店 TAIRYO","lon":"121.46778","lat":"31.20558","category":"268","category_name":"自助","address":"卢湾区徐家汇路618号日月光广场4楼(近瑞金二路)"},{"poiid":"B2094752D26AAAFB499B","title":"CAFE&BAR PRONTO","lon":"121.468735","lat":"31.206696","category":"247","category_name":"餐饮美食","address":"徐汇区徐家汇路618号日月光中心广场1楼露天广场E-01号铺"},{"poiid":"B2094757D06FAAFA4892","title":"小杨生煎(日月光店)","lon":"121.468174738","lat":"31.2062027882","category":"68","category_name":"快餐厅","address":"卢湾区徐家汇路618号日月光广场B2楼(近瑞金二路)"},{"poiid":"B2094757D06FA1FA459C","title":"Allans","lon":"121.46839365","lat":"31.2062613221","category":"113","category_name":"冷饮店","address":"卢湾区徐家汇路618号日月光广场1楼F-03中庭露天广场"},{"poiid":"B2094757D16FA5F44698","title":"山茶花韩国料理(日月光中心)","lon":"121.46810573","lat":"31.206278789","category":"247","category_name":"餐饮美食","address":"上海卢湾区徐家汇路618号日月光中心4F"},{"poiid":"B2094757D06FA4FA479A","title":"王子殿下 Tono's Palace 131","lon":"121.468004","lat":"31.206499538","category":"260","category_name":"其他","address":"卢湾区泰康路248弄田子坊10号前门(近瑞金二路)"},{"poiid":"B2094757D06EAAFB419D","title":"奔高","lon":"121.467991","lat":"31.206362","category":"67","category_name":"甜品店","address":"卢湾区徐家汇路618号日月光中心广场B2-T17室(近瑞金二路)"},{"poiid":"B2094752D768A2FF4998","title":"冰火名家巫山烤全鱼","lon":"121.46824564025883","lat":"31.20683075670523","category":"247","category_name":"餐饮美食","address":"徐家汇路618号日月光中心广场4楼-22号铺(近打浦路) "},{"poiid":"B2094750D66FA3FF409E","title":"便便餐厅","lon":"121.46836","lat":"31.207742","category":"247","category_name":"餐饮美食","address":null},{"poiid":"B2094757D06EAAFE4293","title":"董记茶餐厅","lon":"121.467969","lat":"31.206369","category":"72","category_name":"广东菜","address":"徐家汇路618号日月光中心广场近瑞金二路"},{"poiid":"B2094750D66FA1F5469A","title":"翠华餐厅（日月光广场）","lon":"121.468521","lat":"31.206748","category":"500","category_name":"未知分类","address":null},{"poiid":"B2094757D169A1F94692","title":"呷哺呷哺 日月光店","lon":"121.4681219","lat":"31.2055526","category":"86","category_name":"火锅店","address":"卢湾区徐家汇路618号B2楼B02室、B02A1室"},{"poiid":"B2094750D56EA0FB439B","title":"COSTA咖啡日月光店","lon":"121.467819","lat":"31.206855","category":"247","category_name":"餐饮美食","address":null},{"poiid":"B2094757D664A3F84293","title":"阁楼上的餐厅 NO.37DiningBar","lon":"121.468673734","lat":"31.207928313","category":"257","category_name":"中餐厅","address":"卢湾区建国中路155弄田子坊37号(近瑞金二路)"},{"poiid":"B2094757D068A2F9429B","title":"新上海","lon":"121.46824958","lat":"31.20647147","category":"76","category_name":"上海菜","address":"卢湾区徐家汇路618号日月光中心广场4楼F19室(近瑞金二路)"},{"poiid":"B2094655D268A1F9459A","title":"Bell Cafe & Bar","lon":"121.46857","lat":"31.20774","category":"65","category_name":"咖啡厅","address":"卢湾区泰康路248弄11号后门(近瑞金二路)"},{"poiid":"B2094757D06EABF5489A","title":"打浦桥地铁站","lon":"121.468768","lat":"31.206111","category":"36","category_name":"地铁站","address":"上海轨道交通 九号线 轨交打浦桥站 9"},{"poiid":"B2094757D06FA1FE4593","title":"Tai Wine太红酒","lon":"121.4687479","lat":"31.2076454","category":"172","category_name":"酒吧","address":"上海卢湾区泰康路248弄田子坊38号(近瑞金二路)"},{"poiid":"B2094757D069A0F84893","title":"正豪大大鸡排(日月光店)","lon":"121.46829773","lat":"31.206971804","category":"68","category_name":"快餐厅","address":"卢湾区徐家汇路618号日月光中心广场B2楼(近打浦路)"},{"poiid":"B2094752D66EAAF44498","title":"小辉哥火锅","lon":"121.469155","lat":"31.20741","category":"247","category_name":"餐饮美食","address":"卢湾区徐家汇路618号日月光广场1F-E-02室"},{"poiid":"B2094757D66BA6F8499D","title":"喜空 CSky","lon":"121.468898","lat":"31.207786","category":"67","category_name":"甜品店","address":"上海卢湾区泰康路264号田子坊后门2楼起(思南路瑞金二路间)  "},{"poiid":"B2094750D16AABFB4993","title":"starbucks日月光店","lon":"121.468864","lat":"31.207487","category":"247","category_name":"餐饮美食","address":"泰康路"},{"poiid":"B2094750D16AA2F44993","title":"塔哈尔","lon":"121.46813","lat":"31.20648","category":"90","category_name":"清真餐馆","address":"卢湾区徐家汇路618号日月光中心广场B2楼(近田子坊)"},{"poiid":"B2094757D06EAAFD4498","title":"麦当劳(日月光餐厅)","lon":"121.46867578","lat":"31.206947655","category":"68","category_name":"快餐厅","address":"卢湾区徐家汇路618号日月光中心广场B2-F-22号商铺(近瑞金二路)"},{"poiid":"B2094757D068AAFC4699","title":"En Grill &amp; Bar","lon":"121.46833","lat":"31.2072","category":"95","category_name":"日本料理","address":"卢湾区泰康路田子坊248弄20号(近瑞金二路)"},{"poiid":"B2094753D76DABFF419C","title":"镰仓pasta","lon":"121.469009","lat":"31.207704","category":"500","category_name":"未知分类","address":"上海市 泰康路"},{"poiid":"B2094757D06FA5F54293","title":"丹","lon":"121.46917","lat":"31.20738","category":"260","category_name":"其他","address":"卢湾区泰康路248弄41号田子坊后门(近瑞金二路)"},{"poiid":"B2094655D36CA5FD409A","title":"打浦桥","lon":"121.46726","lat":"31.20405","category":"38","category_name":"公交车站","address":""},{"poiid":"B2094655D264A7F5489C","title":"日月光中心广场","lon":"121.46825","lat":"31.20647","category":"46","category_name":"楼宇","address":"徐家汇路618号（靠近瑞金二路）"},{"poiid":"B2094757D06EAAFF4099","title":"BLACK MAGIC CHOCOLATE","lon":"121.468566087","lat":"31.2065334114","category":"67","category_name":"甜品店","address":"卢湾区徐家汇路618号日月光中心广场1楼F07号商铺(近瑞金二路)"},{"poiid":"B2094753D76FAAFA449C","title":"上海滩国泰旗舰店","lon":"121.466011","lat":"31.216125","category":"249","category_name":"购物服务","address":"淮海中路868号"},{"poiid":"B209475CD564A7F84292","title":"上海滩新天地店","lon":"121.47463","lat":"31.22164","category":"119","category_name":"商场","address":"\"太仓路181弄新天地北里15号\r\n\""},{"poiid":"B209475CD564A7F8439E","title":"上海滩中信泰富店","lon":"121.45602","lat":"31.22851","category":"119","category_name":"商场","address":"\"南京西路1168号中信泰富广场，店铺号221.\r\n\""},{"poiid":"B2094750D56EA4F8419D","title":"纯K(打浦桥店)","lon":"121.468788","lat":"31.206827","category":"170","category_name":"KTV","address":"上海市黄浦区瑞金二路泰康路口（日月光中心广场1楼）"},{"poiid":"B2094750D66CA6FE459E","title":"便所欢乐主题餐厅","lon":"121.468437","lat":"31.207887","category":"247","category_name":"餐饮美食","address":"卢湾区泰康路274弄田子坊5号(近谭木匠)"},{"poiid":"B2094750D56DA5FD469D","title":"日月光翠华茶餐厅","lon":"121.468162","lat":"31.207288","category":"247","category_name":"餐饮美食","address":null},{"poiid":"B2094757D06EABF5439F","title":"山茶花韩国家庭料理","lon":"121.467467","lat":"31.204069","category":"96","category_name":"韩国料理","address":"卢湾区徐家汇路618号日月光中心广场4楼F-11号商铺(近瑞金二路)"},{"poiid":"B2094757D06EAAFF489F","title":"谷乐滋意式屋 Cafe Grazie","lon":"121.46812","lat":"31.20555","category":"94","category_name":"西餐厅","address":"卢湾区徐家汇路618号日月光中心广场5楼F09号商铺(瑞金南路肇嘉浜路)"},{"poiid":"B2094752DB6FA0F44299","title":"DAZZLING CAFE","lon":"121.468246","lat":"31.206467","category":"65","category_name":"咖啡厅","address":"卢湾区徐家汇路618号日月光中心1楼中庭广场E-03铺位"},{"poiid":"B2094757D06EAAF8409B","title":"满记甜品 日月光广场店 Honeymoon Dessert","lon":"121.467979","lat":"31.206339","category":"67","category_name":"甜品店","address":"卢湾区徐家汇路618号日月光广场B2楼F-11(近瑞金二路)"},{"poiid":"B2094750D269A1FC439C","title":"摩休敦纳韩国年糕店","lon":"121.467727","lat":"31.207105","category":"247","category_name":"餐饮美食","address":"卢湾区徐家汇路618号B2美食广场F-38号铺(近瑞金二路)"},{"poiid":"B2094751D569A7FD469C","title":"Mizzi cafe","lon":"121.46782","lat":"31.206643","category":"247","category_name":"餐饮美食","address":"卢湾区徐家汇路618号日月光中心广场1楼E04号铺(近瑞金二路)"},{"poiid":"B2094757DA6EAAFD439E","title":"丸龟制面","lon":"121.468319892881","lat":"31.2061028718305","category":"68","category_name":"快餐厅","address":"卢湾区徐家汇路618号日月光中心广场B2楼F40商铺(近瑞金二路)"},{"poiid":"B2094757D06FA1F84692","title":"江户鱼米","lon":"121.468374028","lat":"31.2064564833","category":"95","category_name":"日本料理","address":"卢湾区徐家汇路618号日月光中心广场B2楼T20B(麦当劳对面)(靠近瑞金二路)"},{"poiid":"B2094757D168A5FA449A","title":"天辣","lon":"121.46813273","lat":"31.207001805","category":"247","category_name":"餐饮美食","address":"上海日月光"},{"poiid":"B2094750DA6DA6FF4198","title":"台北纯k","lon":"121.469184","lat":"31.207139","category":"500","category_name":"未知分类","address":"卢湾区日月光"},{"poiid":"B2094757D06FA2FA449C","title":"藏珑泰极(田子坊店)","lon":"121.4681","lat":"31.20708","category":"99","category_name":"泰国／越南菜品餐厅","address":"卢湾区泰康路田子坊248弄14号(近瑞金二路)"},{"poiid":"B2094750DB6DA5F4419C","title":"台北纯k日月光店","lon":"121.468612","lat":"31.207105","category":"500","category_name":"未知分类","address":null},{"poiid":"B2094757D06FA3F4489F","title":"PANKOO釜山料理(日月光广场店)","lon":"121.4689793","lat":"31.206212707","category":"96","category_name":"韩国料理","address":"上海卢湾区徐家汇路618号日月光广场5楼(近瑞金二路)"},{"poiid":"B2094751D564A2FD499B","title":"小辉哥火锅","lon":"121.468735","lat":"31.206894","category":"247","category_name":"餐饮美食","address":"卢湾区徐家汇路618号日月光中心广场1楼E-02室(近泰康路)"},{"poiid":"B2094757D06FA2FA499F","title":"大渔铁板烧 日月光中心店 TAIRYO","lon":"121.46778","lat":"31.20558","category":"268","category_name":"自助","address":"卢湾区徐家汇路618号日月光广场4楼(近瑞金二路)"},{"poiid":"B2094752D26AAAFB499B","title":"CAFE&BAR PRONTO","lon":"121.468735","lat":"31.206696","category":"247","category_name":"餐饮美食","address":"徐汇区徐家汇路618号日月光中心广场1楼露天广场E-01号铺"},{"poiid":"B2094757D06FAAFA4892","title":"小杨生煎(日月光店)","lon":"121.468174738","lat":"31.2062027882","category":"68","category_name":"快餐厅","address":"卢湾区徐家汇路618号日月光广场B2楼(近瑞金二路)"},{"poiid":"B2094757D06FA1FA459C","title":"Allans","lon":"121.46839365","lat":"31.2062613221","category":"113","category_name":"冷饮店","address":"卢湾区徐家汇路618号日月光广场1楼F-03中庭露天广场"},{"poiid":"B2094757D16FA5F44698","title":"山茶花韩国料理(日月光中心)","lon":"121.46810573","lat":"31.206278789","category":"247","category_name":"餐饮美食","address":"上海卢湾区徐家汇路618号日月光中心4F"},{"poiid":"B2094757D06FA4FA479A","title":"王子殿下 Tono's Palace 131","lon":"121.468004","lat":"31.206499538","category":"260","category_name":"其他","address":"卢湾区泰康路248弄田子坊10号前门(近瑞金二路)"},{"poiid":"B2094757D06EAAFB419D","title":"奔高","lon":"121.467991","lat":"31.206362","category":"67","category_name":"甜品店","address":"卢湾区徐家汇路618号日月光中心广场B2-T17室(近瑞金二路)"},{"poiid":"B2094752D768A2FF4998","title":"冰火名家巫山烤全鱼","lon":"121.46824564025883","lat":"31.20683075670523","category":"247","category_name":"餐饮美食","address":"徐家汇路618号日月光中心广场4楼-22号铺(近打浦路) "},{"poiid":"B2094750D66FA3FF409E","title":"便便餐厅","lon":"121.46836","lat":"31.207742","category":"247","category_name":"餐饮美食","address":null},{"poiid":"B2094757D06EAAFE4293","title":"董记茶餐厅","lon":"121.467969","lat":"31.206369","category":"72","category_name":"广东菜","address":"徐家汇路618号日月光中心广场近瑞金二路"},{"poiid":"B2094750D66FA1F5469A","title":"翠华餐厅（日月光广场）","lon":"121.468521","lat":"31.206748","category":"500","category_name":"未知分类","address":null},{"poiid":"B2094757D169A1F94692","title":"呷哺呷哺 日月光店","lon":"121.4681219","lat":"31.2055526","category":"86","category_name":"火锅店","address":"卢湾区徐家汇路618号B2楼B02室、B02A1室"},{"poiid":"B2094750D56EA0FB439B","title":"COSTA咖啡日月光店","lon":"121.467819","lat":"31.206855","category":"247","category_name":"餐饮美食","address":null},{"poiid":"B2094757D664A3F84293","title":"阁楼上的餐厅 NO.37DiningBar","lon":"121.468673734","lat":"31.207928313","category":"257","category_name":"中餐厅","address":"卢湾区建国中路155弄田子坊37号(近瑞金二路)"},{"poiid":"B2094757D068A2F9429B","title":"新上海","lon":"121.46824958","lat":"31.20647147","category":"76","category_name":"上海菜","address":"卢湾区徐家汇路618号日月光中心广场4楼F19室(近瑞金二路)"},{"poiid":"B2094655D268A1F9459A","title":"Bell Cafe & Bar","lon":"121.46857","lat":"31.20774","category":"65","category_name":"咖啡厅","address":"卢湾区泰康路248弄11号后门(近瑞金二路)"},{"poiid":"B2094757D06EABF5489A","title":"打浦桥地铁站","lon":"121.468768","lat":"31.206111","category":"36","category_name":"地铁站","address":"上海轨道交通 九号线 轨交打浦桥站 9"},{"poiid":"B2094757D06FA1FE4593","title":"Tai Wine太红酒","lon":"121.4687479","lat":"31.2076454","category":"172","category_name":"酒吧","address":"上海卢湾区泰康路248弄田子坊38号(近瑞金二路)"},{"poiid":"B2094757D069A0F84893","title":"正豪大大鸡排(日月光店)","lon":"121.46829773","lat":"31.206971804","category":"68","category_name":"快餐厅","address":"卢湾区徐家汇路618号日月光中心广场B2楼(近打浦路)"},{"poiid":"B2094752D66EAAF44498","title":"小辉哥火锅","lon":"121.469155","lat":"31.20741","category":"247","category_name":"餐饮美食","address":"卢湾区徐家汇路618号日月光广场1F-E-02室"},{"poiid":"B2094757D66BA6F8499D","title":"喜空 CSky","lon":"121.468898","lat":"31.207786","category":"67","category_name":"甜品店","address":"上海卢湾区泰康路264号田子坊后门2楼起(思南路瑞金二路间)  "},{"poiid":"B2094750D16AABFB4993","title":"starbucks日月光店","lon":"121.468864","lat":"31.207487","category":"247","category_name":"餐饮美食","address":"泰康路"},{"poiid":"B2094750D16AA2F44993","title":"塔哈尔","lon":"121.46813","lat":"31.20648","category":"90","category_name":"清真餐馆","address":"卢湾区徐家汇路618号日月光中心广场B2楼(近田子坊)"},{"poiid":"B2094757D06EAAFD4498","title":"麦当劳(日月光餐厅)","lon":"121.46867578","lat":"31.206947655","category":"68","category_name":"快餐厅","address":"卢湾区徐家汇路618号日月光中心广场B2-F-22号商铺(近瑞金二路)"},{"poiid":"B2094757D068AAFC4699","title":"En Grill &amp; Bar","lon":"121.46833","lat":"31.2072","category":"95","category_name":"日本料理","address":"卢湾区泰康路田子坊248弄20号(近瑞金二路)"},{"poiid":"B2094753D76DABFF419C","title":"镰仓pasta","lon":"121.469009","lat":"31.207704","category":"500","category_name":"未知分类","address":"上海市 泰康路"},{"poiid":"B2094757D06FA5F54293","title":"丹","lon":"121.46917","lat":"31.20738","category":"260","category_name":"其他","address":"卢湾区泰康路248弄41号田子坊后门(近瑞金二路)"},{"poiid":"B2094655D36CA5FD409A","title":"打浦桥","lon":"121.46726","lat":"31.20405","category":"38","category_name":"公交车站","address":""},{"poiid":"B2094655D264A7F5489C","title":"日月光中心广场","lon":"121.46825","lat":"31.20647","category":"46","category_name":"楼宇","address":"徐家汇路618号（靠近瑞金二路）"},{"poiid":"B2094757D06EAAFF4099","title":"BLACK MAGIC CHOCOLATE","lon":"121.468566087","lat":"31.2065334114","category":"67","category_name":"甜品店","address":"卢湾区徐家汇路618号日月光中心广场1楼F07号商铺(近瑞金二路)"},{"poiid":"B2094753D76FAAFA449C","title":"上海滩国泰旗舰店","lon":"121.466011","lat":"31.216125","category":"249","category_name":"购物服务","address":"淮海中路868号"},{"poiid":"B209475CD564A7F84292","title":"上海滩新天地店","lon":"121.47463","lat":"31.22164","category":"119","category_name":"商场","address":"\"太仓路181弄新天地北里15号\r\n\""},{"poiid":"B209475CD564A7F8439E","title":"上海滩中信泰富店","lon":"121.45602","lat":"31.22851","category":"119","category_name":"商场","address":"\"南京西路1168号中信泰富广场，店铺号221.\r\n\""},{"poiid":"B2094750D56EA4F8419D","title":"纯K(打浦桥店)","lon":"121.468788","lat":"31.206827","category":"170","category_name":"KTV","address":"上海市黄浦区瑞金二路泰康路口（日月光中心广场1楼）"},{"poiid":"B2094750D66CA6FE459E","title":"便所欢乐主题餐厅","lon":"121.468437","lat":"31.207887","category":"247","category_name":"餐饮美食","address":"卢湾区泰康路274弄田子坊5号(近谭木匠)"},{"poiid":"B2094750D56DA5FD469D","title":"日月光翠华茶餐厅","lon":"121.468162","lat":"31.207288","category":"247","category_name":"餐饮美食","address":null},{"poiid":"B2094757D06EABF5439F","title":"山茶花韩国家庭料理","lon":"121.467467","lat":"31.204069","category":"96","category_name":"韩国料理","address":"卢湾区徐家汇路618号日月光中心广场4楼F-11号商铺(近瑞金二路)"},{"poiid":"B2094757D06EAAFF489F","title":"谷乐滋意式屋 Cafe Grazie","lon":"121.46812","lat":"31.20555","category":"94","category_name":"西餐厅","address":"卢湾区徐家汇路618号日月光中心广场5楼F09号商铺(瑞金南路肇嘉浜路)"},{"poiid":"B2094752DB6FA0F44299","title":"DAZZLING CAFE","lon":"121.468246","lat":"31.206467","category":"65","category_name":"咖啡厅","address":"卢湾区徐家汇路618号日月光中心1楼中庭广场E-03铺位"},{"poiid":"B2094757D06EAAF8409B","title":"满记甜品 日月光广场店 Honeymoon Dessert","lon":"121.467979","lat":"31.206339","category":"67","category_name":"甜品店","address":"卢湾区徐家汇路618号日月光广场B2楼F-11(近瑞金二路)"},{"poiid":"B2094750D269A1FC439C","title":"摩休敦纳韩国年糕店","lon":"121.467727","lat":"31.207105","category":"247","category_name":"餐饮美食","address":"卢湾区徐家汇路618号B2美食广场F-38号铺(近瑞金二路)"},{"poiid":"B2094751D569A7FD469C","title":"Mizzi cafe","lon":"121.46782","lat":"31.206643","category":"247","category_name":"餐饮美食","address":"卢湾区徐家汇路618号日月光中心广场1楼E04号铺(近瑞金二路)"},{"poiid":"B2094757DA6EAAFD439E","title":"丸龟制面","lon":"121.468319892881","lat":"31.2061028718305","category":"68","category_name":"快餐厅","address":"卢湾区徐家汇路618号日月光中心广场B2楼F40商铺(近瑞金二路)"},{"poiid":"B2094757D06FA1F84692","title":"江户鱼米","lon":"121.468374028","lat":"31.2064564833","category":"95","category_name":"日本料理","address":"卢湾区徐家汇路618号日月光中心广场B2楼T20B(麦当劳对面)(靠近瑞金二路)"},{"poiid":"B2094757D168A5FA449A","title":"天辣","lon":"121.46813273","lat":"31.207001805","category":"247","category_name":"餐饮美食","address":"上海日月光"},{"poiid":"B2094750DA6DA6FF4198","title":"台北纯k","lon":"121.469184","lat":"31.207139","category":"500","category_name":"未知分类","address":"卢湾区日月光"},{"poiid":"B2094757D06FA2FA449C","title":"藏珑泰极(田子坊店)","lon":"121.4681","lat":"31.20708","category":"99","category_name":"泰国／越南菜品餐厅","address":"卢湾区泰康路田子坊248弄14号(近瑞金二路)"},{"poiid":"B2094750DB6DA5F4419C","title":"台北纯k日月光店","lon":"121.468612","lat":"31.207105","category":"500","category_name":"未知分类","address":null},{"poiid":"B2094757D06FA3F4489F","title":"PANKOO釜山料理(日月光广场店)","lon":"121.4689793","lat":"31.206212707","category":"96","category_name":"韩国料理","address":"上海卢湾区徐家汇路618号日月光广场5楼(近瑞金二路)"},{"poiid":"B2094751D564A2FD499B","title":"小辉哥火锅","lon":"121.468735","lat":"31.206894","category":"247","category_name":"餐饮美食","address":"卢湾区徐家汇路618号日月光中心广场1楼E-02室(近泰康路)"},{"poiid":"B2094757D06FA2FA499F","title":"大渔铁板烧 日月光中心店 TAIRYO","lon":"121.46778","lat":"31.20558","category":"268","category_name":"自助","address":"卢湾区徐家汇路618号日月光广场4楼(近瑞金二路)"},{"poiid":"B2094752D26AAAFB499B","title":"CAFE&BAR PRONTO","lon":"121.468735","lat":"31.206696","category":"247","category_name":"餐饮美食","address":"徐汇区徐家汇路618号日月光中心广场1楼露天广场E-01号铺"},{"poiid":"B2094757D06FAAFA4892","title":"小杨生煎(日月光店)","lon":"121.468174738","lat":"31.2062027882","category":"68","category_name":"快餐厅","address":"卢湾区徐家汇路618号日月光广场B2楼(近瑞金二路)"},{"poiid":"B2094757D06FA1FA459C","title":"Allans","lon":"121.46839365","lat":"31.2062613221","category":"113","category_name":"冷饮店","address":"卢湾区徐家汇路618号日月光广场1楼F-03中庭露天广场"},{"poiid":"B2094757D16FA5F44698","title":"山茶花韩国料理(日月光中心)","lon":"121.46810573","lat":"31.206278789","category":"247","category_name":"餐饮美食","address":"上海卢湾区徐家汇路618号日月光中心4F"},{"poiid":"B2094757D06FA4FA479A","title":"王子殿下 Tono's Palace 131","lon":"121.468004","lat":"31.206499538","category":"260","category_name":"其他","address":"卢湾区泰康路248弄田子坊10号前门(近瑞金二路)"},{"poiid":"B2094757D06EAAFB419D","title":"奔高","lon":"121.467991","lat":"31.206362","category":"67","category_name":"甜品店","address":"卢湾区徐家汇路618号日月光中心广场B2-T17室(近瑞金二路)"},{"poiid":"B2094752D768A2FF4998","title":"冰火名家巫山烤全鱼","lon":"121.46824564025883","lat":"31.20683075670523","category":"247","category_name":"餐饮美食","address":"徐家汇路618号日月光中心广场4楼-22号铺(近打浦路) "},{"poiid":"B2094750D66FA3FF409E","title":"便便餐厅","lon":"121.46836","lat":"31.207742","category":"247","category_name":"餐饮美食","address":null},{"poiid":"B2094757D06EAAFE4293","title":"董记茶餐厅","lon":"121.467969","lat":"31.206369","category":"72","category_name":"广东菜","address":"徐家汇路618号日月光中心广场近瑞金二路"},{"poiid":"B2094750D66FA1F5469A","title":"翠华餐厅（日月光广场）","lon":"121.468521","lat":"31.206748","category":"500","category_name":"未知分类","address":null},{"poiid":"B2094757D169A1F94692","title":"呷哺呷哺 日月光店","lon":"121.4681219","lat":"31.2055526","category":"86","category_name":"火锅店","address":"卢湾区徐家汇路618号B2楼B02室、B02A1室"},{"poiid":"B2094750D56EA0FB439B","title":"COSTA咖啡日月光店","lon":"121.467819","lat":"31.206855","category":"247","category_name":"餐饮美食","address":null},{"poiid":"B2094757D664A3F84293","title":"阁楼上的餐厅 NO.37DiningBar","lon":"121.468673734","lat":"31.207928313","category":"257","category_name":"中餐厅","address":"卢湾区建国中路155弄田子坊37号(近瑞金二路)"},{"poiid":"B2094757D068A2F9429B","title":"新上海","lon":"121.46824958","lat":"31.20647147","category":"76","category_name":"上海菜","address":"卢湾区徐家汇路618号日月光中心广场4楼F19室(近瑞金二路)"},{"poiid":"B2094655D268A1F9459A","title":"Bell Cafe & Bar","lon":"121.46857","lat":"31.20774","category":"65","category_name":"咖啡厅","address":"卢湾区泰康路248弄11号后门(近瑞金二路)"},{"poiid":"B2094757D06EABF5489A","title":"打浦桥地铁站","lon":"121.468768","lat":"31.206111","category":"36","category_name":"地铁站","address":"上海轨道交通 九号线 轨交打浦桥站 9"},{"poiid":"B2094757D06FA1FE4593","title":"Tai Wine太红酒","lon":"121.4687479","lat":"31.2076454","category":"172","category_name":"酒吧","address":"上海卢湾区泰康路248弄田子坊38号(近瑞金二路)"},{"poiid":"B2094757D069A0F84893","title":"正豪大大鸡排(日月光店)","lon":"121.46829773","lat":"31.206971804","category":"68","category_name":"快餐厅","address":"卢湾区徐家汇路618号日月光中心广场B2楼(近打浦路)"},{"poiid":"B2094752D66EAAF44498","title":"小辉哥火锅","lon":"121.469155","lat":"31.20741","category":"247","category_name":"餐饮美食","address":"卢湾区徐家汇路618号日月光广场1F-E-02室"},{"poiid":"B2094757D66BA6F8499D","title":"喜空 CSky","lon":"121.468898","lat":"31.207786","category":"67","category_name":"甜品店","address":"上海卢湾区泰康路264号田子坊后门2楼起(思南路瑞金二路间)  "},{"poiid":"B2094750D16AABFB4993","title":"starbucks日月光店","lon":"121.468864","lat":"31.207487","category":"247","category_name":"餐饮美食","address":"泰康路"},{"poiid":"B2094750D16AA2F44993","title":"塔哈尔","lon":"121.46813","lat":"31.20648","category":"90","category_name":"清真餐馆","address":"卢湾区徐家汇路618号日月光中心广场B2楼(近田子坊)"},{"poiid":"B2094757D06EAAFD4498","title":"麦当劳(日月光餐厅)","lon":"121.46867578","lat":"31.206947655","category":"68","category_name":"快餐厅","address":"卢湾区徐家汇路618号日月光中心广场B2-F-22号商铺(近瑞金二路)"},{"poiid":"B2094757D068AAFC4699","title":"En Grill &amp; Bar","lon":"121.46833","lat":"31.2072","category":"95","category_name":"日本料理","address":"卢湾区泰康路田子坊248弄20号(近瑞金二路)"},{"poiid":"B2094753D76DABFF419C","title":"镰仓pasta","lon":"121.469009","lat":"31.207704","category":"500","category_name":"未知分类","address":"上海市 泰康路"},{"poiid":"B2094757D06FA5F54293","title":"丹","lon":"121.46917","lat":"31.20738","category":"260","category_name":"其他","address":"卢湾区泰康路248弄41号田子坊后门(近瑞金二路)"},{"poiid":"B2094655D36CA5FD409A","title":"打浦桥","lon":"121.46726","lat":"31.20405","category":"38","category_name":"公交车站","address":""},{"poiid":"B2094655D264A7F5489C","title":"日月光中心广场","lon":"121.46825","lat":"31.20647","category":"46","category_name":"楼宇","address":"徐家汇路618号（靠近瑞金二路）"},{"poiid":"B2094757D06EAAFF4099","title":"BLACK MAGIC CHOCOLATE","lon":"121.468566087","lat":"31.2065334114","category":"67","category_name":"甜品店","address":"卢湾区徐家汇路618号日月光中心广场1楼F07号商铺(近瑞金二路)"},{"poiid":"B2094753D76FAAFA449C","title":"上海滩国泰旗舰店","lon":"121.466011","lat":"31.216125","category":"249","category_name":"购物服务","address":"淮海中路868号"},{"poiid":"B209475CD564A7F84292","title":"上海滩新天地店","lon":"121.47463","lat":"31.22164","category":"119","category_name":"商场","address":"\"太仓路181弄新天地北里15号\r\n\""},{"poiid":"B209475CD564A7F8439E","title":"上海滩中信泰富店","lon":"121.45602","lat":"31.22851","category":"119","category_name":"商场","address":"\"南京西路1168号中信泰富广场，店铺号221.\r\n\""},{"poiid":"B2094750D56EA4F8419D","title":"纯K(打浦桥店)","lon":"121.468788","lat":"31.206827","category":"170","category_name":"KTV","address":"上海市黄浦区瑞金二路泰康路口（日月光中心广场1楼）"},{"poiid":"B2094750D66CA6FE459E","title":"便所欢乐主题餐厅","lon":"121.468437","lat":"31.207887","category":"247","category_name":"餐饮美食","address":"卢湾区泰康路274弄田子坊5号(近谭木匠)"},{"poiid":"B2094750D56DA5FD469D","title":"日月光翠华茶餐厅","lon":"121.468162","lat":"31.207288","category":"247","category_name":"餐饮美食","address":null},{"poiid":"B2094757D06EABF5439F","title":"山茶花韩国家庭料理","lon":"121.467467","lat":"31.204069","category":"96","category_name":"韩国料理","address":"卢湾区徐家汇路618号日月光中心广场4楼F-11号商铺(近瑞金二路)"},{"poiid":"B2094757D06EAAFF489F","title":"谷乐滋意式屋 Cafe Grazie","lon":"121.46812","lat":"31.20555","category":"94","category_name":"西餐厅","address":"卢湾区徐家汇路618号日月光中心广场5楼F09号商铺(瑞金南路肇嘉浜路)"},{"poiid":"B2094752DB6FA0F44299","title":"DAZZLING CAFE","lon":"121.468246","lat":"31.206467","category":"65","category_name":"咖啡厅","address":"卢湾区徐家汇路618号日月光中心1楼中庭广场E-03铺位"},{"poiid":"B2094757D06EAAF8409B","title":"满记甜品 日月光广场店 Honeymoon Dessert","lon":"121.467979","lat":"31.206339","category":"67","category_name":"甜品店","address":"卢湾区徐家汇路618号日月光广场B2楼F-11(近瑞金二路)"},{"poiid":"B2094750D269A1FC439C","title":"摩休敦纳韩国年糕店","lon":"121.467727","lat":"31.207105","category":"247","category_name":"餐饮美食","address":"卢湾区徐家汇路618号B2美食广场F-38号铺(近瑞金二路)"},{"poiid":"B2094751D569A7FD469C","title":"Mizzi cafe","lon":"121.46782","lat":"31.206643","category":"247","category_name":"餐饮美食","address":"卢湾区徐家汇路618号日月光中心广场1楼E04号铺(近瑞金二路)"},{"poiid":"B2094757DA6EAAFD439E","title":"丸龟制面","lon":"121.468319892881","lat":"31.2061028718305","category":"68","category_name":"快餐厅","address":"卢湾区徐家汇路618号日月光中心广场B2楼F40商铺(近瑞金二路)"},{"poiid":"B2094757D06FA1F84692","title":"江户鱼米","lon":"121.468374028","lat":"31.2064564833","category":"95","category_name":"日本料理","address":"卢湾区徐家汇路618号日月光中心广场B2楼T20B(麦当劳对面)(靠近瑞金二路)"},{"poiid":"B2094757D168A5FA449A","title":"天辣","lon":"121.46813273","lat":"31.207001805","category":"247","category_name":"餐饮美食","address":"上海日月光"},{"poiid":"B2094750DA6DA6FF4198","title":"台北纯k","lon":"121.469184","lat":"31.207139","category":"500","category_name":"未知分类","address":"卢湾区日月光"},{"poiid":"B2094757D06FA2FA449C","title":"藏珑泰极(田子坊店)","lon":"121.4681","lat":"31.20708","category":"99","category_name":"泰国／越南菜品餐厅","address":"卢湾区泰康路田子坊248弄14号(近瑞金二路)"},{"poiid":"B2094750DB6DA5F4419C","title":"台北纯k日月光店","lon":"121.468612","lat":"31.207105","category":"500","category_name":"未知分类","address":null},{"poiid":"B2094757D06FA3F4489F","title":"PANKOO釜山料理(日月光广场店)","lon":"121.4689793","lat":"31.206212707","category":"96","category_name":"韩国料理","address":"上海卢湾区徐家汇路618号日月光广场5楼(近瑞金二路)"},{"poiid":"B2094751D564A2FD499B","title":"小辉哥火锅","lon":"121.468735","lat":"31.206894","category":"247","category_name":"餐饮美食","address":"卢湾区徐家汇路618号日月光中心广场1楼E-02室(近泰康路)"},{"poiid":"B2094757D06FA2FA499F","title":"大渔铁板烧 日月光中心店 TAIRYO","lon":"121.46778","lat":"31.20558","category":"268","category_name":"自助","address":"卢湾区徐家汇路618号日月光广场4楼(近瑞金二路)"},{"poiid":"B2094752D26AAAFB499B","title":"CAFE&BAR PRONTO","lon":"121.468735","lat":"31.206696","category":"247","category_name":"餐饮美食","address":"徐汇区徐家汇路618号日月光中心广场1楼露天广场E-01号铺"},{"poiid":"B2094757D06FAAFA4892","title":"小杨生煎(日月光店)","lon":"121.468174738","lat":"31.2062027882","category":"68","category_name":"快餐厅","address":"卢湾区徐家汇路618号日月光广场B2楼(近瑞金二路)"},{"poiid":"B2094757D06FA1FA459C","title":"Allans","lon":"121.46839365","lat":"31.2062613221","category":"113","category_name":"冷饮店","address":"卢湾区徐家汇路618号日月光广场1楼F-03中庭露天广场"},{"poiid":"B2094757D16FA5F44698","title":"山茶花韩国料理(日月光中心)","lon":"121.46810573","lat":"31.206278789","category":"247","category_name":"餐饮美食","address":"上海卢湾区徐家汇路618号日月光中心4F"},{"poiid":"B2094757D06FA4FA479A","title":"王子殿下 Tono's Palace 131","lon":"121.468004","lat":"31.206499538","category":"260","category_name":"其他","address":"卢湾区泰康路248弄田子坊10号前门(近瑞金二路)"},{"poiid":"B2094757D06EAAFB419D","title":"奔高","lon":"121.467991","lat":"31.206362","category":"67","category_name":"甜品店","address":"卢湾区徐家汇路618号日月光中心广场B2-T17室(近瑞金二路)"},{"poiid":"B2094752D768A2FF4998","title":"冰火名家巫山烤全鱼","lon":"121.46824564025883","lat":"31.20683075670523","category":"247","category_name":"餐饮美食","address":"徐家汇路618号日月光中心广场4楼-22号铺(近打浦路) "},{"poiid":"B2094750D66FA3FF409E","title":"便便餐厅","lon":"121.46836","lat":"31.207742","category":"247","category_name":"餐饮美食","address":null},{"poiid":"B2094757D06EAAFE4293","title":"董记茶餐厅","lon":"121.467969","lat":"31.206369","category":"72","category_name":"广东菜","address":"徐家汇路618号日月光中心广场近瑞金二路"},{"poiid":"B2094750D66FA1F5469A","title":"翠华餐厅（日月光广场）","lon":"121.468521","lat":"31.206748","category":"500","category_name":"未知分类","address":null},{"poiid":"B2094757D169A1F94692","title":"呷哺呷哺 日月光店","lon":"121.4681219","lat":"31.2055526","category":"86","category_name":"火锅店","address":"卢湾区徐家汇路618号B2楼B02室、B02A1室"},{"poiid":"B2094750D56EA0FB439B","title":"COSTA咖啡日月光店","lon":"121.467819","lat":"31.206855","category":"247","category_name":"餐饮美食","address":null},{"poiid":"B2094757D664A3F84293","title":"阁楼上的餐厅 NO.37DiningBar","lon":"121.468673734","lat":"31.207928313","category":"257","category_name":"中餐厅","address":"卢湾区建国中路155弄田子坊37号(近瑞金二路)"},{"poiid":"B2094757D068A2F9429B","title":"新上海","lon":"121.46824958","lat":"31.20647147","category":"76","category_name":"上海菜","address":"卢湾区徐家汇路618号日月光中心广场4楼F19室(近瑞金二路)"},{"poiid":"B2094655D268A1F9459A","title":"Bell Cafe & Bar","lon":"121.46857","lat":"31.20774","category":"65","category_name":"咖啡厅","address":"卢湾区泰康路248弄11号后门(近瑞金二路)"},{"poiid":"B2094757D06EABF5489A","title":"打浦桥地铁站","lon":"121.468768","lat":"31.206111","category":"36","category_name":"地铁站","address":"上海轨道交通 九号线 轨交打浦桥站 9"},{"poiid":"B2094757D06FA1FE4593","title":"Tai Wine太红酒","lon":"121.4687479","lat":"31.2076454","category":"172","category_name":"酒吧","address":"上海卢湾区泰康路248弄田子坊38号(近瑞金二路)"},{"poiid":"B2094757D069A0F84893","title":"正豪大大鸡排(日月光店)","lon":"121.46829773","lat":"31.206971804","category":"68","category_name":"快餐厅","address":"卢湾区徐家汇路618号日月光中心广场B2楼(近打浦路)"},{"poiid":"B2094752D66EAAF44498","title":"小辉哥火锅","lon":"121.469155","lat":"31.20741","category":"247","category_name":"餐饮美食","address":"卢湾区徐家汇路618号日月光广场1F-E-02室"},{"poiid":"B2094757D66BA6F8499D","title":"喜空 CSky","lon":"121.468898","lat":"31.207786","category":"67","category_name":"甜品店","address":"上海卢湾区泰康路264号田子坊后门2楼起(思南路瑞金二路间)  "},{"poiid":"B2094750D16AABFB4993","title":"starbucks日月光店","lon":"121.468864","lat":"31.207487","category":"247","category_name":"餐饮美食","address":"泰康路"},{"poiid":"B2094750D16AA2F44993","title":"塔哈尔","lon":"121.46813","lat":"31.20648","category":"90","category_name":"清真餐馆","address":"卢湾区徐家汇路618号日月光中心广场B2楼(近田子坊)"},{"poiid":"B2094757D06EAAFD4498","title":"麦当劳(日月光餐厅)","lon":"121.46867578","lat":"31.206947655","category":"68","category_name":"快餐厅","address":"卢湾区徐家汇路618号日月光中心广场B2-F-22号商铺(近瑞金二路)"},{"poiid":"B2094757D068AAFC4699","title":"En Grill &amp; Bar","lon":"121.46833","lat":"31.2072","category":"95","category_name":"日本料理","address":"卢湾区泰康路田子坊248弄20号(近瑞金二路)"},{"poiid":"B2094753D76DABFF419C","title":"镰仓pasta","lon":"121.469009","lat":"31.207704","category":"500","category_name":"未知分类","address":"上海市 泰康路"},{"poiid":"B2094757D06FA5F54293","title":"丹","lon":"121.46917","lat":"31.20738","category":"260","category_name":"其他","address":"卢湾区泰康路248弄41号田子坊后门(近瑞金二路)"},{"poiid":"B2094655D36CA5FD409A","title":"打浦桥","lon":"121.46726","lat":"31.20405","category":"38","category_name":"公交车站","address":""},{"poiid":"B2094655D264A7F5489C","title":"日月光中心广场","lon":"121.46825","lat":"31.20647","category":"46","category_name":"楼宇","address":"徐家汇路618号（靠近瑞金二路）"},{"poiid":"B2094757D06EAAFF4099","title":"BLACK MAGIC CHOCOLATE","lon":"121.468566087","lat":"31.2065334114","category":"67","category_name":"甜品店","address":"卢湾区徐家汇路618号日月光中心广场1楼F07号商铺(近瑞金二路)"},{"poiid":"B2094753D76FAAFA449C","title":"上海滩国泰旗舰店","lon":"121.466011","lat":"31.216125","category":"249","category_name":"购物服务","address":"淮海中路868号"},{"poiid":"B209475CD564A7F84292","title":"上海滩新天地店","lon":"121.47463","lat":"31.22164","category":"119","category_name":"商场","address":"\"太仓路181弄新天地北里15号\r\n\""},{"poiid":"B209475CD564A7F8439E","title":"上海滩中信泰富店","lon":"121.45602","lat":"31.22851","category":"119","category_name":"商场","address":"\"南京西路1168号中信泰富广场，店铺号221.\r\n\""},{"poiid":"B2094750D56EA4F8419D","title":"纯K(打浦桥店)","lon":"121.468788","lat":"31.206827","category":"170","category_name":"KTV","address":"上海市黄浦区瑞金二路泰康路口（日月光中心广场1楼）"},{"poiid":"B2094750D66CA6FE459E","title":"便所欢乐主题餐厅","lon":"121.468437","lat":"31.207887","category":"247","category_name":"餐饮美食","address":"卢湾区泰康路274弄田子坊5号(近谭木匠)"},{"poiid":"B2094750D56DA5FD469D","title":"日月光翠华茶餐厅","lon":"121.468162","lat":"31.207288","category":"247","category_name":"餐饮美食","address":null},{"poiid":"B2094757D06EABF5439F","title":"山茶花韩国家庭料理","lon":"121.467467","lat":"31.204069","category":"96","category_name":"韩国料理","address":"卢湾区徐家汇路618号日月光中心广场4楼F-11号商铺(近瑞金二路)"},{"poiid":"B2094757D06EAAFF489F","title":"谷乐滋意式屋 Cafe Grazie","lon":"121.46812","lat":"31.20555","category":"94","category_name":"西餐厅","address":"卢湾区徐家汇路618号日月光中心广场5楼F09号商铺(瑞金南路肇嘉浜路)"},{"poiid":"B2094752DB6FA0F44299","title":"DAZZLING CAFE","lon":"121.468246","lat":"31.206467","category":"65","category_name":"咖啡厅","address":"卢湾区徐家汇路618号日月光中心1楼中庭广场E-03铺位"},{"poiid":"B2094757D06EAAF8409B","title":"满记甜品 日月光广场店 Honeymoon Dessert","lon":"121.467979","lat":"31.206339","category":"67","category_name":"甜品店","address":"卢湾区徐家汇路618号日月光广场B2楼F-11(近瑞金二路)"},{"poiid":"B2094750D269A1FC439C","title":"摩休敦纳韩国年糕店","lon":"121.467727","lat":"31.207105","category":"247","category_name":"餐饮美食","address":"卢湾区徐家汇路618号B2美食广场F-38号铺(近瑞金二路)"},{"poiid":"B2094751D569A7FD469C","title":"Mizzi cafe","lon":"121.46782","lat":"31.206643","category":"247","category_name":"餐饮美食","address":"卢湾区徐家汇路618号日月光中心广场1楼E04号铺(近瑞金二路)"},{"poiid":"B2094757DA6EAAFD439E","title":"丸龟制面","lon":"121.468319892881","lat":"31.2061028718305","category":"68","category_name":"快餐厅","address":"卢湾区徐家汇路618号日月光中心广场B2楼F40商铺(近瑞金二路)"},{"poiid":"B2094757D06FA1F84692","title":"江户鱼米","lon":"121.468374028","lat":"31.2064564833","category":"95","category_name":"日本料理","address":"卢湾区徐家汇路618号日月光中心广场B2楼T20B(麦当劳对面)(靠近瑞金二路)"},{"poiid":"B2094757D168A5FA449A","title":"天辣","lon":"121.46813273","lat":"31.207001805","category":"247","category_name":"餐饮美食","address":"上海日月光"},{"poiid":"B2094750DA6DA6FF4198","title":"台北纯k","lon":"121.469184","lat":"31.207139","category":"500","category_name":"未知分类","address":"卢湾区日月光"},{"poiid":"B2094757D06FA2FA449C","title":"藏珑泰极(田子坊店)","lon":"121.4681","lat":"31.20708","category":"99","category_name":"泰国／越南菜品餐厅","address":"卢湾区泰康路田子坊248弄14号(近瑞金二路)"},{"poiid":"B2094750DB6DA5F4419C","title":"台北纯k日月光店","lon":"121.468612","lat":"31.207105","category":"500","category_name":"未知分类","address":null},{"poiid":"B2094757D06FA3F4489F","title":"PANKOO釜山料理(日月光广场店)","lon":"121.4689793","lat":"31.206212707","category":"96","category_name":"韩国料理","address":"上海卢湾区徐家汇路618号日月光广场5楼(近瑞金二路)"},{"poiid":"B2094751D564A2FD499B","title":"小辉哥火锅","lon":"121.468735","lat":"31.206894","category":"247","category_name":"餐饮美食","address":"卢湾区徐家汇路618号日月光中心广场1楼E-02室(近泰康路)"},{"poiid":"B2094757D06FA2FA499F","title":"大渔铁板烧 日月光中心店 TAIRYO","lon":"121.46778","lat":"31.20558","category":"268","category_name":"自助","address":"卢湾区徐家汇路618号日月光广场4楼(近瑞金二路)"},{"poiid":"B2094752D26AAAFB499B","title":"CAFE&BAR PRONTO","lon":"121.468735","lat":"31.206696","category":"247","category_name":"餐饮美食","address":"徐汇区徐家汇路618号日月光中心广场1楼露天广场E-01号铺"},{"poiid":"B2094757D06FAAFA4892","title":"小杨生煎(日月光店)","lon":"121.468174738","lat":"31.2062027882","category":"68","category_name":"快餐厅","address":"卢湾区徐家汇路618号日月光广场B2楼(近瑞金二路)"},{"poiid":"B2094757D06FA1FA459C","title":"Allans","lon":"121.46839365","lat":"31.2062613221","category":"113","category_name":"冷饮店","address":"卢湾区徐家汇路618号日月光广场1楼F-03中庭露天广场"},{"poiid":"B2094757D16FA5F44698","title":"山茶花韩国料理(日月光中心)","lon":"121.46810573","lat":"31.206278789","category":"247","category_name":"餐饮美食","address":"上海卢湾区徐家汇路618号日月光中心4F"},{"poiid":"B2094757D06FA4FA479A","title":"王子殿下 Tono's Palace 131","lon":"121.468004","lat":"31.206499538","category":"260","category_name":"其他","address":"卢湾区泰康路248弄田子坊10号前门(近瑞金二路)"},{"poiid":"B2094757D06EAAFB419D","title":"奔高","lon":"121.467991","lat":"31.206362","category":"67","category_name":"甜品店","address":"卢湾区徐家汇路618号日月光中心广场B2-T17室(近瑞金二路)"},{"poiid":"B2094752D768A2FF4998","title":"冰火名家巫山烤全鱼","lon":"121.46824564025883","lat":"31.20683075670523","category":"247","category_name":"餐饮美食","address":"徐家汇路618号日月光中心广场4楼-22号铺(近打浦路) "},{"poiid":"B2094750D66FA3FF409E","title":"便便餐厅","lon":"121.46836","lat":"31.207742","category":"247","category_name":"餐饮美食","address":null},{"poiid":"B2094757D06EAAFE4293","title":"董记茶餐厅","lon":"121.467969","lat":"31.206369","category":"72","category_name":"广东菜","address":"徐家汇路618号日月光中心广场近瑞金二路"},{"poiid":"B2094750D66FA1F5469A","title":"翠华餐厅（日月光广场）","lon":"121.468521","lat":"31.206748","category":"500","category_name":"未知分类","address":null},{"poiid":"B2094757D169A1F94692","title":"呷哺呷哺 日月光店","lon":"121.4681219","lat":"31.2055526","category":"86","category_name":"火锅店","address":"卢湾区徐家汇路618号B2楼B02室、B02A1室"},{"poiid":"B2094750D56EA0FB439B","title":"COSTA咖啡日月光店","lon":"121.467819","lat":"31.206855","category":"247","category_name":"餐饮美食","address":null},{"poiid":"B2094757D664A3F84293","title":"阁楼上的餐厅 NO.37DiningBar","lon":"121.468673734","lat":"31.207928313","category":"257","category_name":"中餐厅","address":"卢湾区建国中路155弄田子坊37号(近瑞金二路)"},{"poiid":"B2094757D068A2F9429B","title":"新上海","lon":"121.46824958","lat":"31.20647147","category":"76","category_name":"上海菜","address":"卢湾区徐家汇路618号日月光中心广场4楼F19室(近瑞金二路)"},{"poiid":"B2094655D268A1F9459A","title":"Bell Cafe & Bar","lon":"121.46857","lat":"31.20774","category":"65","category_name":"咖啡厅","address":"卢湾区泰康路248弄11号后门(近瑞金二路)"},{"poiid":"B2094757D06EABF5489A","title":"打浦桥地铁站","lon":"121.468768","lat":"31.206111","category":"36","category_name":"地铁站","address":"上海轨道交通 九号线 轨交打浦桥站 9"},{"poiid":"B2094757D06FA1FE4593","title":"Tai Wine太红酒","lon":"121.4687479","lat":"31.2076454","category":"172","category_name":"酒吧","address":"上海卢湾区泰康路248弄田子坊38号(近瑞金二路)"},{"poiid":"B2094757D069A0F84893","title":"正豪大大鸡排(日月光店)","lon":"121.46829773","lat":"31.206971804","category":"68","category_name":"快餐厅","address":"卢湾区徐家汇路618号日月光中心广场B2楼(近打浦路)"},{"poiid":"B2094752D66EAAF44498","title":"小辉哥火锅","lon":"121.469155","lat":"31.20741","category":"247","category_name":"餐饮美食","address":"卢湾区徐家汇路618号日月光广场1F-E-02室"},{"poiid":"B2094757D66BA6F8499D","title":"喜空 CSky","lon":"121.468898","lat":"31.207786","category":"67","category_name":"甜品店","address":"上海卢湾区泰康路264号田子坊后门2楼起(思南路瑞金二路间)  "},{"poiid":"B2094750D16AABFB4993","title":"starbucks日月光店","lon":"121.468864","lat":"31.207487","category":"247","category_name":"餐饮美食","address":"泰康路"},{"poiid":"B2094750D16AA2F44993","title":"塔哈尔","lon":"121.46813","lat":"31.20648","category":"90","category_name":"清真餐馆","address":"卢湾区徐家汇路618号日月光中心广场B2楼(近田子坊)"},{"poiid":"B2094757D06EAAFD4498","title":"麦当劳(日月光餐厅)","lon":"121.46867578","lat":"31.206947655","category":"68","category_name":"快餐厅","address":"卢湾区徐家汇路618号日月光中心广场B2-F-22号商铺(近瑞金二路)"},{"poiid":"B2094757D068AAFC4699","title":"En Grill &amp; Bar","lon":"121.46833","lat":"31.2072","category":"95","category_name":"日本料理","address":"卢湾区泰康路田子坊248弄20号(近瑞金二路)"},{"poiid":"B2094753D76DABFF419C","title":"镰仓pasta","lon":"121.469009","lat":"31.207704","category":"500","category_name":"未知分类","address":"上海市 泰康路"},{"poiid":"B2094757D06FA5F54293","title":"丹","lon":"121.46917","lat":"31.20738","category":"260","category_name":"其他","address":"卢湾区泰康路248弄41号田子坊后门(近瑞金二路)"}]