[{"poiid":"B2094654DB6BA7FF439B","title":"长风公园","lon":"121.39952","lat":"31.22399","category":"196","category_name":"公园","address":"普陀区枣阳路510号(近华师大后门)"},{"poiid":"B2094757D06FA3FB419D","title":"新发展亚太万豪酒店","lon":"121.39679","lat":"31.2213","category":"260","category_name":"其他","address":"普陀区大渡河路158号新发展亚太万豪酒店(近光复西路)"},{"poiid":"B2094757D06FA7F9469E","title":"长风海洋世界极地白鲸表演馆","lon":"121.39928374","lat":"31.223985756","category":"196","category_name":"公园","address":"上海普陀区枣阳路525号长风公园内"},{"poiid":"B2094757D469A0FF419C","title":"星巴克(长风景畔广场店)","lon":"121.3966869","lat":"31.2215055","category":"260","category_name":"其他","address":"普陀区大渡河路178号长风景畔广场1楼01室(近长风公园4号门)"},{"poiid":"B2094654DB6BA7FF439A","title":"上海长风海洋世界","lon":"121.39955","lat":"31.22399","category":"196","category_name":"公园","address":"大渡河路451"},{"poiid":"B2094757D06FA5FC499E","title":"上海游艇会","lon":"121.396690071","lat":"31.2204165715","category":"76","category_name":"上海菜","address":"普陀区大渡河路160号(近光复西路)查看地图"},{"poiid":"B2094757D06FA0FA499F","title":"天山路古北路","lon":"121.40088843","lat":"31.215104645","category":"500","category_name":"未知分类","address":"上海天山路古北路"},{"poiid":"B2094757D06FA2FC489A","title":"思创大厦","lon":"121.403","lat":"31.2197","category":"46","category_name":"楼宇","address":"上海市长宁区天山路600弄3-4号楼"},{"poiid":"B2094750D76FAAFF499E","title":"PANKOO釜山料理(长风景畔店)","lon":"121.39529","lat":"31.22331","category":"96","category_name":"韩国料理","address":"普陀区大渡河路178号长风景畔广场4楼28-29室(近长风公园4号门)"},{"poiid":"B2094750D26EA7F84493","title":"大户屋日本料理","lon":"121.39641523361","lat":"31.221279536744","category":"95","category_name":"日本料理","address":"普陀区大渡河路178号长风景畔广场4楼402号铺(近云岭东路)"},{"poiid":"B2094757D069A0FA409D","title":"虹桥河滨公园","lon":"121.40090251","lat":"31.219385867","category":"196","category_name":"公园","address":"长宁区长宁路2080号(锦屏路口)"},{"poiid":"B2094757D06FABF5439D","title":"春天花园","lon":"121.4038","lat":"31.217037","category":"47","category_name":"住宅区","address":"长宁区娄山关路999弄(近长宁路)"},{"poiid":"B2094757DB68AAFE4592","title":"021上海菜主题餐厅 长风公园店","lon":"121.3966869","lat":"31.2215055","category":"76","category_name":"上海菜","address":"普陀区大渡河路168号长风景畔广场4楼(近云岭东路)"},{"poiid":"B2094750D26FA0F8419F","title":"湘乐汇 长风景畔广场店","lon":"121.39639377594","lat":"31.221573136228","category":"77","category_name":"湖南菜","address":"普陀区大渡河路196号长风景畔广场4楼(近云岭东路)"},{"poiid":"B2094654D56BA4F4469F","title":"上海花城","lon":"121.40445","lat":"31.21896","category":"47","category_name":"住宅区","address":"普陀区澳门路519号华生大厦2号楼2202室(近普陀路)查看地图"},{"poiid":"B2094757D16DA1F5469F","title":"虹桥河滨花园","lon":"121.40254","lat":"31.219532","category":"47","category_name":"住宅区","address":"上海市长宁区长宁路1898弄"},{"poiid":"B2094757D06FA7FB4098","title":"虹桥万博花园","lon":"121.40051","lat":"31.216806","category":"47","category_name":"住宅区","address":"上海古北路69弄(近长宁路)"},{"poiid":"B2094757D068A3FC429A","title":"同达创业大厦","lon":"121.403","lat":"31.2189","category":"46","category_name":"楼宇","address":"朝阳华威桥东北角"},{"poiid":"B2094757D06AA3F5479E","title":"华师大 对外汉语学院","lon":"121.403979","lat":"31.222253","category":"253","category_name":"校园生活","address":"上海枣阳路896"},{"poiid":"B2094757D06FA4F84592","title":"北岸长风","lon":"121.39634","lat":"31.221179","category":"46","category_name":"楼宇","address":"大渡河路168弄6号1楼(光复西路口)"},{"poiid":"B2094757D06FAAF44298","title":"艺林盲人按摩院(长宁店)","lon":"121.40361","lat":"31.21796","category":"149","category_name":"洗浴推拿场所","address":"长宁区长宁路1842号"},{"poiid":"B2094750D26CA0F4499A","title":"吉亨面馆(长风景畔广场店)","lon":"121.3965534563223","lat":"31.221600926323504","category":"68","category_name":"快餐厅","address":"普陀区大渡河路196号长风景畔广场2楼(长风公园4号门对面)"},{"poiid":"B2094757DA68A1F9429E","title":"吞云小莳 长风景畔广场店","lon":"121.3966696","lat":"31.2215473","category":"91","category_name":"台湾菜","address":"普陀区大渡河路178号长风景畔广场1楼L1-19(近长风公园)"},{"poiid":"B2094750D76CABFB4293","title":"Bros会津まる家(古北店)","lon":"121.399","lat":"31.2146","category":"95","category_name":"日本料理","address":"长宁区古北路230号(近天山支路)"},{"poiid":"B2094757D068A4F5469A","title":"乐购大渡河路店","lon":"121.398223586","lat":"31.2222962758","category":"118","category_name":"超级市场","address":"普陀区大渡河路178号景畔广场B1楼01A"},{"poiid":"B2094654D56BA1F4499C","title":"新古北中学","lon":"121.40104","lat":"31.21554","category":"55","category_name":"中学","address":"长宁区玉屏南路640号(近古北路)"},{"poiid":"B2094757D468A0F94792","title":"纪州豚骨酱油拉面","lon":"121.399358","lat":"31.214344","category":"95","category_name":"日本料理","address":"长宁区古北路230号古北小町218室(近天山路)"},{"poiid":"B2094757D06FABFE419C","title":"古北路桥","lon":"121.39896392","lat":"31.216470718","category":"500","category_name":"未知分类","address":"上海长宁路古北路"},{"poiid":"B2094654DB6BA7FF4293","title":"长风公园(南门)","lon":"121.39805","lat":"31.22175","category":"680","category_name":"楼宇机构","address":"大渡河路189"},{"poiid":"B2094757D165AAF84493","title":"宁悦人家","lon":"121.404210586","lat":"31.2179331905","category":"76","category_name":"上海菜","address":"长宁区长宁路1796号(近娄山关路)"},{"poiid":"B2094750D76EA4F4429B","title":"味千拉面(长风景畔店)","lon":"121.397","lat":"31.2214","category":"95","category_name":"日本料理","address":"普陀区大渡河路196号长风公园景畔广场内(近云岭东路)"},{"poiid":"B2094757D069A3F4439A","title":"茅台花苑","lon":"121.399","lat":"31.216","category":"47","category_name":"住宅区","address":"上海市长宁区茅台路500弄"},{"poiid":"B2094753D265A6F9469C","title":"HBC华谊兄弟上海影院","lon":"121.40096","lat":"31.22136","category":"178","category_name":"电影院","address":"大渡河路196号长风景畔广场5层"},{"poiid":"B2094655D36CA5F9419A","title":"长宁路锦屏路","lon":"121.40189","lat":"31.21831","category":"38","category_name":"公交车站","address":""},{"poiid":"B2094753D16BA0F54193","title":"70后饭吧（天山店）","lon":"121.400334","lat":"31.213528","category":"247","category_name":"餐饮美食","address":"上海市 天山路900号"},{"poiid":"B2094757D064AAFB4998","title":"牛将日本烧肉","lon":"121.40011","lat":"31.21435","category":"269","category_name":"烧烤","address":"长宁区古北路169号(近玉屏南路)"},{"poiid":"B2094655D36CA5F94199","title":"长宁路古北路","lon":"121.39936","lat":"31.21789","category":"38","category_name":"公交车站","address":""},{"poiid":"B2094757D06FA7FD4898","title":"华师大文史楼","lon":"121.403717983","lat":"31.2205415171","category":"253","category_name":"校园生活","address":"上海中山北路3663"},{"poiid":"B2094753D76AA5FF4398","title":"香天下火锅(天山店)","lon":"121.39622","lat":"31.21504","category":"86","category_name":"火锅店","address":"上海市长宁区芙蓉江路367号(近天山支路)"},{"poiid":"B2094750D768A3F44192","title":"贡茶(长风景畔广场店)","lon":"121.398","lat":"31.2214","category":"113","category_name":"冷饮店","address":"普陀区大渡河路178号长风景畔广场1楼(云岭东路口)"},{"poiid":"B2094750D26EABFD4193","title":"萨莉亚 长风景畔广场店","lon":"121.3966696","lat":"31.2215473","category":"94","category_name":"西餐厅","address":"普陀区大渡河路178号长风景畔广场4楼(近长风公园4号门)"},{"poiid":"B2094757D16DA7F44192","title":"玉兰轩","lon":"121.396407386","lat":"31.2195486221","category":"76","category_name":"上海菜","address":"普陀区大渡河路151号(近长风公园1号门)"},{"poiid":"B2094757D06AAAF8499A","title":"京世造型古北店","lon":"121.398987","lat":"31.215127","category":"500","category_name":"未知分类","address":"上海古北路165号近玉屏南路"},{"poiid":"B2094655D26FA6F84998","title":"华东师范大学对外汉语学院(西门)","lon":"121.40282","lat":"31.222","category":"52","category_name":"高等院校","address":"枣阳路896"},{"poiid":"B2094757DB69A7F44799","title":"和米堂","lon":"121.403828","lat":"31.218376","category":"95","category_name":"日本料理","address":"长宁区长宁路820号上海小马路美食街轻食区-10商铺"},{"poiid":"B2094750D364A3F4419F","title":"上海长风壹号","lon":"121.39880325927","lat":"31.219607020782","category":"260","category_name":"其他","address":"普陀区大渡河路251号长风一号绿地内(近长风公园)"},{"poiid":"B2094757D06BABF94892","title":"华师大设计学院","lon":"121.40263158","lat":"31.221334257","category":"253","category_name":"校园生活","address":"上海华东师范大学"},{"poiid":"B2094757D069A0F5479E","title":"春草堂足疗(长宁店)","lon":"121.40519","lat":"31.218","category":"149","category_name":"洗浴推拿场所","address":"上海长宁区长宁路1798号(近娄山关路)  "},{"poiid":"B2094654D56AAAF9409B","title":"天华公寓","lon":"121.402","lat":"31.2176","category":"46","category_name":"楼宇","address":"芙蓉江路276弄1-3号"},{"poiid":"B2094757D064A5FF4993","title":"国盛时尚","lon":"121.40019958","lat":"31.218715205","category":"249","category_name":"购物服务","address":"上海市普陀区光复西路"},{"poiid":"B2094654DB6BA7FF439B","title":"长风公园","lon":"121.39952","lat":"31.22399","category":"196","category_name":"公园","address":"普陀区枣阳路510号(近华师大后门)"},{"poiid":"B2094757D06FA3FB419D","title":"新发展亚太万豪酒店","lon":"121.39679","lat":"31.2213","category":"260","category_name":"其他","address":"普陀区大渡河路158号新发展亚太万豪酒店(近光复西路)"},{"poiid":"B2094757D06FA7F9469E","title":"长风海洋世界极地白鲸表演馆","lon":"121.39928374","lat":"31.223985756","category":"196","category_name":"公园","address":"上海普陀区枣阳路525号长风公园内"},{"poiid":"B2094757D469A0FF419C","title":"星巴克(长风景畔广场店)","lon":"121.3966869","lat":"31.2215055","category":"260","category_name":"其他","address":"普陀区大渡河路178号长风景畔广场1楼01室(近长风公园4号门)"},{"poiid":"B2094654DB6BA7FF439A","title":"上海长风海洋世界","lon":"121.39955","lat":"31.22399","category":"196","category_name":"公园","address":"大渡河路451"},{"poiid":"B2094757D06FA5FC499E","title":"上海游艇会","lon":"121.396690071","lat":"31.2204165715","category":"76","category_name":"上海菜","address":"普陀区大渡河路160号(近光复西路)查看地图"},{"poiid":"B2094757D06FA0FA499F","title":"天山路古北路","lon":"121.40088843","lat":"31.215104645","category":"500","category_name":"未知分类","address":"上海天山路古北路"},{"poiid":"B2094757D06FA2FC489A","title":"思创大厦","lon":"121.403","lat":"31.2197","category":"46","category_name":"楼宇","address":"上海市长宁区天山路600弄3-4号楼"},{"poiid":"B2094750D76FAAFF499E","title":"PANKOO釜山料理(长风景畔店)","lon":"121.39529","lat":"31.22331","category":"96","category_name":"韩国料理","address":"普陀区大渡河路178号长风景畔广场4楼28-29室(近长风公园4号门)"},{"poiid":"B2094750D26EA7F84493","title":"大户屋日本料理","lon":"121.39641523361","lat":"31.221279536744","category":"95","category_name":"日本料理","address":"普陀区大渡河路178号长风景畔广场4楼402号铺(近云岭东路)"},{"poiid":"B2094757D069A0FA409D","title":"虹桥河滨公园","lon":"121.40090251","lat":"31.219385867","category":"196","category_name":"公园","address":"长宁区长宁路2080号(锦屏路口)"},{"poiid":"B2094757D06FABF5439D","title":"春天花园","lon":"121.4038","lat":"31.217037","category":"47","category_name":"住宅区","address":"长宁区娄山关路999弄(近长宁路)"},{"poiid":"B2094757DB68AAFE4592","title":"021上海菜主题餐厅 长风公园店","lon":"121.3966869","lat":"31.2215055","category":"76","category_name":"上海菜","address":"普陀区大渡河路168号长风景畔广场4楼(近云岭东路)"},{"poiid":"B2094750D26FA0F8419F","title":"湘乐汇 长风景畔广场店","lon":"121.39639377594","lat":"31.221573136228","category":"77","category_name":"湖南菜","address":"普陀区大渡河路196号长风景畔广场4楼(近云岭东路)"},{"poiid":"B2094654D56BA4F4469F","title":"上海花城","lon":"121.40445","lat":"31.21896","category":"47","category_name":"住宅区","address":"普陀区澳门路519号华生大厦2号楼2202室(近普陀路)查看地图"},{"poiid":"B2094757D16DA1F5469F","title":"虹桥河滨花园","lon":"121.40254","lat":"31.219532","category":"47","category_name":"住宅区","address":"上海市长宁区长宁路1898弄"},{"poiid":"B2094757D06FA7FB4098","title":"虹桥万博花园","lon":"121.40051","lat":"31.216806","category":"47","category_name":"住宅区","address":"上海古北路69弄(近长宁路)"},{"poiid":"B2094757D068A3FC429A","title":"同达创业大厦","lon":"121.403","lat":"31.2189","category":"46","category_name":"楼宇","address":"朝阳华威桥东北角"},{"poiid":"B2094757D06AA3F5479E","title":"华师大 对外汉语学院","lon":"121.403979","lat":"31.222253","category":"253","category_name":"校园生活","address":"上海枣阳路896"},{"poiid":"B2094757D06FA4F84592","title":"北岸长风","lon":"121.39634","lat":"31.221179","category":"46","category_name":"楼宇","address":"大渡河路168弄6号1楼(光复西路口)"},{"poiid":"B2094757D06FAAF44298","title":"艺林盲人按摩院(长宁店)","lon":"121.40361","lat":"31.21796","category":"149","category_name":"洗浴推拿场所","address":"长宁区长宁路1842号"},{"poiid":"B2094750D26CA0F4499A","title":"吉亨面馆(长风景畔广场店)","lon":"121.3965534563223","lat":"31.221600926323504","category":"68","category_name":"快餐厅","address":"普陀区大渡河路196号长风景畔广场2楼(长风公园4号门对面)"},{"poiid":"B2094757DA68A1F9429E","title":"吞云小莳 长风景畔广场店","lon":"121.3966696","lat":"31.2215473","category":"91","category_name":"台湾菜","address":"普陀区大渡河路178号长风景畔广场1楼L1-19(近长风公园)"},{"poiid":"B2094750D76CABFB4293","title":"Bros会津まる家(古北店)","lon":"121.399","lat":"31.2146","category":"95","category_name":"日本料理","address":"长宁区古北路230号(近天山支路)"},{"poiid":"B2094757D068A4F5469A","title":"乐购大渡河路店","lon":"121.398223586","lat":"31.2222962758","category":"118","category_name":"超级市场","address":"普陀区大渡河路178号景畔广场B1楼01A"},{"poiid":"B2094654D56BA1F4499C","title":"新古北中学","lon":"121.40104","lat":"31.21554","category":"55","category_name":"中学","address":"长宁区玉屏南路640号(近古北路)"},{"poiid":"B2094757D468A0F94792","title":"纪州豚骨酱油拉面","lon":"121.399358","lat":"31.214344","category":"95","category_name":"日本料理","address":"长宁区古北路230号古北小町218室(近天山路)"},{"poiid":"B2094757D06FABFE419C","title":"古北路桥","lon":"121.39896392","lat":"31.216470718","category":"500","category_name":"未知分类","address":"上海长宁路古北路"},{"poiid":"B2094654DB6BA7FF4293","title":"长风公园(南门)","lon":"121.39805","lat":"31.22175","category":"680","category_name":"楼宇机构","address":"大渡河路189"},{"poiid":"B2094757D165AAF84493","title":"宁悦人家","lon":"121.404210586","lat":"31.2179331905","category":"76","category_name":"上海菜","address":"长宁区长宁路1796号(近娄山关路)"},{"poiid":"B2094750D76EA4F4429B","title":"味千拉面(长风景畔店)","lon":"121.397","lat":"31.2214","category":"95","category_name":"日本料理","address":"普陀区大渡河路196号长风公园景畔广场内(近云岭东路)"},{"poiid":"B2094757D069A3F4439A","title":"茅台花苑","lon":"121.399","lat":"31.216","category":"47","category_name":"住宅区","address":"上海市长宁区茅台路500弄"},{"poiid":"B2094753D265A6F9469C","title":"HBC华谊兄弟上海影院","lon":"121.40096","lat":"31.22136","category":"178","category_name":"电影院","address":"大渡河路196号长风景畔广场5层"},{"poiid":"B2094655D36CA5F9419A","title":"长宁路锦屏路","lon":"121.40189","lat":"31.21831","category":"38","category_name":"公交车站","address":""},{"poiid":"B2094753D16BA0F54193","title":"70后饭吧（天山店）","lon":"121.400334","lat":"31.213528","category":"247","category_name":"餐饮美食","address":"上海市 天山路900号"},{"poiid":"B2094757D064AAFB4998","title":"牛将日本烧肉","lon":"121.40011","lat":"31.21435","category":"269","category_name":"烧烤","address":"长宁区古北路169号(近玉屏南路)"},{"poiid":"B2094655D36CA5F94199","title":"长宁路古北路","lon":"121.39936","lat":"31.21789","category":"38","category_name":"公交车站","address":""},{"poiid":"B2094757D06FA7FD4898","title":"华师大文史楼","lon":"121.403717983","lat":"31.2205415171","category":"253","category_name":"校园生活","address":"上海中山北路3663"},{"poiid":"B2094753D76AA5FF4398","title":"香天下火锅(天山店)","lon":"121.39622","lat":"31.21504","category":"86","category_name":"火锅店","address":"上海市长宁区芙蓉江路367号(近天山支路)"},{"poiid":"B2094750D768A3F44192","title":"贡茶(长风景畔广场店)","lon":"121.398","lat":"31.2214","category":"113","category_name":"冷饮店","address":"普陀区大渡河路178号长风景畔广场1楼(云岭东路口)"},{"poiid":"B2094750D26EABFD4193","title":"萨莉亚 长风景畔广场店","lon":"121.3966696","lat":"31.2215473","category":"94","category_name":"西餐厅","address":"普陀区大渡河路178号长风景畔广场4楼(近长风公园4号门)"},{"poiid":"B2094757D16DA7F44192","title":"玉兰轩","lon":"121.396407386","lat":"31.2195486221","category":"76","category_name":"上海菜","address":"普陀区大渡河路151号(近长风公园1号门)"},{"poiid":"B2094757D06AAAF8499A","title":"京世造型古北店","lon":"121.398987","lat":"31.215127","category":"500","category_name":"未知分类","address":"上海古北路165号近玉屏南路"},{"poiid":"B2094655D26FA6F84998","title":"华东师范大学对外汉语学院(西门)","lon":"121.40282","lat":"31.222","category":"52","category_name":"高等院校","address":"枣阳路896"},{"poiid":"B2094757DB69A7F44799","title":"和米堂","lon":"121.403828","lat":"31.218376","category":"95","category_name":"日本料理","address":"长宁区长宁路820号上海小马路美食街轻食区-10商铺"},{"poiid":"B2094750D364A3F4419F","title":"上海长风壹号","lon":"121.39880325927","lat":"31.219607020782","category":"260","category_name":"其他","address":"普陀区大渡河路251号长风一号绿地内(近长风公园)"},{"poiid":"B2094757D06BABF94892","title":"华师大设计学院","lon":"121.40263158","lat":"31.221334257","category":"253","category_name":"校园生活","address":"上海华东师范大学"},{"poiid":"B2094757D069A0F5479E","title":"春草堂足疗(长宁店)","lon":"121.40519","lat":"31.218","category":"149","category_name":"洗浴推拿场所","address":"上海长宁区长宁路1798号(近娄山关路)  "},{"poiid":"B2094654D56AAAF9409B","title":"天华公寓","lon":"121.402","lat":"31.2176","category":"46","category_name":"楼宇","address":"芙蓉江路276弄1-3号"},{"poiid":"B2094757D064A5FF4993","title":"国盛时尚","lon":"121.40019958","lat":"31.218715205","category":"249","category_name":"购物服务","address":"上海市普陀区光复西路"},{"poiid":"B2094654DB6BA7FF439B","title":"长风公园","lon":"121.39952","lat":"31.22399","category":"196","category_name":"公园","address":"普陀区枣阳路510号(近华师大后门)"},{"poiid":"B2094757D06FA3FB419D","title":"新发展亚太万豪酒店","lon":"121.39679","lat":"31.2213","category":"260","category_name":"其他","address":"普陀区大渡河路158号新发展亚太万豪酒店(近光复西路)"},{"poiid":"B2094757D06FA7F9469E","title":"长风海洋世界极地白鲸表演馆","lon":"121.39928374","lat":"31.223985756","category":"196","category_name":"公园","address":"上海普陀区枣阳路525号长风公园内"},{"poiid":"B2094757D469A0FF419C","title":"星巴克(长风景畔广场店)","lon":"121.3966869","lat":"31.2215055","category":"260","category_name":"其他","address":"普陀区大渡河路178号长风景畔广场1楼01室(近长风公园4号门)"},{"poiid":"B2094654DB6BA7FF439A","title":"上海长风海洋世界","lon":"121.39955","lat":"31.22399","category":"196","category_name":"公园","address":"大渡河路451"},{"poiid":"B2094757D06FA5FC499E","title":"上海游艇会","lon":"121.396690071","lat":"31.2204165715","category":"76","category_name":"上海菜","address":"普陀区大渡河路160号(近光复西路)查看地图"},{"poiid":"B2094757D06FA0FA499F","title":"天山路古北路","lon":"121.40088843","lat":"31.215104645","category":"500","category_name":"未知分类","address":"上海天山路古北路"},{"poiid":"B2094757D06FA2FC489A","title":"思创大厦","lon":"121.403","lat":"31.2197","category":"46","category_name":"楼宇","address":"上海市长宁区天山路600弄3-4号楼"},{"poiid":"B2094750D76FAAFF499E","title":"PANKOO釜山料理(长风景畔店)","lon":"121.39529","lat":"31.22331","category":"96","category_name":"韩国料理","address":"普陀区大渡河路178号长风景畔广场4楼28-29室(近长风公园4号门)"},{"poiid":"B2094750D26EA7F84493","title":"大户屋日本料理","lon":"121.39641523361","lat":"31.221279536744","category":"95","category_name":"日本料理","address":"普陀区大渡河路178号长风景畔广场4楼402号铺(近云岭东路)"},{"poiid":"B2094757D069A0FA409D","title":"虹桥河滨公园","lon":"121.40090251","lat":"31.219385867","category":"196","category_name":"公园","address":"长宁区长宁路2080号(锦屏路口)"},{"poiid":"B2094757D06FABF5439D","title":"春天花园","lon":"121.4038","lat":"31.217037","category":"47","category_name":"住宅区","address":"长宁区娄山关路999弄(近长宁路)"},{"poiid":"B2094757DB68AAFE4592","title":"021上海菜主题餐厅 长风公园店","lon":"121.3966869","lat":"31.2215055","category":"76","category_name":"上海菜","address":"普陀区大渡河路168号长风景畔广场4楼(近云岭东路)"},{"poiid":"B2094750D26FA0F8419F","title":"湘乐汇 长风景畔广场店","lon":"121.39639377594","lat":"31.221573136228","category":"77","category_name":"湖南菜","address":"普陀区大渡河路196号长风景畔广场4楼(近云岭东路)"},{"poiid":"B2094654D56BA4F4469F","title":"上海花城","lon":"121.40445","lat":"31.21896","category":"47","category_name":"住宅区","address":"普陀区澳门路519号华生大厦2号楼2202室(近普陀路)查看地图"},{"poiid":"B2094757D16DA1F5469F","title":"虹桥河滨花园","lon":"121.40254","lat":"31.219532","category":"47","category_name":"住宅区","address":"上海市长宁区长宁路1898弄"},{"poiid":"B2094757D06FA7FB4098","title":"虹桥万博花园","lon":"121.40051","lat":"31.216806","category":"47","category_name":"住宅区","address":"上海古北路69弄(近长宁路)"},{"poiid":"B2094757D068A3FC429A","title":"同达创业大厦","lon":"121.403","lat":"31.2189","category":"46","category_name":"楼宇","address":"朝阳华威桥东北角"},{"poiid":"B2094757D06AA3F5479E","title":"华师大 对外汉语学院","lon":"121.403979","lat":"31.222253","category":"253","category_name":"校园生活","address":"上海枣阳路896"},{"poiid":"B2094757D06FA4F84592","title":"北岸长风","lon":"121.39634","lat":"31.221179","category":"46","category_name":"楼宇","address":"大渡河路168弄6号1楼(光复西路口)"},{"poiid":"B2094757D06FAAF44298","title":"艺林盲人按摩院(长宁店)","lon":"121.40361","lat":"31.21796","category":"149","category_name":"洗浴推拿场所","address":"长宁区长宁路1842号"},{"poiid":"B2094750D26CA0F4499A","title":"吉亨面馆(长风景畔广场店)","lon":"121.3965534563223","lat":"31.221600926323504","category":"68","category_name":"快餐厅","address":"普陀区大渡河路196号长风景畔广场2楼(长风公园4号门对面)"},{"poiid":"B2094757DA68A1F9429E","title":"吞云小莳 长风景畔广场店","lon":"121.3966696","lat":"31.2215473","category":"91","category_name":"台湾菜","address":"普陀区大渡河路178号长风景畔广场1楼L1-19(近长风公园)"},{"poiid":"B2094750D76CABFB4293","title":"Bros会津まる家(古北店)","lon":"121.399","lat":"31.2146","category":"95","category_name":"日本料理","address":"长宁区古北路230号(近天山支路)"},{"poiid":"B2094757D068A4F5469A","title":"乐购大渡河路店","lon":"121.398223586","lat":"31.2222962758","category":"118","category_name":"超级市场","address":"普陀区大渡河路178号景畔广场B1楼01A"},{"poiid":"B2094654D56BA1F4499C","title":"新古北中学","lon":"121.40104","lat":"31.21554","category":"55","category_name":"中学","address":"长宁区玉屏南路640号(近古北路)"},{"poiid":"B2094757D468A0F94792","title":"纪州豚骨酱油拉面","lon":"121.399358","lat":"31.214344","category":"95","category_name":"日本料理","address":"长宁区古北路230号古北小町218室(近天山路)"},{"poiid":"B2094757D06FABFE419C","title":"古北路桥","lon":"121.39896392","lat":"31.216470718","category":"500","category_name":"未知分类","address":"上海长宁路古北路"},{"poiid":"B2094654DB6BA7FF4293","title":"长风公园(南门)","lon":"121.39805","lat":"31.22175","category":"680","category_name":"楼宇机构","address":"大渡河路189"},{"poiid":"B2094757D165AAF84493","title":"宁悦人家","lon":"121.404210586","lat":"31.2179331905","category":"76","category_name":"上海菜","address":"长宁区长宁路1796号(近娄山关路)"},{"poiid":"B2094750D76EA4F4429B","title":"味千拉面(长风景畔店)","lon":"121.397","lat":"31.2214","category":"95","category_name":"日本料理","address":"普陀区大渡河路196号长风公园景畔广场内(近云岭东路)"},{"poiid":"B2094757D069A3F4439A","title":"茅台花苑","lon":"121.399","lat":"31.216","category":"47","category_name":"住宅区","address":"上海市长宁区茅台路500弄"},{"poiid":"B2094753D265A6F9469C","title":"HBC华谊兄弟上海影院","lon":"121.40096","lat":"31.22136","category":"178","category_name":"电影院","address":"大渡河路196号长风景畔广场5层"},{"poiid":"B2094655D36CA5F9419A","title":"长宁路锦屏路","lon":"121.40189","lat":"31.21831","category":"38","category_name":"公交车站","address":""},{"poiid":"B2094753D16BA0F54193","title":"70后饭吧（天山店）","lon":"121.400334","lat":"31.213528","category":"247","category_name":"餐饮美食","address":"上海市 天山路900号"},{"poiid":"B2094757D064AAFB4998","title":"牛将日本烧肉","lon":"121.40011","lat":"31.21435","category":"269","category_name":"烧烤","address":"长宁区古北路169号(近玉屏南路)"},{"poiid":"B2094655D36CA5F94199","title":"长宁路古北路","lon":"121.39936","lat":"31.21789","category":"38","category_name":"公交车站","address":""},{"poiid":"B2094757D06FA7FD4898","title":"华师大文史楼","lon":"121.403717983","lat":"31.2205415171","category":"253","category_name":"校园生活","address":"上海中山北路3663"},{"poiid":"B2094753D76AA5FF4398","title":"香天下火锅(天山店)","lon":"121.39622","lat":"31.21504","category":"86","category_name":"火锅店","address":"上海市长宁区芙蓉江路367号(近天山支路)"},{"poiid":"B2094750D768A3F44192","title":"贡茶(长风景畔广场店)","lon":"121.398","lat":"31.2214","category":"113","category_name":"冷饮店","address":"普陀区大渡河路178号长风景畔广场1楼(云岭东路口)"},{"poiid":"B2094750D26EABFD4193","title":"萨莉亚 长风景畔广场店","lon":"121.3966696","lat":"31.2215473","category":"94","category_name":"西餐厅","address":"普陀区大渡河路178号长风景畔广场4楼(近长风公园4号门)"},{"poiid":"B2094757D16DA7F44192","title":"玉兰轩","lon":"121.396407386","lat":"31.2195486221","category":"76","category_name":"上海菜","address":"普陀区大渡河路151号(近长风公园1号门)"},{"poiid":"B2094757D06AAAF8499A","title":"京世造型古北店","lon":"121.398987","lat":"31.215127","category":"500","category_name":"未知分类","address":"上海古北路165号近玉屏南路"},{"poiid":"B2094655D26FA6F84998","title":"华东师范大学对外汉语学院(西门)","lon":"121.40282","lat":"31.222","category":"52","category_name":"高等院校","address":"枣阳路896"},{"poiid":"B2094757DB69A7F44799","title":"和米堂","lon":"121.403828","lat":"31.218376","category":"95","category_name":"日本料理","address":"长宁区长宁路820号上海小马路美食街轻食区-10商铺"},{"poiid":"B2094750D364A3F4419F","title":"上海长风壹号","lon":"121.39880325927","lat":"31.219607020782","category":"260","category_name":"其他","address":"普陀区大渡河路251号长风一号绿地内(近长风公园)"},{"poiid":"B2094757D06BABF94892","title":"华师大设计学院","lon":"121.40263158","lat":"31.221334257","category":"253","category_name":"校园生活","address":"上海华东师范大学"},{"poiid":"B2094757D069A0F5479E","title":"春草堂足疗(长宁店)","lon":"121.40519","lat":"31.218","category":"149","category_name":"洗浴推拿场所","address":"上海长宁区长宁路1798号(近娄山关路)  "},{"poiid":"B2094654D56AAAF9409B","title":"天华公寓","lon":"121.402","lat":"31.2176","category":"46","category_name":"楼宇","address":"芙蓉江路276弄1-3号"},{"poiid":"B2094757D064A5FF4993","title":"国盛时尚","lon":"121.40019958","lat":"31.218715205","category":"249","category_name":"购物服务","address":"上海市普陀区光复西路"},{"poiid":"B2094654DB6BA7FF439B","title":"长风公园","lon":"121.39952","lat":"31.22399","category":"196","category_name":"公园","address":"普陀区枣阳路510号(近华师大后门)"},{"poiid":"B2094757D06FA3FB419D","title":"新发展亚太万豪酒店","lon":"121.39679","lat":"31.2213","category":"260","category_name":"其他","address":"普陀区大渡河路158号新发展亚太万豪酒店(近光复西路)"},{"poiid":"B2094757D06FA7F9469E","title":"长风海洋世界极地白鲸表演馆","lon":"121.39928374","lat":"31.223985756","category":"196","category_name":"公园","address":"上海普陀区枣阳路525号长风公园内"},{"poiid":"B2094757D469A0FF419C","title":"星巴克(长风景畔广场店)","lon":"121.3966869","lat":"31.2215055","category":"260","category_name":"其他","address":"普陀区大渡河路178号长风景畔广场1楼01室(近长风公园4号门)"},{"poiid":"B2094654DB6BA7FF439A","title":"上海长风海洋世界","lon":"121.39955","lat":"31.22399","category":"196","category_name":"公园","address":"大渡河路451"},{"poiid":"B2094757D06FA5FC499E","title":"上海游艇会","lon":"121.396690071","lat":"31.2204165715","category":"76","category_name":"上海菜","address":"普陀区大渡河路160号(近光复西路)查看地图"},{"poiid":"B2094757D06FA0FA499F","title":"天山路古北路","lon":"121.40088843","lat":"31.215104645","category":"500","category_name":"未知分类","address":"上海天山路古北路"},{"poiid":"B2094757D06FA2FC489A","title":"思创大厦","lon":"121.403","lat":"31.2197","category":"46","category_name":"楼宇","address":"上海市长宁区天山路600弄3-4号楼"},{"poiid":"B2094750D76FAAFF499E","title":"PANKOO釜山料理(长风景畔店)","lon":"121.39529","lat":"31.22331","category":"96","category_name":"韩国料理","address":"普陀区大渡河路178号长风景畔广场4楼28-29室(近长风公园4号门)"},{"poiid":"B2094750D26EA7F84493","title":"大户屋日本料理","lon":"121.39641523361","lat":"31.221279536744","category":"95","category_name":"日本料理","address":"普陀区大渡河路178号长风景畔广场4楼402号铺(近云岭东路)"},{"poiid":"B2094757D069A0FA409D","title":"虹桥河滨公园","lon":"121.40090251","lat":"31.219385867","category":"196","category_name":"公园","address":"长宁区长宁路2080号(锦屏路口)"},{"poiid":"B2094757D06FABF5439D","title":"春天花园","lon":"121.4038","lat":"31.217037","category":"47","category_name":"住宅区","address":"长宁区娄山关路999弄(近长宁路)"},{"poiid":"B2094757DB68AAFE4592","title":"021上海菜主题餐厅 长风公园店","lon":"121.3966869","lat":"31.2215055","category":"76","category_name":"上海菜","address":"普陀区大渡河路168号长风景畔广场4楼(近云岭东路)"},{"poiid":"B2094750D26FA0F8419F","title":"湘乐汇 长风景畔广场店","lon":"121.39639377594","lat":"31.221573136228","category":"77","category_name":"湖南菜","address":"普陀区大渡河路196号长风景畔广场4楼(近云岭东路)"},{"poiid":"B2094654D56BA4F4469F","title":"上海花城","lon":"121.40445","lat":"31.21896","category":"47","category_name":"住宅区","address":"普陀区澳门路519号华生大厦2号楼2202室(近普陀路)查看地图"},{"poiid":"B2094757D16DA1F5469F","title":"虹桥河滨花园","lon":"121.40254","lat":"31.219532","category":"47","category_name":"住宅区","address":"上海市长宁区长宁路1898弄"},{"poiid":"B2094757D06FA7FB4098","title":"虹桥万博花园","lon":"121.40051","lat":"31.216806","category":"47","category_name":"住宅区","address":"上海古北路69弄(近长宁路)"},{"poiid":"B2094757D068A3FC429A","title":"同达创业大厦","lon":"121.403","lat":"31.2189","category":"46","category_name":"楼宇","address":"朝阳华威桥东北角"},{"poiid":"B2094757D06AA3F5479E","title":"华师大 对外汉语学院","lon":"121.403979","lat":"31.222253","category":"253","category_name":"校园生活","address":"上海枣阳路896"},{"poiid":"B2094757D06FA4F84592","title":"北岸长风","lon":"121.39634","lat":"31.221179","category":"46","category_name":"楼宇","address":"大渡河路168弄6号1楼(光复西路口)"},{"poiid":"B2094757D06FAAF44298","title":"艺林盲人按摩院(长宁店)","lon":"121.40361","lat":"31.21796","category":"149","category_name":"洗浴推拿场所","address":"长宁区长宁路1842号"},{"poiid":"B2094750D26CA0F4499A","title":"吉亨面馆(长风景畔广场店)","lon":"121.3965534563223","lat":"31.221600926323504","category":"68","category_name":"快餐厅","address":"普陀区大渡河路196号长风景畔广场2楼(长风公园4号门对面)"},{"poiid":"B2094757DA68A1F9429E","title":"吞云小莳 长风景畔广场店","lon":"121.3966696","lat":"31.2215473","category":"91","category_name":"台湾菜","address":"普陀区大渡河路178号长风景畔广场1楼L1-19(近长风公园)"},{"poiid":"B2094750D76CABFB4293","title":"Bros会津まる家(古北店)","lon":"121.399","lat":"31.2146","category":"95","category_name":"日本料理","address":"长宁区古北路230号(近天山支路)"},{"poiid":"B2094757D068A4F5469A","title":"乐购大渡河路店","lon":"121.398223586","lat":"31.2222962758","category":"118","category_name":"超级市场","address":"普陀区大渡河路178号景畔广场B1楼01A"},{"poiid":"B2094654D56BA1F4499C","title":"新古北中学","lon":"121.40104","lat":"31.21554","category":"55","category_name":"中学","address":"长宁区玉屏南路640号(近古北路)"},{"poiid":"B2094757D468A0F94792","title":"纪州豚骨酱油拉面","lon":"121.399358","lat":"31.214344","category":"95","category_name":"日本料理","address":"长宁区古北路230号古北小町218室(近天山路)"},{"poiid":"B2094757D06FABFE419C","title":"古北路桥","lon":"121.39896392","lat":"31.216470718","category":"500","category_name":"未知分类","address":"上海长宁路古北路"},{"poiid":"B2094654DB6BA7FF4293","title":"长风公园(南门)","lon":"121.39805","lat":"31.22175","category":"680","category_name":"楼宇机构","address":"大渡河路189"},{"poiid":"B2094757D165AAF84493","title":"宁悦人家","lon":"121.404210586","lat":"31.2179331905","category":"76","category_name":"上海菜","address":"长宁区长宁路1796号(近娄山关路)"},{"poiid":"B2094750D76EA4F4429B","title":"味千拉面(长风景畔店)","lon":"121.397","lat":"31.2214","category":"95","category_name":"日本料理","address":"普陀区大渡河路196号长风公园景畔广场内(近云岭东路)"},{"poiid":"B2094757D069A3F4439A","title":"茅台花苑","lon":"121.399","lat":"31.216","category":"47","category_name":"住宅区","address":"上海市长宁区茅台路500弄"},{"poiid":"B2094753D265A6F9469C","title":"HBC华谊兄弟上海影院","lon":"121.40096","lat":"31.22136","category":"178","category_name":"电影院","address":"大渡河路196号长风景畔广场5层"},{"poiid":"B2094655D36CA5F9419A","title":"长宁路锦屏路","lon":"121.40189","lat":"31.21831","category":"38","category_name":"公交车站","address":""},{"poiid":"B2094753D16BA0F54193","title":"70后饭吧（天山店）","lon":"121.400334","lat":"31.213528","category":"247","category_name":"餐饮美食","address":"上海市 天山路900号"},{"poiid":"B2094757D064AAFB4998","title":"牛将日本烧肉","lon":"121.40011","lat":"31.21435","category":"269","category_name":"烧烤","address":"长宁区古北路169号(近玉屏南路)"},{"poiid":"B2094655D36CA5F94199","title":"长宁路古北路","lon":"121.39936","lat":"31.21789","category":"38","category_name":"公交车站","address":""},{"poiid":"B2094757D06FA7FD4898","title":"华师大文史楼","lon":"121.403717983","lat":"31.2205415171","category":"253","category_name":"校园生活","address":"上海中山北路3663"},{"poiid":"B2094753D76AA5FF4398","title":"香天下火锅(天山店)","lon":"121.39622","lat":"31.21504","category":"86","category_name":"火锅店","address":"上海市长宁区芙蓉江路367号(近天山支路)"},{"poiid":"B2094750D768A3F44192","title":"贡茶(长风景畔广场店)","lon":"121.398","lat":"31.2214","category":"113","category_name":"冷饮店","address":"普陀区大渡河路178号长风景畔广场1楼(云岭东路口)"},{"poiid":"B2094750D26EABFD4193","title":"萨莉亚 长风景畔广场店","lon":"121.3966696","lat":"31.2215473","category":"94","category_name":"西餐厅","address":"普陀区大渡河路178号长风景畔广场4楼(近长风公园4号门)"},{"poiid":"B2094757D16DA7F44192","title":"玉兰轩","lon":"121.396407386","lat":"31.2195486221","category":"76","category_name":"上海菜","address":"普陀区大渡河路151号(近长风公园1号门)"},{"poiid":"B2094757D06AAAF8499A","title":"京世造型古北店","lon":"121.398987","lat":"31.215127","category":"500","category_name":"未知分类","address":"上海古北路165号近玉屏南路"},{"poiid":"B2094655D26FA6F84998","title":"华东师范大学对外汉语学院(西门)","lon":"121.40282","lat":"31.222","category":"52","category_name":"高等院校","address":"枣阳路896"},{"poiid":"B2094757DB69A7F44799","title":"和米堂","lon":"121.403828","lat":"31.218376","category":"95","category_name":"日本料理","address":"长宁区长宁路820号上海小马路美食街轻食区-10商铺"},{"poiid":"B2094750D364A3F4419F","title":"上海长风壹号","lon":"121.39880325927","lat":"31.219607020782","category":"260","category_name":"其他","address":"普陀区大渡河路251号长风一号绿地内(近长风公园)"},{"poiid":"B2094757D06BABF94892","title":"华师大设计学院","lon":"121.40263158","lat":"31.221334257","category":"253","category_name":"校园生活","address":"上海华东师范大学"},{"poiid":"B2094757D069A0F5479E","title":"春草堂足疗(长宁店)","lon":"121.40519","lat":"31.218","category":"149","category_name":"洗浴推拿场所","address":"上海长宁区长宁路1798号(近娄山关路)  "},{"poiid":"B2094654D56AAAF9409B","title":"天华公寓","lon":"121.402","lat":"31.2176","category":"46","category_name":"楼宇","address":"芙蓉江路276弄1-3号"},{"poiid":"B2094757D064A5FF4993","title":"国盛时尚","lon":"121.40019958","lat":"31.218715205","category":"249","category_name":"购物服务","address":"上海市普陀区光复西路"}]