[{"poiid":"B2094654D56BA2F8439F","title":"上海市普陀区中心医院","lon":"121.40412","lat":"31.24159","category":"162","category_name":"医院","address":"普陀区兰溪路164号(梅川路口)"},{"poiid":"B2094757D06FA1F5409C","title":"小肥羊 兰溪路店","lon":"121.40429640226","lat":"31.23992962991","category":"86","category_name":"火锅店","address":"普陀区兰溪路141号2楼(近曹杨商场)"},{"poiid":"B2094757DA6EA5FC429B","title":"音杰量贩KTV(兰溪店)","lon":"121.405301000002","lat":"31.239481","category":"170","category_name":"KTV","address":"普陀区兰溪路138号5楼(近曹杨商场)"},{"poiid":"B2094757D06FA1FA469C","title":"曹杨商城","lon":"121.40576","lat":"31.23945","category":"119","category_name":"商场","address":"普陀区兰溪路137号曹杨商城内(近杏山路)"},{"poiid":"B2094757D065A1F5479E","title":"普陀区中心医院-急诊室","lon":"121.404378055","lat":"31.2419976243","category":"162","category_name":"医院","address":"上海兰溪路164号"},{"poiid":"B2094757D068A5F54493","title":"新名仕(兰溪路店)","lon":"121.40552","lat":"31.23883","category":"76","category_name":"上海菜","address":"上海普陀区兰溪路125号曹杨影城4楼"},{"poiid":"B2094757DA6EAAF9489C","title":"自由港量贩式KTV(曹杨店)","lon":"121.404811999999","lat":"31.2398229999999","category":"170","category_name":"KTV","address":"普陀区兰溪路148号4楼(近桂巷路)"},{"poiid":"B2094655D26BA6FE4493","title":"上海歌城量贩式KTV(曹杨店)","lon":"121.40552","lat":"31.23883","category":"170","category_name":"KTV","address":"兰溪路125号"},{"poiid":"B2094654DB6BA0F54792","title":"麦当劳(兰溪路店)","lon":"121.40519","lat":"31.23974","category":"68","category_name":"快餐厅","address":"普陀区兰溪路140号(近普陀区文化馆)"},{"poiid":"B2094757D068A7FD459E","title":"味千拉面(兰溪店)","lon":"121.40484858","lat":"31.239745617","category":"95","category_name":"日本料理","address":"普陀区兰溪路143号1楼(近曹杨商城)"},{"poiid":"B2094757D064A6FA4898","title":"普陀区曹杨二村","lon":"121.406344886","lat":"31.2438638228","category":"500","category_name":"未知分类","address":"上海普陀区曹杨二村"},{"poiid":"B2094757D06FA3F5469B","title":"八村烧烤","lon":"121.40622","lat":"31.24499","category":"68","category_name":"快餐厅","address":"普陀区南石一路(南石二路口)"},{"poiid":"B2094751D468ABFE489C","title":"新寺洞辛韩国年糕料理","lon":"121.40519","lat":"31.240237","category":"96","category_name":"韩国料理","address":"普陀区兰溪路148号服饰流行线2楼(近枣阳路)"},{"poiid":"B2094757D068A1FD439F","title":"一品全大酒店(兰溪店)","lon":"121.40368","lat":"31.24021","category":"76","category_name":"上海菜","address":"普陀区兰溪路167号(梅川路口)"},{"poiid":"B2094757D068A3F54898","title":"振鼎鸡(曹杨店)","lon":"121.40436","lat":"31.23988","category":"68","category_name":"快餐厅","address":"普陀区兰溪路140号(近曹杨商场)"},{"poiid":"B2094750DA64A7F5499E","title":"香如故旅游主题餐厅","lon":"121.404861","lat":"31.23994","category":"247","category_name":"餐饮美食","address":"普陀区枣阳路450号(近华师大后门)"},{"poiid":"B2094757D06FA1FF4093","title":"新新潘晓婷撞球俱乐部(兰溪路店)","lon":"121.405548719","lat":"31.2392777836","category":"171","category_name":"台球厅","address":"普陀区兰溪路138号普陀工人文化宫6楼(近曹杨商场)"},{"poiid":"B2094757D06FA1FF419E","title":"85度C(兰溪店)","lon":"121.404919","lat":"31.239913","category":"112","category_name":"糕饼店","address":"普陀区兰溪路148号流行线内(近桂巷路)"},{"poiid":"B2094655D265ABF8469B","title":"安居兰庭","lon":"121.40301","lat":"31.243292","category":"47","category_name":"住宅区","address":"上海市普陀区兰溪路190号"},{"poiid":"B2094654D56BA2FA4092","title":"天目湖宾馆","lon":"121.40873","lat":"31.24382","category":"250","category_name":"公园户外","address":"上海市普陀区曹杨路1021号（近武宁路）。"},{"poiid":"B2094654D56BA2FE4498","title":"永和大王 兰溪路店","lon":"121.404628054","lat":"31.239572793","category":"68","category_name":"快餐厅","address":"普陀区兰溪路141号安天大厦内(近桂巷路)"},{"poiid":"B2094750DA6EA2F54799","title":"地铁站","lon":"121.405929","lat":"31.241863","category":"36","category_name":"地铁站","address":null},{"poiid":"B2094655D26BA1FC429D","title":"普陀医院(兰溪路梅岭北路)","lon":"121.40247","lat":"31.24229","category":"162","category_name":"医院","address":""},{"poiid":"B2094757D06FAAF44999","title":"健之星健身中心","lon":"121.405451204","lat":"31.239540626","category":"221","category_name":"健身中心","address":"普陀区兰溪路138号4楼(曹杨商场对面)"},{"poiid":"B2094757D068A0F8439F","title":"傣妹(兰溪路店)","lon":"121.40522","lat":"31.23977","category":"86","category_name":"火锅店","address":"普陀区兰溪路136号西部广场3楼(近棠浦路)"},{"poiid":"B2094654DB69A4F44699","title":"肯德基(曹杨店)","lon":"121.40505","lat":"31.23934","category":"68","category_name":"快餐厅","address":"普陀区兰溪路137号曹杨商城内(近杏山路)"},{"poiid":"B2094654D56BA2FA4093","title":"天目湖砂锅鱼头","lon":"121.40874","lat":"31.24382","category":"257","category_name":"中餐厅","address":"上海曹杨路1021号"},{"poiid":"B2094654D56BA2F9439D","title":"上海市朝春中心小学","lon":"121.40743","lat":"31.24153","category":"56","category_name":"小学","address":"普陀区棠浦路50号(近兰溪路)"},{"poiid":"B2094655D26CABFA469D","title":"梅岭苑南门(梅岭北路)","lon":"121.40707","lat":"31.24284","category":"47","category_name":"住宅区","address":"梅岭北路400弄23-29号"},{"poiid":"B2094757D169A0F5449C","title":"冬明烧烤","lon":"121.40667","lat":"31.24291","category":"68","category_name":"快餐厅","address":"普陀区梅岭北路400弄曹杨二村108号"},{"poiid":"B2094654D56BA2F94798","title":"上海中医药大学附属普陀医院","lon":"121.40412","lat":"31.24158","category":"162","category_name":"医院","address":"梅岭北路409号"},{"poiid":"B2094654D56BA2F8429E","title":"乐购(北梅园西北)","lon":"121.40567","lat":"31.24272","category":"118","category_name":"超级市场","address":"梅岭北路408、408-1"},{"poiid":"B2094654D56BA2F8469F","title":"北梅园","lon":"121.40634","lat":"31.24223","category":"47","category_name":"住宅区","address":"上海曹杨二村"},{"poiid":"B2094757D16CA5FC4699","title":"上海市普陀区中心医院门诊放射科","lon":"121.40506398","lat":"31.241996361","category":"162","category_name":"医院","address":"上海市兰溪路164号"},{"poiid":"B2094757D06AA2F94799","title":"麒麟KTV(曹杨店)","lon":"121.40501","lat":"31.23939","category":"170","category_name":"KTV","address":"上海普陀区兰溪路141号(近曹杨商场)  "},{"poiid":"B2094757D16FA4F94093","title":"兰溪路烧烤","lon":"121.40722","lat":"31.24264","category":"68","category_name":"快餐厅","address":"普陀区兰溪路曹杨三村水果摊旁(近梅岭北路)"},{"poiid":"B2094757D169A1FF419F","title":"兰溪公园","lon":"121.40573658","lat":"31.241906659","category":"196","category_name":"公园","address":"上海市普陀区兰溪路"},{"poiid":"B2094654D56BA2F84698","title":"普陀区体检站","lon":"121.4051","lat":"31.24196","category":"162","category_name":"医院","address":"花溪路505"},{"poiid":"B2094751D568ABF84192","title":"江南公社","lon":"121.4048","lat":"31.24005","category":"77","category_name":"湖南菜","address":"普陀区兰溪路148号2楼流行线美食广场(近普陀医院)"},{"poiid":"B2094655D26CABFA4298","title":"北梅园北区(南门)","lon":"121.40653","lat":"31.24288","category":"47","category_name":"住宅区","address":"梅岭北路400弄1-45号"},{"poiid":"B2094757D16DA2FD4892","title":"毛胡子燒烤","lon":"121.40329858","lat":"31.2440157","category":"247","category_name":"餐饮美食","address":"上海市普陀区武宁路"},{"poiid":"B2094757D06FA3F9429E","title":"网鱼网咖(兰溪店)","lon":"121.404776719","lat":"31.239140786","category":"173","category_name":"游戏厅","address":"普陀区兰溪路143号2楼"},{"poiid":"B2094757D66DABFC409D","title":"淮海路911 敞蓬 with dangdang、红侠","lon":"121.40625958","lat":"31.242247666","category":"500","category_name":"未知分类","address":"上海淮海路"},{"poiid":"B2094757D068A1F4439D","title":"曹杨二村北岭园","lon":"121.404738","lat":"31.244008","category":"500","category_name":"未知分类","address":"上海曹杨二村北岭园"},{"poiid":"B2094655D36CA6F84398","title":"枫桥路梅岭北路","lon":"121.40834","lat":"31.24214","category":"38","category_name":"公交车站","address":""},{"poiid":"B2094654DB65A0F9499B","title":"莫泰168连锁旅店(曹杨新村店)","lon":"121.40918","lat":"31.24164","category":"216","category_name":"经济型连锁酒店","address":"上海市普陀区枫桥路69号（近梅岭北路）"},{"poiid":"B2094654D56BA2F9469C","title":"兰溪青年公园","lon":"121.40483","lat":"31.24091","category":"196","category_name":"公园","address":"普陀区兰溪路152号(近桂巷路)"},{"poiid":"B2094757D165A4F9449A","title":"普中心医院","lon":"121.403744586","lat":"31.2415016516","category":"162","category_name":"医院","address":"上海兰溪"},{"poiid":"B2094757D16DABF8429F","title":"63路区间终点站","lon":"121.405481","lat":"31.242558","category":"500","category_name":"未知分类","address":"上海普陀医院站 梅岭北路花溪路口"},{"poiid":"B2094757D06FA2FC419E","title":"北杨园","lon":"121.40804","lat":"31.243698","category":"47","category_name":"住宅区","address":"梅岭北路路271弄"},{"poiid":"B2094654D56BA2F8439F","title":"上海市普陀区中心医院","lon":"121.40412","lat":"31.24159","category":"162","category_name":"医院","address":"普陀区兰溪路164号(梅川路口)"},{"poiid":"B2094757D06FA1F5409C","title":"小肥羊 兰溪路店","lon":"121.40429640226","lat":"31.23992962991","category":"86","category_name":"火锅店","address":"普陀区兰溪路141号2楼(近曹杨商场)"},{"poiid":"B2094757DA6EA5FC429B","title":"音杰量贩KTV(兰溪店)","lon":"121.405301000002","lat":"31.239481","category":"170","category_name":"KTV","address":"普陀区兰溪路138号5楼(近曹杨商场)"},{"poiid":"B2094757D06FA1FA469C","title":"曹杨商城","lon":"121.40576","lat":"31.23945","category":"119","category_name":"商场","address":"普陀区兰溪路137号曹杨商城内(近杏山路)"},{"poiid":"B2094757D065A1F5479E","title":"普陀区中心医院-急诊室","lon":"121.404378055","lat":"31.2419976243","category":"162","category_name":"医院","address":"上海兰溪路164号"},{"poiid":"B2094757D068A5F54493","title":"新名仕(兰溪路店)","lon":"121.40552","lat":"31.23883","category":"76","category_name":"上海菜","address":"上海普陀区兰溪路125号曹杨影城4楼"},{"poiid":"B2094757DA6EAAF9489C","title":"自由港量贩式KTV(曹杨店)","lon":"121.404811999999","lat":"31.2398229999999","category":"170","category_name":"KTV","address":"普陀区兰溪路148号4楼(近桂巷路)"},{"poiid":"B2094655D26BA6FE4493","title":"上海歌城量贩式KTV(曹杨店)","lon":"121.40552","lat":"31.23883","category":"170","category_name":"KTV","address":"兰溪路125号"},{"poiid":"B2094654DB6BA0F54792","title":"麦当劳(兰溪路店)","lon":"121.40519","lat":"31.23974","category":"68","category_name":"快餐厅","address":"普陀区兰溪路140号(近普陀区文化馆)"},{"poiid":"B2094757D068A7FD459E","title":"味千拉面(兰溪店)","lon":"121.40484858","lat":"31.239745617","category":"95","category_name":"日本料理","address":"普陀区兰溪路143号1楼(近曹杨商城)"},{"poiid":"B2094757D064A6FA4898","title":"普陀区曹杨二村","lon":"121.406344886","lat":"31.2438638228","category":"500","category_name":"未知分类","address":"上海普陀区曹杨二村"},{"poiid":"B2094757D06FA3F5469B","title":"八村烧烤","lon":"121.40622","lat":"31.24499","category":"68","category_name":"快餐厅","address":"普陀区南石一路(南石二路口)"},{"poiid":"B2094751D468ABFE489C","title":"新寺洞辛韩国年糕料理","lon":"121.40519","lat":"31.240237","category":"96","category_name":"韩国料理","address":"普陀区兰溪路148号服饰流行线2楼(近枣阳路)"},{"poiid":"B2094757D068A1FD439F","title":"一品全大酒店(兰溪店)","lon":"121.40368","lat":"31.24021","category":"76","category_name":"上海菜","address":"普陀区兰溪路167号(梅川路口)"},{"poiid":"B2094757D068A3F54898","title":"振鼎鸡(曹杨店)","lon":"121.40436","lat":"31.23988","category":"68","category_name":"快餐厅","address":"普陀区兰溪路140号(近曹杨商场)"},{"poiid":"B2094750DA64A7F5499E","title":"香如故旅游主题餐厅","lon":"121.404861","lat":"31.23994","category":"247","category_name":"餐饮美食","address":"普陀区枣阳路450号(近华师大后门)"},{"poiid":"B2094757D06FA1FF4093","title":"新新潘晓婷撞球俱乐部(兰溪路店)","lon":"121.405548719","lat":"31.2392777836","category":"171","category_name":"台球厅","address":"普陀区兰溪路138号普陀工人文化宫6楼(近曹杨商场)"},{"poiid":"B2094757D06FA1FF419E","title":"85度C(兰溪店)","lon":"121.404919","lat":"31.239913","category":"112","category_name":"糕饼店","address":"普陀区兰溪路148号流行线内(近桂巷路)"},{"poiid":"B2094655D265ABF8469B","title":"安居兰庭","lon":"121.40301","lat":"31.243292","category":"47","category_name":"住宅区","address":"上海市普陀区兰溪路190号"},{"poiid":"B2094654D56BA2FA4092","title":"天目湖宾馆","lon":"121.40873","lat":"31.24382","category":"250","category_name":"公园户外","address":"上海市普陀区曹杨路1021号（近武宁路）。"},{"poiid":"B2094654D56BA2FE4498","title":"永和大王 兰溪路店","lon":"121.404628054","lat":"31.239572793","category":"68","category_name":"快餐厅","address":"普陀区兰溪路141号安天大厦内(近桂巷路)"},{"poiid":"B2094750DA6EA2F54799","title":"地铁站","lon":"121.405929","lat":"31.241863","category":"36","category_name":"地铁站","address":null},{"poiid":"B2094655D26BA1FC429D","title":"普陀医院(兰溪路梅岭北路)","lon":"121.40247","lat":"31.24229","category":"162","category_name":"医院","address":""},{"poiid":"B2094757D06FAAF44999","title":"健之星健身中心","lon":"121.405451204","lat":"31.239540626","category":"221","category_name":"健身中心","address":"普陀区兰溪路138号4楼(曹杨商场对面)"},{"poiid":"B2094757D068A0F8439F","title":"傣妹(兰溪路店)","lon":"121.40522","lat":"31.23977","category":"86","category_name":"火锅店","address":"普陀区兰溪路136号西部广场3楼(近棠浦路)"},{"poiid":"B2094654DB69A4F44699","title":"肯德基(曹杨店)","lon":"121.40505","lat":"31.23934","category":"68","category_name":"快餐厅","address":"普陀区兰溪路137号曹杨商城内(近杏山路)"},{"poiid":"B2094654D56BA2FA4093","title":"天目湖砂锅鱼头","lon":"121.40874","lat":"31.24382","category":"257","category_name":"中餐厅","address":"上海曹杨路1021号"},{"poiid":"B2094654D56BA2F9439D","title":"上海市朝春中心小学","lon":"121.40743","lat":"31.24153","category":"56","category_name":"小学","address":"普陀区棠浦路50号(近兰溪路)"},{"poiid":"B2094655D26CABFA469D","title":"梅岭苑南门(梅岭北路)","lon":"121.40707","lat":"31.24284","category":"47","category_name":"住宅区","address":"梅岭北路400弄23-29号"},{"poiid":"B2094757D169A0F5449C","title":"冬明烧烤","lon":"121.40667","lat":"31.24291","category":"68","category_name":"快餐厅","address":"普陀区梅岭北路400弄曹杨二村108号"},{"poiid":"B2094654D56BA2F94798","title":"上海中医药大学附属普陀医院","lon":"121.40412","lat":"31.24158","category":"162","category_name":"医院","address":"梅岭北路409号"},{"poiid":"B2094654D56BA2F8429E","title":"乐购(北梅园西北)","lon":"121.40567","lat":"31.24272","category":"118","category_name":"超级市场","address":"梅岭北路408、408-1"},{"poiid":"B2094654D56BA2F8469F","title":"北梅园","lon":"121.40634","lat":"31.24223","category":"47","category_name":"住宅区","address":"上海曹杨二村"},{"poiid":"B2094757D16CA5FC4699","title":"上海市普陀区中心医院门诊放射科","lon":"121.40506398","lat":"31.241996361","category":"162","category_name":"医院","address":"上海市兰溪路164号"},{"poiid":"B2094757D06AA2F94799","title":"麒麟KTV(曹杨店)","lon":"121.40501","lat":"31.23939","category":"170","category_name":"KTV","address":"上海普陀区兰溪路141号(近曹杨商场)  "},{"poiid":"B2094757D16FA4F94093","title":"兰溪路烧烤","lon":"121.40722","lat":"31.24264","category":"68","category_name":"快餐厅","address":"普陀区兰溪路曹杨三村水果摊旁(近梅岭北路)"},{"poiid":"B2094757D169A1FF419F","title":"兰溪公园","lon":"121.40573658","lat":"31.241906659","category":"196","category_name":"公园","address":"上海市普陀区兰溪路"},{"poiid":"B2094654D56BA2F84698","title":"普陀区体检站","lon":"121.4051","lat":"31.24196","category":"162","category_name":"医院","address":"花溪路505"},{"poiid":"B2094751D568ABF84192","title":"江南公社","lon":"121.4048","lat":"31.24005","category":"77","category_name":"湖南菜","address":"普陀区兰溪路148号2楼流行线美食广场(近普陀医院)"},{"poiid":"B2094655D26CABFA4298","title":"北梅园北区(南门)","lon":"121.40653","lat":"31.24288","category":"47","category_name":"住宅区","address":"梅岭北路400弄1-45号"},{"poiid":"B2094757D16DA2FD4892","title":"毛胡子燒烤","lon":"121.40329858","lat":"31.2440157","category":"247","category_name":"餐饮美食","address":"上海市普陀区武宁路"},{"poiid":"B2094757D06FA3F9429E","title":"网鱼网咖(兰溪店)","lon":"121.404776719","lat":"31.239140786","category":"173","category_name":"游戏厅","address":"普陀区兰溪路143号2楼"},{"poiid":"B2094757D66DABFC409D","title":"淮海路911 敞蓬 with dangdang、红侠","lon":"121.40625958","lat":"31.242247666","category":"500","category_name":"未知分类","address":"上海淮海路"},{"poiid":"B2094757D068A1F4439D","title":"曹杨二村北岭园","lon":"121.404738","lat":"31.244008","category":"500","category_name":"未知分类","address":"上海曹杨二村北岭园"},{"poiid":"B2094655D36CA6F84398","title":"枫桥路梅岭北路","lon":"121.40834","lat":"31.24214","category":"38","category_name":"公交车站","address":""},{"poiid":"B2094654DB65A0F9499B","title":"莫泰168连锁旅店(曹杨新村店)","lon":"121.40918","lat":"31.24164","category":"216","category_name":"经济型连锁酒店","address":"上海市普陀区枫桥路69号（近梅岭北路）"},{"poiid":"B2094654D56BA2F9469C","title":"兰溪青年公园","lon":"121.40483","lat":"31.24091","category":"196","category_name":"公园","address":"普陀区兰溪路152号(近桂巷路)"},{"poiid":"B2094757D165A4F9449A","title":"普中心医院","lon":"121.403744586","lat":"31.2415016516","category":"162","category_name":"医院","address":"上海兰溪"},{"poiid":"B2094757D16DABF8429F","title":"63路区间终点站","lon":"121.405481","lat":"31.242558","category":"500","category_name":"未知分类","address":"上海普陀医院站 梅岭北路花溪路口"},{"poiid":"B2094757D06FA2FC419E","title":"北杨园","lon":"121.40804","lat":"31.243698","category":"47","category_name":"住宅区","address":"梅岭北路路271弄"},{"poiid":"B2094654D56BA2F8439F","title":"上海市普陀区中心医院","lon":"121.40412","lat":"31.24159","category":"162","category_name":"医院","address":"普陀区兰溪路164号(梅川路口)"},{"poiid":"B2094757D06FA1F5409C","title":"小肥羊 兰溪路店","lon":"121.40429640226","lat":"31.23992962991","category":"86","category_name":"火锅店","address":"普陀区兰溪路141号2楼(近曹杨商场)"},{"poiid":"B2094757DA6EA5FC429B","title":"音杰量贩KTV(兰溪店)","lon":"121.405301000002","lat":"31.239481","category":"170","category_name":"KTV","address":"普陀区兰溪路138号5楼(近曹杨商场)"},{"poiid":"B2094757D06FA1FA469C","title":"曹杨商城","lon":"121.40576","lat":"31.23945","category":"119","category_name":"商场","address":"普陀区兰溪路137号曹杨商城内(近杏山路)"},{"poiid":"B2094757D065A1F5479E","title":"普陀区中心医院-急诊室","lon":"121.404378055","lat":"31.2419976243","category":"162","category_name":"医院","address":"上海兰溪路164号"},{"poiid":"B2094757D068A5F54493","title":"新名仕(兰溪路店)","lon":"121.40552","lat":"31.23883","category":"76","category_name":"上海菜","address":"上海普陀区兰溪路125号曹杨影城4楼"},{"poiid":"B2094757DA6EAAF9489C","title":"自由港量贩式KTV(曹杨店)","lon":"121.404811999999","lat":"31.2398229999999","category":"170","category_name":"KTV","address":"普陀区兰溪路148号4楼(近桂巷路)"},{"poiid":"B2094655D26BA6FE4493","title":"上海歌城量贩式KTV(曹杨店)","lon":"121.40552","lat":"31.23883","category":"170","category_name":"KTV","address":"兰溪路125号"},{"poiid":"B2094654DB6BA0F54792","title":"麦当劳(兰溪路店)","lon":"121.40519","lat":"31.23974","category":"68","category_name":"快餐厅","address":"普陀区兰溪路140号(近普陀区文化馆)"},{"poiid":"B2094757D068A7FD459E","title":"味千拉面(兰溪店)","lon":"121.40484858","lat":"31.239745617","category":"95","category_name":"日本料理","address":"普陀区兰溪路143号1楼(近曹杨商城)"},{"poiid":"B2094757D064A6FA4898","title":"普陀区曹杨二村","lon":"121.406344886","lat":"31.2438638228","category":"500","category_name":"未知分类","address":"上海普陀区曹杨二村"},{"poiid":"B2094757D06FA3F5469B","title":"八村烧烤","lon":"121.40622","lat":"31.24499","category":"68","category_name":"快餐厅","address":"普陀区南石一路(南石二路口)"},{"poiid":"B2094751D468ABFE489C","title":"新寺洞辛韩国年糕料理","lon":"121.40519","lat":"31.240237","category":"96","category_name":"韩国料理","address":"普陀区兰溪路148号服饰流行线2楼(近枣阳路)"},{"poiid":"B2094757D068A1FD439F","title":"一品全大酒店(兰溪店)","lon":"121.40368","lat":"31.24021","category":"76","category_name":"上海菜","address":"普陀区兰溪路167号(梅川路口)"},{"poiid":"B2094757D068A3F54898","title":"振鼎鸡(曹杨店)","lon":"121.40436","lat":"31.23988","category":"68","category_name":"快餐厅","address":"普陀区兰溪路140号(近曹杨商场)"},{"poiid":"B2094750DA64A7F5499E","title":"香如故旅游主题餐厅","lon":"121.404861","lat":"31.23994","category":"247","category_name":"餐饮美食","address":"普陀区枣阳路450号(近华师大后门)"},{"poiid":"B2094757D06FA1FF4093","title":"新新潘晓婷撞球俱乐部(兰溪路店)","lon":"121.405548719","lat":"31.2392777836","category":"171","category_name":"台球厅","address":"普陀区兰溪路138号普陀工人文化宫6楼(近曹杨商场)"},{"poiid":"B2094757D06FA1FF419E","title":"85度C(兰溪店)","lon":"121.404919","lat":"31.239913","category":"112","category_name":"糕饼店","address":"普陀区兰溪路148号流行线内(近桂巷路)"},{"poiid":"B2094655D265ABF8469B","title":"安居兰庭","lon":"121.40301","lat":"31.243292","category":"47","category_name":"住宅区","address":"上海市普陀区兰溪路190号"},{"poiid":"B2094654D56BA2FA4092","title":"天目湖宾馆","lon":"121.40873","lat":"31.24382","category":"250","category_name":"公园户外","address":"上海市普陀区曹杨路1021号（近武宁路）。"},{"poiid":"B2094654D56BA2FE4498","title":"永和大王 兰溪路店","lon":"121.404628054","lat":"31.239572793","category":"68","category_name":"快餐厅","address":"普陀区兰溪路141号安天大厦内(近桂巷路)"},{"poiid":"B2094750DA6EA2F54799","title":"地铁站","lon":"121.405929","lat":"31.241863","category":"36","category_name":"地铁站","address":null},{"poiid":"B2094655D26BA1FC429D","title":"普陀医院(兰溪路梅岭北路)","lon":"121.40247","lat":"31.24229","category":"162","category_name":"医院","address":""},{"poiid":"B2094757D06FAAF44999","title":"健之星健身中心","lon":"121.405451204","lat":"31.239540626","category":"221","category_name":"健身中心","address":"普陀区兰溪路138号4楼(曹杨商场对面)"},{"poiid":"B2094757D068A0F8439F","title":"傣妹(兰溪路店)","lon":"121.40522","lat":"31.23977","category":"86","category_name":"火锅店","address":"普陀区兰溪路136号西部广场3楼(近棠浦路)"},{"poiid":"B2094654DB69A4F44699","title":"肯德基(曹杨店)","lon":"121.40505","lat":"31.23934","category":"68","category_name":"快餐厅","address":"普陀区兰溪路137号曹杨商城内(近杏山路)"},{"poiid":"B2094654D56BA2FA4093","title":"天目湖砂锅鱼头","lon":"121.40874","lat":"31.24382","category":"257","category_name":"中餐厅","address":"上海曹杨路1021号"},{"poiid":"B2094654D56BA2F9439D","title":"上海市朝春中心小学","lon":"121.40743","lat":"31.24153","category":"56","category_name":"小学","address":"普陀区棠浦路50号(近兰溪路)"},{"poiid":"B2094655D26CABFA469D","title":"梅岭苑南门(梅岭北路)","lon":"121.40707","lat":"31.24284","category":"47","category_name":"住宅区","address":"梅岭北路400弄23-29号"},{"poiid":"B2094757D169A0F5449C","title":"冬明烧烤","lon":"121.40667","lat":"31.24291","category":"68","category_name":"快餐厅","address":"普陀区梅岭北路400弄曹杨二村108号"},{"poiid":"B2094654D56BA2F94798","title":"上海中医药大学附属普陀医院","lon":"121.40412","lat":"31.24158","category":"162","category_name":"医院","address":"梅岭北路409号"},{"poiid":"B2094654D56BA2F8429E","title":"乐购(北梅园西北)","lon":"121.40567","lat":"31.24272","category":"118","category_name":"超级市场","address":"梅岭北路408、408-1"},{"poiid":"B2094654D56BA2F8469F","title":"北梅园","lon":"121.40634","lat":"31.24223","category":"47","category_name":"住宅区","address":"上海曹杨二村"},{"poiid":"B2094757D16CA5FC4699","title":"上海市普陀区中心医院门诊放射科","lon":"121.40506398","lat":"31.241996361","category":"162","category_name":"医院","address":"上海市兰溪路164号"},{"poiid":"B2094757D06AA2F94799","title":"麒麟KTV(曹杨店)","lon":"121.40501","lat":"31.23939","category":"170","category_name":"KTV","address":"上海普陀区兰溪路141号(近曹杨商场)  "},{"poiid":"B2094757D16FA4F94093","title":"兰溪路烧烤","lon":"121.40722","lat":"31.24264","category":"68","category_name":"快餐厅","address":"普陀区兰溪路曹杨三村水果摊旁(近梅岭北路)"},{"poiid":"B2094757D169A1FF419F","title":"兰溪公园","lon":"121.40573658","lat":"31.241906659","category":"196","category_name":"公园","address":"上海市普陀区兰溪路"},{"poiid":"B2094654D56BA2F84698","title":"普陀区体检站","lon":"121.4051","lat":"31.24196","category":"162","category_name":"医院","address":"花溪路505"},{"poiid":"B2094751D568ABF84192","title":"江南公社","lon":"121.4048","lat":"31.24005","category":"77","category_name":"湖南菜","address":"普陀区兰溪路148号2楼流行线美食广场(近普陀医院)"},{"poiid":"B2094655D26CABFA4298","title":"北梅园北区(南门)","lon":"121.40653","lat":"31.24288","category":"47","category_name":"住宅区","address":"梅岭北路400弄1-45号"},{"poiid":"B2094757D16DA2FD4892","title":"毛胡子燒烤","lon":"121.40329858","lat":"31.2440157","category":"247","category_name":"餐饮美食","address":"上海市普陀区武宁路"},{"poiid":"B2094757D06FA3F9429E","title":"网鱼网咖(兰溪店)","lon":"121.404776719","lat":"31.239140786","category":"173","category_name":"游戏厅","address":"普陀区兰溪路143号2楼"},{"poiid":"B2094757D66DABFC409D","title":"淮海路911 敞蓬 with dangdang、红侠","lon":"121.40625958","lat":"31.242247666","category":"500","category_name":"未知分类","address":"上海淮海路"},{"poiid":"B2094757D068A1F4439D","title":"曹杨二村北岭园","lon":"121.404738","lat":"31.244008","category":"500","category_name":"未知分类","address":"上海曹杨二村北岭园"},{"poiid":"B2094655D36CA6F84398","title":"枫桥路梅岭北路","lon":"121.40834","lat":"31.24214","category":"38","category_name":"公交车站","address":""},{"poiid":"B2094654DB65A0F9499B","title":"莫泰168连锁旅店(曹杨新村店)","lon":"121.40918","lat":"31.24164","category":"216","category_name":"经济型连锁酒店","address":"上海市普陀区枫桥路69号（近梅岭北路）"},{"poiid":"B2094654D56BA2F9469C","title":"兰溪青年公园","lon":"121.40483","lat":"31.24091","category":"196","category_name":"公园","address":"普陀区兰溪路152号(近桂巷路)"},{"poiid":"B2094757D165A4F9449A","title":"普中心医院","lon":"121.403744586","lat":"31.2415016516","category":"162","category_name":"医院","address":"上海兰溪"},{"poiid":"B2094757D16DABF8429F","title":"63路区间终点站","lon":"121.405481","lat":"31.242558","category":"500","category_name":"未知分类","address":"上海普陀医院站 梅岭北路花溪路口"},{"poiid":"B2094757D06FA2FC419E","title":"北杨园","lon":"121.40804","lat":"31.243698","category":"47","category_name":"住宅区","address":"梅岭北路路271弄"},{"poiid":"B2094654D56BA2F8439F","title":"上海市普陀区中心医院","lon":"121.40412","lat":"31.24159","category":"162","category_name":"医院","address":"普陀区兰溪路164号(梅川路口)"},{"poiid":"B2094757D06FA1F5409C","title":"小肥羊 兰溪路店","lon":"121.40429640226","lat":"31.23992962991","category":"86","category_name":"火锅店","address":"普陀区兰溪路141号2楼(近曹杨商场)"},{"poiid":"B2094757DA6EA5FC429B","title":"音杰量贩KTV(兰溪店)","lon":"121.405301000002","lat":"31.239481","category":"170","category_name":"KTV","address":"普陀区兰溪路138号5楼(近曹杨商场)"},{"poiid":"B2094757D06FA1FA469C","title":"曹杨商城","lon":"121.40576","lat":"31.23945","category":"119","category_name":"商场","address":"普陀区兰溪路137号曹杨商城内(近杏山路)"},{"poiid":"B2094757D065A1F5479E","title":"普陀区中心医院-急诊室","lon":"121.404378055","lat":"31.2419976243","category":"162","category_name":"医院","address":"上海兰溪路164号"},{"poiid":"B2094757D068A5F54493","title":"新名仕(兰溪路店)","lon":"121.40552","lat":"31.23883","category":"76","category_name":"上海菜","address":"上海普陀区兰溪路125号曹杨影城4楼"},{"poiid":"B2094757DA6EAAF9489C","title":"自由港量贩式KTV(曹杨店)","lon":"121.404811999999","lat":"31.2398229999999","category":"170","category_name":"KTV","address":"普陀区兰溪路148号4楼(近桂巷路)"},{"poiid":"B2094655D26BA6FE4493","title":"上海歌城量贩式KTV(曹杨店)","lon":"121.40552","lat":"31.23883","category":"170","category_name":"KTV","address":"兰溪路125号"},{"poiid":"B2094654DB6BA0F54792","title":"麦当劳(兰溪路店)","lon":"121.40519","lat":"31.23974","category":"68","category_name":"快餐厅","address":"普陀区兰溪路140号(近普陀区文化馆)"},{"poiid":"B2094757D068A7FD459E","title":"味千拉面(兰溪店)","lon":"121.40484858","lat":"31.239745617","category":"95","category_name":"日本料理","address":"普陀区兰溪路143号1楼(近曹杨商城)"},{"poiid":"B2094757D064A6FA4898","title":"普陀区曹杨二村","lon":"121.406344886","lat":"31.2438638228","category":"500","category_name":"未知分类","address":"上海普陀区曹杨二村"},{"poiid":"B2094757D06FA3F5469B","title":"八村烧烤","lon":"121.40622","lat":"31.24499","category":"68","category_name":"快餐厅","address":"普陀区南石一路(南石二路口)"},{"poiid":"B2094751D468ABFE489C","title":"新寺洞辛韩国年糕料理","lon":"121.40519","lat":"31.240237","category":"96","category_name":"韩国料理","address":"普陀区兰溪路148号服饰流行线2楼(近枣阳路)"},{"poiid":"B2094757D068A1FD439F","title":"一品全大酒店(兰溪店)","lon":"121.40368","lat":"31.24021","category":"76","category_name":"上海菜","address":"普陀区兰溪路167号(梅川路口)"},{"poiid":"B2094757D068A3F54898","title":"振鼎鸡(曹杨店)","lon":"121.40436","lat":"31.23988","category":"68","category_name":"快餐厅","address":"普陀区兰溪路140号(近曹杨商场)"},{"poiid":"B2094750DA64A7F5499E","title":"香如故旅游主题餐厅","lon":"121.404861","lat":"31.23994","category":"247","category_name":"餐饮美食","address":"普陀区枣阳路450号(近华师大后门)"},{"poiid":"B2094757D06FA1FF4093","title":"新新潘晓婷撞球俱乐部(兰溪路店)","lon":"121.405548719","lat":"31.2392777836","category":"171","category_name":"台球厅","address":"普陀区兰溪路138号普陀工人文化宫6楼(近曹杨商场)"},{"poiid":"B2094757D06FA1FF419E","title":"85度C(兰溪店)","lon":"121.404919","lat":"31.239913","category":"112","category_name":"糕饼店","address":"普陀区兰溪路148号流行线内(近桂巷路)"},{"poiid":"B2094655D265ABF8469B","title":"安居兰庭","lon":"121.40301","lat":"31.243292","category":"47","category_name":"住宅区","address":"上海市普陀区兰溪路190号"},{"poiid":"B2094654D56BA2FA4092","title":"天目湖宾馆","lon":"121.40873","lat":"31.24382","category":"250","category_name":"公园户外","address":"上海市普陀区曹杨路1021号（近武宁路）。"},{"poiid":"B2094654D56BA2FE4498","title":"永和大王 兰溪路店","lon":"121.404628054","lat":"31.239572793","category":"68","category_name":"快餐厅","address":"普陀区兰溪路141号安天大厦内(近桂巷路)"},{"poiid":"B2094750DA6EA2F54799","title":"地铁站","lon":"121.405929","lat":"31.241863","category":"36","category_name":"地铁站","address":null},{"poiid":"B2094655D26BA1FC429D","title":"普陀医院(兰溪路梅岭北路)","lon":"121.40247","lat":"31.24229","category":"162","category_name":"医院","address":""},{"poiid":"B2094757D06FAAF44999","title":"健之星健身中心","lon":"121.405451204","lat":"31.239540626","category":"221","category_name":"健身中心","address":"普陀区兰溪路138号4楼(曹杨商场对面)"},{"poiid":"B2094757D068A0F8439F","title":"傣妹(兰溪路店)","lon":"121.40522","lat":"31.23977","category":"86","category_name":"火锅店","address":"普陀区兰溪路136号西部广场3楼(近棠浦路)"},{"poiid":"B2094654DB69A4F44699","title":"肯德基(曹杨店)","lon":"121.40505","lat":"31.23934","category":"68","category_name":"快餐厅","address":"普陀区兰溪路137号曹杨商城内(近杏山路)"},{"poiid":"B2094654D56BA2FA4093","title":"天目湖砂锅鱼头","lon":"121.40874","lat":"31.24382","category":"257","category_name":"中餐厅","address":"上海曹杨路1021号"},{"poiid":"B2094654D56BA2F9439D","title":"上海市朝春中心小学","lon":"121.40743","lat":"31.24153","category":"56","category_name":"小学","address":"普陀区棠浦路50号(近兰溪路)"},{"poiid":"B2094655D26CABFA469D","title":"梅岭苑南门(梅岭北路)","lon":"121.40707","lat":"31.24284","category":"47","category_name":"住宅区","address":"梅岭北路400弄23-29号"},{"poiid":"B2094757D169A0F5449C","title":"冬明烧烤","lon":"121.40667","lat":"31.24291","category":"68","category_name":"快餐厅","address":"普陀区梅岭北路400弄曹杨二村108号"},{"poiid":"B2094654D56BA2F94798","title":"上海中医药大学附属普陀医院","lon":"121.40412","lat":"31.24158","category":"162","category_name":"医院","address":"梅岭北路409号"},{"poiid":"B2094654D56BA2F8429E","title":"乐购(北梅园西北)","lon":"121.40567","lat":"31.24272","category":"118","category_name":"超级市场","address":"梅岭北路408、408-1"},{"poiid":"B2094654D56BA2F8469F","title":"北梅园","lon":"121.40634","lat":"31.24223","category":"47","category_name":"住宅区","address":"上海曹杨二村"},{"poiid":"B2094757D16CA5FC4699","title":"上海市普陀区中心医院门诊放射科","lon":"121.40506398","lat":"31.241996361","category":"162","category_name":"医院","address":"上海市兰溪路164号"},{"poiid":"B2094757D06AA2F94799","title":"麒麟KTV(曹杨店)","lon":"121.40501","lat":"31.23939","category":"170","category_name":"KTV","address":"上海普陀区兰溪路141号(近曹杨商场)  "},{"poiid":"B2094757D16FA4F94093","title":"兰溪路烧烤","lon":"121.40722","lat":"31.24264","category":"68","category_name":"快餐厅","address":"普陀区兰溪路曹杨三村水果摊旁(近梅岭北路)"},{"poiid":"B2094757D169A1FF419F","title":"兰溪公园","lon":"121.40573658","lat":"31.241906659","category":"196","category_name":"公园","address":"上海市普陀区兰溪路"},{"poiid":"B2094654D56BA2F84698","title":"普陀区体检站","lon":"121.4051","lat":"31.24196","category":"162","category_name":"医院","address":"花溪路505"},{"poiid":"B2094751D568ABF84192","title":"江南公社","lon":"121.4048","lat":"31.24005","category":"77","category_name":"湖南菜","address":"普陀区兰溪路148号2楼流行线美食广场(近普陀医院)"},{"poiid":"B2094655D26CABFA4298","title":"北梅园北区(南门)","lon":"121.40653","lat":"31.24288","category":"47","category_name":"住宅区","address":"梅岭北路400弄1-45号"},{"poiid":"B2094757D16DA2FD4892","title":"毛胡子燒烤","lon":"121.40329858","lat":"31.2440157","category":"247","category_name":"餐饮美食","address":"上海市普陀区武宁路"},{"poiid":"B2094757D06FA3F9429E","title":"网鱼网咖(兰溪店)","lon":"121.404776719","lat":"31.239140786","category":"173","category_name":"游戏厅","address":"普陀区兰溪路143号2楼"},{"poiid":"B2094757D66DABFC409D","title":"淮海路911 敞蓬 with dangdang、红侠","lon":"121.40625958","lat":"31.242247666","category":"500","category_name":"未知分类","address":"上海淮海路"},{"poiid":"B2094757D068A1F4439D","title":"曹杨二村北岭园","lon":"121.404738","lat":"31.244008","category":"500","category_name":"未知分类","address":"上海曹杨二村北岭园"},{"poiid":"B2094655D36CA6F84398","title":"枫桥路梅岭北路","lon":"121.40834","lat":"31.24214","category":"38","category_name":"公交车站","address":""},{"poiid":"B2094654DB65A0F9499B","title":"莫泰168连锁旅店(曹杨新村店)","lon":"121.40918","lat":"31.24164","category":"216","category_name":"经济型连锁酒店","address":"上海市普陀区枫桥路69号（近梅岭北路）"},{"poiid":"B2094654D56BA2F9469C","title":"兰溪青年公园","lon":"121.40483","lat":"31.24091","category":"196","category_name":"公园","address":"普陀区兰溪路152号(近桂巷路)"},{"poiid":"B2094757D165A4F9449A","title":"普中心医院","lon":"121.403744586","lat":"31.2415016516","category":"162","category_name":"医院","address":"上海兰溪"},{"poiid":"B2094757D16DABF8429F","title":"63路区间终点站","lon":"121.405481","lat":"31.242558","category":"500","category_name":"未知分类","address":"上海普陀医院站 梅岭北路花溪路口"},{"poiid":"B2094757D06FA2FC419E","title":"北杨园","lon":"121.40804","lat":"31.243698","category":"47","category_name":"住宅区","address":"梅岭北路路271弄"}]