[{"poiid":"B2094757D06EABF4499F","title":"台北纯K（天山店）","lon":"121.386553673","lat":"31.2148042921","category":"170","category_name":"KTV","address":"长宁区天山路341号（威宁路口）缤谷广场1楼东侧"},{"poiid":"B2094757D06FA2F9419B","title":"沃歌斯Wagas(缤谷广场店)","lon":"121.38717258","lat":"31.215155136","category":"94","category_name":"西餐厅","address":"长宁区天山路341号缤谷文化休闲广场1楼(近威宁路)"},{"poiid":"B2094757D06EAAF54599","title":"龙记茶餐厅 天山店","lon":"121.38621","lat":"31.21478","category":"257","category_name":"中餐厅","address":"长宁区天山路341号缤谷文化休闲广场1楼(近威宁路)"},{"poiid":"B2094757D06EABF5409A","title":"威宁路地铁站","lon":"121.38630846","lat":"31.214988842","category":"36","category_name":"地铁站","address":"上海交通轨道 二号线 轨交威宁路站 2"},{"poiid":"B2094757D06FA7FC429C","title":"宝燕一号","lon":"121.386219","lat":"31.214785","category":"72","category_name":"广东菜","address":"上海天山路341号"},{"poiid":"B2094655D26BA2F84793","title":"天山路威宁路","lon":"121.387424","lat":"31.214728","category":"38","category_name":"公交车站","address":""},{"poiid":"B2094757D06FA1FB4693","title":"大城小爱","lon":"121.38532554","lat":"31.215015353","category":"253","category_name":"校园生活","address":"上海威宁路341号缤谷广场三楼"},{"poiid":"B2094757D06FA6F5439A","title":"千秋膳房(天山店）","lon":"121.38634358","lat":"31.215127135","category":"91","category_name":"台湾菜","address":"长宁区天山路341号缤谷文化休闲广场303室(近威宁路)"},{"poiid":"B2094757D068A6FD419F","title":"潮府粥道","lon":"121.38665258","lat":"31.215049134","category":"72","category_name":"广东菜","address":"长宁区天山路341号缤谷文化休闲广场1-2楼(近威宁路)"},{"poiid":"B2094757D06FA0FF469B","title":"旭辉世纪广场","lon":"121.3822","lat":"31.22545","category":"119","category_name":"商场","address":"普陀区丹巴路28号"},{"poiid":"B2094750D26FA2FF4992","title":"满记甜品","lon":"121.385932","lat":"31.216424","category":"67","category_name":"甜品店","address":"长宁区天山路341号缤谷文化休闲广场1楼(近威宁路)"},{"poiid":"B2094655D26BA6FB439F","title":"天山怡景苑","lon":"121.38357","lat":"31.218071","category":"47","category_name":"住宅区","address":"上海市长宁区威宁路511弄"},{"poiid":"B2094757D06FA5F54198","title":"斯比特","lon":"121.38621","lat":"31.21478","category":"94","category_name":"西餐厅","address":"长宁区天山路341号缤谷文化休闲广场210单元"},{"poiid":"B2094757D06FA1F4409A","title":"the Coffee Bean(缤谷广场店)","lon":"121.38651847","lat":"31.215099105","category":"65","category_name":"咖啡厅","address":"上海威宁路Bingo缤谷广场"},{"poiid":"B2094655D26EA1F44193","title":"天涯海角","lon":"121.38126","lat":"31.21603","category":"149","category_name":"洗浴推拿场所","address":"长宁区天山路186-192号(近北虹路)"},{"poiid":"B2094757D06FA1FA449E","title":"巴黎贝甜(天山路店)","lon":"121.38536688","lat":"31.214406154","category":"67","category_name":"甜品店","address":"长宁区天山路341号缤谷文化休闲广场1楼西首(近威宁路)"},{"poiid":"B2094654D569A4FA499F","title":"天山大厦","lon":"121.385","lat":"31.2218","category":"46","category_name":"楼宇","address":"珠江新城华穗路与华利路交汇处"},{"poiid":"B2094757D76FA2FB4792","title":"香啡缤 缤谷文化店","lon":"121.38621","lat":"31.21478","category":"260","category_name":"其他","address":"长宁区天山路341号缤谷文化休闲广场1楼(近威宁路)"},{"poiid":"B2094757D068A1FC489A","title":"元丰天山花园河风丽景","lon":"121.378892586","lat":"31.2177991879","category":"500","category_name":"未知分类","address":"上海市长宁区天山路88弄"},{"poiid":"B2094757D068A6F94599","title":"长宁区社保中心","lon":"121.379334","lat":"31.216286","category":"500","category_name":"未知分类","address":"长宁区天山路38号(近哈密路)"},{"poiid":"B2094654DB69A5FF4293","title":"莫泰168连锁旅店(天山路店)","lon":"121.37976","lat":"31.21633","category":"216","category_name":"经济型连锁酒店","address":"长宁区天山路78号(近哈密路)"},{"poiid":"B2094757D06FA4FD4892","title":"天山华庭","lon":"121.38657","lat":"31.216274","category":"47","category_name":"住宅区","address":"上海市长宁区威宁路458弄"},{"poiid":"B2094757D66DA3FB489C","title":"Citaly","lon":"121.386756186","lat":"31.2176076841","category":"500","category_name":"未知分类","address":"长宁区天山路341号缤谷文化休闲广场201号(近威宁路)"},{"poiid":"B2094757D168A5F4439E","title":"上海蓝山国际青年旅舍虹桥店","lon":"121.377748","lat":"31.218365","category":"500","category_name":"未知分类","address":"上海市长宁区哈密路108号(近长宁路)"},{"poiid":"B2094757D069AAFF469F","title":"仙霞大郡","lon":"121.38","lat":"31.2159","category":"47","category_name":"住宅区","address":"仙霞大郡位于长宁仙霞路1225弄"},{"poiid":"B2094757D069A6FA4493","title":"觉味","lon":"121.38646558","lat":"31.214823129","category":"247","category_name":"餐饮美食","address":"上海天山路缤谷广场"},{"poiid":"B2094753D76AA6FF409F","title":"汉泰东南亚风味餐厅(天山店)","lon":"121.386104","lat":"31.214677","category":"99","category_name":"泰国／越南菜品餐厅","address":"上海市长宁区天山路341号缤谷广场4楼"},{"poiid":"B2094757D065A3F9489E","title":"上海赢华国际广场","lon":"121.385167586","lat":"31.2210462514","category":"252","category_name":"楼宇机构","address":"重庆市渝中区解放碑步行街民族路188号(女人广场旁)"},{"poiid":"B2094757D46EA2FC4692","title":"食其家 天山路店","lon":"121.38621","lat":"31.21478","category":"95","category_name":"日本料理","address":"长宁区天山路341号缤谷文化休闲广场108A铺(近威宁路)"},{"poiid":"B2094752D36DA5F9469D","title":"上海17.5影城北虹店","lon":"121.38349","lat":"31.22049","category":"178","category_name":"电影院","address":"上海市长宁区北虹路1068号第四层B区"},{"poiid":"B2094757D069A1FA419D","title":"大桶大足浴(天山店)","lon":"121.382177586","lat":"31.2170111725","category":"149","category_name":"洗浴推拿场所","address":"长宁区双流路271号(近长宁路)"},{"poiid":"B2094757D065A1FC479D","title":"中国网络游戏服务网5173.com","lon":"121.382666406","lat":"31.2209064987","category":"46","category_name":"楼宇","address":"上海云岭东路599弄汇银铭尊20号"},{"poiid":"B2094757D06BA5F94599","title":"荷风轩","lon":"121.38569478","lat":"31.215802882","category":"247","category_name":"餐饮美食","address":"上海长宁区天山路341号缤谷文化休闲广场4楼"},{"poiid":"B2094757D069A0FC499A","title":"佰佰茶餐厅","lon":"121.386628086","lat":"31.2151652864","category":"72","category_name":"广东菜","address":"长宁区天山路341号缤谷文化休闲广场5楼(近威宁路)"},{"poiid":"B2094757D169A7FE439D","title":"天山新苑","lon":"121.38212","lat":"31.217104","category":"47","category_name":"住宅区","address":"上海市长宁区天山路202弄"},{"poiid":"B2094757D068A7F84493","title":"觉味川菜","lon":"121.385935403","lat":"31.2181800932","category":"71","category_name":"四川菜","address":"长宁区天山路341号缤谷文化休闲广场C310号商铺(近威宁路)"},{"poiid":"B2094757D16CABFE439E","title":"劲霸男装","lon":"121.382435586","lat":"31.2207352453","category":"249","category_name":"购物服务","address":"上海云岭东路丹巴路"},{"poiid":"B2094757D16EAAFE4892","title":"东渡国际大厦","lon":"121.381794586","lat":"31.2222152743","category":"252","category_name":"楼宇机构","address":"上海云岭东路651弄"},{"poiid":"B2094655D26AA0FA469B","title":"地铁威宁路站","lon":"121.38628","lat":"31.21502","category":"36","category_name":"地铁站","address":""},{"poiid":"B2094757D569A0FF4898","title":"宜嘉坊综合楼","lon":"121.381985","lat":"31.22167","category":"46","category_name":"楼宇","address":"天山西路113号等"},{"poiid":"B2094757D069A1FF4698","title":"咕喱咕啦","lon":"121.38178358","lat":"31.222224274","category":"94","category_name":"西餐厅","address":"普陀区丹巴路28弄36号104室(近旭辉广场36号的全家便利)"},{"poiid":"B2094753D269A7F44493","title":"渔舟烤全鱼","lon":"121.381343","lat":"31.220521","category":"247","category_name":"餐饮美食","address":"上海市 天山路762号泓鑫时尚广场西区F3-05(近古北路)"},{"poiid":"B2094757D06BA5FC469C","title":"益佰年","lon":"121.386256586","lat":"31.2146961272","category":"77","category_name":"湖南菜","address":"长宁区天山路341号缤谷文化休闲广场(近威宁路)"},{"poiid":"B2094654D56BA6FD419D","title":"南洋新都","lon":"121.38235","lat":"31.214426","category":"47","category_name":"住宅区","address":"上海市长宁区天山路177弄"},{"poiid":"B2094752D268AAFD4592","title":"smiley peat斯比特意大利休闲餐厅","lon":"121.381003","lat":"31.218191","category":"247","category_name":"餐饮美食","address":"天山路341号缤谷文化休闲广场210单元"},{"poiid":"B2094757D768A4FF499A","title":"赛百味 天山路店 SUBWAY","lon":"121.38557","lat":"31.215048","category":"94","category_name":"西餐厅","address":"长宁区天山路341号缤谷文化休闲广场1楼(近威宁路)"},{"poiid":"B2094757D06AA6FE489C","title":"唻吃面","lon":"121.386588353","lat":"31.2148415134","category":"68","category_name":"快餐厅","address":"长宁区天山路341号缤谷文化休闲广场2楼209C-D号(近威宁路)"},{"poiid":"B2094654DB69A7F94199","title":"邮政大楼","lon":"121.37959","lat":"31.22041","category":"46","category_name":"楼宇","address":"越秀区环市东路362-366号"},{"poiid":"B2094757D164A3F9449F","title":"汇银河滨壹号","lon":"121.38208158","lat":"31.22102225","category":"500","category_name":"未知分类","address":"普陀普陀云岭东路599弄"},{"poiid":"B2094654D56BA1FC469A","title":"海逸公寓","lon":"121.38379","lat":"31.216658","category":"47","category_name":"住宅区","address":"天山路288弄"},{"poiid":"B2094757D06EABF4499F","title":"台北纯K（天山店）","lon":"121.386553673","lat":"31.2148042921","category":"170","category_name":"KTV","address":"长宁区天山路341号（威宁路口）缤谷广场1楼东侧"},{"poiid":"B2094757D06FA2F9419B","title":"沃歌斯Wagas(缤谷广场店)","lon":"121.38717258","lat":"31.215155136","category":"94","category_name":"西餐厅","address":"长宁区天山路341号缤谷文化休闲广场1楼(近威宁路)"},{"poiid":"B2094757D06EAAF54599","title":"龙记茶餐厅 天山店","lon":"121.38621","lat":"31.21478","category":"257","category_name":"中餐厅","address":"长宁区天山路341号缤谷文化休闲广场1楼(近威宁路)"},{"poiid":"B2094757D06EABF5409A","title":"威宁路地铁站","lon":"121.38630846","lat":"31.214988842","category":"36","category_name":"地铁站","address":"上海交通轨道 二号线 轨交威宁路站 2"},{"poiid":"B2094757D06FA7FC429C","title":"宝燕一号","lon":"121.386219","lat":"31.214785","category":"72","category_name":"广东菜","address":"上海天山路341号"},{"poiid":"B2094655D26BA2F84793","title":"天山路威宁路","lon":"121.387424","lat":"31.214728","category":"38","category_name":"公交车站","address":""},{"poiid":"B2094757D06FA1FB4693","title":"大城小爱","lon":"121.38532554","lat":"31.215015353","category":"253","category_name":"校园生活","address":"上海威宁路341号缤谷广场三楼"},{"poiid":"B2094757D06FA6F5439A","title":"千秋膳房(天山店）","lon":"121.38634358","lat":"31.215127135","category":"91","category_name":"台湾菜","address":"长宁区天山路341号缤谷文化休闲广场303室(近威宁路)"},{"poiid":"B2094757D068A6FD419F","title":"潮府粥道","lon":"121.38665258","lat":"31.215049134","category":"72","category_name":"广东菜","address":"长宁区天山路341号缤谷文化休闲广场1-2楼(近威宁路)"},{"poiid":"B2094757D06FA0FF469B","title":"旭辉世纪广场","lon":"121.3822","lat":"31.22545","category":"119","category_name":"商场","address":"普陀区丹巴路28号"},{"poiid":"B2094750D26FA2FF4992","title":"满记甜品","lon":"121.385932","lat":"31.216424","category":"67","category_name":"甜品店","address":"长宁区天山路341号缤谷文化休闲广场1楼(近威宁路)"},{"poiid":"B2094655D26BA6FB439F","title":"天山怡景苑","lon":"121.38357","lat":"31.218071","category":"47","category_name":"住宅区","address":"上海市长宁区威宁路511弄"},{"poiid":"B2094757D06FA5F54198","title":"斯比特","lon":"121.38621","lat":"31.21478","category":"94","category_name":"西餐厅","address":"长宁区天山路341号缤谷文化休闲广场210单元"},{"poiid":"B2094757D06FA1F4409A","title":"the Coffee Bean(缤谷广场店)","lon":"121.38651847","lat":"31.215099105","category":"65","category_name":"咖啡厅","address":"上海威宁路Bingo缤谷广场"},{"poiid":"B2094655D26EA1F44193","title":"天涯海角","lon":"121.38126","lat":"31.21603","category":"149","category_name":"洗浴推拿场所","address":"长宁区天山路186-192号(近北虹路)"},{"poiid":"B2094757D06FA1FA449E","title":"巴黎贝甜(天山路店)","lon":"121.38536688","lat":"31.214406154","category":"67","category_name":"甜品店","address":"长宁区天山路341号缤谷文化休闲广场1楼西首(近威宁路)"},{"poiid":"B2094654D569A4FA499F","title":"天山大厦","lon":"121.385","lat":"31.2218","category":"46","category_name":"楼宇","address":"珠江新城华穗路与华利路交汇处"},{"poiid":"B2094757D76FA2FB4792","title":"香啡缤 缤谷文化店","lon":"121.38621","lat":"31.21478","category":"260","category_name":"其他","address":"长宁区天山路341号缤谷文化休闲广场1楼(近威宁路)"},{"poiid":"B2094757D068A1FC489A","title":"元丰天山花园河风丽景","lon":"121.378892586","lat":"31.2177991879","category":"500","category_name":"未知分类","address":"上海市长宁区天山路88弄"},{"poiid":"B2094757D068A6F94599","title":"长宁区社保中心","lon":"121.379334","lat":"31.216286","category":"500","category_name":"未知分类","address":"长宁区天山路38号(近哈密路)"},{"poiid":"B2094654DB69A5FF4293","title":"莫泰168连锁旅店(天山路店)","lon":"121.37976","lat":"31.21633","category":"216","category_name":"经济型连锁酒店","address":"长宁区天山路78号(近哈密路)"},{"poiid":"B2094757D06FA4FD4892","title":"天山华庭","lon":"121.38657","lat":"31.216274","category":"47","category_name":"住宅区","address":"上海市长宁区威宁路458弄"},{"poiid":"B2094757D66DA3FB489C","title":"Citaly","lon":"121.386756186","lat":"31.2176076841","category":"500","category_name":"未知分类","address":"长宁区天山路341号缤谷文化休闲广场201号(近威宁路)"},{"poiid":"B2094757D168A5F4439E","title":"上海蓝山国际青年旅舍虹桥店","lon":"121.377748","lat":"31.218365","category":"500","category_name":"未知分类","address":"上海市长宁区哈密路108号(近长宁路)"},{"poiid":"B2094757D069AAFF469F","title":"仙霞大郡","lon":"121.38","lat":"31.2159","category":"47","category_name":"住宅区","address":"仙霞大郡位于长宁仙霞路1225弄"},{"poiid":"B2094757D069A6FA4493","title":"觉味","lon":"121.38646558","lat":"31.214823129","category":"247","category_name":"餐饮美食","address":"上海天山路缤谷广场"},{"poiid":"B2094753D76AA6FF409F","title":"汉泰东南亚风味餐厅(天山店)","lon":"121.386104","lat":"31.214677","category":"99","category_name":"泰国／越南菜品餐厅","address":"上海市长宁区天山路341号缤谷广场4楼"},{"poiid":"B2094757D065A3F9489E","title":"上海赢华国际广场","lon":"121.385167586","lat":"31.2210462514","category":"252","category_name":"楼宇机构","address":"重庆市渝中区解放碑步行街民族路188号(女人广场旁)"},{"poiid":"B2094757D46EA2FC4692","title":"食其家 天山路店","lon":"121.38621","lat":"31.21478","category":"95","category_name":"日本料理","address":"长宁区天山路341号缤谷文化休闲广场108A铺(近威宁路)"},{"poiid":"B2094752D36DA5F9469D","title":"上海17.5影城北虹店","lon":"121.38349","lat":"31.22049","category":"178","category_name":"电影院","address":"上海市长宁区北虹路1068号第四层B区"},{"poiid":"B2094757D069A1FA419D","title":"大桶大足浴(天山店)","lon":"121.382177586","lat":"31.2170111725","category":"149","category_name":"洗浴推拿场所","address":"长宁区双流路271号(近长宁路)"},{"poiid":"B2094757D065A1FC479D","title":"中国网络游戏服务网5173.com","lon":"121.382666406","lat":"31.2209064987","category":"46","category_name":"楼宇","address":"上海云岭东路599弄汇银铭尊20号"},{"poiid":"B2094757D06BA5F94599","title":"荷风轩","lon":"121.38569478","lat":"31.215802882","category":"247","category_name":"餐饮美食","address":"上海长宁区天山路341号缤谷文化休闲广场4楼"},{"poiid":"B2094757D069A0FC499A","title":"佰佰茶餐厅","lon":"121.386628086","lat":"31.2151652864","category":"72","category_name":"广东菜","address":"长宁区天山路341号缤谷文化休闲广场5楼(近威宁路)"},{"poiid":"B2094757D169A7FE439D","title":"天山新苑","lon":"121.38212","lat":"31.217104","category":"47","category_name":"住宅区","address":"上海市长宁区天山路202弄"},{"poiid":"B2094757D068A7F84493","title":"觉味川菜","lon":"121.385935403","lat":"31.2181800932","category":"71","category_name":"四川菜","address":"长宁区天山路341号缤谷文化休闲广场C310号商铺(近威宁路)"},{"poiid":"B2094757D16CABFE439E","title":"劲霸男装","lon":"121.382435586","lat":"31.2207352453","category":"249","category_name":"购物服务","address":"上海云岭东路丹巴路"},{"poiid":"B2094757D16EAAFE4892","title":"东渡国际大厦","lon":"121.381794586","lat":"31.2222152743","category":"252","category_name":"楼宇机构","address":"上海云岭东路651弄"},{"poiid":"B2094655D26AA0FA469B","title":"地铁威宁路站","lon":"121.38628","lat":"31.21502","category":"36","category_name":"地铁站","address":""},{"poiid":"B2094757D569A0FF4898","title":"宜嘉坊综合楼","lon":"121.381985","lat":"31.22167","category":"46","category_name":"楼宇","address":"天山西路113号等"},{"poiid":"B2094757D069A1FF4698","title":"咕喱咕啦","lon":"121.38178358","lat":"31.222224274","category":"94","category_name":"西餐厅","address":"普陀区丹巴路28弄36号104室(近旭辉广场36号的全家便利)"},{"poiid":"B2094753D269A7F44493","title":"渔舟烤全鱼","lon":"121.381343","lat":"31.220521","category":"247","category_name":"餐饮美食","address":"上海市 天山路762号泓鑫时尚广场西区F3-05(近古北路)"},{"poiid":"B2094757D06BA5FC469C","title":"益佰年","lon":"121.386256586","lat":"31.2146961272","category":"77","category_name":"湖南菜","address":"长宁区天山路341号缤谷文化休闲广场(近威宁路)"},{"poiid":"B2094654D56BA6FD419D","title":"南洋新都","lon":"121.38235","lat":"31.214426","category":"47","category_name":"住宅区","address":"上海市长宁区天山路177弄"},{"poiid":"B2094752D268AAFD4592","title":"smiley peat斯比特意大利休闲餐厅","lon":"121.381003","lat":"31.218191","category":"247","category_name":"餐饮美食","address":"天山路341号缤谷文化休闲广场210单元"},{"poiid":"B2094757D768A4FF499A","title":"赛百味 天山路店 SUBWAY","lon":"121.38557","lat":"31.215048","category":"94","category_name":"西餐厅","address":"长宁区天山路341号缤谷文化休闲广场1楼(近威宁路)"},{"poiid":"B2094757D06AA6FE489C","title":"唻吃面","lon":"121.386588353","lat":"31.2148415134","category":"68","category_name":"快餐厅","address":"长宁区天山路341号缤谷文化休闲广场2楼209C-D号(近威宁路)"},{"poiid":"B2094654DB69A7F94199","title":"邮政大楼","lon":"121.37959","lat":"31.22041","category":"46","category_name":"楼宇","address":"越秀区环市东路362-366号"},{"poiid":"B2094757D164A3F9449F","title":"汇银河滨壹号","lon":"121.38208158","lat":"31.22102225","category":"500","category_name":"未知分类","address":"普陀普陀云岭东路599弄"},{"poiid":"B2094654D56BA1FC469A","title":"海逸公寓","lon":"121.38379","lat":"31.216658","category":"47","category_name":"住宅区","address":"天山路288弄"},{"poiid":"B2094757D06EABF4499F","title":"台北纯K（天山店）","lon":"121.386553673","lat":"31.2148042921","category":"170","category_name":"KTV","address":"长宁区天山路341号（威宁路口）缤谷广场1楼东侧"},{"poiid":"B2094757D06FA2F9419B","title":"沃歌斯Wagas(缤谷广场店)","lon":"121.38717258","lat":"31.215155136","category":"94","category_name":"西餐厅","address":"长宁区天山路341号缤谷文化休闲广场1楼(近威宁路)"},{"poiid":"B2094757D06EAAF54599","title":"龙记茶餐厅 天山店","lon":"121.38621","lat":"31.21478","category":"257","category_name":"中餐厅","address":"长宁区天山路341号缤谷文化休闲广场1楼(近威宁路)"},{"poiid":"B2094757D06EABF5409A","title":"威宁路地铁站","lon":"121.38630846","lat":"31.214988842","category":"36","category_name":"地铁站","address":"上海交通轨道 二号线 轨交威宁路站 2"},{"poiid":"B2094757D06FA7FC429C","title":"宝燕一号","lon":"121.386219","lat":"31.214785","category":"72","category_name":"广东菜","address":"上海天山路341号"},{"poiid":"B2094655D26BA2F84793","title":"天山路威宁路","lon":"121.387424","lat":"31.214728","category":"38","category_name":"公交车站","address":""},{"poiid":"B2094757D06FA1FB4693","title":"大城小爱","lon":"121.38532554","lat":"31.215015353","category":"253","category_name":"校园生活","address":"上海威宁路341号缤谷广场三楼"},{"poiid":"B2094757D06FA6F5439A","title":"千秋膳房(天山店）","lon":"121.38634358","lat":"31.215127135","category":"91","category_name":"台湾菜","address":"长宁区天山路341号缤谷文化休闲广场303室(近威宁路)"},{"poiid":"B2094757D068A6FD419F","title":"潮府粥道","lon":"121.38665258","lat":"31.215049134","category":"72","category_name":"广东菜","address":"长宁区天山路341号缤谷文化休闲广场1-2楼(近威宁路)"},{"poiid":"B2094757D06FA0FF469B","title":"旭辉世纪广场","lon":"121.3822","lat":"31.22545","category":"119","category_name":"商场","address":"普陀区丹巴路28号"},{"poiid":"B2094750D26FA2FF4992","title":"满记甜品","lon":"121.385932","lat":"31.216424","category":"67","category_name":"甜品店","address":"长宁区天山路341号缤谷文化休闲广场1楼(近威宁路)"},{"poiid":"B2094655D26BA6FB439F","title":"天山怡景苑","lon":"121.38357","lat":"31.218071","category":"47","category_name":"住宅区","address":"上海市长宁区威宁路511弄"},{"poiid":"B2094757D06FA5F54198","title":"斯比特","lon":"121.38621","lat":"31.21478","category":"94","category_name":"西餐厅","address":"长宁区天山路341号缤谷文化休闲广场210单元"},{"poiid":"B2094757D06FA1F4409A","title":"the Coffee Bean(缤谷广场店)","lon":"121.38651847","lat":"31.215099105","category":"65","category_name":"咖啡厅","address":"上海威宁路Bingo缤谷广场"},{"poiid":"B2094655D26EA1F44193","title":"天涯海角","lon":"121.38126","lat":"31.21603","category":"149","category_name":"洗浴推拿场所","address":"长宁区天山路186-192号(近北虹路)"},{"poiid":"B2094757D06FA1FA449E","title":"巴黎贝甜(天山路店)","lon":"121.38536688","lat":"31.214406154","category":"67","category_name":"甜品店","address":"长宁区天山路341号缤谷文化休闲广场1楼西首(近威宁路)"},{"poiid":"B2094654D569A4FA499F","title":"天山大厦","lon":"121.385","lat":"31.2218","category":"46","category_name":"楼宇","address":"珠江新城华穗路与华利路交汇处"},{"poiid":"B2094757D76FA2FB4792","title":"香啡缤 缤谷文化店","lon":"121.38621","lat":"31.21478","category":"260","category_name":"其他","address":"长宁区天山路341号缤谷文化休闲广场1楼(近威宁路)"},{"poiid":"B2094757D068A1FC489A","title":"元丰天山花园河风丽景","lon":"121.378892586","lat":"31.2177991879","category":"500","category_name":"未知分类","address":"上海市长宁区天山路88弄"},{"poiid":"B2094757D068A6F94599","title":"长宁区社保中心","lon":"121.379334","lat":"31.216286","category":"500","category_name":"未知分类","address":"长宁区天山路38号(近哈密路)"},{"poiid":"B2094654DB69A5FF4293","title":"莫泰168连锁旅店(天山路店)","lon":"121.37976","lat":"31.21633","category":"216","category_name":"经济型连锁酒店","address":"长宁区天山路78号(近哈密路)"},{"poiid":"B2094757D06FA4FD4892","title":"天山华庭","lon":"121.38657","lat":"31.216274","category":"47","category_name":"住宅区","address":"上海市长宁区威宁路458弄"},{"poiid":"B2094757D66DA3FB489C","title":"Citaly","lon":"121.386756186","lat":"31.2176076841","category":"500","category_name":"未知分类","address":"长宁区天山路341号缤谷文化休闲广场201号(近威宁路)"},{"poiid":"B2094757D168A5F4439E","title":"上海蓝山国际青年旅舍虹桥店","lon":"121.377748","lat":"31.218365","category":"500","category_name":"未知分类","address":"上海市长宁区哈密路108号(近长宁路)"},{"poiid":"B2094757D069AAFF469F","title":"仙霞大郡","lon":"121.38","lat":"31.2159","category":"47","category_name":"住宅区","address":"仙霞大郡位于长宁仙霞路1225弄"},{"poiid":"B2094757D069A6FA4493","title":"觉味","lon":"121.38646558","lat":"31.214823129","category":"247","category_name":"餐饮美食","address":"上海天山路缤谷广场"},{"poiid":"B2094753D76AA6FF409F","title":"汉泰东南亚风味餐厅(天山店)","lon":"121.386104","lat":"31.214677","category":"99","category_name":"泰国／越南菜品餐厅","address":"上海市长宁区天山路341号缤谷广场4楼"},{"poiid":"B2094757D065A3F9489E","title":"上海赢华国际广场","lon":"121.385167586","lat":"31.2210462514","category":"252","category_name":"楼宇机构","address":"重庆市渝中区解放碑步行街民族路188号(女人广场旁)"},{"poiid":"B2094757D46EA2FC4692","title":"食其家 天山路店","lon":"121.38621","lat":"31.21478","category":"95","category_name":"日本料理","address":"长宁区天山路341号缤谷文化休闲广场108A铺(近威宁路)"},{"poiid":"B2094752D36DA5F9469D","title":"上海17.5影城北虹店","lon":"121.38349","lat":"31.22049","category":"178","category_name":"电影院","address":"上海市长宁区北虹路1068号第四层B区"},{"poiid":"B2094757D069A1FA419D","title":"大桶大足浴(天山店)","lon":"121.382177586","lat":"31.2170111725","category":"149","category_name":"洗浴推拿场所","address":"长宁区双流路271号(近长宁路)"},{"poiid":"B2094757D065A1FC479D","title":"中国网络游戏服务网5173.com","lon":"121.382666406","lat":"31.2209064987","category":"46","category_name":"楼宇","address":"上海云岭东路599弄汇银铭尊20号"},{"poiid":"B2094757D06BA5F94599","title":"荷风轩","lon":"121.38569478","lat":"31.215802882","category":"247","category_name":"餐饮美食","address":"上海长宁区天山路341号缤谷文化休闲广场4楼"},{"poiid":"B2094757D069A0FC499A","title":"佰佰茶餐厅","lon":"121.386628086","lat":"31.2151652864","category":"72","category_name":"广东菜","address":"长宁区天山路341号缤谷文化休闲广场5楼(近威宁路)"},{"poiid":"B2094757D169A7FE439D","title":"天山新苑","lon":"121.38212","lat":"31.217104","category":"47","category_name":"住宅区","address":"上海市长宁区天山路202弄"},{"poiid":"B2094757D068A7F84493","title":"觉味川菜","lon":"121.385935403","lat":"31.2181800932","category":"71","category_name":"四川菜","address":"长宁区天山路341号缤谷文化休闲广场C310号商铺(近威宁路)"},{"poiid":"B2094757D16CABFE439E","title":"劲霸男装","lon":"121.382435586","lat":"31.2207352453","category":"249","category_name":"购物服务","address":"上海云岭东路丹巴路"},{"poiid":"B2094757D16EAAFE4892","title":"东渡国际大厦","lon":"121.381794586","lat":"31.2222152743","category":"252","category_name":"楼宇机构","address":"上海云岭东路651弄"},{"poiid":"B2094655D26AA0FA469B","title":"地铁威宁路站","lon":"121.38628","lat":"31.21502","category":"36","category_name":"地铁站","address":""},{"poiid":"B2094757D569A0FF4898","title":"宜嘉坊综合楼","lon":"121.381985","lat":"31.22167","category":"46","category_name":"楼宇","address":"天山西路113号等"},{"poiid":"B2094757D069A1FF4698","title":"咕喱咕啦","lon":"121.38178358","lat":"31.222224274","category":"94","category_name":"西餐厅","address":"普陀区丹巴路28弄36号104室(近旭辉广场36号的全家便利)"},{"poiid":"B2094753D269A7F44493","title":"渔舟烤全鱼","lon":"121.381343","lat":"31.220521","category":"247","category_name":"餐饮美食","address":"上海市 天山路762号泓鑫时尚广场西区F3-05(近古北路)"},{"poiid":"B2094757D06BA5FC469C","title":"益佰年","lon":"121.386256586","lat":"31.2146961272","category":"77","category_name":"湖南菜","address":"长宁区天山路341号缤谷文化休闲广场(近威宁路)"},{"poiid":"B2094654D56BA6FD419D","title":"南洋新都","lon":"121.38235","lat":"31.214426","category":"47","category_name":"住宅区","address":"上海市长宁区天山路177弄"},{"poiid":"B2094752D268AAFD4592","title":"smiley peat斯比特意大利休闲餐厅","lon":"121.381003","lat":"31.218191","category":"247","category_name":"餐饮美食","address":"天山路341号缤谷文化休闲广场210单元"},{"poiid":"B2094757D768A4FF499A","title":"赛百味 天山路店 SUBWAY","lon":"121.38557","lat":"31.215048","category":"94","category_name":"西餐厅","address":"长宁区天山路341号缤谷文化休闲广场1楼(近威宁路)"},{"poiid":"B2094757D06AA6FE489C","title":"唻吃面","lon":"121.386588353","lat":"31.2148415134","category":"68","category_name":"快餐厅","address":"长宁区天山路341号缤谷文化休闲广场2楼209C-D号(近威宁路)"},{"poiid":"B2094654DB69A7F94199","title":"邮政大楼","lon":"121.37959","lat":"31.22041","category":"46","category_name":"楼宇","address":"越秀区环市东路362-366号"},{"poiid":"B2094757D164A3F9449F","title":"汇银河滨壹号","lon":"121.38208158","lat":"31.22102225","category":"500","category_name":"未知分类","address":"普陀普陀云岭东路599弄"},{"poiid":"B2094654D56BA1FC469A","title":"海逸公寓","lon":"121.38379","lat":"31.216658","category":"47","category_name":"住宅区","address":"天山路288弄"},{"poiid":"B2094757D06EABF4499F","title":"台北纯K（天山店）","lon":"121.386553673","lat":"31.2148042921","category":"170","category_name":"KTV","address":"长宁区天山路341号（威宁路口）缤谷广场1楼东侧"},{"poiid":"B2094757D06FA2F9419B","title":"沃歌斯Wagas(缤谷广场店)","lon":"121.38717258","lat":"31.215155136","category":"94","category_name":"西餐厅","address":"长宁区天山路341号缤谷文化休闲广场1楼(近威宁路)"},{"poiid":"B2094757D06EAAF54599","title":"龙记茶餐厅 天山店","lon":"121.38621","lat":"31.21478","category":"257","category_name":"中餐厅","address":"长宁区天山路341号缤谷文化休闲广场1楼(近威宁路)"},{"poiid":"B2094757D06EABF5409A","title":"威宁路地铁站","lon":"121.38630846","lat":"31.214988842","category":"36","category_name":"地铁站","address":"上海交通轨道 二号线 轨交威宁路站 2"},{"poiid":"B2094757D06FA7FC429C","title":"宝燕一号","lon":"121.386219","lat":"31.214785","category":"72","category_name":"广东菜","address":"上海天山路341号"},{"poiid":"B2094655D26BA2F84793","title":"天山路威宁路","lon":"121.387424","lat":"31.214728","category":"38","category_name":"公交车站","address":""},{"poiid":"B2094757D06FA1FB4693","title":"大城小爱","lon":"121.38532554","lat":"31.215015353","category":"253","category_name":"校园生活","address":"上海威宁路341号缤谷广场三楼"},{"poiid":"B2094757D06FA6F5439A","title":"千秋膳房(天山店）","lon":"121.38634358","lat":"31.215127135","category":"91","category_name":"台湾菜","address":"长宁区天山路341号缤谷文化休闲广场303室(近威宁路)"},{"poiid":"B2094757D068A6FD419F","title":"潮府粥道","lon":"121.38665258","lat":"31.215049134","category":"72","category_name":"广东菜","address":"长宁区天山路341号缤谷文化休闲广场1-2楼(近威宁路)"},{"poiid":"B2094757D06FA0FF469B","title":"旭辉世纪广场","lon":"121.3822","lat":"31.22545","category":"119","category_name":"商场","address":"普陀区丹巴路28号"},{"poiid":"B2094750D26FA2FF4992","title":"满记甜品","lon":"121.385932","lat":"31.216424","category":"67","category_name":"甜品店","address":"长宁区天山路341号缤谷文化休闲广场1楼(近威宁路)"},{"poiid":"B2094655D26BA6FB439F","title":"天山怡景苑","lon":"121.38357","lat":"31.218071","category":"47","category_name":"住宅区","address":"上海市长宁区威宁路511弄"},{"poiid":"B2094757D06FA5F54198","title":"斯比特","lon":"121.38621","lat":"31.21478","category":"94","category_name":"西餐厅","address":"长宁区天山路341号缤谷文化休闲广场210单元"},{"poiid":"B2094757D06FA1F4409A","title":"the Coffee Bean(缤谷广场店)","lon":"121.38651847","lat":"31.215099105","category":"65","category_name":"咖啡厅","address":"上海威宁路Bingo缤谷广场"},{"poiid":"B2094655D26EA1F44193","title":"天涯海角","lon":"121.38126","lat":"31.21603","category":"149","category_name":"洗浴推拿场所","address":"长宁区天山路186-192号(近北虹路)"},{"poiid":"B2094757D06FA1FA449E","title":"巴黎贝甜(天山路店)","lon":"121.38536688","lat":"31.214406154","category":"67","category_name":"甜品店","address":"长宁区天山路341号缤谷文化休闲广场1楼西首(近威宁路)"},{"poiid":"B2094654D569A4FA499F","title":"天山大厦","lon":"121.385","lat":"31.2218","category":"46","category_name":"楼宇","address":"珠江新城华穗路与华利路交汇处"},{"poiid":"B2094757D76FA2FB4792","title":"香啡缤 缤谷文化店","lon":"121.38621","lat":"31.21478","category":"260","category_name":"其他","address":"长宁区天山路341号缤谷文化休闲广场1楼(近威宁路)"},{"poiid":"B2094757D068A1FC489A","title":"元丰天山花园河风丽景","lon":"121.378892586","lat":"31.2177991879","category":"500","category_name":"未知分类","address":"上海市长宁区天山路88弄"},{"poiid":"B2094757D068A6F94599","title":"长宁区社保中心","lon":"121.379334","lat":"31.216286","category":"500","category_name":"未知分类","address":"长宁区天山路38号(近哈密路)"},{"poiid":"B2094654DB69A5FF4293","title":"莫泰168连锁旅店(天山路店)","lon":"121.37976","lat":"31.21633","category":"216","category_name":"经济型连锁酒店","address":"长宁区天山路78号(近哈密路)"},{"poiid":"B2094757D06FA4FD4892","title":"天山华庭","lon":"121.38657","lat":"31.216274","category":"47","category_name":"住宅区","address":"上海市长宁区威宁路458弄"},{"poiid":"B2094757D66DA3FB489C","title":"Citaly","lon":"121.386756186","lat":"31.2176076841","category":"500","category_name":"未知分类","address":"长宁区天山路341号缤谷文化休闲广场201号(近威宁路)"},{"poiid":"B2094757D168A5F4439E","title":"上海蓝山国际青年旅舍虹桥店","lon":"121.377748","lat":"31.218365","category":"500","category_name":"未知分类","address":"上海市长宁区哈密路108号(近长宁路)"},{"poiid":"B2094757D069AAFF469F","title":"仙霞大郡","lon":"121.38","lat":"31.2159","category":"47","category_name":"住宅区","address":"仙霞大郡位于长宁仙霞路1225弄"},{"poiid":"B2094757D069A6FA4493","title":"觉味","lon":"121.38646558","lat":"31.214823129","category":"247","category_name":"餐饮美食","address":"上海天山路缤谷广场"},{"poiid":"B2094753D76AA6FF409F","title":"汉泰东南亚风味餐厅(天山店)","lon":"121.386104","lat":"31.214677","category":"99","category_name":"泰国／越南菜品餐厅","address":"上海市长宁区天山路341号缤谷广场4楼"},{"poiid":"B2094757D065A3F9489E","title":"上海赢华国际广场","lon":"121.385167586","lat":"31.2210462514","category":"252","category_name":"楼宇机构","address":"重庆市渝中区解放碑步行街民族路188号(女人广场旁)"},{"poiid":"B2094757D46EA2FC4692","title":"食其家 天山路店","lon":"121.38621","lat":"31.21478","category":"95","category_name":"日本料理","address":"长宁区天山路341号缤谷文化休闲广场108A铺(近威宁路)"},{"poiid":"B2094752D36DA5F9469D","title":"上海17.5影城北虹店","lon":"121.38349","lat":"31.22049","category":"178","category_name":"电影院","address":"上海市长宁区北虹路1068号第四层B区"},{"poiid":"B2094757D069A1FA419D","title":"大桶大足浴(天山店)","lon":"121.382177586","lat":"31.2170111725","category":"149","category_name":"洗浴推拿场所","address":"长宁区双流路271号(近长宁路)"},{"poiid":"B2094757D065A1FC479D","title":"中国网络游戏服务网5173.com","lon":"121.382666406","lat":"31.2209064987","category":"46","category_name":"楼宇","address":"上海云岭东路599弄汇银铭尊20号"},{"poiid":"B2094757D06BA5F94599","title":"荷风轩","lon":"121.38569478","lat":"31.215802882","category":"247","category_name":"餐饮美食","address":"上海长宁区天山路341号缤谷文化休闲广场4楼"},{"poiid":"B2094757D069A0FC499A","title":"佰佰茶餐厅","lon":"121.386628086","lat":"31.2151652864","category":"72","category_name":"广东菜","address":"长宁区天山路341号缤谷文化休闲广场5楼(近威宁路)"},{"poiid":"B2094757D169A7FE439D","title":"天山新苑","lon":"121.38212","lat":"31.217104","category":"47","category_name":"住宅区","address":"上海市长宁区天山路202弄"},{"poiid":"B2094757D068A7F84493","title":"觉味川菜","lon":"121.385935403","lat":"31.2181800932","category":"71","category_name":"四川菜","address":"长宁区天山路341号缤谷文化休闲广场C310号商铺(近威宁路)"},{"poiid":"B2094757D16CABFE439E","title":"劲霸男装","lon":"121.382435586","lat":"31.2207352453","category":"249","category_name":"购物服务","address":"上海云岭东路丹巴路"},{"poiid":"B2094757D16EAAFE4892","title":"东渡国际大厦","lon":"121.381794586","lat":"31.2222152743","category":"252","category_name":"楼宇机构","address":"上海云岭东路651弄"},{"poiid":"B2094655D26AA0FA469B","title":"地铁威宁路站","lon":"121.38628","lat":"31.21502","category":"36","category_name":"地铁站","address":""},{"poiid":"B2094757D569A0FF4898","title":"宜嘉坊综合楼","lon":"121.381985","lat":"31.22167","category":"46","category_name":"楼宇","address":"天山西路113号等"},{"poiid":"B2094757D069A1FF4698","title":"咕喱咕啦","lon":"121.38178358","lat":"31.222224274","category":"94","category_name":"西餐厅","address":"普陀区丹巴路28弄36号104室(近旭辉广场36号的全家便利)"},{"poiid":"B2094753D269A7F44493","title":"渔舟烤全鱼","lon":"121.381343","lat":"31.220521","category":"247","category_name":"餐饮美食","address":"上海市 天山路762号泓鑫时尚广场西区F3-05(近古北路)"},{"poiid":"B2094757D06BA5FC469C","title":"益佰年","lon":"121.386256586","lat":"31.2146961272","category":"77","category_name":"湖南菜","address":"长宁区天山路341号缤谷文化休闲广场(近威宁路)"},{"poiid":"B2094654D56BA6FD419D","title":"南洋新都","lon":"121.38235","lat":"31.214426","category":"47","category_name":"住宅区","address":"上海市长宁区天山路177弄"},{"poiid":"B2094752D268AAFD4592","title":"smiley peat斯比特意大利休闲餐厅","lon":"121.381003","lat":"31.218191","category":"247","category_name":"餐饮美食","address":"天山路341号缤谷文化休闲广场210单元"},{"poiid":"B2094757D768A4FF499A","title":"赛百味 天山路店 SUBWAY","lon":"121.38557","lat":"31.215048","category":"94","category_name":"西餐厅","address":"长宁区天山路341号缤谷文化休闲广场1楼(近威宁路)"},{"poiid":"B2094757D06AA6FE489C","title":"唻吃面","lon":"121.386588353","lat":"31.2148415134","category":"68","category_name":"快餐厅","address":"长宁区天山路341号缤谷文化休闲广场2楼209C-D号(近威宁路)"},{"poiid":"B2094654DB69A7F94199","title":"邮政大楼","lon":"121.37959","lat":"31.22041","category":"46","category_name":"楼宇","address":"越秀区环市东路362-366号"},{"poiid":"B2094757D164A3F9449F","title":"汇银河滨壹号","lon":"121.38208158","lat":"31.22102225","category":"500","category_name":"未知分类","address":"普陀普陀云岭东路599弄"},{"poiid":"B2094654D56BA1FC469A","title":"海逸公寓","lon":"121.38379","lat":"31.216658","category":"47","category_name":"住宅区","address":"天山路288弄"}]