[{"poiid":"B2094655D26AABFD4092","title":"M50创意园(莫干山路)","lon":"121.44866","lat":"31.24753","category":"247","category_name":"餐饮美食","address":"普陀区莫干山路50号M50创意园区内(近澳门路)"},{"poiid":"B2094757D068A7FB4698","title":"上海火车站4-5号站台","lon":"121.45375295","lat":"31.2499646774","category":"22","category_name":"火车站","address":"上海市火车站"},{"poiid":"B2094654D564AAF44098","title":"上海站南广场","lon":"121.45486","lat":"31.2481","category":"22","category_name":"火车站","address":"闸北区秣陵路303号"},{"poiid":"B209475CD564A7F8439E","title":"上海滩中信泰富店","lon":"121.45602","lat":"31.22851","category":"119","category_name":"商场","address":"\"南京西路1168号中信泰富广场，店铺号221.\r\n\""},{"poiid":"B2094757D06EAAFA479C","title":"浦西洲际酒店","lon":"121.45369052","lat":"31.244797228","category":"217","category_name":"旅馆招待所","address":"上海市闸北区恒丰路500号(上海火车站近天目西路)"},{"poiid":"B2094757D06EAAF4439A","title":"全聚德 闸北店","lon":"121.4503227965","lat":"31.245534803561","category":"260","category_name":"其他","address":"闸北区天目西路547号联通国际大厦内(近长安路)"},{"poiid":"B2094757D66DA4FA4198","title":"星巴克 STARBUCKS(恒汇国际店)","lon":"121.452896886","lat":"31.2460654409","category":"65","category_name":"咖啡厅","address":"闸北区天目西路437号恒汇国际大厦1楼(近恒丰路)"},{"poiid":"B2094757D06FA3FB489F","title":"恒汇国际大厦","lon":"121.45268046","lat":"31.246137006","category":"46","category_name":"楼宇","address":"黄浦中山南路、复兴路口"},{"poiid":"B2094655D26EA2F9439C","title":"上海广场长城假日酒店","lon":"121.45368","lat":"31.24693","category":"214","category_name":"四星级宾馆","address":"上海市闸北区恒丰路585号(天目西路口)"},{"poiid":"B2094655D36CA2F4469B","title":"上海火车站南广场","lon":"121.45448","lat":"31.24753","category":"38","category_name":"公交车站","address":""},{"poiid":"B2094757D06FA2FB409A","title":"联通国际大厦","lon":"121.449743","lat":"31.246076","category":"46","category_name":"楼宇","address":"上海市闸北区天目西路547号"},{"poiid":"B2094757D06FABF94899","title":"宝矿洲际商务中心","lon":"121.453241726","lat":"31.2444672929","category":"46","category_name":"楼宇","address":"上海闸北区裕通路100号(恒丰路500号)"},{"poiid":"B2094757D06FA6F5499F","title":"江南村","lon":"121.45173645","lat":"31.24502182","category":"500","category_name":"未知分类","address":"上海闸北区长安路1033号3楼"},{"poiid":"B2094757D068ABF44199","title":"肯德基 KFC (北广场店)","lon":"121.454561","lat":"31.247548","category":"68","category_name":"快餐厅","address":"梅园路360号环龙商厦内(近秣陵路)"},{"poiid":"B2094757D56DA0F84492","title":"天目西路营业厅","lon":"121.451435","lat":"31.245592","category":"151","category_name":"电讯营业厅","address":"闸北区天目西路547号"},{"poiid":"B2094757D06FA0FA4592","title":"味千拉面(火车站店)","lon":"121.45406","lat":"31.24734","category":"95","category_name":"日本料理","address":"上海闸北区梅园路360号环龙商厦1楼16号铺(近火车站南广场)"},{"poiid":"B2094757D66DA2F54998","title":"苏河一号","lon":"121.45146058","lat":"31.247447768","category":"500","category_name":"未知分类","address":"上海市普陀区莫干山路"},{"poiid":"B2094757D06FAAF84992","title":"美上海餐厅","lon":"121.452622997","lat":"31.2453309489","category":"76","category_name":"上海菜","address":"闸北区天目西路477号恒汇国际大厦(近恒丰路)"},{"poiid":"B2094757D06AA0FC4999","title":"上海沪铁长途客运站","lon":"121.451751983","lat":"31.2508245347","category":"35","category_name":"长途汽车站","address":"闸北区恒丰路783号(近远景路)"},{"poiid":"B2094654D464A2FD489B","title":"上海铁路大厦","lon":"121.45258","lat":"31.2497","category":"46","category_name":"楼宇","address":"浦东新区金湘路345号"},{"poiid":"B2094757D06FA7F54498","title":"友力国际大厦","lon":"121.452","lat":"31.2504","category":"46","category_name":"楼宇","address":"上海江宁路1158号"},{"poiid":"B2094750D66DA4FD489D","title":"Singa星歌KTV","lon":"121.450927","lat":"31.24785","category":"170","category_name":"KTV","address":"恒丰路666号，靠近长安路"},{"poiid":"B2094751D36FA3FC4792","title":"雍记大酒店(恒丰店)","lon":"121.45266","lat":"31.24672","category":"72","category_name":"广东菜","address":"闸北区恒丰路600号机电大厦1-2楼(近上海火车站)"},{"poiid":"B2094654DB6AA6FF469E","title":"上海亚繁龙门大酒店","lon":"121.45188","lat":"31.24962","category":"214","category_name":"四星级宾馆","address":"上海市闸北区恒丰路777号（近天目路）"},{"poiid":"B2094757D068A7F94198","title":"世纪商务大厦","lon":"121.45","lat":"31.2495","category":"46","category_name":"楼宇","address":"上海市普陀区长寿路97号"},{"poiid":"B2094654DB6AA6F8489D","title":"上海邮电大厦","lon":"121.45281","lat":"31.24796","category":"215","category_name":"三星级宾馆","address":"协和丽豪酒店式公寓位于静安南京西路2068号(镇宁路愚园路口)"},{"poiid":"B2094757D06FA2F9479A","title":"麦当劳(秣陵路店)","lon":"121.45402","lat":"31.24713","category":"68","category_name":"快餐厅","address":"闸北区秣陵路258号友谊服饰商厦B1楼(近火车站南广场)"},{"poiid":"B2094757D569A7F4419F","title":"江南邨酒家","lon":"121.4517361","lat":"31.24502694","category":"70","category_name":"综合酒楼","address":"长安路1033号长安大厦3层"},{"poiid":"B2094654DA6CA7F84098","title":"不夜城都市工业园","lon":"121.45118","lat":"31.24772","category":"45","category_name":"产业园区","address":"上海闸北区恒丰路610号"},{"poiid":"B2094757D068A1F5439F","title":"上海火车站世博钟楼","lon":"121.45478719","lat":"31.248411829","category":"46","category_name":"楼宇","address":"闸北区上海火车站南广场"},{"poiid":"B2094654DA6CA7FF4592","title":"中房华东大厦","lon":"121.45095","lat":"31.24722","category":"46","category_name":"楼宇","address":"上海闸北区长安路1138号"},{"poiid":"B2094654DB69A4FE429D","title":"莫泰168连锁旅店(火车站店)","lon":"121.45201","lat":"31.24631","category":"216","category_name":"经济型连锁酒店","address":"闸北区长安路1105号(近天目西路)"},{"poiid":"B2094757D169A0FE419D","title":"焊点1088公社","lon":"121.451264","lat":"31.246948","category":"500","category_name":"未知分类","address":"闸北区长安路1088号(近天目西路)"},{"poiid":"B2094757D06FA5F4419D","title":"大奥通讯商城","lon":"121.45099","lat":"31.24547","category":"138","category_name":"家电电子卖场","address":"闸北区天目西路547号联通国际大厦内(近长安路)"},{"poiid":"B2094655D26AABFA499A","title":"M50艺术产业园","lon":"121.44866","lat":"31.24753","category":"248","category_name":"生活娱乐","address":"普陀区莫干山路50号"},{"poiid":"B2094750DA6BA4F84298","title":"火车站","lon":"121.454513","lat":"31.247982","category":"500","category_name":"未知分类","address":null},{"poiid":"B2094655D26EA3FC4192","title":"圣骊澳门苑","lon":"121.44803","lat":"31.24791","category":"47","category_name":"住宅区","address":"上海市普陀区澳门路58弄"},{"poiid":"B2094654DB69A5FE419A","title":"肯德基(恒丰店)","lon":"121.45371","lat":"31.24669","category":"68","category_name":"快餐厅","address":"闸北区天目西路311号(近恒丰路)"},{"poiid":"B2094655D26FA3FA409B","title":"长寿商业广场","lon":"121.449","lat":"31.2481","category":"46","category_name":"楼宇","address":"长寿路181弄3"},{"poiid":"B2094757D568A7FC4292","title":"罐子书屋罐子茶馆","lon":"121.4487381","lat":"31.24756806","category":"66","category_name":"茶艺馆","address":"普陀区莫干山路50号M50创意园区3号楼105-2室(近澳门路)"},{"poiid":"B2094757D069A0FB4093","title":"上岛咖啡(长安路店)","lon":"121.45176598","lat":"31.245837036","category":"260","category_name":"其他","address":"闸北区天目西路488号长安大厦内"},{"poiid":"B2094654DB65A6F4459B","title":"圣天地商务楼","lon":"121.45","lat":"31.25","category":"46","category_name":"楼宇","address":"江宁路1165号"},{"poiid":"B2094757DA69A1FA419F","title":"上海玫瑰医院咨询部","lon":"121.45089","lat":"31.24722","category":"162","category_name":"医院","address":"闸北区长安路1138号中房华东大厦内(近恒丰路)"},{"poiid":"B2094757D16FA6FA4292","title":"7 Tangram 艺术中心","lon":"121.45008706","lat":"31.248252294","category":"184","category_name":"美术馆","address":"上海市莫干山路50号17号楼2楼"},{"poiid":"B2094750DB6AA2FD499F","title":"上海M50创意园区","lon":"121.448632","lat":"31.247654","category":"45","category_name":"产业园区","address":"普陀区莫干山路50号"},{"poiid":"B2094655D26BA0FB459E","title":"金樽国际大厦","lon":"121.45119","lat":"31.24772","category":"46","category_name":"楼宇","address":"恒丰路610号"},{"poiid":"B2094654D464A2FD4898","title":"上海铁路大厦酒店","lon":"121.45258","lat":"31.2497","category":"76","category_name":"上海菜","address":"闸北区秣陵路355号(恒丰路秣陵路)"},{"poiid":"B2094757D164A5F9409C","title":"上海火车站贵宾休息室","lon":"121.4548221","lat":"31.248471963","category":"22","category_name":"火车站","address":"上海市闸北区恒丰路"},{"poiid":"B2094757D569A2FB4993","title":"吉泰连锁酒店(上海火车站店)","lon":"121.451263000002","lat":"31.2469480000002","category":"216","category_name":"经济型连锁酒店","address":"上海市闸北区长安路1088号(近天目西路)"},{"poiid":"B2094654DB6AA3FF4998","title":"半度雨棚 Bandu Cabin","lon":"121.447079054","lat":"31.248275793","category":"260","category_name":"其他","address":"普陀区莫干山路50号M50创意园区11号楼1楼(近澳门路)"},{"poiid":"B2094655D26AABFD4092","title":"M50创意园(莫干山路)","lon":"121.44866","lat":"31.24753","category":"247","category_name":"餐饮美食","address":"普陀区莫干山路50号M50创意园区内(近澳门路)"},{"poiid":"B2094757D068A7FB4698","title":"上海火车站4-5号站台","lon":"121.45375295","lat":"31.2499646774","category":"22","category_name":"火车站","address":"上海市火车站"},{"poiid":"B2094654D564AAF44098","title":"上海站南广场","lon":"121.45486","lat":"31.2481","category":"22","category_name":"火车站","address":"闸北区秣陵路303号"},{"poiid":"B209475CD564A7F8439E","title":"上海滩中信泰富店","lon":"121.45602","lat":"31.22851","category":"119","category_name":"商场","address":"\"南京西路1168号中信泰富广场，店铺号221.\r\n\""},{"poiid":"B2094757D06EAAFA479C","title":"浦西洲际酒店","lon":"121.45369052","lat":"31.244797228","category":"217","category_name":"旅馆招待所","address":"上海市闸北区恒丰路500号(上海火车站近天目西路)"},{"poiid":"B2094757D06EAAF4439A","title":"全聚德 闸北店","lon":"121.4503227965","lat":"31.245534803561","category":"260","category_name":"其他","address":"闸北区天目西路547号联通国际大厦内(近长安路)"},{"poiid":"B2094757D66DA4FA4198","title":"星巴克 STARBUCKS(恒汇国际店)","lon":"121.452896886","lat":"31.2460654409","category":"65","category_name":"咖啡厅","address":"闸北区天目西路437号恒汇国际大厦1楼(近恒丰路)"},{"poiid":"B2094757D06FA3FB489F","title":"恒汇国际大厦","lon":"121.45268046","lat":"31.246137006","category":"46","category_name":"楼宇","address":"黄浦中山南路、复兴路口"},{"poiid":"B2094655D26EA2F9439C","title":"上海广场长城假日酒店","lon":"121.45368","lat":"31.24693","category":"214","category_name":"四星级宾馆","address":"上海市闸北区恒丰路585号(天目西路口)"},{"poiid":"B2094655D36CA2F4469B","title":"上海火车站南广场","lon":"121.45448","lat":"31.24753","category":"38","category_name":"公交车站","address":""},{"poiid":"B2094757D06FA2FB409A","title":"联通国际大厦","lon":"121.449743","lat":"31.246076","category":"46","category_name":"楼宇","address":"上海市闸北区天目西路547号"},{"poiid":"B2094757D06FABF94899","title":"宝矿洲际商务中心","lon":"121.453241726","lat":"31.2444672929","category":"46","category_name":"楼宇","address":"上海闸北区裕通路100号(恒丰路500号)"},{"poiid":"B2094757D06FA6F5499F","title":"江南村","lon":"121.45173645","lat":"31.24502182","category":"500","category_name":"未知分类","address":"上海闸北区长安路1033号3楼"},{"poiid":"B2094757D068ABF44199","title":"肯德基 KFC (北广场店)","lon":"121.454561","lat":"31.247548","category":"68","category_name":"快餐厅","address":"梅园路360号环龙商厦内(近秣陵路)"},{"poiid":"B2094757D56DA0F84492","title":"天目西路营业厅","lon":"121.451435","lat":"31.245592","category":"151","category_name":"电讯营业厅","address":"闸北区天目西路547号"},{"poiid":"B2094757D06FA0FA4592","title":"味千拉面(火车站店)","lon":"121.45406","lat":"31.24734","category":"95","category_name":"日本料理","address":"上海闸北区梅园路360号环龙商厦1楼16号铺(近火车站南广场)"},{"poiid":"B2094757D66DA2F54998","title":"苏河一号","lon":"121.45146058","lat":"31.247447768","category":"500","category_name":"未知分类","address":"上海市普陀区莫干山路"},{"poiid":"B2094757D06FAAF84992","title":"美上海餐厅","lon":"121.452622997","lat":"31.2453309489","category":"76","category_name":"上海菜","address":"闸北区天目西路477号恒汇国际大厦(近恒丰路)"},{"poiid":"B2094757D06AA0FC4999","title":"上海沪铁长途客运站","lon":"121.451751983","lat":"31.2508245347","category":"35","category_name":"长途汽车站","address":"闸北区恒丰路783号(近远景路)"},{"poiid":"B2094654D464A2FD489B","title":"上海铁路大厦","lon":"121.45258","lat":"31.2497","category":"46","category_name":"楼宇","address":"浦东新区金湘路345号"},{"poiid":"B2094757D06FA7F54498","title":"友力国际大厦","lon":"121.452","lat":"31.2504","category":"46","category_name":"楼宇","address":"上海江宁路1158号"},{"poiid":"B2094750D66DA4FD489D","title":"Singa星歌KTV","lon":"121.450927","lat":"31.24785","category":"170","category_name":"KTV","address":"恒丰路666号，靠近长安路"},{"poiid":"B2094751D36FA3FC4792","title":"雍记大酒店(恒丰店)","lon":"121.45266","lat":"31.24672","category":"72","category_name":"广东菜","address":"闸北区恒丰路600号机电大厦1-2楼(近上海火车站)"},{"poiid":"B2094654DB6AA6FF469E","title":"上海亚繁龙门大酒店","lon":"121.45188","lat":"31.24962","category":"214","category_name":"四星级宾馆","address":"上海市闸北区恒丰路777号（近天目路）"},{"poiid":"B2094757D068A7F94198","title":"世纪商务大厦","lon":"121.45","lat":"31.2495","category":"46","category_name":"楼宇","address":"上海市普陀区长寿路97号"},{"poiid":"B2094654DB6AA6F8489D","title":"上海邮电大厦","lon":"121.45281","lat":"31.24796","category":"215","category_name":"三星级宾馆","address":"协和丽豪酒店式公寓位于静安南京西路2068号(镇宁路愚园路口)"},{"poiid":"B2094757D06FA2F9479A","title":"麦当劳(秣陵路店)","lon":"121.45402","lat":"31.24713","category":"68","category_name":"快餐厅","address":"闸北区秣陵路258号友谊服饰商厦B1楼(近火车站南广场)"},{"poiid":"B2094757D569A7F4419F","title":"江南邨酒家","lon":"121.4517361","lat":"31.24502694","category":"70","category_name":"综合酒楼","address":"长安路1033号长安大厦3层"},{"poiid":"B2094654DA6CA7F84098","title":"不夜城都市工业园","lon":"121.45118","lat":"31.24772","category":"45","category_name":"产业园区","address":"上海闸北区恒丰路610号"},{"poiid":"B2094757D068A1F5439F","title":"上海火车站世博钟楼","lon":"121.45478719","lat":"31.248411829","category":"46","category_name":"楼宇","address":"闸北区上海火车站南广场"},{"poiid":"B2094654DA6CA7FF4592","title":"中房华东大厦","lon":"121.45095","lat":"31.24722","category":"46","category_name":"楼宇","address":"上海闸北区长安路1138号"},{"poiid":"B2094654DB69A4FE429D","title":"莫泰168连锁旅店(火车站店)","lon":"121.45201","lat":"31.24631","category":"216","category_name":"经济型连锁酒店","address":"闸北区长安路1105号(近天目西路)"},{"poiid":"B2094757D169A0FE419D","title":"焊点1088公社","lon":"121.451264","lat":"31.246948","category":"500","category_name":"未知分类","address":"闸北区长安路1088号(近天目西路)"},{"poiid":"B2094757D06FA5F4419D","title":"大奥通讯商城","lon":"121.45099","lat":"31.24547","category":"138","category_name":"家电电子卖场","address":"闸北区天目西路547号联通国际大厦内(近长安路)"},{"poiid":"B2094655D26AABFA499A","title":"M50艺术产业园","lon":"121.44866","lat":"31.24753","category":"248","category_name":"生活娱乐","address":"普陀区莫干山路50号"},{"poiid":"B2094750DA6BA4F84298","title":"火车站","lon":"121.454513","lat":"31.247982","category":"500","category_name":"未知分类","address":null},{"poiid":"B2094655D26EA3FC4192","title":"圣骊澳门苑","lon":"121.44803","lat":"31.24791","category":"47","category_name":"住宅区","address":"上海市普陀区澳门路58弄"},{"poiid":"B2094654DB69A5FE419A","title":"肯德基(恒丰店)","lon":"121.45371","lat":"31.24669","category":"68","category_name":"快餐厅","address":"闸北区天目西路311号(近恒丰路)"},{"poiid":"B2094655D26FA3FA409B","title":"长寿商业广场","lon":"121.449","lat":"31.2481","category":"46","category_name":"楼宇","address":"长寿路181弄3"},{"poiid":"B2094757D568A7FC4292","title":"罐子书屋罐子茶馆","lon":"121.4487381","lat":"31.24756806","category":"66","category_name":"茶艺馆","address":"普陀区莫干山路50号M50创意园区3号楼105-2室(近澳门路)"},{"poiid":"B2094757D069A0FB4093","title":"上岛咖啡(长安路店)","lon":"121.45176598","lat":"31.245837036","category":"260","category_name":"其他","address":"闸北区天目西路488号长安大厦内"},{"poiid":"B2094654DB65A6F4459B","title":"圣天地商务楼","lon":"121.45","lat":"31.25","category":"46","category_name":"楼宇","address":"江宁路1165号"},{"poiid":"B2094757DA69A1FA419F","title":"上海玫瑰医院咨询部","lon":"121.45089","lat":"31.24722","category":"162","category_name":"医院","address":"闸北区长安路1138号中房华东大厦内(近恒丰路)"},{"poiid":"B2094757D16FA6FA4292","title":"7 Tangram 艺术中心","lon":"121.45008706","lat":"31.248252294","category":"184","category_name":"美术馆","address":"上海市莫干山路50号17号楼2楼"},{"poiid":"B2094750DB6AA2FD499F","title":"上海M50创意园区","lon":"121.448632","lat":"31.247654","category":"45","category_name":"产业园区","address":"普陀区莫干山路50号"},{"poiid":"B2094655D26BA0FB459E","title":"金樽国际大厦","lon":"121.45119","lat":"31.24772","category":"46","category_name":"楼宇","address":"恒丰路610号"},{"poiid":"B2094654D464A2FD4898","title":"上海铁路大厦酒店","lon":"121.45258","lat":"31.2497","category":"76","category_name":"上海菜","address":"闸北区秣陵路355号(恒丰路秣陵路)"},{"poiid":"B2094757D164A5F9409C","title":"上海火车站贵宾休息室","lon":"121.4548221","lat":"31.248471963","category":"22","category_name":"火车站","address":"上海市闸北区恒丰路"},{"poiid":"B2094757D569A2FB4993","title":"吉泰连锁酒店(上海火车站店)","lon":"121.451263000002","lat":"31.2469480000002","category":"216","category_name":"经济型连锁酒店","address":"上海市闸北区长安路1088号(近天目西路)"},{"poiid":"B2094654DB6AA3FF4998","title":"半度雨棚 Bandu Cabin","lon":"121.447079054","lat":"31.248275793","category":"260","category_name":"其他","address":"普陀区莫干山路50号M50创意园区11号楼1楼(近澳门路)"},{"poiid":"B2094655D26AABFD4092","title":"M50创意园(莫干山路)","lon":"121.44866","lat":"31.24753","category":"247","category_name":"餐饮美食","address":"普陀区莫干山路50号M50创意园区内(近澳门路)"},{"poiid":"B2094757D068A7FB4698","title":"上海火车站4-5号站台","lon":"121.45375295","lat":"31.2499646774","category":"22","category_name":"火车站","address":"上海市火车站"},{"poiid":"B2094654D564AAF44098","title":"上海站南广场","lon":"121.45486","lat":"31.2481","category":"22","category_name":"火车站","address":"闸北区秣陵路303号"},{"poiid":"B209475CD564A7F8439E","title":"上海滩中信泰富店","lon":"121.45602","lat":"31.22851","category":"119","category_name":"商场","address":"\"南京西路1168号中信泰富广场，店铺号221.\r\n\""},{"poiid":"B2094757D06EAAFA479C","title":"浦西洲际酒店","lon":"121.45369052","lat":"31.244797228","category":"217","category_name":"旅馆招待所","address":"上海市闸北区恒丰路500号(上海火车站近天目西路)"},{"poiid":"B2094757D06EAAF4439A","title":"全聚德 闸北店","lon":"121.4503227965","lat":"31.245534803561","category":"260","category_name":"其他","address":"闸北区天目西路547号联通国际大厦内(近长安路)"},{"poiid":"B2094757D66DA4FA4198","title":"星巴克 STARBUCKS(恒汇国际店)","lon":"121.452896886","lat":"31.2460654409","category":"65","category_name":"咖啡厅","address":"闸北区天目西路437号恒汇国际大厦1楼(近恒丰路)"},{"poiid":"B2094757D06FA3FB489F","title":"恒汇国际大厦","lon":"121.45268046","lat":"31.246137006","category":"46","category_name":"楼宇","address":"黄浦中山南路、复兴路口"},{"poiid":"B2094655D26EA2F9439C","title":"上海广场长城假日酒店","lon":"121.45368","lat":"31.24693","category":"214","category_name":"四星级宾馆","address":"上海市闸北区恒丰路585号(天目西路口)"},{"poiid":"B2094655D36CA2F4469B","title":"上海火车站南广场","lon":"121.45448","lat":"31.24753","category":"38","category_name":"公交车站","address":""},{"poiid":"B2094757D06FA2FB409A","title":"联通国际大厦","lon":"121.449743","lat":"31.246076","category":"46","category_name":"楼宇","address":"上海市闸北区天目西路547号"},{"poiid":"B2094757D06FABF94899","title":"宝矿洲际商务中心","lon":"121.453241726","lat":"31.2444672929","category":"46","category_name":"楼宇","address":"上海闸北区裕通路100号(恒丰路500号)"},{"poiid":"B2094757D06FA6F5499F","title":"江南村","lon":"121.45173645","lat":"31.24502182","category":"500","category_name":"未知分类","address":"上海闸北区长安路1033号3楼"},{"poiid":"B2094757D068ABF44199","title":"肯德基 KFC (北广场店)","lon":"121.454561","lat":"31.247548","category":"68","category_name":"快餐厅","address":"梅园路360号环龙商厦内(近秣陵路)"},{"poiid":"B2094757D56DA0F84492","title":"天目西路营业厅","lon":"121.451435","lat":"31.245592","category":"151","category_name":"电讯营业厅","address":"闸北区天目西路547号"},{"poiid":"B2094757D06FA0FA4592","title":"味千拉面(火车站店)","lon":"121.45406","lat":"31.24734","category":"95","category_name":"日本料理","address":"上海闸北区梅园路360号环龙商厦1楼16号铺(近火车站南广场)"},{"poiid":"B2094757D66DA2F54998","title":"苏河一号","lon":"121.45146058","lat":"31.247447768","category":"500","category_name":"未知分类","address":"上海市普陀区莫干山路"},{"poiid":"B2094757D06FAAF84992","title":"美上海餐厅","lon":"121.452622997","lat":"31.2453309489","category":"76","category_name":"上海菜","address":"闸北区天目西路477号恒汇国际大厦(近恒丰路)"},{"poiid":"B2094757D06AA0FC4999","title":"上海沪铁长途客运站","lon":"121.451751983","lat":"31.2508245347","category":"35","category_name":"长途汽车站","address":"闸北区恒丰路783号(近远景路)"},{"poiid":"B2094654D464A2FD489B","title":"上海铁路大厦","lon":"121.45258","lat":"31.2497","category":"46","category_name":"楼宇","address":"浦东新区金湘路345号"},{"poiid":"B2094757D06FA7F54498","title":"友力国际大厦","lon":"121.452","lat":"31.2504","category":"46","category_name":"楼宇","address":"上海江宁路1158号"},{"poiid":"B2094750D66DA4FD489D","title":"Singa星歌KTV","lon":"121.450927","lat":"31.24785","category":"170","category_name":"KTV","address":"恒丰路666号，靠近长安路"},{"poiid":"B2094751D36FA3FC4792","title":"雍记大酒店(恒丰店)","lon":"121.45266","lat":"31.24672","category":"72","category_name":"广东菜","address":"闸北区恒丰路600号机电大厦1-2楼(近上海火车站)"},{"poiid":"B2094654DB6AA6FF469E","title":"上海亚繁龙门大酒店","lon":"121.45188","lat":"31.24962","category":"214","category_name":"四星级宾馆","address":"上海市闸北区恒丰路777号（近天目路）"},{"poiid":"B2094757D068A7F94198","title":"世纪商务大厦","lon":"121.45","lat":"31.2495","category":"46","category_name":"楼宇","address":"上海市普陀区长寿路97号"},{"poiid":"B2094654DB6AA6F8489D","title":"上海邮电大厦","lon":"121.45281","lat":"31.24796","category":"215","category_name":"三星级宾馆","address":"协和丽豪酒店式公寓位于静安南京西路2068号(镇宁路愚园路口)"},{"poiid":"B2094757D06FA2F9479A","title":"麦当劳(秣陵路店)","lon":"121.45402","lat":"31.24713","category":"68","category_name":"快餐厅","address":"闸北区秣陵路258号友谊服饰商厦B1楼(近火车站南广场)"},{"poiid":"B2094757D569A7F4419F","title":"江南邨酒家","lon":"121.4517361","lat":"31.24502694","category":"70","category_name":"综合酒楼","address":"长安路1033号长安大厦3层"},{"poiid":"B2094654DA6CA7F84098","title":"不夜城都市工业园","lon":"121.45118","lat":"31.24772","category":"45","category_name":"产业园区","address":"上海闸北区恒丰路610号"},{"poiid":"B2094757D068A1F5439F","title":"上海火车站世博钟楼","lon":"121.45478719","lat":"31.248411829","category":"46","category_name":"楼宇","address":"闸北区上海火车站南广场"},{"poiid":"B2094654DA6CA7FF4592","title":"中房华东大厦","lon":"121.45095","lat":"31.24722","category":"46","category_name":"楼宇","address":"上海闸北区长安路1138号"},{"poiid":"B2094654DB69A4FE429D","title":"莫泰168连锁旅店(火车站店)","lon":"121.45201","lat":"31.24631","category":"216","category_name":"经济型连锁酒店","address":"闸北区长安路1105号(近天目西路)"},{"poiid":"B2094757D169A0FE419D","title":"焊点1088公社","lon":"121.451264","lat":"31.246948","category":"500","category_name":"未知分类","address":"闸北区长安路1088号(近天目西路)"},{"poiid":"B2094757D06FA5F4419D","title":"大奥通讯商城","lon":"121.45099","lat":"31.24547","category":"138","category_name":"家电电子卖场","address":"闸北区天目西路547号联通国际大厦内(近长安路)"},{"poiid":"B2094655D26AABFA499A","title":"M50艺术产业园","lon":"121.44866","lat":"31.24753","category":"248","category_name":"生活娱乐","address":"普陀区莫干山路50号"},{"poiid":"B2094750DA6BA4F84298","title":"火车站","lon":"121.454513","lat":"31.247982","category":"500","category_name":"未知分类","address":null},{"poiid":"B2094655D26EA3FC4192","title":"圣骊澳门苑","lon":"121.44803","lat":"31.24791","category":"47","category_name":"住宅区","address":"上海市普陀区澳门路58弄"},{"poiid":"B2094654DB69A5FE419A","title":"肯德基(恒丰店)","lon":"121.45371","lat":"31.24669","category":"68","category_name":"快餐厅","address":"闸北区天目西路311号(近恒丰路)"},{"poiid":"B2094655D26FA3FA409B","title":"长寿商业广场","lon":"121.449","lat":"31.2481","category":"46","category_name":"楼宇","address":"长寿路181弄3"},{"poiid":"B2094757D568A7FC4292","title":"罐子书屋罐子茶馆","lon":"121.4487381","lat":"31.24756806","category":"66","category_name":"茶艺馆","address":"普陀区莫干山路50号M50创意园区3号楼105-2室(近澳门路)"},{"poiid":"B2094757D069A0FB4093","title":"上岛咖啡(长安路店)","lon":"121.45176598","lat":"31.245837036","category":"260","category_name":"其他","address":"闸北区天目西路488号长安大厦内"},{"poiid":"B2094654DB65A6F4459B","title":"圣天地商务楼","lon":"121.45","lat":"31.25","category":"46","category_name":"楼宇","address":"江宁路1165号"},{"poiid":"B2094757DA69A1FA419F","title":"上海玫瑰医院咨询部","lon":"121.45089","lat":"31.24722","category":"162","category_name":"医院","address":"闸北区长安路1138号中房华东大厦内(近恒丰路)"},{"poiid":"B2094757D16FA6FA4292","title":"7 Tangram 艺术中心","lon":"121.45008706","lat":"31.248252294","category":"184","category_name":"美术馆","address":"上海市莫干山路50号17号楼2楼"},{"poiid":"B2094750DB6AA2FD499F","title":"上海M50创意园区","lon":"121.448632","lat":"31.247654","category":"45","category_name":"产业园区","address":"普陀区莫干山路50号"},{"poiid":"B2094655D26BA0FB459E","title":"金樽国际大厦","lon":"121.45119","lat":"31.24772","category":"46","category_name":"楼宇","address":"恒丰路610号"},{"poiid":"B2094654D464A2FD4898","title":"上海铁路大厦酒店","lon":"121.45258","lat":"31.2497","category":"76","category_name":"上海菜","address":"闸北区秣陵路355号(恒丰路秣陵路)"},{"poiid":"B2094757D164A5F9409C","title":"上海火车站贵宾休息室","lon":"121.4548221","lat":"31.248471963","category":"22","category_name":"火车站","address":"上海市闸北区恒丰路"},{"poiid":"B2094757D569A2FB4993","title":"吉泰连锁酒店(上海火车站店)","lon":"121.451263000002","lat":"31.2469480000002","category":"216","category_name":"经济型连锁酒店","address":"上海市闸北区长安路1088号(近天目西路)"},{"poiid":"B2094654DB6AA3FF4998","title":"半度雨棚 Bandu Cabin","lon":"121.447079054","lat":"31.248275793","category":"260","category_name":"其他","address":"普陀区莫干山路50号M50创意园区11号楼1楼(近澳门路)"},{"poiid":"B2094655D26AABFD4092","title":"M50创意园(莫干山路)","lon":"121.44866","lat":"31.24753","category":"247","category_name":"餐饮美食","address":"普陀区莫干山路50号M50创意园区内(近澳门路)"},{"poiid":"B2094757D068A7FB4698","title":"上海火车站4-5号站台","lon":"121.45375295","lat":"31.2499646774","category":"22","category_name":"火车站","address":"上海市火车站"},{"poiid":"B2094654D564AAF44098","title":"上海站南广场","lon":"121.45486","lat":"31.2481","category":"22","category_name":"火车站","address":"闸北区秣陵路303号"},{"poiid":"B209475CD564A7F8439E","title":"上海滩中信泰富店","lon":"121.45602","lat":"31.22851","category":"119","category_name":"商场","address":"\"南京西路1168号中信泰富广场，店铺号221.\r\n\""},{"poiid":"B2094757D06EAAFA479C","title":"浦西洲际酒店","lon":"121.45369052","lat":"31.244797228","category":"217","category_name":"旅馆招待所","address":"上海市闸北区恒丰路500号(上海火车站近天目西路)"},{"poiid":"B2094757D06EAAF4439A","title":"全聚德 闸北店","lon":"121.4503227965","lat":"31.245534803561","category":"260","category_name":"其他","address":"闸北区天目西路547号联通国际大厦内(近长安路)"},{"poiid":"B2094757D66DA4FA4198","title":"星巴克 STARBUCKS(恒汇国际店)","lon":"121.452896886","lat":"31.2460654409","category":"65","category_name":"咖啡厅","address":"闸北区天目西路437号恒汇国际大厦1楼(近恒丰路)"},{"poiid":"B2094757D06FA3FB489F","title":"恒汇国际大厦","lon":"121.45268046","lat":"31.246137006","category":"46","category_name":"楼宇","address":"黄浦中山南路、复兴路口"},{"poiid":"B2094655D26EA2F9439C","title":"上海广场长城假日酒店","lon":"121.45368","lat":"31.24693","category":"214","category_name":"四星级宾馆","address":"上海市闸北区恒丰路585号(天目西路口)"},{"poiid":"B2094655D36CA2F4469B","title":"上海火车站南广场","lon":"121.45448","lat":"31.24753","category":"38","category_name":"公交车站","address":""},{"poiid":"B2094757D06FA2FB409A","title":"联通国际大厦","lon":"121.449743","lat":"31.246076","category":"46","category_name":"楼宇","address":"上海市闸北区天目西路547号"},{"poiid":"B2094757D06FABF94899","title":"宝矿洲际商务中心","lon":"121.453241726","lat":"31.2444672929","category":"46","category_name":"楼宇","address":"上海闸北区裕通路100号(恒丰路500号)"},{"poiid":"B2094757D06FA6F5499F","title":"江南村","lon":"121.45173645","lat":"31.24502182","category":"500","category_name":"未知分类","address":"上海闸北区长安路1033号3楼"},{"poiid":"B2094757D068ABF44199","title":"肯德基 KFC (北广场店)","lon":"121.454561","lat":"31.247548","category":"68","category_name":"快餐厅","address":"梅园路360号环龙商厦内(近秣陵路)"},{"poiid":"B2094757D56DA0F84492","title":"天目西路营业厅","lon":"121.451435","lat":"31.245592","category":"151","category_name":"电讯营业厅","address":"闸北区天目西路547号"},{"poiid":"B2094757D06FA0FA4592","title":"味千拉面(火车站店)","lon":"121.45406","lat":"31.24734","category":"95","category_name":"日本料理","address":"上海闸北区梅园路360号环龙商厦1楼16号铺(近火车站南广场)"},{"poiid":"B2094757D66DA2F54998","title":"苏河一号","lon":"121.45146058","lat":"31.247447768","category":"500","category_name":"未知分类","address":"上海市普陀区莫干山路"},{"poiid":"B2094757D06FAAF84992","title":"美上海餐厅","lon":"121.452622997","lat":"31.2453309489","category":"76","category_name":"上海菜","address":"闸北区天目西路477号恒汇国际大厦(近恒丰路)"},{"poiid":"B2094757D06AA0FC4999","title":"上海沪铁长途客运站","lon":"121.451751983","lat":"31.2508245347","category":"35","category_name":"长途汽车站","address":"闸北区恒丰路783号(近远景路)"},{"poiid":"B2094654D464A2FD489B","title":"上海铁路大厦","lon":"121.45258","lat":"31.2497","category":"46","category_name":"楼宇","address":"浦东新区金湘路345号"},{"poiid":"B2094757D06FA7F54498","title":"友力国际大厦","lon":"121.452","lat":"31.2504","category":"46","category_name":"楼宇","address":"上海江宁路1158号"},{"poiid":"B2094750D66DA4FD489D","title":"Singa星歌KTV","lon":"121.450927","lat":"31.24785","category":"170","category_name":"KTV","address":"恒丰路666号，靠近长安路"},{"poiid":"B2094751D36FA3FC4792","title":"雍记大酒店(恒丰店)","lon":"121.45266","lat":"31.24672","category":"72","category_name":"广东菜","address":"闸北区恒丰路600号机电大厦1-2楼(近上海火车站)"},{"poiid":"B2094654DB6AA6FF469E","title":"上海亚繁龙门大酒店","lon":"121.45188","lat":"31.24962","category":"214","category_name":"四星级宾馆","address":"上海市闸北区恒丰路777号（近天目路）"},{"poiid":"B2094757D068A7F94198","title":"世纪商务大厦","lon":"121.45","lat":"31.2495","category":"46","category_name":"楼宇","address":"上海市普陀区长寿路97号"},{"poiid":"B2094654DB6AA6F8489D","title":"上海邮电大厦","lon":"121.45281","lat":"31.24796","category":"215","category_name":"三星级宾馆","address":"协和丽豪酒店式公寓位于静安南京西路2068号(镇宁路愚园路口)"},{"poiid":"B2094757D06FA2F9479A","title":"麦当劳(秣陵路店)","lon":"121.45402","lat":"31.24713","category":"68","category_name":"快餐厅","address":"闸北区秣陵路258号友谊服饰商厦B1楼(近火车站南广场)"},{"poiid":"B2094757D569A7F4419F","title":"江南邨酒家","lon":"121.4517361","lat":"31.24502694","category":"70","category_name":"综合酒楼","address":"长安路1033号长安大厦3层"},{"poiid":"B2094654DA6CA7F84098","title":"不夜城都市工业园","lon":"121.45118","lat":"31.24772","category":"45","category_name":"产业园区","address":"上海闸北区恒丰路610号"},{"poiid":"B2094757D068A1F5439F","title":"上海火车站世博钟楼","lon":"121.45478719","lat":"31.248411829","category":"46","category_name":"楼宇","address":"闸北区上海火车站南广场"},{"poiid":"B2094654DA6CA7FF4592","title":"中房华东大厦","lon":"121.45095","lat":"31.24722","category":"46","category_name":"楼宇","address":"上海闸北区长安路1138号"},{"poiid":"B2094654DB69A4FE429D","title":"莫泰168连锁旅店(火车站店)","lon":"121.45201","lat":"31.24631","category":"216","category_name":"经济型连锁酒店","address":"闸北区长安路1105号(近天目西路)"},{"poiid":"B2094757D169A0FE419D","title":"焊点1088公社","lon":"121.451264","lat":"31.246948","category":"500","category_name":"未知分类","address":"闸北区长安路1088号(近天目西路)"},{"poiid":"B2094757D06FA5F4419D","title":"大奥通讯商城","lon":"121.45099","lat":"31.24547","category":"138","category_name":"家电电子卖场","address":"闸北区天目西路547号联通国际大厦内(近长安路)"},{"poiid":"B2094655D26AABFA499A","title":"M50艺术产业园","lon":"121.44866","lat":"31.24753","category":"248","category_name":"生活娱乐","address":"普陀区莫干山路50号"},{"poiid":"B2094750DA6BA4F84298","title":"火车站","lon":"121.454513","lat":"31.247982","category":"500","category_name":"未知分类","address":null},{"poiid":"B2094655D26EA3FC4192","title":"圣骊澳门苑","lon":"121.44803","lat":"31.24791","category":"47","category_name":"住宅区","address":"上海市普陀区澳门路58弄"},{"poiid":"B2094654DB69A5FE419A","title":"肯德基(恒丰店)","lon":"121.45371","lat":"31.24669","category":"68","category_name":"快餐厅","address":"闸北区天目西路311号(近恒丰路)"},{"poiid":"B2094655D26FA3FA409B","title":"长寿商业广场","lon":"121.449","lat":"31.2481","category":"46","category_name":"楼宇","address":"长寿路181弄3"},{"poiid":"B2094757D568A7FC4292","title":"罐子书屋罐子茶馆","lon":"121.4487381","lat":"31.24756806","category":"66","category_name":"茶艺馆","address":"普陀区莫干山路50号M50创意园区3号楼105-2室(近澳门路)"},{"poiid":"B2094757D069A0FB4093","title":"上岛咖啡(长安路店)","lon":"121.45176598","lat":"31.245837036","category":"260","category_name":"其他","address":"闸北区天目西路488号长安大厦内"},{"poiid":"B2094654DB65A6F4459B","title":"圣天地商务楼","lon":"121.45","lat":"31.25","category":"46","category_name":"楼宇","address":"江宁路1165号"},{"poiid":"B2094757DA69A1FA419F","title":"上海玫瑰医院咨询部","lon":"121.45089","lat":"31.24722","category":"162","category_name":"医院","address":"闸北区长安路1138号中房华东大厦内(近恒丰路)"},{"poiid":"B2094757D16FA6FA4292","title":"7 Tangram 艺术中心","lon":"121.45008706","lat":"31.248252294","category":"184","category_name":"美术馆","address":"上海市莫干山路50号17号楼2楼"},{"poiid":"B2094750DB6AA2FD499F","title":"上海M50创意园区","lon":"121.448632","lat":"31.247654","category":"45","category_name":"产业园区","address":"普陀区莫干山路50号"},{"poiid":"B2094655D26BA0FB459E","title":"金樽国际大厦","lon":"121.45119","lat":"31.24772","category":"46","category_name":"楼宇","address":"恒丰路610号"},{"poiid":"B2094654D464A2FD4898","title":"上海铁路大厦酒店","lon":"121.45258","lat":"31.2497","category":"76","category_name":"上海菜","address":"闸北区秣陵路355号(恒丰路秣陵路)"},{"poiid":"B2094757D164A5F9409C","title":"上海火车站贵宾休息室","lon":"121.4548221","lat":"31.248471963","category":"22","category_name":"火车站","address":"上海市闸北区恒丰路"},{"poiid":"B2094757D569A2FB4993","title":"吉泰连锁酒店(上海火车站店)","lon":"121.451263000002","lat":"31.2469480000002","category":"216","category_name":"经济型连锁酒店","address":"上海市闸北区长安路1088号(近天目西路)"},{"poiid":"B2094654DB6AA3FF4998","title":"半度雨棚 Bandu Cabin","lon":"121.447079054","lat":"31.248275793","category":"260","category_name":"其他","address":"普陀区莫干山路50号M50创意园区11号楼1楼(近澳门路)"},{"poiid":"B2094655D26AABFD4092","title":"M50创意园(莫干山路)","lon":"121.44866","lat":"31.24753","category":"247","category_name":"餐饮美食","address":"普陀区莫干山路50号M50创意园区内(近澳门路)"},{"poiid":"B2094757D068A7FB4698","title":"上海火车站4-5号站台","lon":"121.45375295","lat":"31.2499646774","category":"22","category_name":"火车站","address":"上海市火车站"},{"poiid":"B2094654D564AAF44098","title":"上海站南广场","lon":"121.45486","lat":"31.2481","category":"22","category_name":"火车站","address":"闸北区秣陵路303号"},{"poiid":"B209475CD564A7F8439E","title":"上海滩中信泰富店","lon":"121.45602","lat":"31.22851","category":"119","category_name":"商场","address":"\"南京西路1168号中信泰富广场，店铺号221.\r\n\""},{"poiid":"B2094757D06EAAFA479C","title":"浦西洲际酒店","lon":"121.45369052","lat":"31.244797228","category":"217","category_name":"旅馆招待所","address":"上海市闸北区恒丰路500号(上海火车站近天目西路)"},{"poiid":"B2094757D06EAAF4439A","title":"全聚德 闸北店","lon":"121.4503227965","lat":"31.245534803561","category":"260","category_name":"其他","address":"闸北区天目西路547号联通国际大厦内(近长安路)"},{"poiid":"B2094757D66DA4FA4198","title":"星巴克 STARBUCKS(恒汇国际店)","lon":"121.452896886","lat":"31.2460654409","category":"65","category_name":"咖啡厅","address":"闸北区天目西路437号恒汇国际大厦1楼(近恒丰路)"},{"poiid":"B2094757D06FA3FB489F","title":"恒汇国际大厦","lon":"121.45268046","lat":"31.246137006","category":"46","category_name":"楼宇","address":"黄浦中山南路、复兴路口"},{"poiid":"B2094655D26EA2F9439C","title":"上海广场长城假日酒店","lon":"121.45368","lat":"31.24693","category":"214","category_name":"四星级宾馆","address":"上海市闸北区恒丰路585号(天目西路口)"},{"poiid":"B2094655D36CA2F4469B","title":"上海火车站南广场","lon":"121.45448","lat":"31.24753","category":"38","category_name":"公交车站","address":""},{"poiid":"B2094757D06FA2FB409A","title":"联通国际大厦","lon":"121.449743","lat":"31.246076","category":"46","category_name":"楼宇","address":"上海市闸北区天目西路547号"},{"poiid":"B2094757D06FABF94899","title":"宝矿洲际商务中心","lon":"121.453241726","lat":"31.2444672929","category":"46","category_name":"楼宇","address":"上海闸北区裕通路100号(恒丰路500号)"},{"poiid":"B2094757D06FA6F5499F","title":"江南村","lon":"121.45173645","lat":"31.24502182","category":"500","category_name":"未知分类","address":"上海闸北区长安路1033号3楼"},{"poiid":"B2094757D068ABF44199","title":"肯德基 KFC (北广场店)","lon":"121.454561","lat":"31.247548","category":"68","category_name":"快餐厅","address":"梅园路360号环龙商厦内(近秣陵路)"},{"poiid":"B2094757D56DA0F84492","title":"天目西路营业厅","lon":"121.451435","lat":"31.245592","category":"151","category_name":"电讯营业厅","address":"闸北区天目西路547号"},{"poiid":"B2094757D06FA0FA4592","title":"味千拉面(火车站店)","lon":"121.45406","lat":"31.24734","category":"95","category_name":"日本料理","address":"上海闸北区梅园路360号环龙商厦1楼16号铺(近火车站南广场)"},{"poiid":"B2094757D66DA2F54998","title":"苏河一号","lon":"121.45146058","lat":"31.247447768","category":"500","category_name":"未知分类","address":"上海市普陀区莫干山路"},{"poiid":"B2094757D06FAAF84992","title":"美上海餐厅","lon":"121.452622997","lat":"31.2453309489","category":"76","category_name":"上海菜","address":"闸北区天目西路477号恒汇国际大厦(近恒丰路)"},{"poiid":"B2094757D06AA0FC4999","title":"上海沪铁长途客运站","lon":"121.451751983","lat":"31.2508245347","category":"35","category_name":"长途汽车站","address":"闸北区恒丰路783号(近远景路)"},{"poiid":"B2094654D464A2FD489B","title":"上海铁路大厦","lon":"121.45258","lat":"31.2497","category":"46","category_name":"楼宇","address":"浦东新区金湘路345号"},{"poiid":"B2094757D06FA7F54498","title":"友力国际大厦","lon":"121.452","lat":"31.2504","category":"46","category_name":"楼宇","address":"上海江宁路1158号"},{"poiid":"B2094750D66DA4FD489D","title":"Singa星歌KTV","lon":"121.450927","lat":"31.24785","category":"170","category_name":"KTV","address":"恒丰路666号，靠近长安路"},{"poiid":"B2094751D36FA3FC4792","title":"雍记大酒店(恒丰店)","lon":"121.45266","lat":"31.24672","category":"72","category_name":"广东菜","address":"闸北区恒丰路600号机电大厦1-2楼(近上海火车站)"},{"poiid":"B2094654DB6AA6FF469E","title":"上海亚繁龙门大酒店","lon":"121.45188","lat":"31.24962","category":"214","category_name":"四星级宾馆","address":"上海市闸北区恒丰路777号（近天目路）"},{"poiid":"B2094757D068A7F94198","title":"世纪商务大厦","lon":"121.45","lat":"31.2495","category":"46","category_name":"楼宇","address":"上海市普陀区长寿路97号"},{"poiid":"B2094654DB6AA6F8489D","title":"上海邮电大厦","lon":"121.45281","lat":"31.24796","category":"215","category_name":"三星级宾馆","address":"协和丽豪酒店式公寓位于静安南京西路2068号(镇宁路愚园路口)"},{"poiid":"B2094757D06FA2F9479A","title":"麦当劳(秣陵路店)","lon":"121.45402","lat":"31.24713","category":"68","category_name":"快餐厅","address":"闸北区秣陵路258号友谊服饰商厦B1楼(近火车站南广场)"},{"poiid":"B2094757D569A7F4419F","title":"江南邨酒家","lon":"121.4517361","lat":"31.24502694","category":"70","category_name":"综合酒楼","address":"长安路1033号长安大厦3层"},{"poiid":"B2094654DA6CA7F84098","title":"不夜城都市工业园","lon":"121.45118","lat":"31.24772","category":"45","category_name":"产业园区","address":"上海闸北区恒丰路610号"},{"poiid":"B2094757D068A1F5439F","title":"上海火车站世博钟楼","lon":"121.45478719","lat":"31.248411829","category":"46","category_name":"楼宇","address":"闸北区上海火车站南广场"},{"poiid":"B2094654DA6CA7FF4592","title":"中房华东大厦","lon":"121.45095","lat":"31.24722","category":"46","category_name":"楼宇","address":"上海闸北区长安路1138号"},{"poiid":"B2094654DB69A4FE429D","title":"莫泰168连锁旅店(火车站店)","lon":"121.45201","lat":"31.24631","category":"216","category_name":"经济型连锁酒店","address":"闸北区长安路1105号(近天目西路)"},{"poiid":"B2094757D169A0FE419D","title":"焊点1088公社","lon":"121.451264","lat":"31.246948","category":"500","category_name":"未知分类","address":"闸北区长安路1088号(近天目西路)"},{"poiid":"B2094757D06FA5F4419D","title":"大奥通讯商城","lon":"121.45099","lat":"31.24547","category":"138","category_name":"家电电子卖场","address":"闸北区天目西路547号联通国际大厦内(近长安路)"},{"poiid":"B2094655D26AABFA499A","title":"M50艺术产业园","lon":"121.44866","lat":"31.24753","category":"248","category_name":"生活娱乐","address":"普陀区莫干山路50号"},{"poiid":"B2094750DA6BA4F84298","title":"火车站","lon":"121.454513","lat":"31.247982","category":"500","category_name":"未知分类","address":null},{"poiid":"B2094655D26EA3FC4192","title":"圣骊澳门苑","lon":"121.44803","lat":"31.24791","category":"47","category_name":"住宅区","address":"上海市普陀区澳门路58弄"},{"poiid":"B2094654DB69A5FE419A","title":"肯德基(恒丰店)","lon":"121.45371","lat":"31.24669","category":"68","category_name":"快餐厅","address":"闸北区天目西路311号(近恒丰路)"},{"poiid":"B2094655D26FA3FA409B","title":"长寿商业广场","lon":"121.449","lat":"31.2481","category":"46","category_name":"楼宇","address":"长寿路181弄3"},{"poiid":"B2094757D568A7FC4292","title":"罐子书屋罐子茶馆","lon":"121.4487381","lat":"31.24756806","category":"66","category_name":"茶艺馆","address":"普陀区莫干山路50号M50创意园区3号楼105-2室(近澳门路)"},{"poiid":"B2094757D069A0FB4093","title":"上岛咖啡(长安路店)","lon":"121.45176598","lat":"31.245837036","category":"260","category_name":"其他","address":"闸北区天目西路488号长安大厦内"},{"poiid":"B2094654DB65A6F4459B","title":"圣天地商务楼","lon":"121.45","lat":"31.25","category":"46","category_name":"楼宇","address":"江宁路1165号"},{"poiid":"B2094757DA69A1FA419F","title":"上海玫瑰医院咨询部","lon":"121.45089","lat":"31.24722","category":"162","category_name":"医院","address":"闸北区长安路1138号中房华东大厦内(近恒丰路)"},{"poiid":"B2094757D16FA6FA4292","title":"7 Tangram 艺术中心","lon":"121.45008706","lat":"31.248252294","category":"184","category_name":"美术馆","address":"上海市莫干山路50号17号楼2楼"},{"poiid":"B2094750DB6AA2FD499F","title":"上海M50创意园区","lon":"121.448632","lat":"31.247654","category":"45","category_name":"产业园区","address":"普陀区莫干山路50号"},{"poiid":"B2094655D26BA0FB459E","title":"金樽国际大厦","lon":"121.45119","lat":"31.24772","category":"46","category_name":"楼宇","address":"恒丰路610号"},{"poiid":"B2094654D464A2FD4898","title":"上海铁路大厦酒店","lon":"121.45258","lat":"31.2497","category":"76","category_name":"上海菜","address":"闸北区秣陵路355号(恒丰路秣陵路)"},{"poiid":"B2094757D164A5F9409C","title":"上海火车站贵宾休息室","lon":"121.4548221","lat":"31.248471963","category":"22","category_name":"火车站","address":"上海市闸北区恒丰路"},{"poiid":"B2094757D569A2FB4993","title":"吉泰连锁酒店(上海火车站店)","lon":"121.451263000002","lat":"31.2469480000002","category":"216","category_name":"经济型连锁酒店","address":"上海市闸北区长安路1088号(近天目西路)"},{"poiid":"B2094654DB6AA3FF4998","title":"半度雨棚 Bandu Cabin","lon":"121.447079054","lat":"31.248275793","category":"260","category_name":"其他","address":"普陀区莫干山路50号M50创意园区11号楼1楼(近澳门路)"}]