[{"poiid":"B2094757D06AA2FF439C","title":"召稼樓古镇老八样酒楼","lon":"121.54887155","lat":"31.078935015","category":"500","category_name":"未知分类","address":"上海召稼楼古镇兴东街15號"},{"poiid":"B2094757D068A1F8469B","title":"浦江高科技园","lon":"121.523061","lat":"31.092053624","category":"46","category_name":"楼宇","address":"上海新骏环路188号"},{"poiid":"B2094655D36DA7FE4499","title":"召稼楼","lon":"121.53106","lat":"31.07768","category":"38","category_name":"公交车站","address":"闵行区浦江镇沈杜公路革新村内(近苏召路)"},{"poiid":"B2094757D064A3FB469F","title":"沈家花园(沈杜公路店)","lon":"121.54903944","lat":"31.087028055","category":"47","category_name":"住宅区","address":"闵行区浦江镇沈杜公路(近苏召路)"},{"poiid":"B2094655D36CA1FB429E","title":"联星村","lon":"121.54067","lat":"31.09339","category":"38","category_name":"公交车站","address":""},{"poiid":"B2094757D16CA1F54093","title":"林海公路","lon":"121.547986","lat":"31.109405208","category":"500","category_name":"未知分类","address":"上海市浦东新区上南路附近"},{"poiid":"B2094654DB6DA1FD489D","title":"奇士科技园","lon":"121.5317","lat":"31.09824","category":"45","category_name":"产业园区","address":""},{"poiid":"B2094757D568A6F5449C","title":"快客便利店(苏召路)","lon":"121.54032254","lat":"31.09350722","category":"117","category_name":"便民商店/便利店","address":"中国上海市闵行区苏召路"},{"poiid":"B2094757D569A1FA499A","title":"尚德大厦","lon":"121.5327","lat":"31.09611","category":"46","category_name":"楼宇","address":"立跃路1888号"},{"poiid":"B2094655D36CA2FF489E","title":"勤劳村","lon":"121.53366","lat":"31.08962","category":"38","category_name":"公交车站","address":""},{"poiid":"B2094757D569A0F9489A","title":"漕河泾开发区浦江高科技园F区","lon":"121.52344048","lat":"31.09118462","category":"45","category_name":"产业园区","address":"中国上海市闵行区"},{"poiid":"B2094654DB6DA2FC439A","title":"上海骋侨机械制造有限公司","lon":"121.54032","lat":"31.09371","category":"263","category_name":"公司","address":""},{"poiid":"B2094757D568A6F5439D","title":"联华超市(苏召路)","lon":"121.53622206","lat":"31.10113363","category":"118","category_name":"超级市场","address":"苏召路1601号第6幢底楼6-20号"},{"poiid":"B2094757D065A2FA429E","title":"尚德太阳能电力有限公司","lon":"121.530885009","lat":"31.1031380722","category":"46","category_name":"楼宇","address":"上海市闵行区立跃路1888号"},{"poiid":"B2094757D568A6FC489F","title":"上海闵东门诊部","lon":"121.53129883","lat":"31.09580322","category":"162","category_name":"医院","address":"立跃路1788号"},{"poiid":"B2094757D064A0FF4999","title":"上海浦众农产品交易中心","lon":"121.542636509","lat":"31.1026429614","category":"500","category_name":"未知分类","address":"上海苏召路立建路"},{"poiid":"B2094655D36CA6FB4693","title":"东风村","lon":"121.54588","lat":"31.10301","category":"38","category_name":"公交车站","address":""},{"poiid":"B2094655D26BA2FB4199","title":"苏民","lon":"121.53226","lat":"31.10664","category":"38","category_name":"公交车站","address":""},{"poiid":"B2094757D568A5FE499C","title":"上海闵行区民办文博小学","lon":"121.53357856","lat":"31.10404134","category":"56","category_name":"小学","address":"中国上海市闵行区勤劳路"},{"poiid":"B2094757D66CAAFD429E","title":"上海市质量监督检验技术研究院－浦江基地","lon":"121.525626964","lat":"31.0880961271","category":"46","category_name":"楼宇","address":"上海市闵行区江月路900号"},{"poiid":"B2094654DB6DA3F5459A","title":"上海蓑岛时装有限公司","lon":"121.53309","lat":"31.10318","category":"263","category_name":"公司","address":""},{"poiid":"B2094654DB6DA1FD4898","title":"上海勤劳箱体制造有限公司","lon":"121.52985","lat":"31.10223","category":"263","category_name":"公司","address":""},{"poiid":"B209475CD66CA5FB429E","title":"上海交通大学","lon":"121.552024","lat":"31.095016","category":"500","category_name":"未知分类","address":"上海市 上海市闵行区东川路800号"},{"poiid":"B2094757D168ABF94992","title":"陈行公路","lon":"121.532135009","lat":"31.1082561836","category":"500","category_name":"未知分类","address":"上海三鲁公路"},{"poiid":"B2094757D064ABF44399","title":"浦星公路","lon":"121.552639","lat":"31.089891784","category":"500","category_name":"未知分类","address":"上海浦星公路"},{"poiid":"B2094654DB6DA2FC419A","title":"浦江一中","lon":"121.52149","lat":"31.09753","category":"55","category_name":"中学","address":""},{"poiid":"B2094757D568ABF94092","title":"上海漕河泾开发区创新创业园","lon":"121.519512","lat":"31.090923","category":"45","category_name":"产业园区","address":"新骏环路189号"},{"poiid":"B2094757D568A6F5469E","title":"九州通大药房(仁寿药店)","lon":"121.53115885","lat":"31.1101633","category":"162","category_name":"医院","address":"中国上海市闵行区X005"},{"poiid":"B2094757D66CA4F94593","title":"新骏环路","lon":"121.522981109","lat":"31.0875977341","category":"500","category_name":"未知分类","address":"上海漕河泾浦江高科技园"},{"poiid":"B2094655D36DA3F4489B","title":"鹤坡塘桥","lon":"121.53264","lat":"31.08099","category":"250","category_name":"公园户外","address":""},{"poiid":"B2094757D66EA7FB4398","title":"万歌ktv","lon":"121.541549","lat":"31.078797542","category":"170","category_name":"KTV","address":"闵行区浦江镇康华路146号金硕广场2楼(近三鲁路)"},{"poiid":"B2094655D36CA1FB4598","title":"联航路召楼路","lon":"121.52954","lat":"31.08006","category":"38","category_name":"公交车站","address":""},{"poiid":"B2094753D76CA7FD499A","title":"上海浦东国际机场","lon":"121.521179","lat":"31.089164","category":"500","category_name":"未知分类","address":"上海市 上海浦东"},{"poiid":"B2094752DA6AA4F84799","title":"城林美苑","lon":"121.528271","lat":"31.110319","category":"500","category_name":"未知分类","address":"上海市 三舒路62弄"},{"poiid":"B2094757D168A2FD469E","title":"高兴路108号梅陇体育文化中心","lon":"121.5378184","lat":"31.112169668","category":"500","category_name":"未知分类","address":"上海高兴路108号"},{"poiid":"B2094750D565AAF94092","title":"申浦驾校","lon":"121.555969","lat":"31.104068","category":"253","category_name":"校园生活","address":"立跃路"},{"poiid":"B2094654DB6DA2FC469D","title":"上海台博胶粘材料有限公司","lon":"121.55372","lat":"31.10536","category":"263","category_name":"公司","address":""},{"poiid":"B2094654DB6DA2FC479F","title":"上海申浦机动车驾驶员培训有限公司学车报名处","lon":"121.55529","lat":"31.10535","category":"248","category_name":"生活娱乐","address":""},{"poiid":"B2094757D66FA3FB499D","title":"航天动力科技工程有限公司","lon":"121.540085009","lat":"31.0783625332","category":"263","category_name":"公司","address":"上海江月路万芳路"}]