[{"poiid":"B2094654D565A5F9429F","title":"上海市长宁区妇幼保健院(上海妇孺医院)","lon":"121.41479","lat":"31.21307","category":"162","category_name":"医院","address":"长宁区武夷路773号(近中山西路)"},{"poiid":"B2094757D06EAAFF4793","title":"上海国际体操中心","lon":"121.41346669","lat":"31.213709584","category":"220","category_name":"运动场所","address":"长宁区武夷路777号国际体操中心游泳馆内(近中山西路)"},{"poiid":"B2094654D565A5F94293","title":"上海国际体操中心游泳馆","lon":"121.41432","lat":"31.21341","category":"231","category_name":"游泳馆","address":"上海长宁区武夷路777号上海国际体操中心内(近中山西路)"},{"poiid":"B2094757D06FA1FB449A","title":"可当代艺术中心","lon":"121.4174","lat":"31.21177","category":"179","category_name":"音乐厅","address":"长宁区凯旋路613号B座(近延安西路)"},{"poiid":"B2094757DA6EABFB469A","title":"尚嘉中心","lon":"121.413","lat":"31.2115","category":"249","category_name":"购物服务","address":"上海市长宁区仙霞路99号"},{"poiid":"B2094655D36DA7F8469B","title":"中山公园地铁站","lon":"121.41805","lat":"31.21543","category":"36","category_name":"地铁站","address":"上海轨道交通,二号线,三号线,四号线,轨交中山公园站"},{"poiid":"B2094757D06FABFD429A","title":"美仑大酒店","lon":"121.41327064","lat":"31.214548775","category":"217","category_name":"旅馆招待所","address":"上海长宁区武夷路789号(近中山西路)"},{"poiid":"B2094757D06FA7FA4393","title":"华师大","lon":"121.413307586","lat":"31.2167411672","category":"52","category_name":"高等院校","address":"上海市中山北路"},{"poiid":"B2094757D06FA7F4409C","title":"上海国际体操中心羽毛球馆","lon":"121.41341304","lat":"31.213108572","category":"220","category_name":"运动场所","address":"上海长宁区武夷路777号(近中山西路)"},{"poiid":"B2094757D068A4FA469E","title":"绿洲大厦","lon":"121.412556","lat":"31.213812","category":"46","category_name":"楼宇","address":"石景山区阜石路与杨庄东街交叉口西北角"},{"poiid":"B2094757D06FA2FB419F","title":"家顺寿司","lon":"121.41635","lat":"31.21819","category":"269","category_name":"烧烤","address":"长宁区长宁路1018号龙之梦购物中心7楼(近凯旋路)"},{"poiid":"B2094750DA6FA5FE4292","title":"盅意 精粤菜","lon":"121.417175","lat":"31.216543","category":"247","category_name":"餐饮美食","address":"长宁区长宁路1018号龙之梦购物中心6楼黄中庭(近凯旋路)"},{"poiid":"B2094654D565A5F9439B","title":"乐购(长宁店)","lon":"121.41323","lat":"31.21296","category":"118","category_name":"超级市场","address":"长宁区武夷路777号国际体操中心游泳馆1楼(近中山西路)"},{"poiid":"B2094757D064A0F4449D","title":"斗香园 (龙之梦)","lon":"121.417174586","lat":"31.2164781621","category":"247","category_name":"餐饮美食","address":"上海龙之梦7楼"},{"poiid":"B2094757D06FA7FB489B","title":"天山茶城","lon":"121.41228","lat":"31.2127","category":"136","category_name":"烟酒专卖店","address":"长宁区中山西路518号(玉屏南路口)"},{"poiid":"B2094757D064A6FF4092","title":"堡德佳西班牙餐厅","lon":"121.4136","lat":"31.21384","category":"94","category_name":"西餐厅","address":"长宁区武夷路789号美仑大酒店1楼(近中山西路)"},{"poiid":"B2094750DA6AA2F94692","title":"龙之梦雅仕大厦","lon":"121.416572","lat":"31.214466","category":"252","category_name":"楼宇机构","address":"长宁区凯旋路369号"},{"poiid":"B2094757D064A4FB489F","title":"美仑大酒店皇冠厅","lon":"121.41416","lat":"31.2143","category":"72","category_name":"广东菜","address":"上海长宁区武夷路789号美仑大酒店5楼  "},{"poiid":"B2094757D16CA2FD429D","title":"上海新视界眼科医院","lon":"121.414183586","lat":"31.2162461575","category":"162","category_name":"医院","address":"长宁区汇川路18号(近中山公园)"},{"poiid":"B2094757DA69A1F94499","title":"虹桥上海城","lon":"121.414","lat":"31.2127","category":"119","category_name":"商场","address":"上海市长宁区遵义路100号"},{"poiid":"B2094757D66DA4FC4399","title":"3号线中山公园站","lon":"121.416488586","lat":"31.2164881623","category":"500","category_name":"未知分类","address":"上海市长宁区长宁路"},{"poiid":"B2094757D065A1FF429C","title":"长妇婴","lon":"121.417036286","lat":"31.2163124588","category":"249","category_name":"购物服务","address":"上海武夷路773号"},{"poiid":"B2094757D16FAAFE429A","title":"上海市长宁区妇幼保健医院9楼佳佳母婴天地！","lon":"121.414710586","lat":"31.2133331006","category":"162","category_name":"医院","address":"上海市长宁区武夷路773号9楼。"},{"poiid":"B2094757D06FAAFD4493","title":"可当代艺术中心小剧场","lon":"121.41721344","lat":"31.2120456696","category":"260","category_name":"其他","address":"上海凯旋路613号B座一层"},{"poiid":"B2094654D56BA0F5459E","title":"安泰大楼","lon":"121.413","lat":"31.2129","category":"46","category_name":"楼宇","address":"上海市长宁区遵义路107号"},{"poiid":"B2094757D069ABFA479D","title":"四海游龙(武夷路店)","lon":"121.41464","lat":"31.21254","category":"68","category_name":"快餐厅","address":"长宁区武夷路774号(近国际体操中心)"},{"poiid":"B2094757D069A5F5429D","title":"天山路","lon":"121.414787292","lat":"31.2130813599","category":"260","category_name":"其他","address":"上海长宁区天山路"},{"poiid":"B2094654D565A5F94192","title":"三泾南宅","lon":"121.41549","lat":"31.21356","category":"47","category_name":"住宅区","address":"武夷路727弄1-21号"},{"poiid":"B2094655D26BA2FC419A","title":"武夷路中山西路","lon":"121.41431","lat":"31.21268","category":"38","category_name":"公交车站","address":""},{"poiid":"B2094757D16DA7FE4398","title":"食之密","lon":"121.414020586","lat":"31.2164781621","category":"500","category_name":"未知分类","address":"上海龙之梦B1层"},{"poiid":"B2094757D069A0FC4893","title":"大桶大足浴(武夷店)","lon":"121.41617","lat":"31.2124","category":"149","category_name":"洗浴推拿场所","address":"长宁区武夷路716号(凯旋路口)"},{"poiid":"B2094757D16CA6F54299","title":"石泉路岚皋路公交站","lon":"121.415625586","lat":"31.2144411222","category":"38","category_name":"公交车站","address":"上海普陀区石泉路(近岚皋路)"},{"poiid":"B2094655D269AAFC4993","title":"美仑大酒店宴会厅","lon":"121.41389","lat":"31.21457","category":"247","category_name":"餐饮美食","address":"长宁区武夷路789号美仑大酒店内(近中山西路)查看地图"},{"poiid":"B2094757D068AAFC439E","title":"红宝石 武夷店 Ruby","lon":"121.416065054","lat":"31.213060793","category":"67","category_name":"甜品店","address":"长宁区武夷路725号(近凯旋路)"},{"poiid":"B2094753D569A7FF429F","title":"长宁妇幼保健院","lon":"121.416664","lat":"31.214485","category":"162","category_name":"医院","address":"上海市 武夷路773号"},{"poiid":"B2094757D16EA0FA4098","title":"鸡排超人(武夷店)","lon":"121.414794686","lat":"31.2127898899","category":"247","category_name":"餐饮美食","address":"长宁区武夷路433号(近定西路)"},{"poiid":"B2094757D16EA4FE409F","title":"三泾庙","lon":"121.414215","lat":"31.214636","category":"245","category_name":"教堂","address":"长宁区长宁路三泾北宅244号(安化路凯旋路)"},{"poiid":"B2094757D16BA3F94999","title":"家味螺蛳粉 (中山公园店)","lon":"121.416516586","lat":"31.2161011547","category":"68","category_name":"快餐厅","address":"长宁区凯旋路安化路口(三泾庙旁)"},{"poiid":"B2094757D068A0FE479C","title":"星之健身(长宁店)","lon":"121.4137","lat":"31.21239","category":"221","category_name":"健身中心","address":"长宁区武夷路777号国际体操中心游泳馆3楼(近中山西路)"},{"poiid":"B2094757D06AABFA4593","title":"佳佳母婴天地","lon":"121.414791","lat":"31.213082","category":"500","category_name":"未知分类","address":"上海武夷路773号长宁区妇幼保健院9楼"},{"poiid":"B2094757D068ABFA4798","title":"吉祥馄饨(武夷路店)","lon":"121.414","lat":"31.21214","category":"68","category_name":"快餐厅","address":"长宁区武夷路782号(近中山西路)"},{"poiid":"B209475CD66AA1FB4793","title":"桂满陇","lon":"121.415298","lat":"31.216562","category":"500","category_name":"未知分类","address":"上海市 长宁路1018号龙之梦购物中心8楼蓝中庭(近凯旋路)"},{"poiid":"B2094757D469A5F9489B","title":"赞歧田野 武夷路店","lon":"121.412915","lat":"31.2129","category":"95","category_name":"日本料理","address":"长宁区武夷路789号美仑大酒店1楼(近国际体操中心)"},{"poiid":"B2094752D66EA2F8469F","title":"浅水湾文化艺术中心","lon":"121.414348","lat":"31.213438","category":"500","category_name":"未知分类","address":"上海市宜昌路179号"},{"poiid":"B2094757D464AAFA4293","title":"顺龙侬记桂林米粉","lon":"121.414678054","lat":"31.212493793","category":"68","category_name":"快餐厅","address":"长宁区武夷路743号(近中山西路)"},{"poiid":"B2094757D16AA7F54492","title":"71路延安西路定西路","lon":"121.41385833","lat":"31.21335105","category":"38","category_name":"公交车站","address":"上海延安西路定西路"},{"poiid":"B2094654DB64A6F9499E","title":"汉庭快捷(中山西路店)","lon":"121.41239","lat":"31.2138","category":"216","category_name":"经济型连锁酒店","address":"上海闵行区吴中路638号(近虹许路)  "},{"poiid":"B2094655D36CA1F5489A","title":"凯旋路武夷路","lon":"121.41742","lat":"31.21366","category":"38","category_name":"公交车站","address":"上海长宁区"},{"poiid":"B2094757D06AA3FC489D","title":"武夷花园","lon":"121.41572","lat":"31.211561","category":"47","category_name":"住宅区","address":"上海市长宁区武夷路718号"},{"poiid":"B2094654D56BA0FA439F","title":"紫云大厦","lon":"121.416854","lat":"31.212368","category":"46","category_name":"楼宇","address":"上海市中山西路800弄55号"},{"poiid":"B2094654D565A5F9429F","title":"上海市长宁区妇幼保健院(上海妇孺医院)","lon":"121.41479","lat":"31.21307","category":"162","category_name":"医院","address":"长宁区武夷路773号(近中山西路)"},{"poiid":"B2094757D06EAAFF4793","title":"上海国际体操中心","lon":"121.41346669","lat":"31.213709584","category":"220","category_name":"运动场所","address":"长宁区武夷路777号国际体操中心游泳馆内(近中山西路)"},{"poiid":"B2094654D565A5F94293","title":"上海国际体操中心游泳馆","lon":"121.41432","lat":"31.21341","category":"231","category_name":"游泳馆","address":"上海长宁区武夷路777号上海国际体操中心内(近中山西路)"},{"poiid":"B2094757D06FA1FB449A","title":"可当代艺术中心","lon":"121.4174","lat":"31.21177","category":"179","category_name":"音乐厅","address":"长宁区凯旋路613号B座(近延安西路)"},{"poiid":"B2094757DA6EABFB469A","title":"尚嘉中心","lon":"121.413","lat":"31.2115","category":"249","category_name":"购物服务","address":"上海市长宁区仙霞路99号"},{"poiid":"B2094655D36DA7F8469B","title":"中山公园地铁站","lon":"121.41805","lat":"31.21543","category":"36","category_name":"地铁站","address":"上海轨道交通,二号线,三号线,四号线,轨交中山公园站"},{"poiid":"B2094757D06FABFD429A","title":"美仑大酒店","lon":"121.41327064","lat":"31.214548775","category":"217","category_name":"旅馆招待所","address":"上海长宁区武夷路789号(近中山西路)"},{"poiid":"B2094757D06FA7FA4393","title":"华师大","lon":"121.413307586","lat":"31.2167411672","category":"52","category_name":"高等院校","address":"上海市中山北路"},{"poiid":"B2094757D06FA7F4409C","title":"上海国际体操中心羽毛球馆","lon":"121.41341304","lat":"31.213108572","category":"220","category_name":"运动场所","address":"上海长宁区武夷路777号(近中山西路)"},{"poiid":"B2094757D068A4FA469E","title":"绿洲大厦","lon":"121.412556","lat":"31.213812","category":"46","category_name":"楼宇","address":"石景山区阜石路与杨庄东街交叉口西北角"},{"poiid":"B2094757D06FA2FB419F","title":"家顺寿司","lon":"121.41635","lat":"31.21819","category":"269","category_name":"烧烤","address":"长宁区长宁路1018号龙之梦购物中心7楼(近凯旋路)"},{"poiid":"B2094750DA6FA5FE4292","title":"盅意 精粤菜","lon":"121.417175","lat":"31.216543","category":"247","category_name":"餐饮美食","address":"长宁区长宁路1018号龙之梦购物中心6楼黄中庭(近凯旋路)"},{"poiid":"B2094654D565A5F9439B","title":"乐购(长宁店)","lon":"121.41323","lat":"31.21296","category":"118","category_name":"超级市场","address":"长宁区武夷路777号国际体操中心游泳馆1楼(近中山西路)"},{"poiid":"B2094757D064A0F4449D","title":"斗香园 (龙之梦)","lon":"121.417174586","lat":"31.2164781621","category":"247","category_name":"餐饮美食","address":"上海龙之梦7楼"},{"poiid":"B2094757D06FA7FB489B","title":"天山茶城","lon":"121.41228","lat":"31.2127","category":"136","category_name":"烟酒专卖店","address":"长宁区中山西路518号(玉屏南路口)"},{"poiid":"B2094757D064A6FF4092","title":"堡德佳西班牙餐厅","lon":"121.4136","lat":"31.21384","category":"94","category_name":"西餐厅","address":"长宁区武夷路789号美仑大酒店1楼(近中山西路)"},{"poiid":"B2094750DA6AA2F94692","title":"龙之梦雅仕大厦","lon":"121.416572","lat":"31.214466","category":"252","category_name":"楼宇机构","address":"长宁区凯旋路369号"},{"poiid":"B2094757D064A4FB489F","title":"美仑大酒店皇冠厅","lon":"121.41416","lat":"31.2143","category":"72","category_name":"广东菜","address":"上海长宁区武夷路789号美仑大酒店5楼  "},{"poiid":"B2094757D16CA2FD429D","title":"上海新视界眼科医院","lon":"121.414183586","lat":"31.2162461575","category":"162","category_name":"医院","address":"长宁区汇川路18号(近中山公园)"},{"poiid":"B2094757DA69A1F94499","title":"虹桥上海城","lon":"121.414","lat":"31.2127","category":"119","category_name":"商场","address":"上海市长宁区遵义路100号"},{"poiid":"B2094757D66DA4FC4399","title":"3号线中山公园站","lon":"121.416488586","lat":"31.2164881623","category":"500","category_name":"未知分类","address":"上海市长宁区长宁路"},{"poiid":"B2094757D065A1FF429C","title":"长妇婴","lon":"121.417036286","lat":"31.2163124588","category":"249","category_name":"购物服务","address":"上海武夷路773号"},{"poiid":"B2094757D16FAAFE429A","title":"上海市长宁区妇幼保健医院9楼佳佳母婴天地！","lon":"121.414710586","lat":"31.2133331006","category":"162","category_name":"医院","address":"上海市长宁区武夷路773号9楼。"},{"poiid":"B2094757D06FAAFD4493","title":"可当代艺术中心小剧场","lon":"121.41721344","lat":"31.2120456696","category":"260","category_name":"其他","address":"上海凯旋路613号B座一层"},{"poiid":"B2094654D56BA0F5459E","title":"安泰大楼","lon":"121.413","lat":"31.2129","category":"46","category_name":"楼宇","address":"上海市长宁区遵义路107号"},{"poiid":"B2094757D069ABFA479D","title":"四海游龙(武夷路店)","lon":"121.41464","lat":"31.21254","category":"68","category_name":"快餐厅","address":"长宁区武夷路774号(近国际体操中心)"},{"poiid":"B2094757D069A5F5429D","title":"天山路","lon":"121.414787292","lat":"31.2130813599","category":"260","category_name":"其他","address":"上海长宁区天山路"},{"poiid":"B2094654D565A5F94192","title":"三泾南宅","lon":"121.41549","lat":"31.21356","category":"47","category_name":"住宅区","address":"武夷路727弄1-21号"},{"poiid":"B2094655D26BA2FC419A","title":"武夷路中山西路","lon":"121.41431","lat":"31.21268","category":"38","category_name":"公交车站","address":""},{"poiid":"B2094757D16DA7FE4398","title":"食之密","lon":"121.414020586","lat":"31.2164781621","category":"500","category_name":"未知分类","address":"上海龙之梦B1层"},{"poiid":"B2094757D069A0FC4893","title":"大桶大足浴(武夷店)","lon":"121.41617","lat":"31.2124","category":"149","category_name":"洗浴推拿场所","address":"长宁区武夷路716号(凯旋路口)"},{"poiid":"B2094757D16CA6F54299","title":"石泉路岚皋路公交站","lon":"121.415625586","lat":"31.2144411222","category":"38","category_name":"公交车站","address":"上海普陀区石泉路(近岚皋路)"},{"poiid":"B2094655D269AAFC4993","title":"美仑大酒店宴会厅","lon":"121.41389","lat":"31.21457","category":"247","category_name":"餐饮美食","address":"长宁区武夷路789号美仑大酒店内(近中山西路)查看地图"},{"poiid":"B2094757D068AAFC439E","title":"红宝石 武夷店 Ruby","lon":"121.416065054","lat":"31.213060793","category":"67","category_name":"甜品店","address":"长宁区武夷路725号(近凯旋路)"},{"poiid":"B2094753D569A7FF429F","title":"长宁妇幼保健院","lon":"121.416664","lat":"31.214485","category":"162","category_name":"医院","address":"上海市 武夷路773号"},{"poiid":"B2094757D16EA0FA4098","title":"鸡排超人(武夷店)","lon":"121.414794686","lat":"31.2127898899","category":"247","category_name":"餐饮美食","address":"长宁区武夷路433号(近定西路)"},{"poiid":"B2094757D16EA4FE409F","title":"三泾庙","lon":"121.414215","lat":"31.214636","category":"245","category_name":"教堂","address":"长宁区长宁路三泾北宅244号(安化路凯旋路)"},{"poiid":"B2094757D16BA3F94999","title":"家味螺蛳粉 (中山公园店)","lon":"121.416516586","lat":"31.2161011547","category":"68","category_name":"快餐厅","address":"长宁区凯旋路安化路口(三泾庙旁)"},{"poiid":"B2094757D068A0FE479C","title":"星之健身(长宁店)","lon":"121.4137","lat":"31.21239","category":"221","category_name":"健身中心","address":"长宁区武夷路777号国际体操中心游泳馆3楼(近中山西路)"},{"poiid":"B2094757D06AABFA4593","title":"佳佳母婴天地","lon":"121.414791","lat":"31.213082","category":"500","category_name":"未知分类","address":"上海武夷路773号长宁区妇幼保健院9楼"},{"poiid":"B2094757D068ABFA4798","title":"吉祥馄饨(武夷路店)","lon":"121.414","lat":"31.21214","category":"68","category_name":"快餐厅","address":"长宁区武夷路782号(近中山西路)"},{"poiid":"B209475CD66AA1FB4793","title":"桂满陇","lon":"121.415298","lat":"31.216562","category":"500","category_name":"未知分类","address":"上海市 长宁路1018号龙之梦购物中心8楼蓝中庭(近凯旋路)"},{"poiid":"B2094757D469A5F9489B","title":"赞歧田野 武夷路店","lon":"121.412915","lat":"31.2129","category":"95","category_name":"日本料理","address":"长宁区武夷路789号美仑大酒店1楼(近国际体操中心)"},{"poiid":"B2094752D66EA2F8469F","title":"浅水湾文化艺术中心","lon":"121.414348","lat":"31.213438","category":"500","category_name":"未知分类","address":"上海市宜昌路179号"},{"poiid":"B2094757D464AAFA4293","title":"顺龙侬记桂林米粉","lon":"121.414678054","lat":"31.212493793","category":"68","category_name":"快餐厅","address":"长宁区武夷路743号(近中山西路)"},{"poiid":"B2094757D16AA7F54492","title":"71路延安西路定西路","lon":"121.41385833","lat":"31.21335105","category":"38","category_name":"公交车站","address":"上海延安西路定西路"},{"poiid":"B2094654DB64A6F9499E","title":"汉庭快捷(中山西路店)","lon":"121.41239","lat":"31.2138","category":"216","category_name":"经济型连锁酒店","address":"上海闵行区吴中路638号(近虹许路)  "},{"poiid":"B2094655D36CA1F5489A","title":"凯旋路武夷路","lon":"121.41742","lat":"31.21366","category":"38","category_name":"公交车站","address":"上海长宁区"},{"poiid":"B2094757D06AA3FC489D","title":"武夷花园","lon":"121.41572","lat":"31.211561","category":"47","category_name":"住宅区","address":"上海市长宁区武夷路718号"},{"poiid":"B2094654D56BA0FA439F","title":"紫云大厦","lon":"121.416854","lat":"31.212368","category":"46","category_name":"楼宇","address":"上海市中山西路800弄55号"},{"poiid":"B2094654D565A5F9429F","title":"上海市长宁区妇幼保健院(上海妇孺医院)","lon":"121.41479","lat":"31.21307","category":"162","category_name":"医院","address":"长宁区武夷路773号(近中山西路)"},{"poiid":"B2094757D06EAAFF4793","title":"上海国际体操中心","lon":"121.41346669","lat":"31.213709584","category":"220","category_name":"运动场所","address":"长宁区武夷路777号国际体操中心游泳馆内(近中山西路)"},{"poiid":"B2094654D565A5F94293","title":"上海国际体操中心游泳馆","lon":"121.41432","lat":"31.21341","category":"231","category_name":"游泳馆","address":"上海长宁区武夷路777号上海国际体操中心内(近中山西路)"},{"poiid":"B2094757D06FA1FB449A","title":"可当代艺术中心","lon":"121.4174","lat":"31.21177","category":"179","category_name":"音乐厅","address":"长宁区凯旋路613号B座(近延安西路)"},{"poiid":"B2094757DA6EABFB469A","title":"尚嘉中心","lon":"121.413","lat":"31.2115","category":"249","category_name":"购物服务","address":"上海市长宁区仙霞路99号"},{"poiid":"B2094655D36DA7F8469B","title":"中山公园地铁站","lon":"121.41805","lat":"31.21543","category":"36","category_name":"地铁站","address":"上海轨道交通,二号线,三号线,四号线,轨交中山公园站"},{"poiid":"B2094757D06FABFD429A","title":"美仑大酒店","lon":"121.41327064","lat":"31.214548775","category":"217","category_name":"旅馆招待所","address":"上海长宁区武夷路789号(近中山西路)"},{"poiid":"B2094757D06FA7FA4393","title":"华师大","lon":"121.413307586","lat":"31.2167411672","category":"52","category_name":"高等院校","address":"上海市中山北路"},{"poiid":"B2094757D06FA7F4409C","title":"上海国际体操中心羽毛球馆","lon":"121.41341304","lat":"31.213108572","category":"220","category_name":"运动场所","address":"上海长宁区武夷路777号(近中山西路)"},{"poiid":"B2094757D068A4FA469E","title":"绿洲大厦","lon":"121.412556","lat":"31.213812","category":"46","category_name":"楼宇","address":"石景山区阜石路与杨庄东街交叉口西北角"},{"poiid":"B2094757D06FA2FB419F","title":"家顺寿司","lon":"121.41635","lat":"31.21819","category":"269","category_name":"烧烤","address":"长宁区长宁路1018号龙之梦购物中心7楼(近凯旋路)"},{"poiid":"B2094750DA6FA5FE4292","title":"盅意 精粤菜","lon":"121.417175","lat":"31.216543","category":"247","category_name":"餐饮美食","address":"长宁区长宁路1018号龙之梦购物中心6楼黄中庭(近凯旋路)"},{"poiid":"B2094654D565A5F9439B","title":"乐购(长宁店)","lon":"121.41323","lat":"31.21296","category":"118","category_name":"超级市场","address":"长宁区武夷路777号国际体操中心游泳馆1楼(近中山西路)"},{"poiid":"B2094757D064A0F4449D","title":"斗香园 (龙之梦)","lon":"121.417174586","lat":"31.2164781621","category":"247","category_name":"餐饮美食","address":"上海龙之梦7楼"},{"poiid":"B2094757D06FA7FB489B","title":"天山茶城","lon":"121.41228","lat":"31.2127","category":"136","category_name":"烟酒专卖店","address":"长宁区中山西路518号(玉屏南路口)"},{"poiid":"B2094757D064A6FF4092","title":"堡德佳西班牙餐厅","lon":"121.4136","lat":"31.21384","category":"94","category_name":"西餐厅","address":"长宁区武夷路789号美仑大酒店1楼(近中山西路)"},{"poiid":"B2094750DA6AA2F94692","title":"龙之梦雅仕大厦","lon":"121.416572","lat":"31.214466","category":"252","category_name":"楼宇机构","address":"长宁区凯旋路369号"},{"poiid":"B2094757D064A4FB489F","title":"美仑大酒店皇冠厅","lon":"121.41416","lat":"31.2143","category":"72","category_name":"广东菜","address":"上海长宁区武夷路789号美仑大酒店5楼  "},{"poiid":"B2094757D16CA2FD429D","title":"上海新视界眼科医院","lon":"121.414183586","lat":"31.2162461575","category":"162","category_name":"医院","address":"长宁区汇川路18号(近中山公园)"},{"poiid":"B2094757DA69A1F94499","title":"虹桥上海城","lon":"121.414","lat":"31.2127","category":"119","category_name":"商场","address":"上海市长宁区遵义路100号"},{"poiid":"B2094757D66DA4FC4399","title":"3号线中山公园站","lon":"121.416488586","lat":"31.2164881623","category":"500","category_name":"未知分类","address":"上海市长宁区长宁路"},{"poiid":"B2094757D065A1FF429C","title":"长妇婴","lon":"121.417036286","lat":"31.2163124588","category":"249","category_name":"购物服务","address":"上海武夷路773号"},{"poiid":"B2094757D16FAAFE429A","title":"上海市长宁区妇幼保健医院9楼佳佳母婴天地！","lon":"121.414710586","lat":"31.2133331006","category":"162","category_name":"医院","address":"上海市长宁区武夷路773号9楼。"},{"poiid":"B2094757D06FAAFD4493","title":"可当代艺术中心小剧场","lon":"121.41721344","lat":"31.2120456696","category":"260","category_name":"其他","address":"上海凯旋路613号B座一层"},{"poiid":"B2094654D56BA0F5459E","title":"安泰大楼","lon":"121.413","lat":"31.2129","category":"46","category_name":"楼宇","address":"上海市长宁区遵义路107号"},{"poiid":"B2094757D069ABFA479D","title":"四海游龙(武夷路店)","lon":"121.41464","lat":"31.21254","category":"68","category_name":"快餐厅","address":"长宁区武夷路774号(近国际体操中心)"},{"poiid":"B2094757D069A5F5429D","title":"天山路","lon":"121.414787292","lat":"31.2130813599","category":"260","category_name":"其他","address":"上海长宁区天山路"},{"poiid":"B2094654D565A5F94192","title":"三泾南宅","lon":"121.41549","lat":"31.21356","category":"47","category_name":"住宅区","address":"武夷路727弄1-21号"},{"poiid":"B2094655D26BA2FC419A","title":"武夷路中山西路","lon":"121.41431","lat":"31.21268","category":"38","category_name":"公交车站","address":""},{"poiid":"B2094757D16DA7FE4398","title":"食之密","lon":"121.414020586","lat":"31.2164781621","category":"500","category_name":"未知分类","address":"上海龙之梦B1层"},{"poiid":"B2094757D069A0FC4893","title":"大桶大足浴(武夷店)","lon":"121.41617","lat":"31.2124","category":"149","category_name":"洗浴推拿场所","address":"长宁区武夷路716号(凯旋路口)"},{"poiid":"B2094757D16CA6F54299","title":"石泉路岚皋路公交站","lon":"121.415625586","lat":"31.2144411222","category":"38","category_name":"公交车站","address":"上海普陀区石泉路(近岚皋路)"},{"poiid":"B2094655D269AAFC4993","title":"美仑大酒店宴会厅","lon":"121.41389","lat":"31.21457","category":"247","category_name":"餐饮美食","address":"长宁区武夷路789号美仑大酒店内(近中山西路)查看地图"},{"poiid":"B2094757D068AAFC439E","title":"红宝石 武夷店 Ruby","lon":"121.416065054","lat":"31.213060793","category":"67","category_name":"甜品店","address":"长宁区武夷路725号(近凯旋路)"},{"poiid":"B2094753D569A7FF429F","title":"长宁妇幼保健院","lon":"121.416664","lat":"31.214485","category":"162","category_name":"医院","address":"上海市 武夷路773号"},{"poiid":"B2094757D16EA0FA4098","title":"鸡排超人(武夷店)","lon":"121.414794686","lat":"31.2127898899","category":"247","category_name":"餐饮美食","address":"长宁区武夷路433号(近定西路)"},{"poiid":"B2094757D16EA4FE409F","title":"三泾庙","lon":"121.414215","lat":"31.214636","category":"245","category_name":"教堂","address":"长宁区长宁路三泾北宅244号(安化路凯旋路)"},{"poiid":"B2094757D16BA3F94999","title":"家味螺蛳粉 (中山公园店)","lon":"121.416516586","lat":"31.2161011547","category":"68","category_name":"快餐厅","address":"长宁区凯旋路安化路口(三泾庙旁)"},{"poiid":"B2094757D068A0FE479C","title":"星之健身(长宁店)","lon":"121.4137","lat":"31.21239","category":"221","category_name":"健身中心","address":"长宁区武夷路777号国际体操中心游泳馆3楼(近中山西路)"},{"poiid":"B2094757D06AABFA4593","title":"佳佳母婴天地","lon":"121.414791","lat":"31.213082","category":"500","category_name":"未知分类","address":"上海武夷路773号长宁区妇幼保健院9楼"},{"poiid":"B2094757D068ABFA4798","title":"吉祥馄饨(武夷路店)","lon":"121.414","lat":"31.21214","category":"68","category_name":"快餐厅","address":"长宁区武夷路782号(近中山西路)"},{"poiid":"B209475CD66AA1FB4793","title":"桂满陇","lon":"121.415298","lat":"31.216562","category":"500","category_name":"未知分类","address":"上海市 长宁路1018号龙之梦购物中心8楼蓝中庭(近凯旋路)"},{"poiid":"B2094757D469A5F9489B","title":"赞歧田野 武夷路店","lon":"121.412915","lat":"31.2129","category":"95","category_name":"日本料理","address":"长宁区武夷路789号美仑大酒店1楼(近国际体操中心)"},{"poiid":"B2094752D66EA2F8469F","title":"浅水湾文化艺术中心","lon":"121.414348","lat":"31.213438","category":"500","category_name":"未知分类","address":"上海市宜昌路179号"},{"poiid":"B2094757D464AAFA4293","title":"顺龙侬记桂林米粉","lon":"121.414678054","lat":"31.212493793","category":"68","category_name":"快餐厅","address":"长宁区武夷路743号(近中山西路)"},{"poiid":"B2094757D16AA7F54492","title":"71路延安西路定西路","lon":"121.41385833","lat":"31.21335105","category":"38","category_name":"公交车站","address":"上海延安西路定西路"},{"poiid":"B2094654DB64A6F9499E","title":"汉庭快捷(中山西路店)","lon":"121.41239","lat":"31.2138","category":"216","category_name":"经济型连锁酒店","address":"上海闵行区吴中路638号(近虹许路)  "},{"poiid":"B2094655D36CA1F5489A","title":"凯旋路武夷路","lon":"121.41742","lat":"31.21366","category":"38","category_name":"公交车站","address":"上海长宁区"},{"poiid":"B2094757D06AA3FC489D","title":"武夷花园","lon":"121.41572","lat":"31.211561","category":"47","category_name":"住宅区","address":"上海市长宁区武夷路718号"},{"poiid":"B2094654D56BA0FA439F","title":"紫云大厦","lon":"121.416854","lat":"31.212368","category":"46","category_name":"楼宇","address":"上海市中山西路800弄55号"},{"poiid":"B2094654D565A5F9429F","title":"上海市长宁区妇幼保健院(上海妇孺医院)","lon":"121.41479","lat":"31.21307","category":"162","category_name":"医院","address":"长宁区武夷路773号(近中山西路)"},{"poiid":"B2094757D06EAAFF4793","title":"上海国际体操中心","lon":"121.41346669","lat":"31.213709584","category":"220","category_name":"运动场所","address":"长宁区武夷路777号国际体操中心游泳馆内(近中山西路)"},{"poiid":"B2094654D565A5F94293","title":"上海国际体操中心游泳馆","lon":"121.41432","lat":"31.21341","category":"231","category_name":"游泳馆","address":"上海长宁区武夷路777号上海国际体操中心内(近中山西路)"},{"poiid":"B2094757D06FA1FB449A","title":"可当代艺术中心","lon":"121.4174","lat":"31.21177","category":"179","category_name":"音乐厅","address":"长宁区凯旋路613号B座(近延安西路)"},{"poiid":"B2094757DA6EABFB469A","title":"尚嘉中心","lon":"121.413","lat":"31.2115","category":"249","category_name":"购物服务","address":"上海市长宁区仙霞路99号"},{"poiid":"B2094655D36DA7F8469B","title":"中山公园地铁站","lon":"121.41805","lat":"31.21543","category":"36","category_name":"地铁站","address":"上海轨道交通,二号线,三号线,四号线,轨交中山公园站"},{"poiid":"B2094757D06FABFD429A","title":"美仑大酒店","lon":"121.41327064","lat":"31.214548775","category":"217","category_name":"旅馆招待所","address":"上海长宁区武夷路789号(近中山西路)"},{"poiid":"B2094757D06FA7FA4393","title":"华师大","lon":"121.413307586","lat":"31.2167411672","category":"52","category_name":"高等院校","address":"上海市中山北路"},{"poiid":"B2094757D06FA7F4409C","title":"上海国际体操中心羽毛球馆","lon":"121.41341304","lat":"31.213108572","category":"220","category_name":"运动场所","address":"上海长宁区武夷路777号(近中山西路)"},{"poiid":"B2094757D068A4FA469E","title":"绿洲大厦","lon":"121.412556","lat":"31.213812","category":"46","category_name":"楼宇","address":"石景山区阜石路与杨庄东街交叉口西北角"},{"poiid":"B2094757D06FA2FB419F","title":"家顺寿司","lon":"121.41635","lat":"31.21819","category":"269","category_name":"烧烤","address":"长宁区长宁路1018号龙之梦购物中心7楼(近凯旋路)"},{"poiid":"B2094750DA6FA5FE4292","title":"盅意 精粤菜","lon":"121.417175","lat":"31.216543","category":"247","category_name":"餐饮美食","address":"长宁区长宁路1018号龙之梦购物中心6楼黄中庭(近凯旋路)"},{"poiid":"B2094654D565A5F9439B","title":"乐购(长宁店)","lon":"121.41323","lat":"31.21296","category":"118","category_name":"超级市场","address":"长宁区武夷路777号国际体操中心游泳馆1楼(近中山西路)"},{"poiid":"B2094757D064A0F4449D","title":"斗香园 (龙之梦)","lon":"121.417174586","lat":"31.2164781621","category":"247","category_name":"餐饮美食","address":"上海龙之梦7楼"},{"poiid":"B2094757D06FA7FB489B","title":"天山茶城","lon":"121.41228","lat":"31.2127","category":"136","category_name":"烟酒专卖店","address":"长宁区中山西路518号(玉屏南路口)"},{"poiid":"B2094757D064A6FF4092","title":"堡德佳西班牙餐厅","lon":"121.4136","lat":"31.21384","category":"94","category_name":"西餐厅","address":"长宁区武夷路789号美仑大酒店1楼(近中山西路)"},{"poiid":"B2094750DA6AA2F94692","title":"龙之梦雅仕大厦","lon":"121.416572","lat":"31.214466","category":"252","category_name":"楼宇机构","address":"长宁区凯旋路369号"},{"poiid":"B2094757D064A4FB489F","title":"美仑大酒店皇冠厅","lon":"121.41416","lat":"31.2143","category":"72","category_name":"广东菜","address":"上海长宁区武夷路789号美仑大酒店5楼  "},{"poiid":"B2094757D16CA2FD429D","title":"上海新视界眼科医院","lon":"121.414183586","lat":"31.2162461575","category":"162","category_name":"医院","address":"长宁区汇川路18号(近中山公园)"},{"poiid":"B2094757DA69A1F94499","title":"虹桥上海城","lon":"121.414","lat":"31.2127","category":"119","category_name":"商场","address":"上海市长宁区遵义路100号"},{"poiid":"B2094757D66DA4FC4399","title":"3号线中山公园站","lon":"121.416488586","lat":"31.2164881623","category":"500","category_name":"未知分类","address":"上海市长宁区长宁路"},{"poiid":"B2094757D065A1FF429C","title":"长妇婴","lon":"121.417036286","lat":"31.2163124588","category":"249","category_name":"购物服务","address":"上海武夷路773号"},{"poiid":"B2094757D16FAAFE429A","title":"上海市长宁区妇幼保健医院9楼佳佳母婴天地！","lon":"121.414710586","lat":"31.2133331006","category":"162","category_name":"医院","address":"上海市长宁区武夷路773号9楼。"},{"poiid":"B2094757D06FAAFD4493","title":"可当代艺术中心小剧场","lon":"121.41721344","lat":"31.2120456696","category":"260","category_name":"其他","address":"上海凯旋路613号B座一层"},{"poiid":"B2094654D56BA0F5459E","title":"安泰大楼","lon":"121.413","lat":"31.2129","category":"46","category_name":"楼宇","address":"上海市长宁区遵义路107号"},{"poiid":"B2094757D069ABFA479D","title":"四海游龙(武夷路店)","lon":"121.41464","lat":"31.21254","category":"68","category_name":"快餐厅","address":"长宁区武夷路774号(近国际体操中心)"},{"poiid":"B2094757D069A5F5429D","title":"天山路","lon":"121.414787292","lat":"31.2130813599","category":"260","category_name":"其他","address":"上海长宁区天山路"},{"poiid":"B2094654D565A5F94192","title":"三泾南宅","lon":"121.41549","lat":"31.21356","category":"47","category_name":"住宅区","address":"武夷路727弄1-21号"},{"poiid":"B2094655D26BA2FC419A","title":"武夷路中山西路","lon":"121.41431","lat":"31.21268","category":"38","category_name":"公交车站","address":""},{"poiid":"B2094757D16DA7FE4398","title":"食之密","lon":"121.414020586","lat":"31.2164781621","category":"500","category_name":"未知分类","address":"上海龙之梦B1层"},{"poiid":"B2094757D069A0FC4893","title":"大桶大足浴(武夷店)","lon":"121.41617","lat":"31.2124","category":"149","category_name":"洗浴推拿场所","address":"长宁区武夷路716号(凯旋路口)"},{"poiid":"B2094757D16CA6F54299","title":"石泉路岚皋路公交站","lon":"121.415625586","lat":"31.2144411222","category":"38","category_name":"公交车站","address":"上海普陀区石泉路(近岚皋路)"},{"poiid":"B2094655D269AAFC4993","title":"美仑大酒店宴会厅","lon":"121.41389","lat":"31.21457","category":"247","category_name":"餐饮美食","address":"长宁区武夷路789号美仑大酒店内(近中山西路)查看地图"},{"poiid":"B2094757D068AAFC439E","title":"红宝石 武夷店 Ruby","lon":"121.416065054","lat":"31.213060793","category":"67","category_name":"甜品店","address":"长宁区武夷路725号(近凯旋路)"},{"poiid":"B2094753D569A7FF429F","title":"长宁妇幼保健院","lon":"121.416664","lat":"31.214485","category":"162","category_name":"医院","address":"上海市 武夷路773号"},{"poiid":"B2094757D16EA0FA4098","title":"鸡排超人(武夷店)","lon":"121.414794686","lat":"31.2127898899","category":"247","category_name":"餐饮美食","address":"长宁区武夷路433号(近定西路)"},{"poiid":"B2094757D16EA4FE409F","title":"三泾庙","lon":"121.414215","lat":"31.214636","category":"245","category_name":"教堂","address":"长宁区长宁路三泾北宅244号(安化路凯旋路)"},{"poiid":"B2094757D16BA3F94999","title":"家味螺蛳粉 (中山公园店)","lon":"121.416516586","lat":"31.2161011547","category":"68","category_name":"快餐厅","address":"长宁区凯旋路安化路口(三泾庙旁)"},{"poiid":"B2094757D068A0FE479C","title":"星之健身(长宁店)","lon":"121.4137","lat":"31.21239","category":"221","category_name":"健身中心","address":"长宁区武夷路777号国际体操中心游泳馆3楼(近中山西路)"},{"poiid":"B2094757D06AABFA4593","title":"佳佳母婴天地","lon":"121.414791","lat":"31.213082","category":"500","category_name":"未知分类","address":"上海武夷路773号长宁区妇幼保健院9楼"},{"poiid":"B2094757D068ABFA4798","title":"吉祥馄饨(武夷路店)","lon":"121.414","lat":"31.21214","category":"68","category_name":"快餐厅","address":"长宁区武夷路782号(近中山西路)"},{"poiid":"B209475CD66AA1FB4793","title":"桂满陇","lon":"121.415298","lat":"31.216562","category":"500","category_name":"未知分类","address":"上海市 长宁路1018号龙之梦购物中心8楼蓝中庭(近凯旋路)"},{"poiid":"B2094757D469A5F9489B","title":"赞歧田野 武夷路店","lon":"121.412915","lat":"31.2129","category":"95","category_name":"日本料理","address":"长宁区武夷路789号美仑大酒店1楼(近国际体操中心)"},{"poiid":"B2094752D66EA2F8469F","title":"浅水湾文化艺术中心","lon":"121.414348","lat":"31.213438","category":"500","category_name":"未知分类","address":"上海市宜昌路179号"},{"poiid":"B2094757D464AAFA4293","title":"顺龙侬记桂林米粉","lon":"121.414678054","lat":"31.212493793","category":"68","category_name":"快餐厅","address":"长宁区武夷路743号(近中山西路)"},{"poiid":"B2094757D16AA7F54492","title":"71路延安西路定西路","lon":"121.41385833","lat":"31.21335105","category":"38","category_name":"公交车站","address":"上海延安西路定西路"},{"poiid":"B2094654DB64A6F9499E","title":"汉庭快捷(中山西路店)","lon":"121.41239","lat":"31.2138","category":"216","category_name":"经济型连锁酒店","address":"上海闵行区吴中路638号(近虹许路)  "},{"poiid":"B2094655D36CA1F5489A","title":"凯旋路武夷路","lon":"121.41742","lat":"31.21366","category":"38","category_name":"公交车站","address":"上海长宁区"},{"poiid":"B2094757D06AA3FC489D","title":"武夷花园","lon":"121.41572","lat":"31.211561","category":"47","category_name":"住宅区","address":"上海市长宁区武夷路718号"},{"poiid":"B2094654D56BA0FA439F","title":"紫云大厦","lon":"121.416854","lat":"31.212368","category":"46","category_name":"楼宇","address":"上海市中山西路800弄55号"}]