[{"poiid":"B2094654D56BA4FA439C","title":"华东师范大学","lon":"121.40639","lat":"31.22835","category":"671","category_name":"高校中心点","address":"上海市普陀区中山北路3663号"},{"poiid":"B2094655D36CA7FD419F","title":"华东师大","lon":"121.41048","lat":"31.22808","category":"38","category_name":"公交车站","address":""},{"poiid":"B2094757D06EAAF54199","title":"华东师范大学文史楼","lon":"121.40858247","lat":"31.228773742","category":"253","category_name":"校园生活","address":"普陀区中山北路3663号"},{"poiid":"B2094655D26FA2FB459E","title":"华东师范大学(东门)","lon":"121.40985","lat":"31.22805","category":"52","category_name":"高等院校","address":"普陀区中山北路3663号"},{"poiid":"B2094757D06FA3F9489B","title":"华师大田家炳教书院","lon":"121.40678233","lat":"31.230869543","category":"253","category_name":"校园生活","address":"上海中山北路3663号(近华师大边门)"},{"poiid":"B2094757D06FA1FF409A","title":"华东师范大学文附楼","lon":"121.40841082","lat":"31.226570761","category":"253","category_name":"校园生活","address":"上海中山北路3663号/金沙江路145号/枣阳路460号"},{"poiid":"B2094655D26CAAFD409F","title":"华东师大体育馆(东门)","lon":"121.40975","lat":"31.22749","category":"224","category_name":"综合体育馆","address":""},{"poiid":"B2094757D06FA1FA409E","title":"中山北路金沙江路路口","lon":"121.409865","lat":"31.230699","category":"260","category_name":"其他","address":"上海中山北路金沙江路路口"},{"poiid":"B2094655D36DA7F8429A","title":"中山北路华东师大","lon":"121.41023","lat":"31.22893","category":"38","category_name":"公交车站","address":""},{"poiid":"B2094655D26DAAF44999","title":"华东师范大学逸夫楼","lon":"121.40685","lat":"31.22623","category":"52","category_name":"高等院校","address":"上海闵行区中山北路3663号华东师范大学中山北路校区"},{"poiid":"B2094757D168A0FA489A","title":"丽娃河畔","lon":"121.40530045","lat":"31.228856529","category":"500","category_name":"未知分类","address":"上海中山北路华师大内"},{"poiid":"B2094757D06AA6FA4993","title":"一米香潮汕砂锅粥（凯旋店）","lon":"121.411997586","lat":"31.2286764006","category":"72","category_name":"广东菜","address":"长宁区凯旋北路1600号"},{"poiid":"B2094757D06FA4FD479B","title":"伸大厦","lon":"121.41031458","lat":"31.229270412","category":"46","category_name":"楼宇","address":"上海中山北路3553号"},{"poiid":"B2094655D26DA3F5479F","title":"华东师范大学图书馆","lon":"121.40673","lat":"31.22815","category":"181","category_name":"图书馆","address":"普陀区中山北路3663号华东师范大学内"},{"poiid":"B2094757D068AAFF439B","title":"华师大后门","lon":"121.410097","lat":"31.230933","category":"253","category_name":"校园生活","address":"上海金沙江路"},{"poiid":"B2094655D36CA0FE4792","title":"金沙江路","lon":"121.40897","lat":"31.2314","category":"38","category_name":"公交车站","address":""},{"poiid":"B2094757D06FA4F4419D","title":"华东师范大学 大学生活动中心","lon":"121.41018676","lat":"31.228923797","category":"249","category_name":"购物服务","address":"上海闵行区中山北路3663号华东师范大学中山北路校区"},{"poiid":"B2094654DB6BA7FF409E","title":"克莉丝汀 金沙江路旗舰店","lon":"121.409886054","lat":"31.231223793","category":"112","category_name":"糕饼店","address":"普陀区金沙江路33号(近中山北路)"},{"poiid":"B2094757D069A7FC459F","title":"村夫烤鱼龙虾王(华师大店)","lon":"121.41084","lat":"31.2279","category":"68","category_name":"快餐厅","address":"普陀区中山北路3700号"},{"poiid":"B2094654DB69A4FD489D","title":"锦江之星(华师大店)","lon":"121.41065","lat":"31.23022","category":"216","category_name":"经济型连锁酒店","address":"上海普陀区中山北路3500号5幢(近宁夏路)"},{"poiid":"B2094752D264A0F9449E","title":"鹿港小镇","lon":"121.409491","lat":"31.226715","category":"247","category_name":"餐饮美食","address":"龙之梦七楼黄中庭"},{"poiid":"B2094757D06AA3FA4992","title":"华东师范大学大礼堂","lon":"121.41011553","lat":"31.22816887","category":"253","category_name":"校园生活","address":"上海华东师范大学大礼堂"},{"poiid":"B2094757D065A4FC439F","title":"薇拉之谷","lon":"121.40611","lat":"31.23033","category":"47","category_name":"住宅区","address":"普陀区中山北路3676号(近金沙江路)"},{"poiid":"B209475CD564AAF5479B","title":"月星环球港","lon":"121.41011","lat":"31.229398","category":"500","category_name":"未知分类","address":"上海市 中山北路3567号"},{"poiid":"B2094757D06AA4FE409A","title":"胖阿姨朝鲜冷面","lon":"121.41027358","lat":"31.229402414","category":"247","category_name":"餐饮美食","address":"上海市普陀区中山北路3636号"},{"poiid":"B2094757D16CABFE4398","title":"华东师范大学 科学会堂","lon":"121.406528586","lat":"31.2266953619","category":"500","category_name":"未知分类","address":"上海市普陀区枣阳路"},{"poiid":"B2094654D56BA4FA4392","title":"华东师范大学体育馆(东门)","lon":"121.40983","lat":"31.22804","category":"224","category_name":"综合体育馆","address":"中山北路3663"},{"poiid":"B2094750D76DABFC489A","title":"家味螺蛳粉(华师大店)","lon":"121.411","lat":"31.2273","category":"68","category_name":"快餐厅","address":"普陀区中山北路3736号(华师大对面)"},{"poiid":"B2094757D46BA4FF4299","title":"胖阿姨正宗朝鲜冷面 中山北路店","lon":"121.4101553","lat":"31.2280922","category":"96","category_name":"韩国料理","address":"普陀区中山北路3636-6号(近华师大正门)"},{"poiid":"B2094757D068ABF5439E","title":"九香牛蛙店(凯旋北路店)","lon":"121.41244","lat":"31.22907","category":"71","category_name":"四川菜","address":"普陀区凯旋北路1600号(清水湾对面)"},{"poiid":"B2094655D26DAAF9479C","title":"华东师范大学出版社","lon":"121.40782","lat":"31.2261","category":"63","category_name":"出版社","address":"上海普陀区中山北路3663号华东师范大学中山北路校区"},{"poiid":"B2094654DB6BA7FF4093","title":"华东师大一村(东门)","lon":"121.41061","lat":"31.22621","category":"47","category_name":"住宅区","address":"中山北路3671弄"},{"poiid":"B2094757D06BABFF449A","title":"小厨房碳烤鱼","lon":"121.41213","lat":"31.22688","category":"71","category_name":"四川菜","address":"普陀区凯旋北路1764号(盘湾里对面)"},{"poiid":"B2094757D468A0F94793","title":"重庆鸡公煲 华师大店","lon":"121.410546054","lat":"31.226495793","category":"86","category_name":"火锅店","address":"普陀区中山北路2139弄秋月枫舍步行街68号(近新粤洲大酒店)"},{"poiid":"B2094654DB69ABF5419E","title":"味之都 普陀店 Wish Doing","lon":"121.410062054","lat":"31.227156793","category":"68","category_name":"快餐厅","address":"普陀区中山北路3667号(华师大正门旁)"},{"poiid":"B2094757D069A3FE4899","title":"好又多(华师大店)","lon":"121.409785","lat":"31.227427","category":"118","category_name":"超级市场","address":"上海普陀区中山北路3667号(近金沙江路)"},{"poiid":"B2094757D068A5FD409D","title":"德笼馆(华师大店)","lon":"121.41094207","lat":"31.227296829","category":"68","category_name":"快餐厅","address":"普陀区中山北路3736号(华师大对面)"},{"poiid":"B2094655D26EA3FD499D","title":"牛家拉面","lon":"121.409642054","lat":"31.228799793","category":"95","category_name":"日本料理","address":"普陀区中山北路3662号(近金沙江路)"},{"poiid":"B2094757D16AA2FB499E","title":"华师大文史楼215","lon":"121.40894058","lat":"31.228516397","category":"500","category_name":"未知分类","address":"上海中山北路3363号"},{"poiid":"B2094753DA68A2F8429E","title":"环球港宝珠奶酪","lon":"121.410911","lat":"31.231159","category":"500","category_name":"未知分类","address":"上海市 上海市普陀区中山北路3222"},{"poiid":"B2094757D16CA6F94992","title":"华师大mba教育中心","lon":"121.40561468","lat":"31.227886585","category":"500","category_name":"未知分类","address":"上海中山北路3663号"},{"poiid":"B2094750D76FA5FB459D","title":"品羴居","lon":"121.412","lat":"31.2282","category":"86","category_name":"火锅店","address":"普陀区凯旋北路1616号(近清水湾大酒店)"},{"poiid":"B2094655D36CA0FE4693","title":"金沙江路中山北路","lon":"121.4086","lat":"31.23148","category":"38","category_name":"公交车站","address":""},{"poiid":"B2094753D46AA3FE409B","title":"环球港","lon":"121.412246","lat":"31.228364","category":"500","category_name":"未知分类","address":"上海市 普陀区金沙江路地铁站6号口"},{"poiid":"B2094655D26AA0F54999","title":"华东师范大学体育馆排球场","lon":"121.41013","lat":"31.2272","category":"247","category_name":"餐饮美食","address":"普陀区中山北路3667号"},{"poiid":"B2094757D168AAFE409F","title":"华东师范大学公共管理学院","lon":"121.40697991","lat":"31.226781703","category":"500","category_name":"未知分类","address":"上海市普陀区金沙江路"},{"poiid":"B209475DD665A5FF4498","title":"玛加朵520","lon":"121.410423","lat":"31.22929","category":"247","category_name":"餐饮美食","address":"上海市 上海市普陀区中山北路3612号"},{"poiid":"B2094655D26CAAFE4993","title":"纪游子妯娌老鸭粉丝馆华师大店","lon":"121.41078","lat":"31.22777","category":"68","category_name":"快餐厅","address":"普陀区中山北路3663号华东师范大学内(近金沙江路)"},{"poiid":"B2094757D568ABF9429F","title":"冠龙家园","lon":"121.408326","lat":"31.228408","category":"47","category_name":"住宅区","address":"上海市普陀区枣阳路891弄"},{"poiid":"B2094757D568A0FF4199","title":"华师大香酥鸡摊","lon":"121.4097969","lat":"31.22893694","category":"247","category_name":"餐饮美食","address":"普陀区中山北路3621号华师大后门(近长风公园二号门)"},{"poiid":"B2094654D56BA4FA439C","title":"华东师范大学","lon":"121.40639","lat":"31.22835","category":"671","category_name":"高校中心点","address":"上海市普陀区中山北路3663号"},{"poiid":"B2094655D36CA7FD419F","title":"华东师大","lon":"121.41048","lat":"31.22808","category":"38","category_name":"公交车站","address":""},{"poiid":"B2094757D06EAAF54199","title":"华东师范大学文史楼","lon":"121.40858247","lat":"31.228773742","category":"253","category_name":"校园生活","address":"普陀区中山北路3663号"},{"poiid":"B2094655D26FA2FB459E","title":"华东师范大学(东门)","lon":"121.40985","lat":"31.22805","category":"52","category_name":"高等院校","address":"普陀区中山北路3663号"},{"poiid":"B2094757D06FA3F9489B","title":"华师大田家炳教书院","lon":"121.40678233","lat":"31.230869543","category":"253","category_name":"校园生活","address":"上海中山北路3663号(近华师大边门)"},{"poiid":"B2094757D06FA1FF409A","title":"华东师范大学文附楼","lon":"121.40841082","lat":"31.226570761","category":"253","category_name":"校园生活","address":"上海中山北路3663号/金沙江路145号/枣阳路460号"},{"poiid":"B2094655D26CAAFD409F","title":"华东师大体育馆(东门)","lon":"121.40975","lat":"31.22749","category":"224","category_name":"综合体育馆","address":""},{"poiid":"B2094757D06FA1FA409E","title":"中山北路金沙江路路口","lon":"121.409865","lat":"31.230699","category":"260","category_name":"其他","address":"上海中山北路金沙江路路口"},{"poiid":"B2094655D36DA7F8429A","title":"中山北路华东师大","lon":"121.41023","lat":"31.22893","category":"38","category_name":"公交车站","address":""},{"poiid":"B2094655D26DAAF44999","title":"华东师范大学逸夫楼","lon":"121.40685","lat":"31.22623","category":"52","category_name":"高等院校","address":"上海闵行区中山北路3663号华东师范大学中山北路校区"},{"poiid":"B2094757D168A0FA489A","title":"丽娃河畔","lon":"121.40530045","lat":"31.228856529","category":"500","category_name":"未知分类","address":"上海中山北路华师大内"},{"poiid":"B2094757D06AA6FA4993","title":"一米香潮汕砂锅粥（凯旋店）","lon":"121.411997586","lat":"31.2286764006","category":"72","category_name":"广东菜","address":"长宁区凯旋北路1600号"},{"poiid":"B2094757D06FA4FD479B","title":"伸大厦","lon":"121.41031458","lat":"31.229270412","category":"46","category_name":"楼宇","address":"上海中山北路3553号"},{"poiid":"B2094655D26DA3F5479F","title":"华东师范大学图书馆","lon":"121.40673","lat":"31.22815","category":"181","category_name":"图书馆","address":"普陀区中山北路3663号华东师范大学内"},{"poiid":"B2094757D068AAFF439B","title":"华师大后门","lon":"121.410097","lat":"31.230933","category":"253","category_name":"校园生活","address":"上海金沙江路"},{"poiid":"B2094655D36CA0FE4792","title":"金沙江路","lon":"121.40897","lat":"31.2314","category":"38","category_name":"公交车站","address":""},{"poiid":"B2094757D06FA4F4419D","title":"华东师范大学 大学生活动中心","lon":"121.41018676","lat":"31.228923797","category":"249","category_name":"购物服务","address":"上海闵行区中山北路3663号华东师范大学中山北路校区"},{"poiid":"B2094654DB6BA7FF409E","title":"克莉丝汀 金沙江路旗舰店","lon":"121.409886054","lat":"31.231223793","category":"112","category_name":"糕饼店","address":"普陀区金沙江路33号(近中山北路)"},{"poiid":"B2094757D069A7FC459F","title":"村夫烤鱼龙虾王(华师大店)","lon":"121.41084","lat":"31.2279","category":"68","category_name":"快餐厅","address":"普陀区中山北路3700号"},{"poiid":"B2094654DB69A4FD489D","title":"锦江之星(华师大店)","lon":"121.41065","lat":"31.23022","category":"216","category_name":"经济型连锁酒店","address":"上海普陀区中山北路3500号5幢(近宁夏路)"},{"poiid":"B2094752D264A0F9449E","title":"鹿港小镇","lon":"121.409491","lat":"31.226715","category":"247","category_name":"餐饮美食","address":"龙之梦七楼黄中庭"},{"poiid":"B2094757D06AA3FA4992","title":"华东师范大学大礼堂","lon":"121.41011553","lat":"31.22816887","category":"253","category_name":"校园生活","address":"上海华东师范大学大礼堂"},{"poiid":"B2094757D065A4FC439F","title":"薇拉之谷","lon":"121.40611","lat":"31.23033","category":"47","category_name":"住宅区","address":"普陀区中山北路3676号(近金沙江路)"},{"poiid":"B209475CD564AAF5479B","title":"月星环球港","lon":"121.41011","lat":"31.229398","category":"500","category_name":"未知分类","address":"上海市 中山北路3567号"},{"poiid":"B2094757D06AA4FE409A","title":"胖阿姨朝鲜冷面","lon":"121.41027358","lat":"31.229402414","category":"247","category_name":"餐饮美食","address":"上海市普陀区中山北路3636号"},{"poiid":"B2094757D16CABFE4398","title":"华东师范大学 科学会堂","lon":"121.406528586","lat":"31.2266953619","category":"500","category_name":"未知分类","address":"上海市普陀区枣阳路"},{"poiid":"B2094654D56BA4FA4392","title":"华东师范大学体育馆(东门)","lon":"121.40983","lat":"31.22804","category":"224","category_name":"综合体育馆","address":"中山北路3663"},{"poiid":"B2094750D76DABFC489A","title":"家味螺蛳粉(华师大店)","lon":"121.411","lat":"31.2273","category":"68","category_name":"快餐厅","address":"普陀区中山北路3736号(华师大对面)"},{"poiid":"B2094757D46BA4FF4299","title":"胖阿姨正宗朝鲜冷面 中山北路店","lon":"121.4101553","lat":"31.2280922","category":"96","category_name":"韩国料理","address":"普陀区中山北路3636-6号(近华师大正门)"},{"poiid":"B2094757D068ABF5439E","title":"九香牛蛙店(凯旋北路店)","lon":"121.41244","lat":"31.22907","category":"71","category_name":"四川菜","address":"普陀区凯旋北路1600号(清水湾对面)"},{"poiid":"B2094655D26DAAF9479C","title":"华东师范大学出版社","lon":"121.40782","lat":"31.2261","category":"63","category_name":"出版社","address":"上海普陀区中山北路3663号华东师范大学中山北路校区"},{"poiid":"B2094654DB6BA7FF4093","title":"华东师大一村(东门)","lon":"121.41061","lat":"31.22621","category":"47","category_name":"住宅区","address":"中山北路3671弄"},{"poiid":"B2094757D06BABFF449A","title":"小厨房碳烤鱼","lon":"121.41213","lat":"31.22688","category":"71","category_name":"四川菜","address":"普陀区凯旋北路1764号(盘湾里对面)"},{"poiid":"B2094757D468A0F94793","title":"重庆鸡公煲 华师大店","lon":"121.410546054","lat":"31.226495793","category":"86","category_name":"火锅店","address":"普陀区中山北路2139弄秋月枫舍步行街68号(近新粤洲大酒店)"},{"poiid":"B2094654DB69ABF5419E","title":"味之都 普陀店 Wish Doing","lon":"121.410062054","lat":"31.227156793","category":"68","category_name":"快餐厅","address":"普陀区中山北路3667号(华师大正门旁)"},{"poiid":"B2094757D069A3FE4899","title":"好又多(华师大店)","lon":"121.409785","lat":"31.227427","category":"118","category_name":"超级市场","address":"上海普陀区中山北路3667号(近金沙江路)"},{"poiid":"B2094757D068A5FD409D","title":"德笼馆(华师大店)","lon":"121.41094207","lat":"31.227296829","category":"68","category_name":"快餐厅","address":"普陀区中山北路3736号(华师大对面)"},{"poiid":"B2094655D26EA3FD499D","title":"牛家拉面","lon":"121.409642054","lat":"31.228799793","category":"95","category_name":"日本料理","address":"普陀区中山北路3662号(近金沙江路)"},{"poiid":"B2094757D16AA2FB499E","title":"华师大文史楼215","lon":"121.40894058","lat":"31.228516397","category":"500","category_name":"未知分类","address":"上海中山北路3363号"},{"poiid":"B2094753DA68A2F8429E","title":"环球港宝珠奶酪","lon":"121.410911","lat":"31.231159","category":"500","category_name":"未知分类","address":"上海市 上海市普陀区中山北路3222"},{"poiid":"B2094757D16CA6F94992","title":"华师大mba教育中心","lon":"121.40561468","lat":"31.227886585","category":"500","category_name":"未知分类","address":"上海中山北路3663号"},{"poiid":"B2094750D76FA5FB459D","title":"品羴居","lon":"121.412","lat":"31.2282","category":"86","category_name":"火锅店","address":"普陀区凯旋北路1616号(近清水湾大酒店)"},{"poiid":"B2094655D36CA0FE4693","title":"金沙江路中山北路","lon":"121.4086","lat":"31.23148","category":"38","category_name":"公交车站","address":""},{"poiid":"B2094753D46AA3FE409B","title":"环球港","lon":"121.412246","lat":"31.228364","category":"500","category_name":"未知分类","address":"上海市 普陀区金沙江路地铁站6号口"},{"poiid":"B2094655D26AA0F54999","title":"华东师范大学体育馆排球场","lon":"121.41013","lat":"31.2272","category":"247","category_name":"餐饮美食","address":"普陀区中山北路3667号"},{"poiid":"B2094757D168AAFE409F","title":"华东师范大学公共管理学院","lon":"121.40697991","lat":"31.226781703","category":"500","category_name":"未知分类","address":"上海市普陀区金沙江路"},{"poiid":"B209475DD665A5FF4498","title":"玛加朵520","lon":"121.410423","lat":"31.22929","category":"247","category_name":"餐饮美食","address":"上海市 上海市普陀区中山北路3612号"},{"poiid":"B2094655D26CAAFE4993","title":"纪游子妯娌老鸭粉丝馆华师大店","lon":"121.41078","lat":"31.22777","category":"68","category_name":"快餐厅","address":"普陀区中山北路3663号华东师范大学内(近金沙江路)"},{"poiid":"B2094757D568ABF9429F","title":"冠龙家园","lon":"121.408326","lat":"31.228408","category":"47","category_name":"住宅区","address":"上海市普陀区枣阳路891弄"},{"poiid":"B2094757D568A0FF4199","title":"华师大香酥鸡摊","lon":"121.4097969","lat":"31.22893694","category":"247","category_name":"餐饮美食","address":"普陀区中山北路3621号华师大后门(近长风公园二号门)"},{"poiid":"B2094654D56BA4FA439C","title":"华东师范大学","lon":"121.40639","lat":"31.22835","category":"671","category_name":"高校中心点","address":"上海市普陀区中山北路3663号"},{"poiid":"B2094655D36CA7FD419F","title":"华东师大","lon":"121.41048","lat":"31.22808","category":"38","category_name":"公交车站","address":""},{"poiid":"B2094757D06EAAF54199","title":"华东师范大学文史楼","lon":"121.40858247","lat":"31.228773742","category":"253","category_name":"校园生活","address":"普陀区中山北路3663号"},{"poiid":"B2094655D26FA2FB459E","title":"华东师范大学(东门)","lon":"121.40985","lat":"31.22805","category":"52","category_name":"高等院校","address":"普陀区中山北路3663号"},{"poiid":"B2094757D06FA3F9489B","title":"华师大田家炳教书院","lon":"121.40678233","lat":"31.230869543","category":"253","category_name":"校园生活","address":"上海中山北路3663号(近华师大边门)"},{"poiid":"B2094757D06FA1FF409A","title":"华东师范大学文附楼","lon":"121.40841082","lat":"31.226570761","category":"253","category_name":"校园生活","address":"上海中山北路3663号/金沙江路145号/枣阳路460号"},{"poiid":"B2094655D26CAAFD409F","title":"华东师大体育馆(东门)","lon":"121.40975","lat":"31.22749","category":"224","category_name":"综合体育馆","address":""},{"poiid":"B2094757D06FA1FA409E","title":"中山北路金沙江路路口","lon":"121.409865","lat":"31.230699","category":"260","category_name":"其他","address":"上海中山北路金沙江路路口"},{"poiid":"B2094655D36DA7F8429A","title":"中山北路华东师大","lon":"121.41023","lat":"31.22893","category":"38","category_name":"公交车站","address":""},{"poiid":"B2094655D26DAAF44999","title":"华东师范大学逸夫楼","lon":"121.40685","lat":"31.22623","category":"52","category_name":"高等院校","address":"上海闵行区中山北路3663号华东师范大学中山北路校区"},{"poiid":"B2094757D168A0FA489A","title":"丽娃河畔","lon":"121.40530045","lat":"31.228856529","category":"500","category_name":"未知分类","address":"上海中山北路华师大内"},{"poiid":"B2094757D06AA6FA4993","title":"一米香潮汕砂锅粥（凯旋店）","lon":"121.411997586","lat":"31.2286764006","category":"72","category_name":"广东菜","address":"长宁区凯旋北路1600号"},{"poiid":"B2094757D06FA4FD479B","title":"伸大厦","lon":"121.41031458","lat":"31.229270412","category":"46","category_name":"楼宇","address":"上海中山北路3553号"},{"poiid":"B2094655D26DA3F5479F","title":"华东师范大学图书馆","lon":"121.40673","lat":"31.22815","category":"181","category_name":"图书馆","address":"普陀区中山北路3663号华东师范大学内"},{"poiid":"B2094757D068AAFF439B","title":"华师大后门","lon":"121.410097","lat":"31.230933","category":"253","category_name":"校园生活","address":"上海金沙江路"},{"poiid":"B2094655D36CA0FE4792","title":"金沙江路","lon":"121.40897","lat":"31.2314","category":"38","category_name":"公交车站","address":""},{"poiid":"B2094757D06FA4F4419D","title":"华东师范大学 大学生活动中心","lon":"121.41018676","lat":"31.228923797","category":"249","category_name":"购物服务","address":"上海闵行区中山北路3663号华东师范大学中山北路校区"},{"poiid":"B2094654DB6BA7FF409E","title":"克莉丝汀 金沙江路旗舰店","lon":"121.409886054","lat":"31.231223793","category":"112","category_name":"糕饼店","address":"普陀区金沙江路33号(近中山北路)"},{"poiid":"B2094757D069A7FC459F","title":"村夫烤鱼龙虾王(华师大店)","lon":"121.41084","lat":"31.2279","category":"68","category_name":"快餐厅","address":"普陀区中山北路3700号"},{"poiid":"B2094654DB69A4FD489D","title":"锦江之星(华师大店)","lon":"121.41065","lat":"31.23022","category":"216","category_name":"经济型连锁酒店","address":"上海普陀区中山北路3500号5幢(近宁夏路)"},{"poiid":"B2094752D264A0F9449E","title":"鹿港小镇","lon":"121.409491","lat":"31.226715","category":"247","category_name":"餐饮美食","address":"龙之梦七楼黄中庭"},{"poiid":"B2094757D06AA3FA4992","title":"华东师范大学大礼堂","lon":"121.41011553","lat":"31.22816887","category":"253","category_name":"校园生活","address":"上海华东师范大学大礼堂"},{"poiid":"B2094757D065A4FC439F","title":"薇拉之谷","lon":"121.40611","lat":"31.23033","category":"47","category_name":"住宅区","address":"普陀区中山北路3676号(近金沙江路)"},{"poiid":"B209475CD564AAF5479B","title":"月星环球港","lon":"121.41011","lat":"31.229398","category":"500","category_name":"未知分类","address":"上海市 中山北路3567号"},{"poiid":"B2094757D06AA4FE409A","title":"胖阿姨朝鲜冷面","lon":"121.41027358","lat":"31.229402414","category":"247","category_name":"餐饮美食","address":"上海市普陀区中山北路3636号"},{"poiid":"B2094757D16CABFE4398","title":"华东师范大学 科学会堂","lon":"121.406528586","lat":"31.2266953619","category":"500","category_name":"未知分类","address":"上海市普陀区枣阳路"},{"poiid":"B2094654D56BA4FA4392","title":"华东师范大学体育馆(东门)","lon":"121.40983","lat":"31.22804","category":"224","category_name":"综合体育馆","address":"中山北路3663"},{"poiid":"B2094750D76DABFC489A","title":"家味螺蛳粉(华师大店)","lon":"121.411","lat":"31.2273","category":"68","category_name":"快餐厅","address":"普陀区中山北路3736号(华师大对面)"},{"poiid":"B2094757D46BA4FF4299","title":"胖阿姨正宗朝鲜冷面 中山北路店","lon":"121.4101553","lat":"31.2280922","category":"96","category_name":"韩国料理","address":"普陀区中山北路3636-6号(近华师大正门)"},{"poiid":"B2094757D068ABF5439E","title":"九香牛蛙店(凯旋北路店)","lon":"121.41244","lat":"31.22907","category":"71","category_name":"四川菜","address":"普陀区凯旋北路1600号(清水湾对面)"},{"poiid":"B2094655D26DAAF9479C","title":"华东师范大学出版社","lon":"121.40782","lat":"31.2261","category":"63","category_name":"出版社","address":"上海普陀区中山北路3663号华东师范大学中山北路校区"},{"poiid":"B2094654DB6BA7FF4093","title":"华东师大一村(东门)","lon":"121.41061","lat":"31.22621","category":"47","category_name":"住宅区","address":"中山北路3671弄"},{"poiid":"B2094757D06BABFF449A","title":"小厨房碳烤鱼","lon":"121.41213","lat":"31.22688","category":"71","category_name":"四川菜","address":"普陀区凯旋北路1764号(盘湾里对面)"},{"poiid":"B2094757D468A0F94793","title":"重庆鸡公煲 华师大店","lon":"121.410546054","lat":"31.226495793","category":"86","category_name":"火锅店","address":"普陀区中山北路2139弄秋月枫舍步行街68号(近新粤洲大酒店)"},{"poiid":"B2094654DB69ABF5419E","title":"味之都 普陀店 Wish Doing","lon":"121.410062054","lat":"31.227156793","category":"68","category_name":"快餐厅","address":"普陀区中山北路3667号(华师大正门旁)"},{"poiid":"B2094757D069A3FE4899","title":"好又多(华师大店)","lon":"121.409785","lat":"31.227427","category":"118","category_name":"超级市场","address":"上海普陀区中山北路3667号(近金沙江路)"},{"poiid":"B2094757D068A5FD409D","title":"德笼馆(华师大店)","lon":"121.41094207","lat":"31.227296829","category":"68","category_name":"快餐厅","address":"普陀区中山北路3736号(华师大对面)"},{"poiid":"B2094655D26EA3FD499D","title":"牛家拉面","lon":"121.409642054","lat":"31.228799793","category":"95","category_name":"日本料理","address":"普陀区中山北路3662号(近金沙江路)"},{"poiid":"B2094757D16AA2FB499E","title":"华师大文史楼215","lon":"121.40894058","lat":"31.228516397","category":"500","category_name":"未知分类","address":"上海中山北路3363号"},{"poiid":"B2094753DA68A2F8429E","title":"环球港宝珠奶酪","lon":"121.410911","lat":"31.231159","category":"500","category_name":"未知分类","address":"上海市 上海市普陀区中山北路3222"},{"poiid":"B2094757D16CA6F94992","title":"华师大mba教育中心","lon":"121.40561468","lat":"31.227886585","category":"500","category_name":"未知分类","address":"上海中山北路3663号"},{"poiid":"B2094750D76FA5FB459D","title":"品羴居","lon":"121.412","lat":"31.2282","category":"86","category_name":"火锅店","address":"普陀区凯旋北路1616号(近清水湾大酒店)"},{"poiid":"B2094655D36CA0FE4693","title":"金沙江路中山北路","lon":"121.4086","lat":"31.23148","category":"38","category_name":"公交车站","address":""},{"poiid":"B2094753D46AA3FE409B","title":"环球港","lon":"121.412246","lat":"31.228364","category":"500","category_name":"未知分类","address":"上海市 普陀区金沙江路地铁站6号口"},{"poiid":"B2094655D26AA0F54999","title":"华东师范大学体育馆排球场","lon":"121.41013","lat":"31.2272","category":"247","category_name":"餐饮美食","address":"普陀区中山北路3667号"},{"poiid":"B2094757D168AAFE409F","title":"华东师范大学公共管理学院","lon":"121.40697991","lat":"31.226781703","category":"500","category_name":"未知分类","address":"上海市普陀区金沙江路"},{"poiid":"B209475DD665A5FF4498","title":"玛加朵520","lon":"121.410423","lat":"31.22929","category":"247","category_name":"餐饮美食","address":"上海市 上海市普陀区中山北路3612号"},{"poiid":"B2094655D26CAAFE4993","title":"纪游子妯娌老鸭粉丝馆华师大店","lon":"121.41078","lat":"31.22777","category":"68","category_name":"快餐厅","address":"普陀区中山北路3663号华东师范大学内(近金沙江路)"},{"poiid":"B2094757D568ABF9429F","title":"冠龙家园","lon":"121.408326","lat":"31.228408","category":"47","category_name":"住宅区","address":"上海市普陀区枣阳路891弄"},{"poiid":"B2094757D568A0FF4199","title":"华师大香酥鸡摊","lon":"121.4097969","lat":"31.22893694","category":"247","category_name":"餐饮美食","address":"普陀区中山北路3621号华师大后门(近长风公园二号门)"},{"poiid":"B2094654D56BA4FA439C","title":"华东师范大学","lon":"121.40639","lat":"31.22835","category":"671","category_name":"高校中心点","address":"上海市普陀区中山北路3663号"},{"poiid":"B2094655D36CA7FD419F","title":"华东师大","lon":"121.41048","lat":"31.22808","category":"38","category_name":"公交车站","address":""},{"poiid":"B2094757D06EAAF54199","title":"华东师范大学文史楼","lon":"121.40858247","lat":"31.228773742","category":"253","category_name":"校园生活","address":"普陀区中山北路3663号"},{"poiid":"B2094655D26FA2FB459E","title":"华东师范大学(东门)","lon":"121.40985","lat":"31.22805","category":"52","category_name":"高等院校","address":"普陀区中山北路3663号"},{"poiid":"B2094757D06FA3F9489B","title":"华师大田家炳教书院","lon":"121.40678233","lat":"31.230869543","category":"253","category_name":"校园生活","address":"上海中山北路3663号(近华师大边门)"},{"poiid":"B2094757D06FA1FF409A","title":"华东师范大学文附楼","lon":"121.40841082","lat":"31.226570761","category":"253","category_name":"校园生活","address":"上海中山北路3663号/金沙江路145号/枣阳路460号"},{"poiid":"B2094655D26CAAFD409F","title":"华东师大体育馆(东门)","lon":"121.40975","lat":"31.22749","category":"224","category_name":"综合体育馆","address":""},{"poiid":"B2094757D06FA1FA409E","title":"中山北路金沙江路路口","lon":"121.409865","lat":"31.230699","category":"260","category_name":"其他","address":"上海中山北路金沙江路路口"},{"poiid":"B2094655D36DA7F8429A","title":"中山北路华东师大","lon":"121.41023","lat":"31.22893","category":"38","category_name":"公交车站","address":""},{"poiid":"B2094655D26DAAF44999","title":"华东师范大学逸夫楼","lon":"121.40685","lat":"31.22623","category":"52","category_name":"高等院校","address":"上海闵行区中山北路3663号华东师范大学中山北路校区"},{"poiid":"B2094757D168A0FA489A","title":"丽娃河畔","lon":"121.40530045","lat":"31.228856529","category":"500","category_name":"未知分类","address":"上海中山北路华师大内"},{"poiid":"B2094757D06AA6FA4993","title":"一米香潮汕砂锅粥（凯旋店）","lon":"121.411997586","lat":"31.2286764006","category":"72","category_name":"广东菜","address":"长宁区凯旋北路1600号"},{"poiid":"B2094757D06FA4FD479B","title":"伸大厦","lon":"121.41031458","lat":"31.229270412","category":"46","category_name":"楼宇","address":"上海中山北路3553号"},{"poiid":"B2094655D26DA3F5479F","title":"华东师范大学图书馆","lon":"121.40673","lat":"31.22815","category":"181","category_name":"图书馆","address":"普陀区中山北路3663号华东师范大学内"},{"poiid":"B2094757D068AAFF439B","title":"华师大后门","lon":"121.410097","lat":"31.230933","category":"253","category_name":"校园生活","address":"上海金沙江路"},{"poiid":"B2094655D36CA0FE4792","title":"金沙江路","lon":"121.40897","lat":"31.2314","category":"38","category_name":"公交车站","address":""},{"poiid":"B2094757D06FA4F4419D","title":"华东师范大学 大学生活动中心","lon":"121.41018676","lat":"31.228923797","category":"249","category_name":"购物服务","address":"上海闵行区中山北路3663号华东师范大学中山北路校区"},{"poiid":"B2094654DB6BA7FF409E","title":"克莉丝汀 金沙江路旗舰店","lon":"121.409886054","lat":"31.231223793","category":"112","category_name":"糕饼店","address":"普陀区金沙江路33号(近中山北路)"},{"poiid":"B2094757D069A7FC459F","title":"村夫烤鱼龙虾王(华师大店)","lon":"121.41084","lat":"31.2279","category":"68","category_name":"快餐厅","address":"普陀区中山北路3700号"},{"poiid":"B2094654DB69A4FD489D","title":"锦江之星(华师大店)","lon":"121.41065","lat":"31.23022","category":"216","category_name":"经济型连锁酒店","address":"上海普陀区中山北路3500号5幢(近宁夏路)"},{"poiid":"B2094752D264A0F9449E","title":"鹿港小镇","lon":"121.409491","lat":"31.226715","category":"247","category_name":"餐饮美食","address":"龙之梦七楼黄中庭"},{"poiid":"B2094757D06AA3FA4992","title":"华东师范大学大礼堂","lon":"121.41011553","lat":"31.22816887","category":"253","category_name":"校园生活","address":"上海华东师范大学大礼堂"},{"poiid":"B2094757D065A4FC439F","title":"薇拉之谷","lon":"121.40611","lat":"31.23033","category":"47","category_name":"住宅区","address":"普陀区中山北路3676号(近金沙江路)"},{"poiid":"B209475CD564AAF5479B","title":"月星环球港","lon":"121.41011","lat":"31.229398","category":"500","category_name":"未知分类","address":"上海市 中山北路3567号"},{"poiid":"B2094757D06AA4FE409A","title":"胖阿姨朝鲜冷面","lon":"121.41027358","lat":"31.229402414","category":"247","category_name":"餐饮美食","address":"上海市普陀区中山北路3636号"},{"poiid":"B2094757D16CABFE4398","title":"华东师范大学 科学会堂","lon":"121.406528586","lat":"31.2266953619","category":"500","category_name":"未知分类","address":"上海市普陀区枣阳路"},{"poiid":"B2094654D56BA4FA4392","title":"华东师范大学体育馆(东门)","lon":"121.40983","lat":"31.22804","category":"224","category_name":"综合体育馆","address":"中山北路3663"},{"poiid":"B2094750D76DABFC489A","title":"家味螺蛳粉(华师大店)","lon":"121.411","lat":"31.2273","category":"68","category_name":"快餐厅","address":"普陀区中山北路3736号(华师大对面)"},{"poiid":"B2094757D46BA4FF4299","title":"胖阿姨正宗朝鲜冷面 中山北路店","lon":"121.4101553","lat":"31.2280922","category":"96","category_name":"韩国料理","address":"普陀区中山北路3636-6号(近华师大正门)"},{"poiid":"B2094757D068ABF5439E","title":"九香牛蛙店(凯旋北路店)","lon":"121.41244","lat":"31.22907","category":"71","category_name":"四川菜","address":"普陀区凯旋北路1600号(清水湾对面)"},{"poiid":"B2094655D26DAAF9479C","title":"华东师范大学出版社","lon":"121.40782","lat":"31.2261","category":"63","category_name":"出版社","address":"上海普陀区中山北路3663号华东师范大学中山北路校区"},{"poiid":"B2094654DB6BA7FF4093","title":"华东师大一村(东门)","lon":"121.41061","lat":"31.22621","category":"47","category_name":"住宅区","address":"中山北路3671弄"},{"poiid":"B2094757D06BABFF449A","title":"小厨房碳烤鱼","lon":"121.41213","lat":"31.22688","category":"71","category_name":"四川菜","address":"普陀区凯旋北路1764号(盘湾里对面)"},{"poiid":"B2094757D468A0F94793","title":"重庆鸡公煲 华师大店","lon":"121.410546054","lat":"31.226495793","category":"86","category_name":"火锅店","address":"普陀区中山北路2139弄秋月枫舍步行街68号(近新粤洲大酒店)"},{"poiid":"B2094654DB69ABF5419E","title":"味之都 普陀店 Wish Doing","lon":"121.410062054","lat":"31.227156793","category":"68","category_name":"快餐厅","address":"普陀区中山北路3667号(华师大正门旁)"},{"poiid":"B2094757D069A3FE4899","title":"好又多(华师大店)","lon":"121.409785","lat":"31.227427","category":"118","category_name":"超级市场","address":"上海普陀区中山北路3667号(近金沙江路)"},{"poiid":"B2094757D068A5FD409D","title":"德笼馆(华师大店)","lon":"121.41094207","lat":"31.227296829","category":"68","category_name":"快餐厅","address":"普陀区中山北路3736号(华师大对面)"},{"poiid":"B2094655D26EA3FD499D","title":"牛家拉面","lon":"121.409642054","lat":"31.228799793","category":"95","category_name":"日本料理","address":"普陀区中山北路3662号(近金沙江路)"},{"poiid":"B2094757D16AA2FB499E","title":"华师大文史楼215","lon":"121.40894058","lat":"31.228516397","category":"500","category_name":"未知分类","address":"上海中山北路3363号"},{"poiid":"B2094753DA68A2F8429E","title":"环球港宝珠奶酪","lon":"121.410911","lat":"31.231159","category":"500","category_name":"未知分类","address":"上海市 上海市普陀区中山北路3222"},{"poiid":"B2094757D16CA6F94992","title":"华师大mba教育中心","lon":"121.40561468","lat":"31.227886585","category":"500","category_name":"未知分类","address":"上海中山北路3663号"},{"poiid":"B2094750D76FA5FB459D","title":"品羴居","lon":"121.412","lat":"31.2282","category":"86","category_name":"火锅店","address":"普陀区凯旋北路1616号(近清水湾大酒店)"},{"poiid":"B2094655D36CA0FE4693","title":"金沙江路中山北路","lon":"121.4086","lat":"31.23148","category":"38","category_name":"公交车站","address":""},{"poiid":"B2094753D46AA3FE409B","title":"环球港","lon":"121.412246","lat":"31.228364","category":"500","category_name":"未知分类","address":"上海市 普陀区金沙江路地铁站6号口"},{"poiid":"B2094655D26AA0F54999","title":"华东师范大学体育馆排球场","lon":"121.41013","lat":"31.2272","category":"247","category_name":"餐饮美食","address":"普陀区中山北路3667号"},{"poiid":"B2094757D168AAFE409F","title":"华东师范大学公共管理学院","lon":"121.40697991","lat":"31.226781703","category":"500","category_name":"未知分类","address":"上海市普陀区金沙江路"},{"poiid":"B209475DD665A5FF4498","title":"玛加朵520","lon":"121.410423","lat":"31.22929","category":"247","category_name":"餐饮美食","address":"上海市 上海市普陀区中山北路3612号"},{"poiid":"B2094655D26CAAFE4993","title":"纪游子妯娌老鸭粉丝馆华师大店","lon":"121.41078","lat":"31.22777","category":"68","category_name":"快餐厅","address":"普陀区中山北路3663号华东师范大学内(近金沙江路)"},{"poiid":"B2094757D568ABF9429F","title":"冠龙家园","lon":"121.408326","lat":"31.228408","category":"47","category_name":"住宅区","address":"上海市普陀区枣阳路891弄"},{"poiid":"B2094757D568A0FF4199","title":"华师大香酥鸡摊","lon":"121.4097969","lat":"31.22893694","category":"247","category_name":"餐饮美食","address":"普陀区中山北路3621号华师大后门(近长风公园二号门)"}]