[{"poiid":"B2094655D36CA7FA429C","title":"航天博物馆地铁站","lon":"121.51187","lat":"31.06063","category":"36","category_name":"地铁站","address":""},{"poiid":"B2094757D06FA5FB469C","title":"闵浦大桥","lon":"121.48068237","lat":"31.052547454","category":"260","category_name":"其他","address":"上海闵行区S32申嘉湖高速-闵行区S32申嘉湖高速"},{"poiid":"B2094655D26AA0FA409A","title":"地铁航天博物馆站","lon":"121.51267","lat":"31.06175","category":"36","category_name":"地铁站","address":""},{"poiid":"B2094655D36CA6F94893","title":"杜行镇","lon":"121.50051","lat":"31.05694","category":"38","category_name":"公交车站","address":""},{"poiid":"B2094757D068ABFC4798","title":"航天博物馆地铁站站(183,175,海航线,江平线,浦江3,8,9,10路,闵行10,12路)","lon":"121.512431","lat":"31.061632169","category":"38","category_name":"公交车站","address":"上海市浦东新区浦星公路"},{"poiid":"B2094757D76AA6FD4199","title":"巴顿火锅","lon":"121.501406","lat":"31.06974","category":"86","category_name":"火锅店","address":"闵行区浦锦路309弄绿地沃尔玛广场309弄1幢6号2002-2018号铺(近江园路)"},{"poiid":"B2094757D064A0FB419B","title":"福乐山","lon":"121.500691309","lat":"31.058459517","category":"260","category_name":"其他","address":"上海鲁陈路沈杜路"},{"poiid":"B2094654DB6EAAFE4598","title":"国大药房上虹社行店NO.603","lon":"121.49742","lat":"31.05444","category":"162","category_name":"医院","address":"杜行镇"},{"poiid":"B2094655D26BA1F44392","title":"鲁陈路张行路","lon":"121.50247","lat":"31.05271","category":"38","category_name":"公交车站","address":""},{"poiid":"B2094757D06FA6FB439D","title":"沃尔玛(浦江店)","lon":"121.50775708","lat":"31.069308512","category":"118","category_name":"超级市场","address":"闵行区浦江镇浦锦路309号(近江园路)"},{"poiid":"B2094655D36CA6F94998","title":"杜行","lon":"121.49351","lat":"31.05516","category":"38","category_name":"公交车站","address":""},{"poiid":"B2094757D06FA4F8419B","title":"浦星公路","lon":"121.5151892","lat":"31.045785531","category":"260","category_name":"其他","address":"上海浦星公路"},{"poiid":"B2094654DB65A3FF4198","title":"滨浦新苑四村","lon":"121.50313","lat":"31.06529","category":"47","category_name":"住宅区","address":"浦驰南路39弄"},{"poiid":"B2094757D065A6FB4799","title":"申竹美味坊","lon":"121.510579","lat":"31.05525303","category":"247","category_name":"餐饮美食","address":"上海市沈杜公路平西街36号"},{"poiid":"B2094654DB64ABFD479E","title":"滨浦新苑三村","lon":"121.50316","lat":"31.0681","category":"47","category_name":"住宅区","address":"江汉路200弄"},{"poiid":"B2094757D16CA3FD4898","title":"浦星公路沈杜公路","lon":"121.51184955","lat":"31.060428522","category":"38","category_name":"公交车站","address":"上海浦星公路沈杜公路"},{"poiid":"B2094655D36DA6FD4392","title":"航天博物馆","lon":"121.51267","lat":"31.06175","category":"38","category_name":"公交车站","address":""},{"poiid":"B2094655D26BA1F4449A","title":"鲁陈路亭子路","lon":"121.50176","lat":"31.06297","category":"38","category_name":"公交车站","address":""},{"poiid":"B2094757D065A5F54898","title":"航天博物馆站","lon":"121.510438","lat":"31.056091048","category":"500","category_name":"未知分类","address":"上海浦新公路"},{"poiid":"B209475CD265A3F8409C","title":"沈杜公路地铁站","lon":"121.512023","lat":"31.061511","category":"36","category_name":"地铁站","address":"上海市 地铁8号线终点站沈杜公路站"},{"poiid":"B2094655D26DA6FD459C","title":"景舒苑九村","lon":"121.49281","lat":"31.07188","category":"47","category_name":"住宅区","address":"浦雪路179弄"},{"poiid":"B2094757D16AA6F54793","title":"耀华路","lon":"121.4938097","lat":"31.061019156","category":"500","category_name":"未知分类","address":"上海耀华路"},{"poiid":"B2094757D16FA2FF429B","title":"杜行渡口","lon":"121.485091","lat":"31.053036","category":"500","category_name":"未知分类","address":"上海市沈杜公路杜行渡口"},{"poiid":"B2094655D36CA7FA429F","title":"航天博物馆枢纽站","lon":"121.51114","lat":"31.05966","category":"38","category_name":"公交车站","address":""},{"poiid":"B2094655D26FA4F8499F","title":"滨浦新苑四村(东门)","lon":"121.50466","lat":"31.06504","category":"47","category_name":"住宅区","address":"浦驰南路39弄"},{"poiid":"B2094655D26BA2F5419A","title":"浦锦路江汉路","lon":"121.5014","lat":"31.06739","category":"38","category_name":"公交车站","address":""},{"poiid":"B2094757D169A0F44399","title":"浦江镇杜行西街","lon":"121.490886645","lat":"31.0448216528","category":"500","category_name":"未知分类","address":"上海市闵行区浦江镇杜行村"},{"poiid":"B2094757D16FA4FA479A","title":"美味坊航天店","lon":"121.513396178","lat":"31.0588824601","category":"500","category_name":"未知分类","address":"上海浦星公路－沈杜路 8号线航天博物馆站南"},{"poiid":"B2094757D16EA6FF499C","title":"八号线浦江镇车库","lon":"121.514131479","lat":"31.0515496602","category":"500","category_name":"未知分类","address":null},{"poiid":"B2094655D26FA3F54398","title":"滨浦新苑三村(南门)","lon":"121.50328","lat":"31.06715","category":"47","category_name":"住宅区","address":""},{"poiid":"B2094757D16BA2FD4192","title":"浦江一中","lon":"121.497583389","lat":"31.0719777536","category":"55","category_name":"中学","address":"上海闵行区浦江镇联航路"},{"poiid":"B2094757D06FA5F54298","title":"浦江镇停车场","lon":"121.514431","lat":"31.056732062","category":"500","category_name":"未知分类","address":"上海市三鲁公路2009号"},{"poiid":"B2094750D26BA4F54092","title":"滨浦二村","lon":"121.506324","lat":"31.065662","category":"252","category_name":"楼宇机构","address":"江汉路99弄"},{"poiid":"B2094757D168AAF8409D","title":"向明中学浦江校区","lon":"121.500281","lat":"31.073511","category":"253","category_name":"校园生活","address":"上海浦锦路138号"},{"poiid":"B2094655D26DA6FD4698","title":"景舒苑十村","lon":"121.49298","lat":"31.069662","category":"47","category_name":"住宅区","address":"浦雪路53弄"},{"poiid":"B2094757D16AA0F9409E","title":"浦涛路768弄","lon":"121.5132747","lat":"31.060700249","category":"500","category_name":"未知分类","address":"上海浦涛路768弄  水语人家"},{"poiid":"B2094757D065A4F94399","title":"景舒苑三村","lon":"121.49539","lat":"31.0725","category":"47","category_name":"住宅区","address":"上海浦秀路183弄"},{"poiid":"B2094757D064AAFE4898","title":"双立人刀具厂","lon":"121.512814009","lat":"31.063776216","category":"263","category_name":"公司","address":"上海地铁航天博物馆站旁"},{"poiid":"B2094757D168A6FC4892","title":"蘑菇宝贝","lon":"121.494772","lat":"31.071647387","category":"119","category_name":"商场","address":"上海市闵行区浦锦路绿地广场2楼"},{"poiid":"B2094655D26DA6FD4592","title":"景舒苑八村","lon":"121.49072","lat":"31.071352","category":"47","category_name":"住宅区","address":"浦鸥路186弄"},{"poiid":"B2094757D069A0FF4193","title":"浦江镇基地大库","lon":"121.515431","lat":"31.057132071","category":"500","category_name":"未知分类","address":"上海浦江镇"},{"poiid":"B2094655D26DA6FD469F","title":"景舒苑五村西区","lon":"121.49659","lat":"31.070166","category":"47","category_name":"住宅区","address":"浦秀路49弄"},{"poiid":"B2094654DB64A0FF459D","title":"景舒苑五村东区","lon":"121.498","lat":"31.07062","category":"47","category_name":"住宅区","address":"浦秀路48弄"},{"poiid":"B2094752D06DA7FB489E","title":"仁济医院","lon":"121.515075","lat":"31.045708","category":"162","category_name":"医院","address":"江月路2000号"},{"poiid":"B2094655D36CA1FC409D","title":"沈杜公路兴达路","lon":"121.51646","lat":"31.06099","category":"38","category_name":"公交车站","address":""},{"poiid":"B2094757D16BAAF94392","title":"九洲拉面","lon":"121.494458","lat":"31.071050374","category":"247","category_name":"餐饮美食","address":"上海浦锦路"},{"poiid":"B2094757D06BABF9489E","title":"八号线浦江镇食堂","lon":"121.516431","lat":"31.052731975","category":"500","category_name":"未知分类","address":"上海三鲁公路2009号"},{"poiid":"B2094655D36CA1FB459F","title":"联航路浦锦路","lon":"121.50086","lat":"31.07238","category":"38","category_name":"公交车站","address":""},{"poiid":"B2094655D36CA1FB459E","title":"联航路浦驰路","lon":"121.50496","lat":"31.07348","category":"38","category_name":"公交车站","address":""},{"poiid":"B2094654DB64A0FF459E","title":"景舒苑四村","lon":"121.49678","lat":"31.07373","category":"47","category_name":"住宅区","address":"浦秀路220弄"},{"poiid":"B2094655D36CA7FA429C","title":"航天博物馆地铁站","lon":"121.51187","lat":"31.06063","category":"36","category_name":"地铁站","address":""},{"poiid":"B2094757D06FA5FB469C","title":"闵浦大桥","lon":"121.48068237","lat":"31.052547454","category":"260","category_name":"其他","address":"上海闵行区S32申嘉湖高速-闵行区S32申嘉湖高速"},{"poiid":"B2094655D26AA0FA409A","title":"地铁航天博物馆站","lon":"121.51267","lat":"31.06175","category":"36","category_name":"地铁站","address":""},{"poiid":"B2094655D36CA6F94893","title":"杜行镇","lon":"121.50051","lat":"31.05694","category":"38","category_name":"公交车站","address":""},{"poiid":"B2094757D068ABFC4798","title":"航天博物馆地铁站站(183,175,海航线,江平线,浦江3,8,9,10路,闵行10,12路)","lon":"121.512431","lat":"31.061632169","category":"38","category_name":"公交车站","address":"上海市浦东新区浦星公路"},{"poiid":"B2094757D76AA6FD4199","title":"巴顿火锅","lon":"121.501406","lat":"31.06974","category":"86","category_name":"火锅店","address":"闵行区浦锦路309弄绿地沃尔玛广场309弄1幢6号2002-2018号铺(近江园路)"},{"poiid":"B2094757D064A0FB419B","title":"福乐山","lon":"121.500691309","lat":"31.058459517","category":"260","category_name":"其他","address":"上海鲁陈路沈杜路"},{"poiid":"B2094654DB6EAAFE4598","title":"国大药房上虹社行店NO.603","lon":"121.49742","lat":"31.05444","category":"162","category_name":"医院","address":"杜行镇"},{"poiid":"B2094655D26BA1F44392","title":"鲁陈路张行路","lon":"121.50247","lat":"31.05271","category":"38","category_name":"公交车站","address":""},{"poiid":"B2094757D06FA6FB439D","title":"沃尔玛(浦江店)","lon":"121.50775708","lat":"31.069308512","category":"118","category_name":"超级市场","address":"闵行区浦江镇浦锦路309号(近江园路)"},{"poiid":"B2094655D36CA6F94998","title":"杜行","lon":"121.49351","lat":"31.05516","category":"38","category_name":"公交车站","address":""},{"poiid":"B2094757D06FA4F8419B","title":"浦星公路","lon":"121.5151892","lat":"31.045785531","category":"260","category_name":"其他","address":"上海浦星公路"},{"poiid":"B2094654DB65A3FF4198","title":"滨浦新苑四村","lon":"121.50313","lat":"31.06529","category":"47","category_name":"住宅区","address":"浦驰南路39弄"},{"poiid":"B2094757D065A6FB4799","title":"申竹美味坊","lon":"121.510579","lat":"31.05525303","category":"247","category_name":"餐饮美食","address":"上海市沈杜公路平西街36号"},{"poiid":"B2094654DB64ABFD479E","title":"滨浦新苑三村","lon":"121.50316","lat":"31.0681","category":"47","category_name":"住宅区","address":"江汉路200弄"},{"poiid":"B2094757D16CA3FD4898","title":"浦星公路沈杜公路","lon":"121.51184955","lat":"31.060428522","category":"38","category_name":"公交车站","address":"上海浦星公路沈杜公路"},{"poiid":"B2094655D36DA6FD4392","title":"航天博物馆","lon":"121.51267","lat":"31.06175","category":"38","category_name":"公交车站","address":""},{"poiid":"B2094655D26BA1F4449A","title":"鲁陈路亭子路","lon":"121.50176","lat":"31.06297","category":"38","category_name":"公交车站","address":""},{"poiid":"B2094757D065A5F54898","title":"航天博物馆站","lon":"121.510438","lat":"31.056091048","category":"500","category_name":"未知分类","address":"上海浦新公路"},{"poiid":"B209475CD265A3F8409C","title":"沈杜公路地铁站","lon":"121.512023","lat":"31.061511","category":"36","category_name":"地铁站","address":"上海市 地铁8号线终点站沈杜公路站"},{"poiid":"B2094655D26DA6FD459C","title":"景舒苑九村","lon":"121.49281","lat":"31.07188","category":"47","category_name":"住宅区","address":"浦雪路179弄"},{"poiid":"B2094757D16AA6F54793","title":"耀华路","lon":"121.4938097","lat":"31.061019156","category":"500","category_name":"未知分类","address":"上海耀华路"},{"poiid":"B2094757D16FA2FF429B","title":"杜行渡口","lon":"121.485091","lat":"31.053036","category":"500","category_name":"未知分类","address":"上海市沈杜公路杜行渡口"},{"poiid":"B2094655D36CA7FA429F","title":"航天博物馆枢纽站","lon":"121.51114","lat":"31.05966","category":"38","category_name":"公交车站","address":""},{"poiid":"B2094655D26FA4F8499F","title":"滨浦新苑四村(东门)","lon":"121.50466","lat":"31.06504","category":"47","category_name":"住宅区","address":"浦驰南路39弄"},{"poiid":"B2094655D26BA2F5419A","title":"浦锦路江汉路","lon":"121.5014","lat":"31.06739","category":"38","category_name":"公交车站","address":""},{"poiid":"B2094757D169A0F44399","title":"浦江镇杜行西街","lon":"121.490886645","lat":"31.0448216528","category":"500","category_name":"未知分类","address":"上海市闵行区浦江镇杜行村"},{"poiid":"B2094757D16FA4FA479A","title":"美味坊航天店","lon":"121.513396178","lat":"31.0588824601","category":"500","category_name":"未知分类","address":"上海浦星公路－沈杜路 8号线航天博物馆站南"},{"poiid":"B2094757D16EA6FF499C","title":"八号线浦江镇车库","lon":"121.514131479","lat":"31.0515496602","category":"500","category_name":"未知分类","address":null},{"poiid":"B2094655D26FA3F54398","title":"滨浦新苑三村(南门)","lon":"121.50328","lat":"31.06715","category":"47","category_name":"住宅区","address":""},{"poiid":"B2094757D16BA2FD4192","title":"浦江一中","lon":"121.497583389","lat":"31.0719777536","category":"55","category_name":"中学","address":"上海闵行区浦江镇联航路"},{"poiid":"B2094757D06FA5F54298","title":"浦江镇停车场","lon":"121.514431","lat":"31.056732062","category":"500","category_name":"未知分类","address":"上海市三鲁公路2009号"},{"poiid":"B2094750D26BA4F54092","title":"滨浦二村","lon":"121.506324","lat":"31.065662","category":"252","category_name":"楼宇机构","address":"江汉路99弄"},{"poiid":"B2094757D168AAF8409D","title":"向明中学浦江校区","lon":"121.500281","lat":"31.073511","category":"253","category_name":"校园生活","address":"上海浦锦路138号"},{"poiid":"B2094655D26DA6FD4698","title":"景舒苑十村","lon":"121.49298","lat":"31.069662","category":"47","category_name":"住宅区","address":"浦雪路53弄"},{"poiid":"B2094757D16AA0F9409E","title":"浦涛路768弄","lon":"121.5132747","lat":"31.060700249","category":"500","category_name":"未知分类","address":"上海浦涛路768弄  水语人家"},{"poiid":"B2094757D065A4F94399","title":"景舒苑三村","lon":"121.49539","lat":"31.0725","category":"47","category_name":"住宅区","address":"上海浦秀路183弄"},{"poiid":"B2094757D064AAFE4898","title":"双立人刀具厂","lon":"121.512814009","lat":"31.063776216","category":"263","category_name":"公司","address":"上海地铁航天博物馆站旁"},{"poiid":"B2094757D168A6FC4892","title":"蘑菇宝贝","lon":"121.494772","lat":"31.071647387","category":"119","category_name":"商场","address":"上海市闵行区浦锦路绿地广场2楼"},{"poiid":"B2094655D26DA6FD4592","title":"景舒苑八村","lon":"121.49072","lat":"31.071352","category":"47","category_name":"住宅区","address":"浦鸥路186弄"},{"poiid":"B2094757D069A0FF4193","title":"浦江镇基地大库","lon":"121.515431","lat":"31.057132071","category":"500","category_name":"未知分类","address":"上海浦江镇"},{"poiid":"B2094655D26DA6FD469F","title":"景舒苑五村西区","lon":"121.49659","lat":"31.070166","category":"47","category_name":"住宅区","address":"浦秀路49弄"},{"poiid":"B2094654DB64A0FF459D","title":"景舒苑五村东区","lon":"121.498","lat":"31.07062","category":"47","category_name":"住宅区","address":"浦秀路48弄"},{"poiid":"B2094752D06DA7FB489E","title":"仁济医院","lon":"121.515075","lat":"31.045708","category":"162","category_name":"医院","address":"江月路2000号"},{"poiid":"B2094655D36CA1FC409D","title":"沈杜公路兴达路","lon":"121.51646","lat":"31.06099","category":"38","category_name":"公交车站","address":""},{"poiid":"B2094757D16BAAF94392","title":"九洲拉面","lon":"121.494458","lat":"31.071050374","category":"247","category_name":"餐饮美食","address":"上海浦锦路"},{"poiid":"B2094757D06BABF9489E","title":"八号线浦江镇食堂","lon":"121.516431","lat":"31.052731975","category":"500","category_name":"未知分类","address":"上海三鲁公路2009号"},{"poiid":"B2094655D36CA1FB459F","title":"联航路浦锦路","lon":"121.50086","lat":"31.07238","category":"38","category_name":"公交车站","address":""},{"poiid":"B2094655D36CA1FB459E","title":"联航路浦驰路","lon":"121.50496","lat":"31.07348","category":"38","category_name":"公交车站","address":""},{"poiid":"B2094654DB64A0FF459E","title":"景舒苑四村","lon":"121.49678","lat":"31.07373","category":"47","category_name":"住宅区","address":"浦秀路220弄"}]