[{"poiid":"B2094655D26EA5FF469E","title":"上海市公安局交通警察总队车辆管理所","lon":"121.3829","lat":"31.09784","category":"250","category_name":"公园户外","address":"沁春路179号"},{"poiid":"B2094757D06FA1FE429B","title":"迪卡侬(莘庄店)","lon":"121.38657","lat":"31.09186","category":"140","category_name":"体育用品店","address":"闵行区莘庄工业区申北路2号(沪闵路申北路)"},{"poiid":"B2094757D06FA0F8499F","title":"春申路地铁站","lon":"121.385335661","lat":"31.0987026834","category":"36","category_name":"地铁站","address":"上海交通轨道 五号线 轨交春申路站 5"},{"poiid":"B2094654DB6AA6F84198","title":"上海金燕大厦","lon":"121.38623","lat":"31.10076","category":"215","category_name":"三星级宾馆","address":"闵行区春申路3800号(近珠城路)"},{"poiid":"B2094654DA65A3FD4898","title":"沁春园三村","lon":"121.373374","lat":"31.094646","category":"47","category_name":"住宅区","address":"上海市闵行区沁春路1366号"},{"poiid":"B2094757D169A5F5419F","title":"巴黎风情","lon":"121.38354246161","lat":"31.094195675538","category":"500","category_name":"未知分类","address":"上海申北路566弄"},{"poiid":"B2094757D06BABFC489D","title":"春申府邸","lon":"121.38485","lat":"31.096289","category":"47","category_name":"住宅区","address":"上海市闵行区沪闵路5366弄"},{"poiid":"B2094757D069A2FE429B","title":"三春汇秀苑","lon":"121.37458","lat":"31.093777","category":"47","category_name":"住宅区","address":"上海市闵行区沁春路355弄"},{"poiid":"B2094655D268A1FE489E","title":"邻里苑","lon":"121.38082","lat":"31.10209","category":"47","category_name":"住宅区","address":"沪闵路5600弄"},{"poiid":"B2094654DA64AAFC4399","title":"沁春园一村","lon":"121.37898","lat":"31.097126","category":"47","category_name":"住宅区","address":"莘西南路400弄1-107号"},{"poiid":"B2094654DB6CAAF4499B","title":"正峰苑","lon":"121.38437","lat":"31.091955","category":"47","category_name":"住宅区","address":"上海市闵行区申北路168号"},{"poiid":"B2094751D265AAFA4998","title":"珍豪海鲜大酒楼","lon":"121.37484","lat":"31.09491","category":"247","category_name":"餐饮美食","address":"闵行区沁春路1378号"},{"poiid":"B2094655D26FA3F5419D","title":"春申丽园","lon":"121.386917","lat":"31.099336","category":"47","category_name":"住宅区","address":"春申路3799弄18支弄"},{"poiid":"B2094757D06FA5F54598","title":"上海市交通警察总队车辆管理所(莘庄二分所)","lon":"121.378987","lat":"31.096148","category":"500","category_name":"未知分类","address":"上海市闵行区沁春路179号"},{"poiid":"B2094654DB6CABFD459C","title":"绿水家园","lon":"121.38758","lat":"31.09861","category":"47","category_name":"住宅区","address":"上海市闵行区春申路3799弄100支弄"},{"poiid":"B2094757D66FA1FA479E","title":"上海市第二十六机动车安全检测站","lon":"121.37463685","lat":"31.094220246","category":"500","category_name":"未知分类","address":"闵行区沁春路699号(中春路口)"},{"poiid":"B2094655D26FA3F44193","title":"清馨苑、申莘二村(西北门)","lon":"121.37978","lat":"31.08927","category":"656","category_name":"大门","address":"申北路385弄"},{"poiid":"B2094757D064A0FB439C","title":"四季王朝大酒楼(申北路店)","lon":"121.38231","lat":"31.0899","category":"76","category_name":"上海菜","address":"闵行区申北路251号(春光路口)"},{"poiid":"B2094654DA65A3FF489F","title":"美丽家园","lon":"121.37991","lat":"31.094137","category":"47","category_name":"住宅区","address":"美丽家园位于闵行莘西南路128弄"},{"poiid":"B2094757D06BA1FB499C","title":"沁春二村","lon":"121.377639","lat":"31.095369","category":"252","category_name":"楼宇机构","address":"上海莘西南路155弄"},{"poiid":"B2094654DB6CABFB4392","title":"源成春苑","lon":"121.3807","lat":"31.097881","category":"47","category_name":"住宅区","address":"上海市闵行区沁春路168弄"},{"poiid":"B2094654DA65A3FF489C","title":"上海公安高等专科学校培训四部","lon":"121.38033","lat":"31.09601","category":"190","category_name":"培训机构","address":"上海沁春路179号"},{"poiid":"B2094757D66BA1FC419E","title":"吴记老锅底麻辣火锅 沁春路店","lon":"121.3760908","lat":"31.0951889","category":"86","category_name":"火锅店","address":"闵行区沁春路1326号(中春路口)"},{"poiid":"B2094752D66BA0FE4298","title":"上海市公安局闵行分局出入境办证中心","lon":"121.384163","lat":"31.093697","category":"627","category_name":"一般地点标志","address":"上海市闵行区申北路3号"},{"poiid":"B2094655D26BABFA4899","title":"小富人家","lon":"121.38102","lat":"31.09734","category":"47","category_name":"住宅区","address":"小富人家(闵行)位于闵行沁春路168弄近沪闵路"},{"poiid":"B2094654DA65A3FE469C","title":"沁春园二村(东门)","lon":"121.37891","lat":"31.09441","category":"47","category_name":"住宅区","address":"莘西南路155弄"},{"poiid":"B2094654DB69A7F44499","title":"莘华世家南园","lon":"121.3782653","lat":"31.09529876","category":"47","category_name":"住宅区","address":"莘华世家(西园)位于闵行莘北路,西环路"},{"poiid":"B2094757D66CA0FB4299","title":"安徒生冰激凌•莘庄龍之夢店","lon":"121.381175857","lat":"31.0940552429","category":"500","category_name":"未知分类","address":"上海莘庄龍之夢B2"},{"poiid":"B2094757D065A4FD469C","title":"吴记老锅底麻辣火锅(沁春店)","lon":"121.380580857","lat":"31.0976668152","category":"247","category_name":"餐饮美食","address":"上海闵行区沁春路1326号(近中春路口)"},{"poiid":"B2094654DA64AAFC459B","title":"华氏大药房沁春路药房","lon":"121.37875","lat":"31.09631","category":"162","category_name":"医院","address":"闵行区沁春路1052号(沁春路莘西南路)"},{"poiid":"B2094757D168A4F94493","title":"闵行区莘庄镇幼儿园","lon":"121.37641385","lat":"31.094401249","category":"500","category_name":"未知分类","address":"上海市闵行区沁春路"},{"poiid":"B2094655D36DA7F4409B","title":"莘西南路沁春路","lon":"121.37743","lat":"31.09767","category":"38","category_name":"公交车站","address":""},{"poiid":"B2094655D268A3F84392","title":"快客No.5098","lon":"121.37752","lat":"31.09542","category":"117","category_name":"便民商店/便利店","address":"沁春路271"},{"poiid":"B2094654DB6CAAF5449A","title":"申莘三村","lon":"121.38004","lat":"31.090963","category":"47","category_name":"住宅区","address":"申北路350弄"},{"poiid":"B2094655D268A4FF4592","title":"盛帆沁春园二村(边门)","lon":"121.37785","lat":"31.09554","category":"47","category_name":"住宅区","address":""},{"poiid":"B2094654DA64AAFC439D","title":"光明乳业莘庄配送站","lon":"121.37801","lat":"31.09708","category":"117","category_name":"便民商店/便利店","address":""},{"poiid":"B2094655D268A0FD449C","title":"沁春路1122弄小区(南门)","lon":"121.37731","lat":"31.09582","category":"47","category_name":"住宅区","address":"沁春路1122弄"},{"poiid":"B2094757D66CA5FE469F","title":"好德便利(沁春店)","lon":"121.38128","lat":"31.09692","category":"117","category_name":"便民商店/便利店","address":"闵行区沁春路172号"},{"poiid":"B2094757D16EA0FE4399","title":"沁春路168号","lon":"121.381182","lat":"31.097384","category":"500","category_name":"未知分类","address":"上海闵行区沁春路168号源城春苑"},{"poiid":"B2094655D268A0FD449F","title":"沁春路1122弄小区","lon":"121.37712","lat":"31.09621","category":"47","category_name":"住宅区","address":"沁春路1122弄"},{"poiid":"B2094654DB6CABFB459C","title":"九宫宾馆","lon":"121.38305","lat":"31.1003","category":"217","category_name":"旅馆招待所","address":"闵行区沪闵路5588号(近春申路)"},{"poiid":"B2094654DB6CAAF44793","title":"迪卡侬运动专业超市(申北路)","lon":"121.38672","lat":"31.09267","category":"140","category_name":"体育用品店","address":"颛桥镇"},{"poiid":"B2094757D16AA2F4429E","title":"沁春路179号　原第二考场","lon":"121.38577345","lat":"31.099305548","category":"500","category_name":"未知分类","address":"上海闵行区沁春路179号"},{"poiid":"B2094655D26FAAFF469B","title":"沁春园一村(西二号门)","lon":"121.37782","lat":"31.09744","category":"47","category_name":"住宅区","address":"莘西南路300弄、400弄"},{"poiid":"B2094655D36CA7FD4593","title":"沪闵路申北路","lon":"121.3872","lat":"31.09381","category":"38","category_name":"公交车站","address":""},{"poiid":"B2094654DB6CAAF54392","title":"东北农家饭庄","lon":"121.38131","lat":"31.0898","category":"82","category_name":"东北菜","address":"闵行区申北路279号"},{"poiid":"B2094654DA65A3FD4999","title":"哈里欧咖啡 闵行店 Hecto Coffee","lon":"121.37693","lat":"31.09529","category":"260","category_name":"其他","address":"闵行区沁春路1238号"},{"poiid":"B2094654DA65A3FE499B","title":"上海市闵行区莘庄幼儿园","lon":"121.37639","lat":"31.09443","category":"57","category_name":"幼儿园","address":"闵行区沁春路1336弄79号"},{"poiid":"B2094655D268A2F94193","title":"沁春园一村(西三号门)","lon":"121.37739","lat":"31.09819","category":"47","category_name":"住宅区","address":"莘西南路380弄"},{"poiid":"B2094654DA65A3FE499A","title":"盛帆房产沁春园二村(北门)","lon":"121.37627","lat":"31.09479","category":"47","category_name":"住宅区","address":"沁春路299号"},{"poiid":"B2094655D26EA5FF469E","title":"上海市公安局交通警察总队车辆管理所","lon":"121.3829","lat":"31.09784","category":"250","category_name":"公园户外","address":"沁春路179号"},{"poiid":"B2094757D06FA1FE429B","title":"迪卡侬(莘庄店)","lon":"121.38657","lat":"31.09186","category":"140","category_name":"体育用品店","address":"闵行区莘庄工业区申北路2号(沪闵路申北路)"},{"poiid":"B2094757D06FA0F8499F","title":"春申路地铁站","lon":"121.385335661","lat":"31.0987026834","category":"36","category_name":"地铁站","address":"上海交通轨道 五号线 轨交春申路站 5"},{"poiid":"B2094654DB6AA6F84198","title":"上海金燕大厦","lon":"121.38623","lat":"31.10076","category":"215","category_name":"三星级宾馆","address":"闵行区春申路3800号(近珠城路)"},{"poiid":"B2094654DA65A3FD4898","title":"沁春园三村","lon":"121.373374","lat":"31.094646","category":"47","category_name":"住宅区","address":"上海市闵行区沁春路1366号"},{"poiid":"B2094757D169A5F5419F","title":"巴黎风情","lon":"121.38354246161","lat":"31.094195675538","category":"500","category_name":"未知分类","address":"上海申北路566弄"},{"poiid":"B2094757D06BABFC489D","title":"春申府邸","lon":"121.38485","lat":"31.096289","category":"47","category_name":"住宅区","address":"上海市闵行区沪闵路5366弄"},{"poiid":"B2094757D069A2FE429B","title":"三春汇秀苑","lon":"121.37458","lat":"31.093777","category":"47","category_name":"住宅区","address":"上海市闵行区沁春路355弄"},{"poiid":"B2094655D268A1FE489E","title":"邻里苑","lon":"121.38082","lat":"31.10209","category":"47","category_name":"住宅区","address":"沪闵路5600弄"},{"poiid":"B2094654DA64AAFC4399","title":"沁春园一村","lon":"121.37898","lat":"31.097126","category":"47","category_name":"住宅区","address":"莘西南路400弄1-107号"},{"poiid":"B2094654DB6CAAF4499B","title":"正峰苑","lon":"121.38437","lat":"31.091955","category":"47","category_name":"住宅区","address":"上海市闵行区申北路168号"},{"poiid":"B2094751D265AAFA4998","title":"珍豪海鲜大酒楼","lon":"121.37484","lat":"31.09491","category":"247","category_name":"餐饮美食","address":"闵行区沁春路1378号"},{"poiid":"B2094655D26FA3F5419D","title":"春申丽园","lon":"121.386917","lat":"31.099336","category":"47","category_name":"住宅区","address":"春申路3799弄18支弄"},{"poiid":"B2094757D06FA5F54598","title":"上海市交通警察总队车辆管理所(莘庄二分所)","lon":"121.378987","lat":"31.096148","category":"500","category_name":"未知分类","address":"上海市闵行区沁春路179号"},{"poiid":"B2094654DB6CABFD459C","title":"绿水家园","lon":"121.38758","lat":"31.09861","category":"47","category_name":"住宅区","address":"上海市闵行区春申路3799弄100支弄"},{"poiid":"B2094757D66FA1FA479E","title":"上海市第二十六机动车安全检测站","lon":"121.37463685","lat":"31.094220246","category":"500","category_name":"未知分类","address":"闵行区沁春路699号(中春路口)"},{"poiid":"B2094655D26FA3F44193","title":"清馨苑、申莘二村(西北门)","lon":"121.37978","lat":"31.08927","category":"656","category_name":"大门","address":"申北路385弄"},{"poiid":"B2094757D064A0FB439C","title":"四季王朝大酒楼(申北路店)","lon":"121.38231","lat":"31.0899","category":"76","category_name":"上海菜","address":"闵行区申北路251号(春光路口)"},{"poiid":"B2094654DA65A3FF489F","title":"美丽家园","lon":"121.37991","lat":"31.094137","category":"47","category_name":"住宅区","address":"美丽家园位于闵行莘西南路128弄"},{"poiid":"B2094757D06BA1FB499C","title":"沁春二村","lon":"121.377639","lat":"31.095369","category":"252","category_name":"楼宇机构","address":"上海莘西南路155弄"},{"poiid":"B2094654DB6CABFB4392","title":"源成春苑","lon":"121.3807","lat":"31.097881","category":"47","category_name":"住宅区","address":"上海市闵行区沁春路168弄"},{"poiid":"B2094654DA65A3FF489C","title":"上海公安高等专科学校培训四部","lon":"121.38033","lat":"31.09601","category":"190","category_name":"培训机构","address":"上海沁春路179号"},{"poiid":"B2094757D66BA1FC419E","title":"吴记老锅底麻辣火锅 沁春路店","lon":"121.3760908","lat":"31.0951889","category":"86","category_name":"火锅店","address":"闵行区沁春路1326号(中春路口)"},{"poiid":"B2094752D66BA0FE4298","title":"上海市公安局闵行分局出入境办证中心","lon":"121.384163","lat":"31.093697","category":"627","category_name":"一般地点标志","address":"上海市闵行区申北路3号"},{"poiid":"B2094655D26BABFA4899","title":"小富人家","lon":"121.38102","lat":"31.09734","category":"47","category_name":"住宅区","address":"小富人家(闵行)位于闵行沁春路168弄近沪闵路"},{"poiid":"B2094654DA65A3FE469C","title":"沁春园二村(东门)","lon":"121.37891","lat":"31.09441","category":"47","category_name":"住宅区","address":"莘西南路155弄"},{"poiid":"B2094654DB69A7F44499","title":"莘华世家南园","lon":"121.3782653","lat":"31.09529876","category":"47","category_name":"住宅区","address":"莘华世家(西园)位于闵行莘北路,西环路"},{"poiid":"B2094757D66CA0FB4299","title":"安徒生冰激凌•莘庄龍之夢店","lon":"121.381175857","lat":"31.0940552429","category":"500","category_name":"未知分类","address":"上海莘庄龍之夢B2"},{"poiid":"B2094757D065A4FD469C","title":"吴记老锅底麻辣火锅(沁春店)","lon":"121.380580857","lat":"31.0976668152","category":"247","category_name":"餐饮美食","address":"上海闵行区沁春路1326号(近中春路口)"},{"poiid":"B2094654DA64AAFC459B","title":"华氏大药房沁春路药房","lon":"121.37875","lat":"31.09631","category":"162","category_name":"医院","address":"闵行区沁春路1052号(沁春路莘西南路)"},{"poiid":"B2094757D168A4F94493","title":"闵行区莘庄镇幼儿园","lon":"121.37641385","lat":"31.094401249","category":"500","category_name":"未知分类","address":"上海市闵行区沁春路"},{"poiid":"B2094655D36DA7F4409B","title":"莘西南路沁春路","lon":"121.37743","lat":"31.09767","category":"38","category_name":"公交车站","address":""},{"poiid":"B2094655D268A3F84392","title":"快客No.5098","lon":"121.37752","lat":"31.09542","category":"117","category_name":"便民商店/便利店","address":"沁春路271"},{"poiid":"B2094654DB6CAAF5449A","title":"申莘三村","lon":"121.38004","lat":"31.090963","category":"47","category_name":"住宅区","address":"申北路350弄"},{"poiid":"B2094655D268A4FF4592","title":"盛帆沁春园二村(边门)","lon":"121.37785","lat":"31.09554","category":"47","category_name":"住宅区","address":""},{"poiid":"B2094654DA64AAFC439D","title":"光明乳业莘庄配送站","lon":"121.37801","lat":"31.09708","category":"117","category_name":"便民商店/便利店","address":""},{"poiid":"B2094655D268A0FD449C","title":"沁春路1122弄小区(南门)","lon":"121.37731","lat":"31.09582","category":"47","category_name":"住宅区","address":"沁春路1122弄"},{"poiid":"B2094757D66CA5FE469F","title":"好德便利(沁春店)","lon":"121.38128","lat":"31.09692","category":"117","category_name":"便民商店/便利店","address":"闵行区沁春路172号"},{"poiid":"B2094757D16EA0FE4399","title":"沁春路168号","lon":"121.381182","lat":"31.097384","category":"500","category_name":"未知分类","address":"上海闵行区沁春路168号源城春苑"},{"poiid":"B2094655D268A0FD449F","title":"沁春路1122弄小区","lon":"121.37712","lat":"31.09621","category":"47","category_name":"住宅区","address":"沁春路1122弄"},{"poiid":"B2094654DB6CABFB459C","title":"九宫宾馆","lon":"121.38305","lat":"31.1003","category":"217","category_name":"旅馆招待所","address":"闵行区沪闵路5588号(近春申路)"},{"poiid":"B2094654DB6CAAF44793","title":"迪卡侬运动专业超市(申北路)","lon":"121.38672","lat":"31.09267","category":"140","category_name":"体育用品店","address":"颛桥镇"},{"poiid":"B2094757D16AA2F4429E","title":"沁春路179号　原第二考场","lon":"121.38577345","lat":"31.099305548","category":"500","category_name":"未知分类","address":"上海闵行区沁春路179号"},{"poiid":"B2094655D26FAAFF469B","title":"沁春园一村(西二号门)","lon":"121.37782","lat":"31.09744","category":"47","category_name":"住宅区","address":"莘西南路300弄、400弄"},{"poiid":"B2094655D36CA7FD4593","title":"沪闵路申北路","lon":"121.3872","lat":"31.09381","category":"38","category_name":"公交车站","address":""},{"poiid":"B2094654DB6CAAF54392","title":"东北农家饭庄","lon":"121.38131","lat":"31.0898","category":"82","category_name":"东北菜","address":"闵行区申北路279号"},{"poiid":"B2094654DA65A3FD4999","title":"哈里欧咖啡 闵行店 Hecto Coffee","lon":"121.37693","lat":"31.09529","category":"260","category_name":"其他","address":"闵行区沁春路1238号"},{"poiid":"B2094654DA65A3FE499B","title":"上海市闵行区莘庄幼儿园","lon":"121.37639","lat":"31.09443","category":"57","category_name":"幼儿园","address":"闵行区沁春路1336弄79号"},{"poiid":"B2094655D268A2F94193","title":"沁春园一村(西三号门)","lon":"121.37739","lat":"31.09819","category":"47","category_name":"住宅区","address":"莘西南路380弄"},{"poiid":"B2094654DA65A3FE499A","title":"盛帆房产沁春园二村(北门)","lon":"121.37627","lat":"31.09479","category":"47","category_name":"住宅区","address":"沁春路299号"},{"poiid":"B2094655D26EA5FF469E","title":"上海市公安局交通警察总队车辆管理所","lon":"121.3829","lat":"31.09784","category":"250","category_name":"公园户外","address":"沁春路179号"},{"poiid":"B2094757D06FA1FE429B","title":"迪卡侬(莘庄店)","lon":"121.38657","lat":"31.09186","category":"140","category_name":"体育用品店","address":"闵行区莘庄工业区申北路2号(沪闵路申北路)"},{"poiid":"B2094757D06FA0F8499F","title":"春申路地铁站","lon":"121.385335661","lat":"31.0987026834","category":"36","category_name":"地铁站","address":"上海交通轨道 五号线 轨交春申路站 5"},{"poiid":"B2094654DB6AA6F84198","title":"上海金燕大厦","lon":"121.38623","lat":"31.10076","category":"215","category_name":"三星级宾馆","address":"闵行区春申路3800号(近珠城路)"},{"poiid":"B2094654DA65A3FD4898","title":"沁春园三村","lon":"121.373374","lat":"31.094646","category":"47","category_name":"住宅区","address":"上海市闵行区沁春路1366号"},{"poiid":"B2094757D169A5F5419F","title":"巴黎风情","lon":"121.38354246161","lat":"31.094195675538","category":"500","category_name":"未知分类","address":"上海申北路566弄"},{"poiid":"B2094757D06BABFC489D","title":"春申府邸","lon":"121.38485","lat":"31.096289","category":"47","category_name":"住宅区","address":"上海市闵行区沪闵路5366弄"},{"poiid":"B2094757D069A2FE429B","title":"三春汇秀苑","lon":"121.37458","lat":"31.093777","category":"47","category_name":"住宅区","address":"上海市闵行区沁春路355弄"},{"poiid":"B2094655D268A1FE489E","title":"邻里苑","lon":"121.38082","lat":"31.10209","category":"47","category_name":"住宅区","address":"沪闵路5600弄"},{"poiid":"B2094654DA64AAFC4399","title":"沁春园一村","lon":"121.37898","lat":"31.097126","category":"47","category_name":"住宅区","address":"莘西南路400弄1-107号"},{"poiid":"B2094654DB6CAAF4499B","title":"正峰苑","lon":"121.38437","lat":"31.091955","category":"47","category_name":"住宅区","address":"上海市闵行区申北路168号"},{"poiid":"B2094751D265AAFA4998","title":"珍豪海鲜大酒楼","lon":"121.37484","lat":"31.09491","category":"247","category_name":"餐饮美食","address":"闵行区沁春路1378号"},{"poiid":"B2094655D26FA3F5419D","title":"春申丽园","lon":"121.386917","lat":"31.099336","category":"47","category_name":"住宅区","address":"春申路3799弄18支弄"},{"poiid":"B2094757D06FA5F54598","title":"上海市交通警察总队车辆管理所(莘庄二分所)","lon":"121.378987","lat":"31.096148","category":"500","category_name":"未知分类","address":"上海市闵行区沁春路179号"},{"poiid":"B2094654DB6CABFD459C","title":"绿水家园","lon":"121.38758","lat":"31.09861","category":"47","category_name":"住宅区","address":"上海市闵行区春申路3799弄100支弄"},{"poiid":"B2094757D66FA1FA479E","title":"上海市第二十六机动车安全检测站","lon":"121.37463685","lat":"31.094220246","category":"500","category_name":"未知分类","address":"闵行区沁春路699号(中春路口)"},{"poiid":"B2094655D26FA3F44193","title":"清馨苑、申莘二村(西北门)","lon":"121.37978","lat":"31.08927","category":"656","category_name":"大门","address":"申北路385弄"},{"poiid":"B2094757D064A0FB439C","title":"四季王朝大酒楼(申北路店)","lon":"121.38231","lat":"31.0899","category":"76","category_name":"上海菜","address":"闵行区申北路251号(春光路口)"},{"poiid":"B2094654DA65A3FF489F","title":"美丽家园","lon":"121.37991","lat":"31.094137","category":"47","category_name":"住宅区","address":"美丽家园位于闵行莘西南路128弄"},{"poiid":"B2094757D06BA1FB499C","title":"沁春二村","lon":"121.377639","lat":"31.095369","category":"252","category_name":"楼宇机构","address":"上海莘西南路155弄"},{"poiid":"B2094654DB6CABFB4392","title":"源成春苑","lon":"121.3807","lat":"31.097881","category":"47","category_name":"住宅区","address":"上海市闵行区沁春路168弄"},{"poiid":"B2094654DA65A3FF489C","title":"上海公安高等专科学校培训四部","lon":"121.38033","lat":"31.09601","category":"190","category_name":"培训机构","address":"上海沁春路179号"},{"poiid":"B2094757D66BA1FC419E","title":"吴记老锅底麻辣火锅 沁春路店","lon":"121.3760908","lat":"31.0951889","category":"86","category_name":"火锅店","address":"闵行区沁春路1326号(中春路口)"},{"poiid":"B2094752D66BA0FE4298","title":"上海市公安局闵行分局出入境办证中心","lon":"121.384163","lat":"31.093697","category":"627","category_name":"一般地点标志","address":"上海市闵行区申北路3号"},{"poiid":"B2094655D26BABFA4899","title":"小富人家","lon":"121.38102","lat":"31.09734","category":"47","category_name":"住宅区","address":"小富人家(闵行)位于闵行沁春路168弄近沪闵路"},{"poiid":"B2094654DA65A3FE469C","title":"沁春园二村(东门)","lon":"121.37891","lat":"31.09441","category":"47","category_name":"住宅区","address":"莘西南路155弄"},{"poiid":"B2094654DB69A7F44499","title":"莘华世家南园","lon":"121.3782653","lat":"31.09529876","category":"47","category_name":"住宅区","address":"莘华世家(西园)位于闵行莘北路,西环路"},{"poiid":"B2094757D66CA0FB4299","title":"安徒生冰激凌•莘庄龍之夢店","lon":"121.381175857","lat":"31.0940552429","category":"500","category_name":"未知分类","address":"上海莘庄龍之夢B2"},{"poiid":"B2094757D065A4FD469C","title":"吴记老锅底麻辣火锅(沁春店)","lon":"121.380580857","lat":"31.0976668152","category":"247","category_name":"餐饮美食","address":"上海闵行区沁春路1326号(近中春路口)"},{"poiid":"B2094654DA64AAFC459B","title":"华氏大药房沁春路药房","lon":"121.37875","lat":"31.09631","category":"162","category_name":"医院","address":"闵行区沁春路1052号(沁春路莘西南路)"},{"poiid":"B2094757D168A4F94493","title":"闵行区莘庄镇幼儿园","lon":"121.37641385","lat":"31.094401249","category":"500","category_name":"未知分类","address":"上海市闵行区沁春路"},{"poiid":"B2094655D36DA7F4409B","title":"莘西南路沁春路","lon":"121.37743","lat":"31.09767","category":"38","category_name":"公交车站","address":""},{"poiid":"B2094655D268A3F84392","title":"快客No.5098","lon":"121.37752","lat":"31.09542","category":"117","category_name":"便民商店/便利店","address":"沁春路271"},{"poiid":"B2094654DB6CAAF5449A","title":"申莘三村","lon":"121.38004","lat":"31.090963","category":"47","category_name":"住宅区","address":"申北路350弄"},{"poiid":"B2094655D268A4FF4592","title":"盛帆沁春园二村(边门)","lon":"121.37785","lat":"31.09554","category":"47","category_name":"住宅区","address":""},{"poiid":"B2094654DA64AAFC439D","title":"光明乳业莘庄配送站","lon":"121.37801","lat":"31.09708","category":"117","category_name":"便民商店/便利店","address":""},{"poiid":"B2094655D268A0FD449C","title":"沁春路1122弄小区(南门)","lon":"121.37731","lat":"31.09582","category":"47","category_name":"住宅区","address":"沁春路1122弄"},{"poiid":"B2094757D66CA5FE469F","title":"好德便利(沁春店)","lon":"121.38128","lat":"31.09692","category":"117","category_name":"便民商店/便利店","address":"闵行区沁春路172号"},{"poiid":"B2094757D16EA0FE4399","title":"沁春路168号","lon":"121.381182","lat":"31.097384","category":"500","category_name":"未知分类","address":"上海闵行区沁春路168号源城春苑"},{"poiid":"B2094655D268A0FD449F","title":"沁春路1122弄小区","lon":"121.37712","lat":"31.09621","category":"47","category_name":"住宅区","address":"沁春路1122弄"},{"poiid":"B2094654DB6CABFB459C","title":"九宫宾馆","lon":"121.38305","lat":"31.1003","category":"217","category_name":"旅馆招待所","address":"闵行区沪闵路5588号(近春申路)"},{"poiid":"B2094654DB6CAAF44793","title":"迪卡侬运动专业超市(申北路)","lon":"121.38672","lat":"31.09267","category":"140","category_name":"体育用品店","address":"颛桥镇"},{"poiid":"B2094757D16AA2F4429E","title":"沁春路179号　原第二考场","lon":"121.38577345","lat":"31.099305548","category":"500","category_name":"未知分类","address":"上海闵行区沁春路179号"},{"poiid":"B2094655D26FAAFF469B","title":"沁春园一村(西二号门)","lon":"121.37782","lat":"31.09744","category":"47","category_name":"住宅区","address":"莘西南路300弄、400弄"},{"poiid":"B2094655D36CA7FD4593","title":"沪闵路申北路","lon":"121.3872","lat":"31.09381","category":"38","category_name":"公交车站","address":""},{"poiid":"B2094654DB6CAAF54392","title":"东北农家饭庄","lon":"121.38131","lat":"31.0898","category":"82","category_name":"东北菜","address":"闵行区申北路279号"},{"poiid":"B2094654DA65A3FD4999","title":"哈里欧咖啡 闵行店 Hecto Coffee","lon":"121.37693","lat":"31.09529","category":"260","category_name":"其他","address":"闵行区沁春路1238号"},{"poiid":"B2094654DA65A3FE499B","title":"上海市闵行区莘庄幼儿园","lon":"121.37639","lat":"31.09443","category":"57","category_name":"幼儿园","address":"闵行区沁春路1336弄79号"},{"poiid":"B2094655D268A2F94193","title":"沁春园一村(西三号门)","lon":"121.37739","lat":"31.09819","category":"47","category_name":"住宅区","address":"莘西南路380弄"},{"poiid":"B2094654DA65A3FE499A","title":"盛帆房产沁春园二村(北门)","lon":"121.37627","lat":"31.09479","category":"47","category_name":"住宅区","address":"沁春路299号"},{"poiid":"B2094655D26EA5FF469E","title":"上海市公安局交通警察总队车辆管理所","lon":"121.3829","lat":"31.09784","category":"250","category_name":"公园户外","address":"沁春路179号"},{"poiid":"B2094757D06FA1FE429B","title":"迪卡侬(莘庄店)","lon":"121.38657","lat":"31.09186","category":"140","category_name":"体育用品店","address":"闵行区莘庄工业区申北路2号(沪闵路申北路)"},{"poiid":"B2094757D06FA0F8499F","title":"春申路地铁站","lon":"121.385335661","lat":"31.0987026834","category":"36","category_name":"地铁站","address":"上海交通轨道 五号线 轨交春申路站 5"},{"poiid":"B2094654DB6AA6F84198","title":"上海金燕大厦","lon":"121.38623","lat":"31.10076","category":"215","category_name":"三星级宾馆","address":"闵行区春申路3800号(近珠城路)"},{"poiid":"B2094654DA65A3FD4898","title":"沁春园三村","lon":"121.373374","lat":"31.094646","category":"47","category_name":"住宅区","address":"上海市闵行区沁春路1366号"},{"poiid":"B2094757D169A5F5419F","title":"巴黎风情","lon":"121.38354246161","lat":"31.094195675538","category":"500","category_name":"未知分类","address":"上海申北路566弄"},{"poiid":"B2094757D06BABFC489D","title":"春申府邸","lon":"121.38485","lat":"31.096289","category":"47","category_name":"住宅区","address":"上海市闵行区沪闵路5366弄"},{"poiid":"B2094757D069A2FE429B","title":"三春汇秀苑","lon":"121.37458","lat":"31.093777","category":"47","category_name":"住宅区","address":"上海市闵行区沁春路355弄"},{"poiid":"B2094655D268A1FE489E","title":"邻里苑","lon":"121.38082","lat":"31.10209","category":"47","category_name":"住宅区","address":"沪闵路5600弄"},{"poiid":"B2094654DA64AAFC4399","title":"沁春园一村","lon":"121.37898","lat":"31.097126","category":"47","category_name":"住宅区","address":"莘西南路400弄1-107号"},{"poiid":"B2094654DB6CAAF4499B","title":"正峰苑","lon":"121.38437","lat":"31.091955","category":"47","category_name":"住宅区","address":"上海市闵行区申北路168号"},{"poiid":"B2094751D265AAFA4998","title":"珍豪海鲜大酒楼","lon":"121.37484","lat":"31.09491","category":"247","category_name":"餐饮美食","address":"闵行区沁春路1378号"},{"poiid":"B2094655D26FA3F5419D","title":"春申丽园","lon":"121.386917","lat":"31.099336","category":"47","category_name":"住宅区","address":"春申路3799弄18支弄"},{"poiid":"B2094757D06FA5F54598","title":"上海市交通警察总队车辆管理所(莘庄二分所)","lon":"121.378987","lat":"31.096148","category":"500","category_name":"未知分类","address":"上海市闵行区沁春路179号"},{"poiid":"B2094654DB6CABFD459C","title":"绿水家园","lon":"121.38758","lat":"31.09861","category":"47","category_name":"住宅区","address":"上海市闵行区春申路3799弄100支弄"},{"poiid":"B2094757D66FA1FA479E","title":"上海市第二十六机动车安全检测站","lon":"121.37463685","lat":"31.094220246","category":"500","category_name":"未知分类","address":"闵行区沁春路699号(中春路口)"},{"poiid":"B2094655D26FA3F44193","title":"清馨苑、申莘二村(西北门)","lon":"121.37978","lat":"31.08927","category":"656","category_name":"大门","address":"申北路385弄"},{"poiid":"B2094757D064A0FB439C","title":"四季王朝大酒楼(申北路店)","lon":"121.38231","lat":"31.0899","category":"76","category_name":"上海菜","address":"闵行区申北路251号(春光路口)"},{"poiid":"B2094654DA65A3FF489F","title":"美丽家园","lon":"121.37991","lat":"31.094137","category":"47","category_name":"住宅区","address":"美丽家园位于闵行莘西南路128弄"},{"poiid":"B2094757D06BA1FB499C","title":"沁春二村","lon":"121.377639","lat":"31.095369","category":"252","category_name":"楼宇机构","address":"上海莘西南路155弄"},{"poiid":"B2094654DB6CABFB4392","title":"源成春苑","lon":"121.3807","lat":"31.097881","category":"47","category_name":"住宅区","address":"上海市闵行区沁春路168弄"},{"poiid":"B2094654DA65A3FF489C","title":"上海公安高等专科学校培训四部","lon":"121.38033","lat":"31.09601","category":"190","category_name":"培训机构","address":"上海沁春路179号"},{"poiid":"B2094757D66BA1FC419E","title":"吴记老锅底麻辣火锅 沁春路店","lon":"121.3760908","lat":"31.0951889","category":"86","category_name":"火锅店","address":"闵行区沁春路1326号(中春路口)"},{"poiid":"B2094752D66BA0FE4298","title":"上海市公安局闵行分局出入境办证中心","lon":"121.384163","lat":"31.093697","category":"627","category_name":"一般地点标志","address":"上海市闵行区申北路3号"},{"poiid":"B2094655D26BABFA4899","title":"小富人家","lon":"121.38102","lat":"31.09734","category":"47","category_name":"住宅区","address":"小富人家(闵行)位于闵行沁春路168弄近沪闵路"},{"poiid":"B2094654DA65A3FE469C","title":"沁春园二村(东门)","lon":"121.37891","lat":"31.09441","category":"47","category_name":"住宅区","address":"莘西南路155弄"},{"poiid":"B2094654DB69A7F44499","title":"莘华世家南园","lon":"121.3782653","lat":"31.09529876","category":"47","category_name":"住宅区","address":"莘华世家(西园)位于闵行莘北路,西环路"},{"poiid":"B2094757D66CA0FB4299","title":"安徒生冰激凌•莘庄龍之夢店","lon":"121.381175857","lat":"31.0940552429","category":"500","category_name":"未知分类","address":"上海莘庄龍之夢B2"},{"poiid":"B2094757D065A4FD469C","title":"吴记老锅底麻辣火锅(沁春店)","lon":"121.380580857","lat":"31.0976668152","category":"247","category_name":"餐饮美食","address":"上海闵行区沁春路1326号(近中春路口)"},{"poiid":"B2094654DA64AAFC459B","title":"华氏大药房沁春路药房","lon":"121.37875","lat":"31.09631","category":"162","category_name":"医院","address":"闵行区沁春路1052号(沁春路莘西南路)"},{"poiid":"B2094757D168A4F94493","title":"闵行区莘庄镇幼儿园","lon":"121.37641385","lat":"31.094401249","category":"500","category_name":"未知分类","address":"上海市闵行区沁春路"},{"poiid":"B2094655D36DA7F4409B","title":"莘西南路沁春路","lon":"121.37743","lat":"31.09767","category":"38","category_name":"公交车站","address":""},{"poiid":"B2094655D268A3F84392","title":"快客No.5098","lon":"121.37752","lat":"31.09542","category":"117","category_name":"便民商店/便利店","address":"沁春路271"},{"poiid":"B2094654DB6CAAF5449A","title":"申莘三村","lon":"121.38004","lat":"31.090963","category":"47","category_name":"住宅区","address":"申北路350弄"},{"poiid":"B2094655D268A4FF4592","title":"盛帆沁春园二村(边门)","lon":"121.37785","lat":"31.09554","category":"47","category_name":"住宅区","address":""},{"poiid":"B2094654DA64AAFC439D","title":"光明乳业莘庄配送站","lon":"121.37801","lat":"31.09708","category":"117","category_name":"便民商店/便利店","address":""},{"poiid":"B2094655D268A0FD449C","title":"沁春路1122弄小区(南门)","lon":"121.37731","lat":"31.09582","category":"47","category_name":"住宅区","address":"沁春路1122弄"},{"poiid":"B2094757D66CA5FE469F","title":"好德便利(沁春店)","lon":"121.38128","lat":"31.09692","category":"117","category_name":"便民商店/便利店","address":"闵行区沁春路172号"},{"poiid":"B2094757D16EA0FE4399","title":"沁春路168号","lon":"121.381182","lat":"31.097384","category":"500","category_name":"未知分类","address":"上海闵行区沁春路168号源城春苑"},{"poiid":"B2094655D268A0FD449F","title":"沁春路1122弄小区","lon":"121.37712","lat":"31.09621","category":"47","category_name":"住宅区","address":"沁春路1122弄"},{"poiid":"B2094654DB6CABFB459C","title":"九宫宾馆","lon":"121.38305","lat":"31.1003","category":"217","category_name":"旅馆招待所","address":"闵行区沪闵路5588号(近春申路)"},{"poiid":"B2094654DB6CAAF44793","title":"迪卡侬运动专业超市(申北路)","lon":"121.38672","lat":"31.09267","category":"140","category_name":"体育用品店","address":"颛桥镇"},{"poiid":"B2094757D16AA2F4429E","title":"沁春路179号　原第二考场","lon":"121.38577345","lat":"31.099305548","category":"500","category_name":"未知分类","address":"上海闵行区沁春路179号"},{"poiid":"B2094655D26FAAFF469B","title":"沁春园一村(西二号门)","lon":"121.37782","lat":"31.09744","category":"47","category_name":"住宅区","address":"莘西南路300弄、400弄"},{"poiid":"B2094655D36CA7FD4593","title":"沪闵路申北路","lon":"121.3872","lat":"31.09381","category":"38","category_name":"公交车站","address":""},{"poiid":"B2094654DB6CAAF54392","title":"东北农家饭庄","lon":"121.38131","lat":"31.0898","category":"82","category_name":"东北菜","address":"闵行区申北路279号"},{"poiid":"B2094654DA65A3FD4999","title":"哈里欧咖啡 闵行店 Hecto Coffee","lon":"121.37693","lat":"31.09529","category":"260","category_name":"其他","address":"闵行区沁春路1238号"},{"poiid":"B2094654DA65A3FE499B","title":"上海市闵行区莘庄幼儿园","lon":"121.37639","lat":"31.09443","category":"57","category_name":"幼儿园","address":"闵行区沁春路1336弄79号"},{"poiid":"B2094655D268A2F94193","title":"沁春园一村(西三号门)","lon":"121.37739","lat":"31.09819","category":"47","category_name":"住宅区","address":"莘西南路380弄"},{"poiid":"B2094654DA65A3FE499A","title":"盛帆房产沁春园二村(北门)","lon":"121.37627","lat":"31.09479","category":"47","category_name":"住宅区","address":"沁春路299号"}]