[{"poiid":"B2094654DB64A4FC469D","title":"上海交通大学(闵行校区)","lon":"121.43073","lat":"31.01765","category":"671","category_name":"高校中心点","address":"闵行区东川路800号上海交通大学内(近永平路)"},{"poiid":"B2094757D06FA4FA4499","title":"上海交通大学菁菁堂","lon":"121.42978692","lat":"31.017888915","category":"178","category_name":"电影院","address":"闵行区东川路800号上海交通大学校区"},{"poiid":"B2094757D06FA2F5429F","title":"上海交大闵行校区拖鞋门","lon":"121.43095039","lat":"31.017577126","category":"500","category_name":"未知分类","address":"上海市东川路800号"},{"poiid":"B2094757D06FA0FD409E","title":"上海交通大学东上院","lon":"121.43097598","lat":"31.019636672","category":"52","category_name":"高等院校","address":"上海闵行区东川路800号上海交通大学闵行校区"},{"poiid":"B2094757D068A3FE4199","title":"思源湖","lon":"121.430137634","lat":"31.0201702118","category":"234","category_name":"海滨浴场","address":"闵行区东川路800号上海交通大学拖鞋门内(近永平路)"},{"poiid":"B2094757D06FA2FF479F","title":"上海交通大学东中院","lon":"121.43776435","lat":"31.023405148","category":"253","category_name":"校园生活","address":"上海闵行区东川路800号上海交通大学闵行校区"},{"poiid":"B2094757D06FA4FB4599","title":"上海交通大学下院","lon":"121.4311441","lat":"31.021094838","category":"253","category_name":"校园生活","address":"上海闵行区东川路800号"},{"poiid":"B2094757D06FA1F54293","title":"上海交通大学第一餐饮大楼(闵行校区)","lon":"121.43191","lat":"31.0217","category":"253","category_name":"校园生活","address":"上海闵行区东川路800号上海交通大学闵行校区"},{"poiid":"B2094750D664A5FB409E","title":"大学路韩国料理","lon":"121.432","lat":"31.0172","category":"96","category_name":"韩国料理","address":"闵行区东川路(安宁路东川路)"},{"poiid":"B2094757D06BA7FC449B","title":"甜魔咖啡 交大店 Timo Coffee","lon":"121.4325478","lat":"31.0178311","category":"65","category_name":"咖啡厅","address":"闵行区东川路800号上海交通大学内"},{"poiid":"B2094757D66DA3F5479F","title":"天使的礼物咖啡店","lon":"121.43254852","lat":"31.014183044","category":"65","category_name":"咖啡厅","address":"闵行区永平路142号(近交通大学)"},{"poiid":"B2094757D069A2F94598","title":"院儿咖啡","lon":"121.43259079","lat":"31.01356043","category":"260","category_name":"其他","address":"闵行区永平路90号(近德宏路)"},{"poiid":"B2094654DB6EAAFF4092","title":"第二餐饮大楼","lon":"121.43634","lat":"31.02269","category":"257","category_name":"中餐厅","address":""},{"poiid":"B2094757D169A4F9419D","title":"御陕坊","lon":"121.432984128","lat":"31.0129414512","category":"84","category_name":"西北菜","address":"闵行区永平路41号(近交通大学)"},{"poiid":"B2094757D068A0F8409B","title":"奉浦大桥","lon":"121.4420166","lat":"31.005385894","category":"260","category_name":"其他","address":"上海奉浦大桥"},{"poiid":"B2094757D068A0F44892","title":"蜀香村川菜(东川路店)","lon":"121.43301","lat":"31.0167","category":"71","category_name":"四川菜","address":"闵行区东川路811弄1号(近交通大学)"},{"poiid":"B2094750D76FA3F4459C","title":"小雨点围着锅台吃","lon":"121.432","lat":"31.0154","category":"82","category_name":"东北菜","address":"闵行区永平路114号"},{"poiid":"B2094757D16DAAFA409B","title":"真康自助乐烤","lon":"121.43182","lat":"31.01564","category":"68","category_name":"快餐厅","address":"闵行区永平路200-204号(近交通大学)"},{"poiid":"B2094654DB65A7F4499A","title":"阿康烧烤 交大店","lon":"121.430010054","lat":"31.017358793","category":"68","category_name":"快餐厅","address":"闵行区永平路194号"},{"poiid":"B2094757D06FA6FE459D","title":"鹤北新村一街坊","lon":"121.427","lat":"31.0161","category":"47","category_name":"住宅区","address":"上海市鹤庆路136弄"},{"poiid":"B2094655D36DA3F5439D","title":"奉浦大桥","lon":"121.43934","lat":"31.0111","category":"250","category_name":"公园户外","address":""},{"poiid":"B2094757D169AAF8419F","title":"上海交通大学光彪楼博雅厅","lon":"121.437901128","lat":"31.0234186666","category":"500","category_name":"未知分类","address":"上海东川路800号"},{"poiid":"B2094750D76FA6F4469E","title":"炫锅坊麻辣香锅(永平路店)","lon":"121.432","lat":"31.0136","category":"77","category_name":"湖南菜","address":"闵行区永平路43号"},{"poiid":"B2094655D36CA5FB4299","title":"沧源小区","lon":"121.43663","lat":"31.01392","category":"47","category_name":"住宅区","address":""},{"poiid":"B2094757D66CA2FA4193","title":"上海交通大学学术活动中心宾馆","lon":"121.43309783","lat":"31.01861763","category":"76","category_name":"上海菜","address":"闵行区东川路800号上海交通大学校区内(近永平路)"},{"poiid":"B2094654DB6EAAFD4493","title":"交通大学附属实验小学","lon":"121.43473","lat":"31.01365","category":"56","category_name":"小学","address":"闵行区德宏路2366号(近永平路)"},{"poiid":"B2094757D165A5FE409C","title":"可口可乐中国总部","lon":"121.436242228","lat":"31.0205795082","category":"500","category_name":"未知分类","address":"上海闵行区东川路800号"},{"poiid":"B2094757D16EA3FD409A","title":"思源小菜","lon":"121.43322","lat":"31.01294","category":"76","category_name":"上海菜","address":"闵行区永平路118号(德宏路永平路)"},{"poiid":"B2094654DB6EAAFA409B","title":"好第坊","lon":"121.43308","lat":"31.01494","category":"47","category_name":"住宅区","address":"东川路865弄"},{"poiid":"B2094654DB6FA3FC4499","title":"北欧丽景","lon":"121.42962","lat":"31.01656","category":"47","category_name":"住宅区","address":"北欧丽景-东川花园二期位于闵行东川路755弄"},{"poiid":"B2094757D76CA0FF4699","title":"东北春饼王","lon":"121.43266","lat":"31.01412","category":"82","category_name":"东北菜","address":"闵行区永平路150号(近闵行交大)"},{"poiid":"B2094757D06BA5F94198","title":"四海游龙(永平店)","lon":"121.432143","lat":"31.015132","category":"68","category_name":"快餐厅","address":"闵行区永平路(近交大闵行校区)"},{"poiid":"B2094654DB6AA7FF419F","title":"留园","lon":"121.43172","lat":"31.01908","category":"76","category_name":"上海菜","address":"闵行区东川路880号上海交大校内(近交通大学)"},{"poiid":"B2094757D16EA7F84692","title":"村夫烤鱼(永平路店)","lon":"121.43231","lat":"31.01511","category":"71","category_name":"四川菜","address":"闵行区永平路"},{"poiid":"B2094655D36DA7FB4299","title":"紫竹园科学园区","lon":"121.43945","lat":"31.01075","category":"38","category_name":"公交车站","address":""},{"poiid":"B2094757D06AA1F54293","title":"金榜六期","lon":"121.43537866","lat":"31.015866586","category":"47","category_name":"住宅区","address":"上海闵行区东川路811号"},{"poiid":"B2094757D069A4F54192","title":"上海交通大学光明体育场","lon":"121.427507","lat":"31.018782","category":"253","category_name":"校园生活","address":"上海闵行区东川路800号上海交通大学闵行校区"},{"poiid":"B2094655D36DA0F44298","title":"永平路","lon":"121.43249","lat":"31.01408","category":"38","category_name":"公交车站","address":""},{"poiid":"B2094757D16EA1FB479C","title":"交大附小","lon":"121.433860128","lat":"31.0146474863","category":"56","category_name":"小学","address":"上海市闵行区东川路"},{"poiid":"B2094757D16CA1FC499D","title":"金榜世家","lon":"121.42746912","lat":"31.012706446","category":"500","category_name":"未知分类","address":"上海市闵行区沧源路676-684号"},{"poiid":"B2094757D06AA7F94693","title":"老妈厨房","lon":"121.43478605","lat":"31.017570695","category":"91","category_name":"台湾菜","address":"闵行区东川路811弄39号(近闵行交大)"},{"poiid":"B209475CD46CA3FD489F","title":"华东师范大学","lon":"121.436996","lat":"31.014829","category":"500","category_name":"未知分类","address":"上海市 上海闵行区"},{"poiid":"B2094750D76FA4FC439A","title":"朴氏韩国料理","lon":"121.431","lat":"31.0164","category":"96","category_name":"韩国料理","address":"闵行区永平路233-235号(近东川路)"},{"poiid":"B2094757D568A1FA479C","title":"好第坊一期","lon":"121.4324789","lat":"31.01450889","category":"47","category_name":"住宅区","address":"上海市长宁区延安西路1235弄"},{"poiid":"B2094654DB6EAAF5469F","title":"沧源新村","lon":"121.42841","lat":"31.01457","category":"47","category_name":"住宅区","address":"沧源路770弄、925弄"},{"poiid":"B2094757D464AAF54398","title":"西部高地 HIGH LAND","lon":"121.429608","lat":"31.016678","category":"47","category_name":"住宅区","address":"闵行区东川路847号(交大拖鞋门斜对面)"},{"poiid":"B2094757D16CA4FB4299","title":"阿康烧烤","lon":"121.431903","lat":"31.014861","category":"247","category_name":"餐饮美食","address":"上海市闵行区永平路"},{"poiid":"B2094655D36CA0F9459C","title":"江川东路","lon":"121.44138","lat":"31.01314","category":"38","category_name":"公交车站","address":""},{"poiid":"B2094757D068A6FD479D","title":"晟碟半导体有限公司","lon":"121.44475757","lat":"31.013914181","category":"263","category_name":"公司","address":"上海江川东路388号"},{"poiid":"B2094757D16EA3F8479C","title":"釜斯麦自助烤肉","lon":"121.43232","lat":"31.01451","category":"68","category_name":"快餐厅","address":"闵行区永平路158号(近交大闵行校区)"},{"poiid":"B2094654DB64A4FC469D","title":"上海交通大学(闵行校区)","lon":"121.43073","lat":"31.01765","category":"671","category_name":"高校中心点","address":"闵行区东川路800号上海交通大学内(近永平路)"},{"poiid":"B2094757D06FA4FA4499","title":"上海交通大学菁菁堂","lon":"121.42978692","lat":"31.017888915","category":"178","category_name":"电影院","address":"闵行区东川路800号上海交通大学校区"},{"poiid":"B2094757D06FA2F5429F","title":"上海交大闵行校区拖鞋门","lon":"121.43095039","lat":"31.017577126","category":"500","category_name":"未知分类","address":"上海市东川路800号"},{"poiid":"B2094757D06FA0FD409E","title":"上海交通大学东上院","lon":"121.43097598","lat":"31.019636672","category":"52","category_name":"高等院校","address":"上海闵行区东川路800号上海交通大学闵行校区"},{"poiid":"B2094757D068A3FE4199","title":"思源湖","lon":"121.430137634","lat":"31.0201702118","category":"234","category_name":"海滨浴场","address":"闵行区东川路800号上海交通大学拖鞋门内(近永平路)"},{"poiid":"B2094757D06FA2FF479F","title":"上海交通大学东中院","lon":"121.43776435","lat":"31.023405148","category":"253","category_name":"校园生活","address":"上海闵行区东川路800号上海交通大学闵行校区"},{"poiid":"B2094757D06FA4FB4599","title":"上海交通大学下院","lon":"121.4311441","lat":"31.021094838","category":"253","category_name":"校园生活","address":"上海闵行区东川路800号"},{"poiid":"B2094757D06FA1F54293","title":"上海交通大学第一餐饮大楼(闵行校区)","lon":"121.43191","lat":"31.0217","category":"253","category_name":"校园生活","address":"上海闵行区东川路800号上海交通大学闵行校区"},{"poiid":"B2094750D664A5FB409E","title":"大学路韩国料理","lon":"121.432","lat":"31.0172","category":"96","category_name":"韩国料理","address":"闵行区东川路(安宁路东川路)"},{"poiid":"B2094757D06BA7FC449B","title":"甜魔咖啡 交大店 Timo Coffee","lon":"121.4325478","lat":"31.0178311","category":"65","category_name":"咖啡厅","address":"闵行区东川路800号上海交通大学内"},{"poiid":"B2094757D66DA3F5479F","title":"天使的礼物咖啡店","lon":"121.43254852","lat":"31.014183044","category":"65","category_name":"咖啡厅","address":"闵行区永平路142号(近交通大学)"},{"poiid":"B2094757D069A2F94598","title":"院儿咖啡","lon":"121.43259079","lat":"31.01356043","category":"260","category_name":"其他","address":"闵行区永平路90号(近德宏路)"},{"poiid":"B2094654DB6EAAFF4092","title":"第二餐饮大楼","lon":"121.43634","lat":"31.02269","category":"257","category_name":"中餐厅","address":""},{"poiid":"B2094757D169A4F9419D","title":"御陕坊","lon":"121.432984128","lat":"31.0129414512","category":"84","category_name":"西北菜","address":"闵行区永平路41号(近交通大学)"},{"poiid":"B2094757D068A0F8409B","title":"奉浦大桥","lon":"121.4420166","lat":"31.005385894","category":"260","category_name":"其他","address":"上海奉浦大桥"},{"poiid":"B2094757D068A0F44892","title":"蜀香村川菜(东川路店)","lon":"121.43301","lat":"31.0167","category":"71","category_name":"四川菜","address":"闵行区东川路811弄1号(近交通大学)"},{"poiid":"B2094750D76FA3F4459C","title":"小雨点围着锅台吃","lon":"121.432","lat":"31.0154","category":"82","category_name":"东北菜","address":"闵行区永平路114号"},{"poiid":"B2094757D16DAAFA409B","title":"真康自助乐烤","lon":"121.43182","lat":"31.01564","category":"68","category_name":"快餐厅","address":"闵行区永平路200-204号(近交通大学)"},{"poiid":"B2094654DB65A7F4499A","title":"阿康烧烤 交大店","lon":"121.430010054","lat":"31.017358793","category":"68","category_name":"快餐厅","address":"闵行区永平路194号"},{"poiid":"B2094757D06FA6FE459D","title":"鹤北新村一街坊","lon":"121.427","lat":"31.0161","category":"47","category_name":"住宅区","address":"上海市鹤庆路136弄"},{"poiid":"B2094655D36DA3F5439D","title":"奉浦大桥","lon":"121.43934","lat":"31.0111","category":"250","category_name":"公园户外","address":""},{"poiid":"B2094757D169AAF8419F","title":"上海交通大学光彪楼博雅厅","lon":"121.437901128","lat":"31.0234186666","category":"500","category_name":"未知分类","address":"上海东川路800号"},{"poiid":"B2094750D76FA6F4469E","title":"炫锅坊麻辣香锅(永平路店)","lon":"121.432","lat":"31.0136","category":"77","category_name":"湖南菜","address":"闵行区永平路43号"},{"poiid":"B2094655D36CA5FB4299","title":"沧源小区","lon":"121.43663","lat":"31.01392","category":"47","category_name":"住宅区","address":""},{"poiid":"B2094757D66CA2FA4193","title":"上海交通大学学术活动中心宾馆","lon":"121.43309783","lat":"31.01861763","category":"76","category_name":"上海菜","address":"闵行区东川路800号上海交通大学校区内(近永平路)"},{"poiid":"B2094654DB6EAAFD4493","title":"交通大学附属实验小学","lon":"121.43473","lat":"31.01365","category":"56","category_name":"小学","address":"闵行区德宏路2366号(近永平路)"},{"poiid":"B2094757D165A5FE409C","title":"可口可乐中国总部","lon":"121.436242228","lat":"31.0205795082","category":"500","category_name":"未知分类","address":"上海闵行区东川路800号"},{"poiid":"B2094757D16EA3FD409A","title":"思源小菜","lon":"121.43322","lat":"31.01294","category":"76","category_name":"上海菜","address":"闵行区永平路118号(德宏路永平路)"},{"poiid":"B2094654DB6EAAFA409B","title":"好第坊","lon":"121.43308","lat":"31.01494","category":"47","category_name":"住宅区","address":"东川路865弄"},{"poiid":"B2094654DB6FA3FC4499","title":"北欧丽景","lon":"121.42962","lat":"31.01656","category":"47","category_name":"住宅区","address":"北欧丽景-东川花园二期位于闵行东川路755弄"},{"poiid":"B2094757D76CA0FF4699","title":"东北春饼王","lon":"121.43266","lat":"31.01412","category":"82","category_name":"东北菜","address":"闵行区永平路150号(近闵行交大)"},{"poiid":"B2094757D06BA5F94198","title":"四海游龙(永平店)","lon":"121.432143","lat":"31.015132","category":"68","category_name":"快餐厅","address":"闵行区永平路(近交大闵行校区)"},{"poiid":"B2094654DB6AA7FF419F","title":"留园","lon":"121.43172","lat":"31.01908","category":"76","category_name":"上海菜","address":"闵行区东川路880号上海交大校内(近交通大学)"},{"poiid":"B2094757D16EA7F84692","title":"村夫烤鱼(永平路店)","lon":"121.43231","lat":"31.01511","category":"71","category_name":"四川菜","address":"闵行区永平路"},{"poiid":"B2094655D36DA7FB4299","title":"紫竹园科学园区","lon":"121.43945","lat":"31.01075","category":"38","category_name":"公交车站","address":""},{"poiid":"B2094757D06AA1F54293","title":"金榜六期","lon":"121.43537866","lat":"31.015866586","category":"47","category_name":"住宅区","address":"上海闵行区东川路811号"},{"poiid":"B2094757D069A4F54192","title":"上海交通大学光明体育场","lon":"121.427507","lat":"31.018782","category":"253","category_name":"校园生活","address":"上海闵行区东川路800号上海交通大学闵行校区"},{"poiid":"B2094655D36DA0F44298","title":"永平路","lon":"121.43249","lat":"31.01408","category":"38","category_name":"公交车站","address":""},{"poiid":"B2094757D16EA1FB479C","title":"交大附小","lon":"121.433860128","lat":"31.0146474863","category":"56","category_name":"小学","address":"上海市闵行区东川路"},{"poiid":"B2094757D16CA1FC499D","title":"金榜世家","lon":"121.42746912","lat":"31.012706446","category":"500","category_name":"未知分类","address":"上海市闵行区沧源路676-684号"},{"poiid":"B2094757D06AA7F94693","title":"老妈厨房","lon":"121.43478605","lat":"31.017570695","category":"91","category_name":"台湾菜","address":"闵行区东川路811弄39号(近闵行交大)"},{"poiid":"B209475CD46CA3FD489F","title":"华东师范大学","lon":"121.436996","lat":"31.014829","category":"500","category_name":"未知分类","address":"上海市 上海闵行区"},{"poiid":"B2094750D76FA4FC439A","title":"朴氏韩国料理","lon":"121.431","lat":"31.0164","category":"96","category_name":"韩国料理","address":"闵行区永平路233-235号(近东川路)"},{"poiid":"B2094757D568A1FA479C","title":"好第坊一期","lon":"121.4324789","lat":"31.01450889","category":"47","category_name":"住宅区","address":"上海市长宁区延安西路1235弄"},{"poiid":"B2094654DB6EAAF5469F","title":"沧源新村","lon":"121.42841","lat":"31.01457","category":"47","category_name":"住宅区","address":"沧源路770弄、925弄"},{"poiid":"B2094757D464AAF54398","title":"西部高地 HIGH LAND","lon":"121.429608","lat":"31.016678","category":"47","category_name":"住宅区","address":"闵行区东川路847号(交大拖鞋门斜对面)"},{"poiid":"B2094757D16CA4FB4299","title":"阿康烧烤","lon":"121.431903","lat":"31.014861","category":"247","category_name":"餐饮美食","address":"上海市闵行区永平路"},{"poiid":"B2094655D36CA0F9459C","title":"江川东路","lon":"121.44138","lat":"31.01314","category":"38","category_name":"公交车站","address":""},{"poiid":"B2094757D068A6FD479D","title":"晟碟半导体有限公司","lon":"121.44475757","lat":"31.013914181","category":"263","category_name":"公司","address":"上海江川东路388号"},{"poiid":"B2094757D16EA3F8479C","title":"釜斯麦自助烤肉","lon":"121.43232","lat":"31.01451","category":"68","category_name":"快餐厅","address":"闵行区永平路158号(近交大闵行校区)"},{"poiid":"B2094654DB64A4FC469D","title":"上海交通大学(闵行校区)","lon":"121.43073","lat":"31.01765","category":"671","category_name":"高校中心点","address":"闵行区东川路800号上海交通大学内(近永平路)"},{"poiid":"B2094757D06FA4FA4499","title":"上海交通大学菁菁堂","lon":"121.42978692","lat":"31.017888915","category":"178","category_name":"电影院","address":"闵行区东川路800号上海交通大学校区"},{"poiid":"B2094757D06FA2F5429F","title":"上海交大闵行校区拖鞋门","lon":"121.43095039","lat":"31.017577126","category":"500","category_name":"未知分类","address":"上海市东川路800号"},{"poiid":"B2094757D06FA0FD409E","title":"上海交通大学东上院","lon":"121.43097598","lat":"31.019636672","category":"52","category_name":"高等院校","address":"上海闵行区东川路800号上海交通大学闵行校区"},{"poiid":"B2094757D068A3FE4199","title":"思源湖","lon":"121.430137634","lat":"31.0201702118","category":"234","category_name":"海滨浴场","address":"闵行区东川路800号上海交通大学拖鞋门内(近永平路)"},{"poiid":"B2094757D06FA2FF479F","title":"上海交通大学东中院","lon":"121.43776435","lat":"31.023405148","category":"253","category_name":"校园生活","address":"上海闵行区东川路800号上海交通大学闵行校区"},{"poiid":"B2094757D06FA4FB4599","title":"上海交通大学下院","lon":"121.4311441","lat":"31.021094838","category":"253","category_name":"校园生活","address":"上海闵行区东川路800号"},{"poiid":"B2094757D06FA1F54293","title":"上海交通大学第一餐饮大楼(闵行校区)","lon":"121.43191","lat":"31.0217","category":"253","category_name":"校园生活","address":"上海闵行区东川路800号上海交通大学闵行校区"},{"poiid":"B2094750D664A5FB409E","title":"大学路韩国料理","lon":"121.432","lat":"31.0172","category":"96","category_name":"韩国料理","address":"闵行区东川路(安宁路东川路)"},{"poiid":"B2094757D06BA7FC449B","title":"甜魔咖啡 交大店 Timo Coffee","lon":"121.4325478","lat":"31.0178311","category":"65","category_name":"咖啡厅","address":"闵行区东川路800号上海交通大学内"},{"poiid":"B2094757D66DA3F5479F","title":"天使的礼物咖啡店","lon":"121.43254852","lat":"31.014183044","category":"65","category_name":"咖啡厅","address":"闵行区永平路142号(近交通大学)"},{"poiid":"B2094757D069A2F94598","title":"院儿咖啡","lon":"121.43259079","lat":"31.01356043","category":"260","category_name":"其他","address":"闵行区永平路90号(近德宏路)"},{"poiid":"B2094654DB6EAAFF4092","title":"第二餐饮大楼","lon":"121.43634","lat":"31.02269","category":"257","category_name":"中餐厅","address":""},{"poiid":"B2094757D169A4F9419D","title":"御陕坊","lon":"121.432984128","lat":"31.0129414512","category":"84","category_name":"西北菜","address":"闵行区永平路41号(近交通大学)"},{"poiid":"B2094757D068A0F8409B","title":"奉浦大桥","lon":"121.4420166","lat":"31.005385894","category":"260","category_name":"其他","address":"上海奉浦大桥"},{"poiid":"B2094757D068A0F44892","title":"蜀香村川菜(东川路店)","lon":"121.43301","lat":"31.0167","category":"71","category_name":"四川菜","address":"闵行区东川路811弄1号(近交通大学)"},{"poiid":"B2094750D76FA3F4459C","title":"小雨点围着锅台吃","lon":"121.432","lat":"31.0154","category":"82","category_name":"东北菜","address":"闵行区永平路114号"},{"poiid":"B2094757D16DAAFA409B","title":"真康自助乐烤","lon":"121.43182","lat":"31.01564","category":"68","category_name":"快餐厅","address":"闵行区永平路200-204号(近交通大学)"},{"poiid":"B2094654DB65A7F4499A","title":"阿康烧烤 交大店","lon":"121.430010054","lat":"31.017358793","category":"68","category_name":"快餐厅","address":"闵行区永平路194号"},{"poiid":"B2094757D06FA6FE459D","title":"鹤北新村一街坊","lon":"121.427","lat":"31.0161","category":"47","category_name":"住宅区","address":"上海市鹤庆路136弄"},{"poiid":"B2094655D36DA3F5439D","title":"奉浦大桥","lon":"121.43934","lat":"31.0111","category":"250","category_name":"公园户外","address":""},{"poiid":"B2094757D169AAF8419F","title":"上海交通大学光彪楼博雅厅","lon":"121.437901128","lat":"31.0234186666","category":"500","category_name":"未知分类","address":"上海东川路800号"},{"poiid":"B2094750D76FA6F4469E","title":"炫锅坊麻辣香锅(永平路店)","lon":"121.432","lat":"31.0136","category":"77","category_name":"湖南菜","address":"闵行区永平路43号"},{"poiid":"B2094655D36CA5FB4299","title":"沧源小区","lon":"121.43663","lat":"31.01392","category":"47","category_name":"住宅区","address":""},{"poiid":"B2094757D66CA2FA4193","title":"上海交通大学学术活动中心宾馆","lon":"121.43309783","lat":"31.01861763","category":"76","category_name":"上海菜","address":"闵行区东川路800号上海交通大学校区内(近永平路)"},{"poiid":"B2094654DB6EAAFD4493","title":"交通大学附属实验小学","lon":"121.43473","lat":"31.01365","category":"56","category_name":"小学","address":"闵行区德宏路2366号(近永平路)"},{"poiid":"B2094757D165A5FE409C","title":"可口可乐中国总部","lon":"121.436242228","lat":"31.0205795082","category":"500","category_name":"未知分类","address":"上海闵行区东川路800号"},{"poiid":"B2094757D16EA3FD409A","title":"思源小菜","lon":"121.43322","lat":"31.01294","category":"76","category_name":"上海菜","address":"闵行区永平路118号(德宏路永平路)"},{"poiid":"B2094654DB6EAAFA409B","title":"好第坊","lon":"121.43308","lat":"31.01494","category":"47","category_name":"住宅区","address":"东川路865弄"},{"poiid":"B2094654DB6FA3FC4499","title":"北欧丽景","lon":"121.42962","lat":"31.01656","category":"47","category_name":"住宅区","address":"北欧丽景-东川花园二期位于闵行东川路755弄"},{"poiid":"B2094757D76CA0FF4699","title":"东北春饼王","lon":"121.43266","lat":"31.01412","category":"82","category_name":"东北菜","address":"闵行区永平路150号(近闵行交大)"},{"poiid":"B2094757D06BA5F94198","title":"四海游龙(永平店)","lon":"121.432143","lat":"31.015132","category":"68","category_name":"快餐厅","address":"闵行区永平路(近交大闵行校区)"},{"poiid":"B2094654DB6AA7FF419F","title":"留园","lon":"121.43172","lat":"31.01908","category":"76","category_name":"上海菜","address":"闵行区东川路880号上海交大校内(近交通大学)"},{"poiid":"B2094757D16EA7F84692","title":"村夫烤鱼(永平路店)","lon":"121.43231","lat":"31.01511","category":"71","category_name":"四川菜","address":"闵行区永平路"},{"poiid":"B2094655D36DA7FB4299","title":"紫竹园科学园区","lon":"121.43945","lat":"31.01075","category":"38","category_name":"公交车站","address":""},{"poiid":"B2094757D06AA1F54293","title":"金榜六期","lon":"121.43537866","lat":"31.015866586","category":"47","category_name":"住宅区","address":"上海闵行区东川路811号"},{"poiid":"B2094757D069A4F54192","title":"上海交通大学光明体育场","lon":"121.427507","lat":"31.018782","category":"253","category_name":"校园生活","address":"上海闵行区东川路800号上海交通大学闵行校区"},{"poiid":"B2094655D36DA0F44298","title":"永平路","lon":"121.43249","lat":"31.01408","category":"38","category_name":"公交车站","address":""},{"poiid":"B2094757D16EA1FB479C","title":"交大附小","lon":"121.433860128","lat":"31.0146474863","category":"56","category_name":"小学","address":"上海市闵行区东川路"},{"poiid":"B2094757D16CA1FC499D","title":"金榜世家","lon":"121.42746912","lat":"31.012706446","category":"500","category_name":"未知分类","address":"上海市闵行区沧源路676-684号"},{"poiid":"B2094757D06AA7F94693","title":"老妈厨房","lon":"121.43478605","lat":"31.017570695","category":"91","category_name":"台湾菜","address":"闵行区东川路811弄39号(近闵行交大)"},{"poiid":"B209475CD46CA3FD489F","title":"华东师范大学","lon":"121.436996","lat":"31.014829","category":"500","category_name":"未知分类","address":"上海市 上海闵行区"},{"poiid":"B2094750D76FA4FC439A","title":"朴氏韩国料理","lon":"121.431","lat":"31.0164","category":"96","category_name":"韩国料理","address":"闵行区永平路233-235号(近东川路)"},{"poiid":"B2094757D568A1FA479C","title":"好第坊一期","lon":"121.4324789","lat":"31.01450889","category":"47","category_name":"住宅区","address":"上海市长宁区延安西路1235弄"},{"poiid":"B2094654DB6EAAF5469F","title":"沧源新村","lon":"121.42841","lat":"31.01457","category":"47","category_name":"住宅区","address":"沧源路770弄、925弄"},{"poiid":"B2094757D464AAF54398","title":"西部高地 HIGH LAND","lon":"121.429608","lat":"31.016678","category":"47","category_name":"住宅区","address":"闵行区东川路847号(交大拖鞋门斜对面)"},{"poiid":"B2094757D16CA4FB4299","title":"阿康烧烤","lon":"121.431903","lat":"31.014861","category":"247","category_name":"餐饮美食","address":"上海市闵行区永平路"},{"poiid":"B2094655D36CA0F9459C","title":"江川东路","lon":"121.44138","lat":"31.01314","category":"38","category_name":"公交车站","address":""},{"poiid":"B2094757D068A6FD479D","title":"晟碟半导体有限公司","lon":"121.44475757","lat":"31.013914181","category":"263","category_name":"公司","address":"上海江川东路388号"},{"poiid":"B2094757D16EA3F8479C","title":"釜斯麦自助烤肉","lon":"121.43232","lat":"31.01451","category":"68","category_name":"快餐厅","address":"闵行区永平路158号(近交大闵行校区)"},{"poiid":"B2094654DB64A4FC469D","title":"上海交通大学(闵行校区)","lon":"121.43073","lat":"31.01765","category":"671","category_name":"高校中心点","address":"闵行区东川路800号上海交通大学内(近永平路)"},{"poiid":"B2094757D06FA4FA4499","title":"上海交通大学菁菁堂","lon":"121.42978692","lat":"31.017888915","category":"178","category_name":"电影院","address":"闵行区东川路800号上海交通大学校区"},{"poiid":"B2094757D06FA2F5429F","title":"上海交大闵行校区拖鞋门","lon":"121.43095039","lat":"31.017577126","category":"500","category_name":"未知分类","address":"上海市东川路800号"},{"poiid":"B2094757D06FA0FD409E","title":"上海交通大学东上院","lon":"121.43097598","lat":"31.019636672","category":"52","category_name":"高等院校","address":"上海闵行区东川路800号上海交通大学闵行校区"},{"poiid":"B2094757D068A3FE4199","title":"思源湖","lon":"121.430137634","lat":"31.0201702118","category":"234","category_name":"海滨浴场","address":"闵行区东川路800号上海交通大学拖鞋门内(近永平路)"},{"poiid":"B2094757D06FA2FF479F","title":"上海交通大学东中院","lon":"121.43776435","lat":"31.023405148","category":"253","category_name":"校园生活","address":"上海闵行区东川路800号上海交通大学闵行校区"},{"poiid":"B2094757D06FA4FB4599","title":"上海交通大学下院","lon":"121.4311441","lat":"31.021094838","category":"253","category_name":"校园生活","address":"上海闵行区东川路800号"},{"poiid":"B2094757D06FA1F54293","title":"上海交通大学第一餐饮大楼(闵行校区)","lon":"121.43191","lat":"31.0217","category":"253","category_name":"校园生活","address":"上海闵行区东川路800号上海交通大学闵行校区"},{"poiid":"B2094750D664A5FB409E","title":"大学路韩国料理","lon":"121.432","lat":"31.0172","category":"96","category_name":"韩国料理","address":"闵行区东川路(安宁路东川路)"},{"poiid":"B2094757D06BA7FC449B","title":"甜魔咖啡 交大店 Timo Coffee","lon":"121.4325478","lat":"31.0178311","category":"65","category_name":"咖啡厅","address":"闵行区东川路800号上海交通大学内"},{"poiid":"B2094757D66DA3F5479F","title":"天使的礼物咖啡店","lon":"121.43254852","lat":"31.014183044","category":"65","category_name":"咖啡厅","address":"闵行区永平路142号(近交通大学)"},{"poiid":"B2094757D069A2F94598","title":"院儿咖啡","lon":"121.43259079","lat":"31.01356043","category":"260","category_name":"其他","address":"闵行区永平路90号(近德宏路)"},{"poiid":"B2094654DB6EAAFF4092","title":"第二餐饮大楼","lon":"121.43634","lat":"31.02269","category":"257","category_name":"中餐厅","address":""},{"poiid":"B2094757D169A4F9419D","title":"御陕坊","lon":"121.432984128","lat":"31.0129414512","category":"84","category_name":"西北菜","address":"闵行区永平路41号(近交通大学)"},{"poiid":"B2094757D068A0F8409B","title":"奉浦大桥","lon":"121.4420166","lat":"31.005385894","category":"260","category_name":"其他","address":"上海奉浦大桥"},{"poiid":"B2094757D068A0F44892","title":"蜀香村川菜(东川路店)","lon":"121.43301","lat":"31.0167","category":"71","category_name":"四川菜","address":"闵行区东川路811弄1号(近交通大学)"},{"poiid":"B2094750D76FA3F4459C","title":"小雨点围着锅台吃","lon":"121.432","lat":"31.0154","category":"82","category_name":"东北菜","address":"闵行区永平路114号"},{"poiid":"B2094757D16DAAFA409B","title":"真康自助乐烤","lon":"121.43182","lat":"31.01564","category":"68","category_name":"快餐厅","address":"闵行区永平路200-204号(近交通大学)"},{"poiid":"B2094654DB65A7F4499A","title":"阿康烧烤 交大店","lon":"121.430010054","lat":"31.017358793","category":"68","category_name":"快餐厅","address":"闵行区永平路194号"},{"poiid":"B2094757D06FA6FE459D","title":"鹤北新村一街坊","lon":"121.427","lat":"31.0161","category":"47","category_name":"住宅区","address":"上海市鹤庆路136弄"},{"poiid":"B2094655D36DA3F5439D","title":"奉浦大桥","lon":"121.43934","lat":"31.0111","category":"250","category_name":"公园户外","address":""},{"poiid":"B2094757D169AAF8419F","title":"上海交通大学光彪楼博雅厅","lon":"121.437901128","lat":"31.0234186666","category":"500","category_name":"未知分类","address":"上海东川路800号"},{"poiid":"B2094750D76FA6F4469E","title":"炫锅坊麻辣香锅(永平路店)","lon":"121.432","lat":"31.0136","category":"77","category_name":"湖南菜","address":"闵行区永平路43号"},{"poiid":"B2094655D36CA5FB4299","title":"沧源小区","lon":"121.43663","lat":"31.01392","category":"47","category_name":"住宅区","address":""},{"poiid":"B2094757D66CA2FA4193","title":"上海交通大学学术活动中心宾馆","lon":"121.43309783","lat":"31.01861763","category":"76","category_name":"上海菜","address":"闵行区东川路800号上海交通大学校区内(近永平路)"},{"poiid":"B2094654DB6EAAFD4493","title":"交通大学附属实验小学","lon":"121.43473","lat":"31.01365","category":"56","category_name":"小学","address":"闵行区德宏路2366号(近永平路)"},{"poiid":"B2094757D165A5FE409C","title":"可口可乐中国总部","lon":"121.436242228","lat":"31.0205795082","category":"500","category_name":"未知分类","address":"上海闵行区东川路800号"},{"poiid":"B2094757D16EA3FD409A","title":"思源小菜","lon":"121.43322","lat":"31.01294","category":"76","category_name":"上海菜","address":"闵行区永平路118号(德宏路永平路)"},{"poiid":"B2094654DB6EAAFA409B","title":"好第坊","lon":"121.43308","lat":"31.01494","category":"47","category_name":"住宅区","address":"东川路865弄"},{"poiid":"B2094654DB6FA3FC4499","title":"北欧丽景","lon":"121.42962","lat":"31.01656","category":"47","category_name":"住宅区","address":"北欧丽景-东川花园二期位于闵行东川路755弄"},{"poiid":"B2094757D76CA0FF4699","title":"东北春饼王","lon":"121.43266","lat":"31.01412","category":"82","category_name":"东北菜","address":"闵行区永平路150号(近闵行交大)"},{"poiid":"B2094757D06BA5F94198","title":"四海游龙(永平店)","lon":"121.432143","lat":"31.015132","category":"68","category_name":"快餐厅","address":"闵行区永平路(近交大闵行校区)"},{"poiid":"B2094654DB6AA7FF419F","title":"留园","lon":"121.43172","lat":"31.01908","category":"76","category_name":"上海菜","address":"闵行区东川路880号上海交大校内(近交通大学)"},{"poiid":"B2094757D16EA7F84692","title":"村夫烤鱼(永平路店)","lon":"121.43231","lat":"31.01511","category":"71","category_name":"四川菜","address":"闵行区永平路"},{"poiid":"B2094655D36DA7FB4299","title":"紫竹园科学园区","lon":"121.43945","lat":"31.01075","category":"38","category_name":"公交车站","address":""},{"poiid":"B2094757D06AA1F54293","title":"金榜六期","lon":"121.43537866","lat":"31.015866586","category":"47","category_name":"住宅区","address":"上海闵行区东川路811号"},{"poiid":"B2094757D069A4F54192","title":"上海交通大学光明体育场","lon":"121.427507","lat":"31.018782","category":"253","category_name":"校园生活","address":"上海闵行区东川路800号上海交通大学闵行校区"},{"poiid":"B2094655D36DA0F44298","title":"永平路","lon":"121.43249","lat":"31.01408","category":"38","category_name":"公交车站","address":""},{"poiid":"B2094757D16EA1FB479C","title":"交大附小","lon":"121.433860128","lat":"31.0146474863","category":"56","category_name":"小学","address":"上海市闵行区东川路"},{"poiid":"B2094757D16CA1FC499D","title":"金榜世家","lon":"121.42746912","lat":"31.012706446","category":"500","category_name":"未知分类","address":"上海市闵行区沧源路676-684号"},{"poiid":"B2094757D06AA7F94693","title":"老妈厨房","lon":"121.43478605","lat":"31.017570695","category":"91","category_name":"台湾菜","address":"闵行区东川路811弄39号(近闵行交大)"},{"poiid":"B209475CD46CA3FD489F","title":"华东师范大学","lon":"121.436996","lat":"31.014829","category":"500","category_name":"未知分类","address":"上海市 上海闵行区"},{"poiid":"B2094750D76FA4FC439A","title":"朴氏韩国料理","lon":"121.431","lat":"31.0164","category":"96","category_name":"韩国料理","address":"闵行区永平路233-235号(近东川路)"},{"poiid":"B2094757D568A1FA479C","title":"好第坊一期","lon":"121.4324789","lat":"31.01450889","category":"47","category_name":"住宅区","address":"上海市长宁区延安西路1235弄"},{"poiid":"B2094654DB6EAAF5469F","title":"沧源新村","lon":"121.42841","lat":"31.01457","category":"47","category_name":"住宅区","address":"沧源路770弄、925弄"},{"poiid":"B2094757D464AAF54398","title":"西部高地 HIGH LAND","lon":"121.429608","lat":"31.016678","category":"47","category_name":"住宅区","address":"闵行区东川路847号(交大拖鞋门斜对面)"},{"poiid":"B2094757D16CA4FB4299","title":"阿康烧烤","lon":"121.431903","lat":"31.014861","category":"247","category_name":"餐饮美食","address":"上海市闵行区永平路"},{"poiid":"B2094655D36CA0F9459C","title":"江川东路","lon":"121.44138","lat":"31.01314","category":"38","category_name":"公交车站","address":""},{"poiid":"B2094757D068A6FD479D","title":"晟碟半导体有限公司","lon":"121.44475757","lat":"31.013914181","category":"263","category_name":"公司","address":"上海江川东路388号"},{"poiid":"B2094757D16EA3F8479C","title":"釜斯麦自助烤肉","lon":"121.43232","lat":"31.01451","category":"68","category_name":"快餐厅","address":"闵行区永平路158号(近交大闵行校区)"}]