[{"poiid":"B2094655D268ABFC4692","title":"仲盛世界商城","lon":"121.394514","lat":"31.114042","category":"119","category_name":"商场","address":"上海闵行区都市路5001号(莘庄地铁站南广场)"},{"poiid":"B2094757D06EAAF5419A","title":"莘庄地铁站南广场","lon":"121.38750035","lat":"31.109875711","category":"250","category_name":"公园户外","address":"上海闵行区梅陇西路(莘庄地铁站南)"},{"poiid":"B2094757D068A3F9449C","title":"锦江乐园摩天轮","lon":"121.39376546","lat":"31.115948008","category":"195","category_name":"游乐场","address":"上海闵行区虹梅路201号锦江乐园内"},{"poiid":"B2094757D06FA5F5469F","title":"洋葱餐厅(莘庄仲盛店)","lon":"121.38824","lat":"31.11","category":"72","category_name":"广东菜","address":"闵行区都市路5001号仲盛世界商城4楼(近莘庄地铁南广场)"},{"poiid":"B2094757D068A5FC459F","title":"红宝石(宝城路店)","lon":"121.39093","lat":"31.11005","category":"67","category_name":"甜品店","address":"闵行区宝城路456号(莘朱路口)"},{"poiid":"B2094757D068A3FD489A","title":"莘城公寓","lon":"121.39272","lat":"31.10881","category":"252","category_name":"楼宇机构","address":"莘城公寓位于闵行宝城路158弄(近莘朱路)"},{"poiid":"B2094757D16CA1FB419F","title":"江南名邸","lon":"121.39625","lat":"31.108831","category":"47","category_name":"住宅区","address":"上海市闵行区高兴路666弄"},{"poiid":"B2094757D165A1F54893","title":"绿地科技岛","lon":"121.39573209529","lat":"31.11807358381","category":"249","category_name":"购物服务","address":"闵行区广通路18号(莘建东路口)"},{"poiid":"B2094757D069A0FB4792","title":"塔哈尔-新疆盛宴(莘庄店)","lon":"121.38962","lat":"31.11328","category":"90","category_name":"清真餐馆","address":"闵行区梅陇西路2094号(近莘庄地铁南广场)"},{"poiid":"B2094757D068ABFF4892","title":"塞纳左岸","lon":"121.389952","lat":"31.111849","category":"47","category_name":"住宅区","address":"塞纳左岸(二期)位于闵行宝城路500弄"},{"poiid":"B2094654DB69A5FF439B","title":"莫泰168连锁旅店(畹町路店)","lon":"121.39817","lat":"31.11209","category":"216","category_name":"经济型连锁酒店","address":"闵行区畹町路479号(近春申路)"},{"poiid":"B2094757D06AA1FF4292","title":"鱼门客栈 莘庄店","lon":"121.386659054","lat":"31.111577793","category":"71","category_name":"四川菜","address":"闵行区梅陇西路2100号地铁南广场(莘朱路口)"},{"poiid":"B2094753D46FAAFA479C","title":"热带风暴","lon":"121.393112","lat":"31.113943","category":"247","category_name":"餐饮美食","address":"上海市 闵行区"},{"poiid":"B2094757D068ABFE449C","title":"中祥哥德堡","lon":"121.392587","lat":"31.109343","category":"500","category_name":"未知分类","address":"中祥哥德堡位于闵行珠城路99弄"},{"poiid":"B2094757D66BA3F8459B","title":"新湘驿湘菜馆","lon":"121.391231","lat":"31.110395","category":"77","category_name":"湖南菜","address":"闵行区莘朱路470号(近宝城路)"},{"poiid":"B2094757D16CA6FD4498","title":"吉乃川","lon":"121.38842","lat":"31.11169","category":"95","category_name":"日本料理","address":"闵行区梅陇西路2072号(近莘庄地铁南广场)"},{"poiid":"B2094750D66BAAF5459D","title":"塔哈尔羊蝎子火锅","lon":"121.396","lat":"31.1121","category":"86","category_name":"火锅店","address":"闵行区莘朱路751号(近莘吉路)"},{"poiid":"B2094654DB6CABF44898","title":"京世造型美容(莘朱路)","lon":"121.38874","lat":"31.10882","category":"148","category_name":"美容美发店","address":"莘朱路325"},{"poiid":"B2094752D46AA2F8469C","title":"中国农业银行都市路分理处","lon":"121.393122","lat":"31.112159","category":"150","category_name":"银行","address":"上海市闵行区都市路5001号仲盛商城1楼"},{"poiid":"B2094757D169A0FA409C","title":"东林小厨","lon":"121.388454","lat":"31.11028","category":"72","category_name":"广东菜","address":"闵行区都市路5066号(近地铁莘庄站南广场出口)"},{"poiid":"B2094757D064A7FF459F","title":"中国银行莘庄支行(财富中心)","lon":"121.391049357","lat":"31.1137589375","category":"150","category_name":"银行","address":"上海市闵行区广通路18号"},{"poiid":"B2094757D068A4FB489A","title":"牛蛙风暴","lon":"121.38775814","lat":"31.110006366","category":"71","category_name":"四川菜","address":"闵行区都市路5001号仲盛世界商城B1楼(都市路友情路)"},{"poiid":"B2094750D664A6FF4798","title":"凯司令西点房(莘朱路店)","lon":"121.391","lat":"31.1098","category":"67","category_name":"甜品店","address":"闵行区莘朱路451号(近宝城路)"},{"poiid":"B2094654DB6CAAFF499A","title":"新空间家园","lon":"121.3947","lat":"31.110685","category":"47","category_name":"住宅区","address":"上海市闵行区莘朱路651弄"},{"poiid":"B2094654DB64A1FF4598","title":"上岛咖啡(莘庄地铁店)","lon":"121.38856","lat":"31.10876","category":"260","category_name":"其他","address":"闵行区莘庄地铁(近莘朱路)"},{"poiid":"B2094654DB6CAAFC449D","title":"悦庭幼儿园","lon":"121.39177","lat":"31.11062","category":"57","category_name":"幼儿园","address":""},{"poiid":"B2094654DB6CAAFC409F","title":"莘梓苑","lon":"121.38945","lat":"31.110664","category":"47","category_name":"住宅区","address":"上海市闵行区莲花南路1288弄"},{"poiid":"B2094757D16DA4FF4299","title":"贝儿多爸爸(仲盛店)","lon":"121.393676657","lat":"31.110787278","category":"247","category_name":"餐饮美食","address":"上海闵行区都市路5001号仲盛世界商城B1楼"},{"poiid":"B2094654DB6CABFD4393","title":"伊甸园水果连锁超市NO.03","lon":"121.39432","lat":"31.11169","category":"117","category_name":"便民商店/便利店","address":""},{"poiid":"B2094757D569A6FA479E","title":"名都新城四期","lon":"121.398","lat":"31.1148","category":"47","category_name":"住宅区","address":"上海市闵行区友情路50弄"},{"poiid":"B2094655D26EAAF54099","title":"萌萌夜酒吧","lon":"121.39424","lat":"31.11166","category":"172","category_name":"酒吧","address":""},{"poiid":"B2094757D66CABFC439D","title":"蜀怡浓酒家","lon":"121.395901054","lat":"31.111994793","category":"71","category_name":"四川菜","address":"闵行区莘朱路763号(近畹町路)"},{"poiid":"B2094757D069A4FD409F","title":"7-ELEVEN(绿地蓝海店)","lon":"121.386974","lat":"31.114544","category":"117","category_name":"便民商店/便利店","address":"闵行区莘建东路58弄3号101-103号(近绿地蓝海科技岛广场)"},{"poiid":"B2094654DB6CAAFC469B","title":"闵行区交通法规考试中心","lon":"121.38999","lat":"31.11446","category":"190","category_name":"培训机构","address":"梅陇西路1960"},{"poiid":"B2094750D76EA7FE489D","title":"西域郎烧烤(莘庄店)","lon":"121.391","lat":"31.1091","category":"68","category_name":"快餐厅","address":"闵行区宝城路466号(近莘朱路)"},{"poiid":"B2094757D569A2FF499F","title":"莘庄社区卫生服务中心莘城服务站","lon":"121.39231364","lat":"31.11024929","category":"162","category_name":"医院","address":"莘朱路489"},{"poiid":"B2094654DB64A6FA4093","title":"部落情火锅","lon":"121.39088","lat":"31.11022","category":"247","category_name":"餐饮美食","address":"闵行区莘朱路450号(宝城路)"},{"poiid":"B2094757D66CABF44293","title":"中国农业银行奉浦支行","lon":"121.39097785","lat":"31.111528592","category":"150","category_name":"银行","address":"上海市奉贤区环城东路460号"},{"poiid":"B2094655D268A2FF419C","title":"福家小菜","lon":"121.397","lat":"31.11234","category":"76","category_name":"上海菜","address":"闵行区莘朱路775号(近畹町路)"},{"poiid":"B2094757D568A7F9419A","title":"修身堂(闵行分店)","lon":"121.3903928","lat":"31.10953152","category":"148","category_name":"美容美发店","address":"闵行区莘朱路425号"},{"poiid":"B2094654DB6CA4FE4492","title":"快客No.6437","lon":"121.39606","lat":"31.11237","category":"117","category_name":"便民商店/便利店","address":"莘朱路739号"},{"poiid":"B2094655D36DA7F4409F","title":"莘朱路莘吉路","lon":"121.39631","lat":"31.11231","category":"38","category_name":"公交车站","address":""},{"poiid":"B2094757D064AAFD449B","title":"余记小厨(梅陇西路店)","lon":"121.38868","lat":"31.11124","category":"247","category_name":"餐饮美食","address":"上海闵行区莘庄地铁南广场梅陇西路2078号  "},{"poiid":"B2094654DB6CABF4489F","title":"永琪美容美发(都市路)","lon":"121.38896","lat":"31.1095","category":"148","category_name":"美容美发店","address":"莘朱路388"},{"poiid":"B2094654DB6CABF54092","title":"好德便利NO.616","lon":"121.39122","lat":"31.10941","category":"117","category_name":"便民商店/便利店","address":"宝城路334"},{"poiid":"B2094655D26FAAFE469C","title":"新空间家园(北门)","lon":"121.39455","lat":"31.11121","category":"48","category_name":"楼宇大门","address":"莘朱路651弄"},{"poiid":"B2094757D56EA5FB439F","title":"山间堂民间瓦缸煨汤馆(莘庄店)","lon":"121.389173269273","lat":"31.1084286355818","category":"260","category_name":"其他","address":"闵行区都市路5001号仲盛世界商城4楼15号(近莘庄地铁南广场)"},{"poiid":"B2094654DB6CAAF8479B","title":"莘南花苑商办楼","lon":"121.39706","lat":"31.11237","category":"46","category_name":"楼宇","address":"莘朱路779"},{"poiid":"B2094654DB6CABF5409E","title":"文峰美发美容莘朱路店","lon":"121.39058","lat":"31.1096","category":"148","category_name":"美容美发店","address":"莘朱路435"},{"poiid":"B2094654DB6CAAFC4092","title":"中国移动都市路营业厅","lon":"121.38875","lat":"31.10975","category":"151","category_name":"电讯营业厅","address":"都市路5048"},{"poiid":"B2094655D268ABFC4692","title":"仲盛世界商城","lon":"121.394514","lat":"31.114042","category":"119","category_name":"商场","address":"上海闵行区都市路5001号(莘庄地铁站南广场)"},{"poiid":"B2094757D06EAAF5419A","title":"莘庄地铁站南广场","lon":"121.38750035","lat":"31.109875711","category":"250","category_name":"公园户外","address":"上海闵行区梅陇西路(莘庄地铁站南)"},{"poiid":"B2094757D068A3F9449C","title":"锦江乐园摩天轮","lon":"121.39376546","lat":"31.115948008","category":"195","category_name":"游乐场","address":"上海闵行区虹梅路201号锦江乐园内"},{"poiid":"B2094757D06FA5F5469F","title":"洋葱餐厅(莘庄仲盛店)","lon":"121.38824","lat":"31.11","category":"72","category_name":"广东菜","address":"闵行区都市路5001号仲盛世界商城4楼(近莘庄地铁南广场)"},{"poiid":"B2094757D068A5FC459F","title":"红宝石(宝城路店)","lon":"121.39093","lat":"31.11005","category":"67","category_name":"甜品店","address":"闵行区宝城路456号(莘朱路口)"},{"poiid":"B2094757D068A3FD489A","title":"莘城公寓","lon":"121.39272","lat":"31.10881","category":"252","category_name":"楼宇机构","address":"莘城公寓位于闵行宝城路158弄(近莘朱路)"},{"poiid":"B2094757D16CA1FB419F","title":"江南名邸","lon":"121.39625","lat":"31.108831","category":"47","category_name":"住宅区","address":"上海市闵行区高兴路666弄"},{"poiid":"B2094757D165A1F54893","title":"绿地科技岛","lon":"121.39573209529","lat":"31.11807358381","category":"249","category_name":"购物服务","address":"闵行区广通路18号(莘建东路口)"},{"poiid":"B2094757D069A0FB4792","title":"塔哈尔-新疆盛宴(莘庄店)","lon":"121.38962","lat":"31.11328","category":"90","category_name":"清真餐馆","address":"闵行区梅陇西路2094号(近莘庄地铁南广场)"},{"poiid":"B2094757D068ABFF4892","title":"塞纳左岸","lon":"121.389952","lat":"31.111849","category":"47","category_name":"住宅区","address":"塞纳左岸(二期)位于闵行宝城路500弄"},{"poiid":"B2094654DB69A5FF439B","title":"莫泰168连锁旅店(畹町路店)","lon":"121.39817","lat":"31.11209","category":"216","category_name":"经济型连锁酒店","address":"闵行区畹町路479号(近春申路)"},{"poiid":"B2094757D06AA1FF4292","title":"鱼门客栈 莘庄店","lon":"121.386659054","lat":"31.111577793","category":"71","category_name":"四川菜","address":"闵行区梅陇西路2100号地铁南广场(莘朱路口)"},{"poiid":"B2094753D46FAAFA479C","title":"热带风暴","lon":"121.393112","lat":"31.113943","category":"247","category_name":"餐饮美食","address":"上海市 闵行区"},{"poiid":"B2094757D068ABFE449C","title":"中祥哥德堡","lon":"121.392587","lat":"31.109343","category":"500","category_name":"未知分类","address":"中祥哥德堡位于闵行珠城路99弄"},{"poiid":"B2094757D66BA3F8459B","title":"新湘驿湘菜馆","lon":"121.391231","lat":"31.110395","category":"77","category_name":"湖南菜","address":"闵行区莘朱路470号(近宝城路)"},{"poiid":"B2094757D16CA6FD4498","title":"吉乃川","lon":"121.38842","lat":"31.11169","category":"95","category_name":"日本料理","address":"闵行区梅陇西路2072号(近莘庄地铁南广场)"},{"poiid":"B2094750D66BAAF5459D","title":"塔哈尔羊蝎子火锅","lon":"121.396","lat":"31.1121","category":"86","category_name":"火锅店","address":"闵行区莘朱路751号(近莘吉路)"},{"poiid":"B2094654DB6CABF44898","title":"京世造型美容(莘朱路)","lon":"121.38874","lat":"31.10882","category":"148","category_name":"美容美发店","address":"莘朱路325"},{"poiid":"B2094752D46AA2F8469C","title":"中国农业银行都市路分理处","lon":"121.393122","lat":"31.112159","category":"150","category_name":"银行","address":"上海市闵行区都市路5001号仲盛商城1楼"},{"poiid":"B2094757D169A0FA409C","title":"东林小厨","lon":"121.388454","lat":"31.11028","category":"72","category_name":"广东菜","address":"闵行区都市路5066号(近地铁莘庄站南广场出口)"},{"poiid":"B2094757D064A7FF459F","title":"中国银行莘庄支行(财富中心)","lon":"121.391049357","lat":"31.1137589375","category":"150","category_name":"银行","address":"上海市闵行区广通路18号"},{"poiid":"B2094757D068A4FB489A","title":"牛蛙风暴","lon":"121.38775814","lat":"31.110006366","category":"71","category_name":"四川菜","address":"闵行区都市路5001号仲盛世界商城B1楼(都市路友情路)"},{"poiid":"B2094750D664A6FF4798","title":"凯司令西点房(莘朱路店)","lon":"121.391","lat":"31.1098","category":"67","category_name":"甜品店","address":"闵行区莘朱路451号(近宝城路)"},{"poiid":"B2094654DB6CAAFF499A","title":"新空间家园","lon":"121.3947","lat":"31.110685","category":"47","category_name":"住宅区","address":"上海市闵行区莘朱路651弄"},{"poiid":"B2094654DB64A1FF4598","title":"上岛咖啡(莘庄地铁店)","lon":"121.38856","lat":"31.10876","category":"260","category_name":"其他","address":"闵行区莘庄地铁(近莘朱路)"},{"poiid":"B2094654DB6CAAFC449D","title":"悦庭幼儿园","lon":"121.39177","lat":"31.11062","category":"57","category_name":"幼儿园","address":""},{"poiid":"B2094654DB6CAAFC409F","title":"莘梓苑","lon":"121.38945","lat":"31.110664","category":"47","category_name":"住宅区","address":"上海市闵行区莲花南路1288弄"},{"poiid":"B2094757D16DA4FF4299","title":"贝儿多爸爸(仲盛店)","lon":"121.393676657","lat":"31.110787278","category":"247","category_name":"餐饮美食","address":"上海闵行区都市路5001号仲盛世界商城B1楼"},{"poiid":"B2094654DB6CABFD4393","title":"伊甸园水果连锁超市NO.03","lon":"121.39432","lat":"31.11169","category":"117","category_name":"便民商店/便利店","address":""},{"poiid":"B2094757D569A6FA479E","title":"名都新城四期","lon":"121.398","lat":"31.1148","category":"47","category_name":"住宅区","address":"上海市闵行区友情路50弄"},{"poiid":"B2094655D26EAAF54099","title":"萌萌夜酒吧","lon":"121.39424","lat":"31.11166","category":"172","category_name":"酒吧","address":""},{"poiid":"B2094757D66CABFC439D","title":"蜀怡浓酒家","lon":"121.395901054","lat":"31.111994793","category":"71","category_name":"四川菜","address":"闵行区莘朱路763号(近畹町路)"},{"poiid":"B2094757D069A4FD409F","title":"7-ELEVEN(绿地蓝海店)","lon":"121.386974","lat":"31.114544","category":"117","category_name":"便民商店/便利店","address":"闵行区莘建东路58弄3号101-103号(近绿地蓝海科技岛广场)"},{"poiid":"B2094654DB6CAAFC469B","title":"闵行区交通法规考试中心","lon":"121.38999","lat":"31.11446","category":"190","category_name":"培训机构","address":"梅陇西路1960"},{"poiid":"B2094750D76EA7FE489D","title":"西域郎烧烤(莘庄店)","lon":"121.391","lat":"31.1091","category":"68","category_name":"快餐厅","address":"闵行区宝城路466号(近莘朱路)"},{"poiid":"B2094757D569A2FF499F","title":"莘庄社区卫生服务中心莘城服务站","lon":"121.39231364","lat":"31.11024929","category":"162","category_name":"医院","address":"莘朱路489"},{"poiid":"B2094654DB64A6FA4093","title":"部落情火锅","lon":"121.39088","lat":"31.11022","category":"247","category_name":"餐饮美食","address":"闵行区莘朱路450号(宝城路)"},{"poiid":"B2094757D66CABF44293","title":"中国农业银行奉浦支行","lon":"121.39097785","lat":"31.111528592","category":"150","category_name":"银行","address":"上海市奉贤区环城东路460号"},{"poiid":"B2094655D268A2FF419C","title":"福家小菜","lon":"121.397","lat":"31.11234","category":"76","category_name":"上海菜","address":"闵行区莘朱路775号(近畹町路)"},{"poiid":"B2094757D568A7F9419A","title":"修身堂(闵行分店)","lon":"121.3903928","lat":"31.10953152","category":"148","category_name":"美容美发店","address":"闵行区莘朱路425号"},{"poiid":"B2094654DB6CA4FE4492","title":"快客No.6437","lon":"121.39606","lat":"31.11237","category":"117","category_name":"便民商店/便利店","address":"莘朱路739号"},{"poiid":"B2094655D36DA7F4409F","title":"莘朱路莘吉路","lon":"121.39631","lat":"31.11231","category":"38","category_name":"公交车站","address":""},{"poiid":"B2094757D064AAFD449B","title":"余记小厨(梅陇西路店)","lon":"121.38868","lat":"31.11124","category":"247","category_name":"餐饮美食","address":"上海闵行区莘庄地铁南广场梅陇西路2078号  "},{"poiid":"B2094654DB6CABF4489F","title":"永琪美容美发(都市路)","lon":"121.38896","lat":"31.1095","category":"148","category_name":"美容美发店","address":"莘朱路388"},{"poiid":"B2094654DB6CABF54092","title":"好德便利NO.616","lon":"121.39122","lat":"31.10941","category":"117","category_name":"便民商店/便利店","address":"宝城路334"},{"poiid":"B2094655D26FAAFE469C","title":"新空间家园(北门)","lon":"121.39455","lat":"31.11121","category":"48","category_name":"楼宇大门","address":"莘朱路651弄"},{"poiid":"B2094757D56EA5FB439F","title":"山间堂民间瓦缸煨汤馆(莘庄店)","lon":"121.389173269273","lat":"31.1084286355818","category":"260","category_name":"其他","address":"闵行区都市路5001号仲盛世界商城4楼15号(近莘庄地铁南广场)"},{"poiid":"B2094654DB6CAAF8479B","title":"莘南花苑商办楼","lon":"121.39706","lat":"31.11237","category":"46","category_name":"楼宇","address":"莘朱路779"},{"poiid":"B2094654DB6CABF5409E","title":"文峰美发美容莘朱路店","lon":"121.39058","lat":"31.1096","category":"148","category_name":"美容美发店","address":"莘朱路435"},{"poiid":"B2094654DB6CAAFC4092","title":"中国移动都市路营业厅","lon":"121.38875","lat":"31.10975","category":"151","category_name":"电讯营业厅","address":"都市路5048"},{"poiid":"B2094655D268ABFC4692","title":"仲盛世界商城","lon":"121.394514","lat":"31.114042","category":"119","category_name":"商场","address":"上海闵行区都市路5001号(莘庄地铁站南广场)"},{"poiid":"B2094757D06EAAF5419A","title":"莘庄地铁站南广场","lon":"121.38750035","lat":"31.109875711","category":"250","category_name":"公园户外","address":"上海闵行区梅陇西路(莘庄地铁站南)"},{"poiid":"B2094757D068A3F9449C","title":"锦江乐园摩天轮","lon":"121.39376546","lat":"31.115948008","category":"195","category_name":"游乐场","address":"上海闵行区虹梅路201号锦江乐园内"},{"poiid":"B2094757D06FA5F5469F","title":"洋葱餐厅(莘庄仲盛店)","lon":"121.38824","lat":"31.11","category":"72","category_name":"广东菜","address":"闵行区都市路5001号仲盛世界商城4楼(近莘庄地铁南广场)"},{"poiid":"B2094757D068A5FC459F","title":"红宝石(宝城路店)","lon":"121.39093","lat":"31.11005","category":"67","category_name":"甜品店","address":"闵行区宝城路456号(莘朱路口)"},{"poiid":"B2094757D068A3FD489A","title":"莘城公寓","lon":"121.39272","lat":"31.10881","category":"252","category_name":"楼宇机构","address":"莘城公寓位于闵行宝城路158弄(近莘朱路)"},{"poiid":"B2094757D16CA1FB419F","title":"江南名邸","lon":"121.39625","lat":"31.108831","category":"47","category_name":"住宅区","address":"上海市闵行区高兴路666弄"},{"poiid":"B2094757D165A1F54893","title":"绿地科技岛","lon":"121.39573209529","lat":"31.11807358381","category":"249","category_name":"购物服务","address":"闵行区广通路18号(莘建东路口)"},{"poiid":"B2094757D069A0FB4792","title":"塔哈尔-新疆盛宴(莘庄店)","lon":"121.38962","lat":"31.11328","category":"90","category_name":"清真餐馆","address":"闵行区梅陇西路2094号(近莘庄地铁南广场)"},{"poiid":"B2094757D068ABFF4892","title":"塞纳左岸","lon":"121.389952","lat":"31.111849","category":"47","category_name":"住宅区","address":"塞纳左岸(二期)位于闵行宝城路500弄"},{"poiid":"B2094654DB69A5FF439B","title":"莫泰168连锁旅店(畹町路店)","lon":"121.39817","lat":"31.11209","category":"216","category_name":"经济型连锁酒店","address":"闵行区畹町路479号(近春申路)"},{"poiid":"B2094757D06AA1FF4292","title":"鱼门客栈 莘庄店","lon":"121.386659054","lat":"31.111577793","category":"71","category_name":"四川菜","address":"闵行区梅陇西路2100号地铁南广场(莘朱路口)"},{"poiid":"B2094753D46FAAFA479C","title":"热带风暴","lon":"121.393112","lat":"31.113943","category":"247","category_name":"餐饮美食","address":"上海市 闵行区"},{"poiid":"B2094757D068ABFE449C","title":"中祥哥德堡","lon":"121.392587","lat":"31.109343","category":"500","category_name":"未知分类","address":"中祥哥德堡位于闵行珠城路99弄"},{"poiid":"B2094757D66BA3F8459B","title":"新湘驿湘菜馆","lon":"121.391231","lat":"31.110395","category":"77","category_name":"湖南菜","address":"闵行区莘朱路470号(近宝城路)"},{"poiid":"B2094757D16CA6FD4498","title":"吉乃川","lon":"121.38842","lat":"31.11169","category":"95","category_name":"日本料理","address":"闵行区梅陇西路2072号(近莘庄地铁南广场)"},{"poiid":"B2094750D66BAAF5459D","title":"塔哈尔羊蝎子火锅","lon":"121.396","lat":"31.1121","category":"86","category_name":"火锅店","address":"闵行区莘朱路751号(近莘吉路)"},{"poiid":"B2094654DB6CABF44898","title":"京世造型美容(莘朱路)","lon":"121.38874","lat":"31.10882","category":"148","category_name":"美容美发店","address":"莘朱路325"},{"poiid":"B2094752D46AA2F8469C","title":"中国农业银行都市路分理处","lon":"121.393122","lat":"31.112159","category":"150","category_name":"银行","address":"上海市闵行区都市路5001号仲盛商城1楼"},{"poiid":"B2094757D169A0FA409C","title":"东林小厨","lon":"121.388454","lat":"31.11028","category":"72","category_name":"广东菜","address":"闵行区都市路5066号(近地铁莘庄站南广场出口)"},{"poiid":"B2094757D064A7FF459F","title":"中国银行莘庄支行(财富中心)","lon":"121.391049357","lat":"31.1137589375","category":"150","category_name":"银行","address":"上海市闵行区广通路18号"},{"poiid":"B2094757D068A4FB489A","title":"牛蛙风暴","lon":"121.38775814","lat":"31.110006366","category":"71","category_name":"四川菜","address":"闵行区都市路5001号仲盛世界商城B1楼(都市路友情路)"},{"poiid":"B2094750D664A6FF4798","title":"凯司令西点房(莘朱路店)","lon":"121.391","lat":"31.1098","category":"67","category_name":"甜品店","address":"闵行区莘朱路451号(近宝城路)"},{"poiid":"B2094654DB6CAAFF499A","title":"新空间家园","lon":"121.3947","lat":"31.110685","category":"47","category_name":"住宅区","address":"上海市闵行区莘朱路651弄"},{"poiid":"B2094654DB64A1FF4598","title":"上岛咖啡(莘庄地铁店)","lon":"121.38856","lat":"31.10876","category":"260","category_name":"其他","address":"闵行区莘庄地铁(近莘朱路)"},{"poiid":"B2094654DB6CAAFC449D","title":"悦庭幼儿园","lon":"121.39177","lat":"31.11062","category":"57","category_name":"幼儿园","address":""},{"poiid":"B2094654DB6CAAFC409F","title":"莘梓苑","lon":"121.38945","lat":"31.110664","category":"47","category_name":"住宅区","address":"上海市闵行区莲花南路1288弄"},{"poiid":"B2094757D16DA4FF4299","title":"贝儿多爸爸(仲盛店)","lon":"121.393676657","lat":"31.110787278","category":"247","category_name":"餐饮美食","address":"上海闵行区都市路5001号仲盛世界商城B1楼"},{"poiid":"B2094654DB6CABFD4393","title":"伊甸园水果连锁超市NO.03","lon":"121.39432","lat":"31.11169","category":"117","category_name":"便民商店/便利店","address":""},{"poiid":"B2094757D569A6FA479E","title":"名都新城四期","lon":"121.398","lat":"31.1148","category":"47","category_name":"住宅区","address":"上海市闵行区友情路50弄"},{"poiid":"B2094655D26EAAF54099","title":"萌萌夜酒吧","lon":"121.39424","lat":"31.11166","category":"172","category_name":"酒吧","address":""},{"poiid":"B2094757D66CABFC439D","title":"蜀怡浓酒家","lon":"121.395901054","lat":"31.111994793","category":"71","category_name":"四川菜","address":"闵行区莘朱路763号(近畹町路)"},{"poiid":"B2094757D069A4FD409F","title":"7-ELEVEN(绿地蓝海店)","lon":"121.386974","lat":"31.114544","category":"117","category_name":"便民商店/便利店","address":"闵行区莘建东路58弄3号101-103号(近绿地蓝海科技岛广场)"},{"poiid":"B2094654DB6CAAFC469B","title":"闵行区交通法规考试中心","lon":"121.38999","lat":"31.11446","category":"190","category_name":"培训机构","address":"梅陇西路1960"},{"poiid":"B2094750D76EA7FE489D","title":"西域郎烧烤(莘庄店)","lon":"121.391","lat":"31.1091","category":"68","category_name":"快餐厅","address":"闵行区宝城路466号(近莘朱路)"},{"poiid":"B2094757D569A2FF499F","title":"莘庄社区卫生服务中心莘城服务站","lon":"121.39231364","lat":"31.11024929","category":"162","category_name":"医院","address":"莘朱路489"},{"poiid":"B2094654DB64A6FA4093","title":"部落情火锅","lon":"121.39088","lat":"31.11022","category":"247","category_name":"餐饮美食","address":"闵行区莘朱路450号(宝城路)"},{"poiid":"B2094757D66CABF44293","title":"中国农业银行奉浦支行","lon":"121.39097785","lat":"31.111528592","category":"150","category_name":"银行","address":"上海市奉贤区环城东路460号"},{"poiid":"B2094655D268A2FF419C","title":"福家小菜","lon":"121.397","lat":"31.11234","category":"76","category_name":"上海菜","address":"闵行区莘朱路775号(近畹町路)"},{"poiid":"B2094757D568A7F9419A","title":"修身堂(闵行分店)","lon":"121.3903928","lat":"31.10953152","category":"148","category_name":"美容美发店","address":"闵行区莘朱路425号"},{"poiid":"B2094654DB6CA4FE4492","title":"快客No.6437","lon":"121.39606","lat":"31.11237","category":"117","category_name":"便民商店/便利店","address":"莘朱路739号"},{"poiid":"B2094655D36DA7F4409F","title":"莘朱路莘吉路","lon":"121.39631","lat":"31.11231","category":"38","category_name":"公交车站","address":""},{"poiid":"B2094757D064AAFD449B","title":"余记小厨(梅陇西路店)","lon":"121.38868","lat":"31.11124","category":"247","category_name":"餐饮美食","address":"上海闵行区莘庄地铁南广场梅陇西路2078号  "},{"poiid":"B2094654DB6CABF4489F","title":"永琪美容美发(都市路)","lon":"121.38896","lat":"31.1095","category":"148","category_name":"美容美发店","address":"莘朱路388"},{"poiid":"B2094654DB6CABF54092","title":"好德便利NO.616","lon":"121.39122","lat":"31.10941","category":"117","category_name":"便民商店/便利店","address":"宝城路334"},{"poiid":"B2094655D26FAAFE469C","title":"新空间家园(北门)","lon":"121.39455","lat":"31.11121","category":"48","category_name":"楼宇大门","address":"莘朱路651弄"},{"poiid":"B2094757D56EA5FB439F","title":"山间堂民间瓦缸煨汤馆(莘庄店)","lon":"121.389173269273","lat":"31.1084286355818","category":"260","category_name":"其他","address":"闵行区都市路5001号仲盛世界商城4楼15号(近莘庄地铁南广场)"},{"poiid":"B2094654DB6CAAF8479B","title":"莘南花苑商办楼","lon":"121.39706","lat":"31.11237","category":"46","category_name":"楼宇","address":"莘朱路779"},{"poiid":"B2094654DB6CABF5409E","title":"文峰美发美容莘朱路店","lon":"121.39058","lat":"31.1096","category":"148","category_name":"美容美发店","address":"莘朱路435"},{"poiid":"B2094654DB6CAAFC4092","title":"中国移动都市路营业厅","lon":"121.38875","lat":"31.10975","category":"151","category_name":"电讯营业厅","address":"都市路5048"}]