[{"poiid":"B2094757D06FAAFC419F","title":"海底捞火锅(龙茗路店)","lon":"121.3848","lat":"31.14438","category":"86","category_name":"火锅店","address":"闵行区龙茗路1300弄58号古美生活购物广场3楼(古龙路口)"},{"poiid":"B2094757D06AABF54893","title":"清花池会所","lon":"121.385418857","lat":"31.1430372242","category":"500","category_name":"未知分类","address":"上海龙茗路1300弄118号古美生活购物广场3F(靠平吉路)"},{"poiid":"B2094757D66BA3F94898","title":"虾满堂手抓龙虾 龙茗路店","lon":"121.382276","lat":"31.153223","category":"68","category_name":"快餐厅","address":"闵行区龙茗路1658号(近东兰路)"},{"poiid":"B2094655D264A2FA459F","title":"古美生活购物广场","lon":"121.38602","lat":"31.14339","category":"119","category_name":"商场","address":"闵行区龙茗路平吉路"},{"poiid":"B2094757D068A4F4479D","title":"蓝色港湾","lon":"121.3858","lat":"31.1476","category":"47","category_name":"住宅区","address":"上海龙茗路1458弄"},{"poiid":"B2094757D06FA4FF479E","title":"东苑半岛花园","lon":"121.38399","lat":"31.139565","category":"47","category_name":"住宅区","address":"上海顾戴路1266弄"},{"poiid":"B2094655D36CA1FF489A","title":"龙茗路古龙路","lon":"121.38472","lat":"31.14469","category":"38","category_name":"公交车站","address":""},{"poiid":"B2094757D06FA1FC4199","title":"欧风花都","lon":"121.38541","lat":"31.15246","category":"47","category_name":"住宅区","address":"上海东兰路1111弄"},{"poiid":"B2094655D26AA6FE419A","title":"香满堂 龙茗路店","lon":"121.383073054","lat":"31.152290793","category":"68","category_name":"快餐厅","address":"闵行区龙茗路1662号欧风新天地内(近东兰路)"},{"poiid":"B2094757D069A3FC439A","title":"闵行九星市场","lon":"121.37886047","lat":"31.151998519","category":"249","category_name":"购物服务","address":"上海东兰西路虹莘路"},{"poiid":"B2094757D06FA4FC4992","title":"一兆韦德(古美店)","lon":"121.38578","lat":"31.14249","category":"221","category_name":"健身中心","address":"闵行区龙茗路1300弄58号古美生活购物广场401室、501室(近十尚坊)"},{"poiid":"B2094757D069A1FE439F","title":"果果宠物诊所","lon":"121.382719642","lat":"31.1520434455","category":"668","category_name":"诊所","address":"闵行区龙茗路1662号欧风新天地F区110室(近东兰路)"},{"poiid":"B2094655D26FA5FC4398","title":"新时代富嘉花园","lon":"121.38657","lat":"31.144928","category":"47","category_name":"住宅区","address":"上海市普陀区新泉路66弄"},{"poiid":"B2094654DB6CA3FA459B","title":"平吉一村(南门)","lon":"121.3828","lat":"31.14497","category":"47","category_name":"住宅区","address":""},{"poiid":"B2094757D068A3FD4393","title":"世纪联华(龙茗路店)","lon":"121.38559","lat":"31.14352","category":"118","category_name":"超级市场","address":"闵行区龙茗路1256号(近平吉路)"},{"poiid":"B2094757D06AA7F5479F","title":"古美高级中学羽毛球馆","lon":"121.383572856","lat":"31.1498091576","category":"253","category_name":"校园生活","address":"闵行区龙茗路1628号(近平南路)"},{"poiid":"B2094757D069A1FF4193","title":"新招鲜本地鸡窝 龙茗路店","lon":"121.382521054","lat":"31.154755793","category":"86","category_name":"火锅店","address":"闵行区龙茗路1927号(近漕宝路)"},{"poiid":"B2094757D56CAAFD449C","title":"鸿润兴面馆","lon":"121.385271","lat":"31.144027","category":"68","category_name":"快餐厅","address":"闵行区龙茗路1256号"},{"poiid":"B2094757D165ABFC4799","title":"龙茗路","lon":"121.381011857","lat":"31.1446962574","category":"500","category_name":"未知分类","address":"上海市闵行区星友路"},{"poiid":"B2094757D06FA6FD409D","title":"平吉二村","lon":"121.380914","lat":"31.142429","category":"252","category_name":"楼宇机构","address":"上海虹莘路2288号"},{"poiid":"B2094757D46AABF8449B","title":"龙茗路大胡子烧烤","lon":"121.384584","lat":"31.145686","category":"269","category_name":"烧烤","address":"闵行区龙茗路1408号(近古龙路)"},{"poiid":"B2094654DA65A0FF4098","title":"九星茶叶区","lon":"121.37708","lat":"31.14761","category":"117","category_name":"便民商店/便利店","address":""},{"poiid":"B2094757D069A4F44899","title":"虾满堂","lon":"121.38660058","lat":"31.150679876","category":"500","category_name":"未知分类","address":"上海市闵行区龙茗路1658号(漕宝路)"},{"poiid":"B2094654DB6AA6FF429A","title":"平吉一村","lon":"121.38234","lat":"31.145792","category":"47","category_name":"住宅区","address":"虹莘路2388弄"},{"poiid":"B2094654DB6CA3FA439D","title":"上海市文来中学(高中部)","lon":"121.38175","lat":"31.14015","category":"55","category_name":"中学","address":"闵行区虹莘路2166号(近平吉路)"},{"poiid":"B2094757D164A1FF4299","title":"品味小厨","lon":"121.38273885","lat":"31.14436125","category":"76","category_name":"上海菜","address":"闵行区古龙路平吉一村(近龙茗路)"},{"poiid":"B2094757D06AA5FC4498","title":"东兰雅苑","lon":"121.38109","lat":"31.151621","category":"500","category_name":"未知分类","address":"上海龙茗路1699弄"},{"poiid":"B2094757D66EA3F54592","title":"宁波海鲜码头","lon":"121.386685857","lat":"31.1432392282","category":"75","category_name":"浙江菜","address":"闵行区龙茗路1300弄183号1楼(平吉路口)"},{"poiid":"B2094654DB6CA3FA4598","title":"华城花苑","lon":"121.38233","lat":"31.14579","category":"47","category_name":"住宅区","address":"古美路"},{"poiid":"B2094757D16BA1F5439B","title":"重庆鸡公煲 龙茗路店","lon":"121.384559","lat":"31.145326","category":"71","category_name":"四川菜","address":"闵行区龙茗路1680号欧风新天地内(近东兰路)"},{"poiid":"B2094654DB6CA3F9499A","title":"残障人辅助器具服务社","lon":"121.38258","lat":"31.14686","category":"162","category_name":"医院","address":"虹莘路2448弄118号"},{"poiid":"B2094654DB6CA3FA4192","title":"龙茗公寓(西门)","lon":"121.38084","lat":"31.14626","category":"47","category_name":"住宅区","address":"虹莘路2448弄98-161号"},{"poiid":"B2094654DB6CA3F94899","title":"平吉一村龙茗公寓(东门)","lon":"121.38378","lat":"31.14699","category":"47","category_name":"住宅区","address":"古美路"},{"poiid":"B2094655D26DA7F54593","title":"合成公寓(西门)","lon":"121.38085","lat":"31.14626","category":"47","category_name":"住宅区","address":"虹莘路2448弄98-161号"},{"poiid":"B2094757D16FA2F84092","title":"One piece","lon":"121.38166985","lat":"31.146557294","category":"500","category_name":"未知分类","address":"上海新大陆"},{"poiid":"B2094655D265A4F4469E","title":"新记茶餐厅","lon":"121.385663054","lat":"31.141303793","category":"72","category_name":"广东菜","address":"闵行区龙茗路1242号(近世纪联华)"},{"poiid":"B2094757DB6DA5FC469C","title":"维也纳国际酒店（上海九星店）","lon":"121.385759","lat":"31.142071","category":"216","category_name":"经济型连锁酒店","address":"上海市闵行区龙茗路1300弄181号(近漕宝路)"},{"poiid":"B2094655D26DAAF94492","title":"华城花苑(南门)","lon":"121.38281","lat":"31.14497","category":"47","category_name":"住宅区","address":""},{"poiid":"B2094655D36CA3F5489F","title":"博馨苑","lon":"121.38436","lat":"31.14663","category":"47","category_name":"住宅区","address":"上海市闵行区龙茗路1458弄"},{"poiid":"B2094750D76DA0FB459C","title":"台湾正宗牛肉面","lon":"121.384","lat":"31.1453","category":"68","category_name":"快餐厅","address":"闵行区龙茗路东北菜旁(古龙路龙茗路)"},{"poiid":"B2094654DB6CA3FA449A","title":"可的(古龙路)","lon":"121.38381","lat":"31.14485","category":"117","category_name":"便民商店/便利店","address":"闵行区古龙路1209号"},{"poiid":"B2094654DB6CA3F9479F","title":"好德便利No.3071","lon":"121.38442","lat":"31.14642","category":"117","category_name":"便民商店/便利店","address":"龙茗路1432号101室"},{"poiid":"B2094654DB6CA1FD409E","title":"上海市古美高级中学","lon":"121.38357","lat":"31.1498","category":"55","category_name":"中学","address":"龙茗路1628"},{"poiid":"B2094757D66CA6FA479F","title":"重庆鸡公堡","lon":"121.38448994","lat":"31.14586557","category":"247","category_name":"餐饮美食","address":"上海龙茗路1412号"},{"poiid":"B2094757D068A6FC4998","title":"富嘉花园","lon":"121.3857054","lat":"31.145056848","category":"47","category_name":"住宅区","address":"上海古龙路1065号"},{"poiid":"B2094757D16BA5FA419C","title":"湘里世家(闵行旗舰店)","lon":"121.382581","lat":"31.146858","category":"500","category_name":"未知分类","address":"上海市闵行区永平南路176号"},{"poiid":"B2094655D265A6FB4299","title":"都市麦风","lon":"121.38441","lat":"31.14504","category":"112","category_name":"糕饼店","address":""},{"poiid":"B2094654DB6CA3FA4092","title":"晟豪驾驶员培训中心","lon":"121.38367","lat":"31.14519","category":"192","category_name":"驾校","address":""},{"poiid":"B2094655D26DA0F9419B","title":"蓝色港湾(西2门)","lon":"121.38406","lat":"31.14762","category":"47","category_name":"住宅区","address":""},{"poiid":"B2094757DA65A5FB469B","title":"莫泰168(上海九星店)(原龙茗路店)","lon":"121.383117","lat":"31.151157","category":"216","category_name":"经济型连锁酒店","address":"上海市闵行区龙茗路1650号(近东兰路)"},{"poiid":"B2094757D06FAAFC419F","title":"海底捞火锅(龙茗路店)","lon":"121.3848","lat":"31.14438","category":"86","category_name":"火锅店","address":"闵行区龙茗路1300弄58号古美生活购物广场3楼(古龙路口)"},{"poiid":"B2094757D06AABF54893","title":"清花池会所","lon":"121.385418857","lat":"31.1430372242","category":"500","category_name":"未知分类","address":"上海龙茗路1300弄118号古美生活购物广场3F(靠平吉路)"},{"poiid":"B2094757D66BA3F94898","title":"虾满堂手抓龙虾 龙茗路店","lon":"121.382276","lat":"31.153223","category":"68","category_name":"快餐厅","address":"闵行区龙茗路1658号(近东兰路)"},{"poiid":"B2094655D264A2FA459F","title":"古美生活购物广场","lon":"121.38602","lat":"31.14339","category":"119","category_name":"商场","address":"闵行区龙茗路平吉路"},{"poiid":"B2094757D068A4F4479D","title":"蓝色港湾","lon":"121.3858","lat":"31.1476","category":"47","category_name":"住宅区","address":"上海龙茗路1458弄"},{"poiid":"B2094757D06FA4FF479E","title":"东苑半岛花园","lon":"121.38399","lat":"31.139565","category":"47","category_name":"住宅区","address":"上海顾戴路1266弄"},{"poiid":"B2094655D36CA1FF489A","title":"龙茗路古龙路","lon":"121.38472","lat":"31.14469","category":"38","category_name":"公交车站","address":""},{"poiid":"B2094757D06FA1FC4199","title":"欧风花都","lon":"121.38541","lat":"31.15246","category":"47","category_name":"住宅区","address":"上海东兰路1111弄"},{"poiid":"B2094655D26AA6FE419A","title":"香满堂 龙茗路店","lon":"121.383073054","lat":"31.152290793","category":"68","category_name":"快餐厅","address":"闵行区龙茗路1662号欧风新天地内(近东兰路)"},{"poiid":"B2094757D069A3FC439A","title":"闵行九星市场","lon":"121.37886047","lat":"31.151998519","category":"249","category_name":"购物服务","address":"上海东兰西路虹莘路"},{"poiid":"B2094757D06FA4FC4992","title":"一兆韦德(古美店)","lon":"121.38578","lat":"31.14249","category":"221","category_name":"健身中心","address":"闵行区龙茗路1300弄58号古美生活购物广场401室、501室(近十尚坊)"},{"poiid":"B2094757D069A1FE439F","title":"果果宠物诊所","lon":"121.382719642","lat":"31.1520434455","category":"668","category_name":"诊所","address":"闵行区龙茗路1662号欧风新天地F区110室(近东兰路)"},{"poiid":"B2094655D26FA5FC4398","title":"新时代富嘉花园","lon":"121.38657","lat":"31.144928","category":"47","category_name":"住宅区","address":"上海市普陀区新泉路66弄"},{"poiid":"B2094654DB6CA3FA459B","title":"平吉一村(南门)","lon":"121.3828","lat":"31.14497","category":"47","category_name":"住宅区","address":""},{"poiid":"B2094757D068A3FD4393","title":"世纪联华(龙茗路店)","lon":"121.38559","lat":"31.14352","category":"118","category_name":"超级市场","address":"闵行区龙茗路1256号(近平吉路)"},{"poiid":"B2094757D06AA7F5479F","title":"古美高级中学羽毛球馆","lon":"121.383572856","lat":"31.1498091576","category":"253","category_name":"校园生活","address":"闵行区龙茗路1628号(近平南路)"},{"poiid":"B2094757D069A1FF4193","title":"新招鲜本地鸡窝 龙茗路店","lon":"121.382521054","lat":"31.154755793","category":"86","category_name":"火锅店","address":"闵行区龙茗路1927号(近漕宝路)"},{"poiid":"B2094757D56CAAFD449C","title":"鸿润兴面馆","lon":"121.385271","lat":"31.144027","category":"68","category_name":"快餐厅","address":"闵行区龙茗路1256号"},{"poiid":"B2094757D165ABFC4799","title":"龙茗路","lon":"121.381011857","lat":"31.1446962574","category":"500","category_name":"未知分类","address":"上海市闵行区星友路"},{"poiid":"B2094757D06FA6FD409D","title":"平吉二村","lon":"121.380914","lat":"31.142429","category":"252","category_name":"楼宇机构","address":"上海虹莘路2288号"},{"poiid":"B2094757D46AABF8449B","title":"龙茗路大胡子烧烤","lon":"121.384584","lat":"31.145686","category":"269","category_name":"烧烤","address":"闵行区龙茗路1408号(近古龙路)"},{"poiid":"B2094654DA65A0FF4098","title":"九星茶叶区","lon":"121.37708","lat":"31.14761","category":"117","category_name":"便民商店/便利店","address":""},{"poiid":"B2094757D069A4F44899","title":"虾满堂","lon":"121.38660058","lat":"31.150679876","category":"500","category_name":"未知分类","address":"上海市闵行区龙茗路1658号(漕宝路)"},{"poiid":"B2094654DB6AA6FF429A","title":"平吉一村","lon":"121.38234","lat":"31.145792","category":"47","category_name":"住宅区","address":"虹莘路2388弄"},{"poiid":"B2094654DB6CA3FA439D","title":"上海市文来中学(高中部)","lon":"121.38175","lat":"31.14015","category":"55","category_name":"中学","address":"闵行区虹莘路2166号(近平吉路)"},{"poiid":"B2094757D164A1FF4299","title":"品味小厨","lon":"121.38273885","lat":"31.14436125","category":"76","category_name":"上海菜","address":"闵行区古龙路平吉一村(近龙茗路)"},{"poiid":"B2094757D06AA5FC4498","title":"东兰雅苑","lon":"121.38109","lat":"31.151621","category":"500","category_name":"未知分类","address":"上海龙茗路1699弄"},{"poiid":"B2094757D66EA3F54592","title":"宁波海鲜码头","lon":"121.386685857","lat":"31.1432392282","category":"75","category_name":"浙江菜","address":"闵行区龙茗路1300弄183号1楼(平吉路口)"},{"poiid":"B2094654DB6CA3FA4598","title":"华城花苑","lon":"121.38233","lat":"31.14579","category":"47","category_name":"住宅区","address":"古美路"},{"poiid":"B2094757D16BA1F5439B","title":"重庆鸡公煲 龙茗路店","lon":"121.384559","lat":"31.145326","category":"71","category_name":"四川菜","address":"闵行区龙茗路1680号欧风新天地内(近东兰路)"},{"poiid":"B2094654DB6CA3F9499A","title":"残障人辅助器具服务社","lon":"121.38258","lat":"31.14686","category":"162","category_name":"医院","address":"虹莘路2448弄118号"},{"poiid":"B2094654DB6CA3FA4192","title":"龙茗公寓(西门)","lon":"121.38084","lat":"31.14626","category":"47","category_name":"住宅区","address":"虹莘路2448弄98-161号"},{"poiid":"B2094654DB6CA3F94899","title":"平吉一村龙茗公寓(东门)","lon":"121.38378","lat":"31.14699","category":"47","category_name":"住宅区","address":"古美路"},{"poiid":"B2094655D26DA7F54593","title":"合成公寓(西门)","lon":"121.38085","lat":"31.14626","category":"47","category_name":"住宅区","address":"虹莘路2448弄98-161号"},{"poiid":"B2094757D16FA2F84092","title":"One piece","lon":"121.38166985","lat":"31.146557294","category":"500","category_name":"未知分类","address":"上海新大陆"},{"poiid":"B2094655D265A4F4469E","title":"新记茶餐厅","lon":"121.385663054","lat":"31.141303793","category":"72","category_name":"广东菜","address":"闵行区龙茗路1242号(近世纪联华)"},{"poiid":"B2094757DB6DA5FC469C","title":"维也纳国际酒店（上海九星店）","lon":"121.385759","lat":"31.142071","category":"216","category_name":"经济型连锁酒店","address":"上海市闵行区龙茗路1300弄181号(近漕宝路)"},{"poiid":"B2094655D26DAAF94492","title":"华城花苑(南门)","lon":"121.38281","lat":"31.14497","category":"47","category_name":"住宅区","address":""},{"poiid":"B2094655D36CA3F5489F","title":"博馨苑","lon":"121.38436","lat":"31.14663","category":"47","category_name":"住宅区","address":"上海市闵行区龙茗路1458弄"},{"poiid":"B2094750D76DA0FB459C","title":"台湾正宗牛肉面","lon":"121.384","lat":"31.1453","category":"68","category_name":"快餐厅","address":"闵行区龙茗路东北菜旁(古龙路龙茗路)"},{"poiid":"B2094654DB6CA3FA449A","title":"可的(古龙路)","lon":"121.38381","lat":"31.14485","category":"117","category_name":"便民商店/便利店","address":"闵行区古龙路1209号"},{"poiid":"B2094654DB6CA3F9479F","title":"好德便利No.3071","lon":"121.38442","lat":"31.14642","category":"117","category_name":"便民商店/便利店","address":"龙茗路1432号101室"},{"poiid":"B2094654DB6CA1FD409E","title":"上海市古美高级中学","lon":"121.38357","lat":"31.1498","category":"55","category_name":"中学","address":"龙茗路1628"},{"poiid":"B2094757D66CA6FA479F","title":"重庆鸡公堡","lon":"121.38448994","lat":"31.14586557","category":"247","category_name":"餐饮美食","address":"上海龙茗路1412号"},{"poiid":"B2094757D068A6FC4998","title":"富嘉花园","lon":"121.3857054","lat":"31.145056848","category":"47","category_name":"住宅区","address":"上海古龙路1065号"},{"poiid":"B2094757D16BA5FA419C","title":"湘里世家(闵行旗舰店)","lon":"121.382581","lat":"31.146858","category":"500","category_name":"未知分类","address":"上海市闵行区永平南路176号"},{"poiid":"B2094655D265A6FB4299","title":"都市麦风","lon":"121.38441","lat":"31.14504","category":"112","category_name":"糕饼店","address":""},{"poiid":"B2094654DB6CA3FA4092","title":"晟豪驾驶员培训中心","lon":"121.38367","lat":"31.14519","category":"192","category_name":"驾校","address":""},{"poiid":"B2094655D26DA0F9419B","title":"蓝色港湾(西2门)","lon":"121.38406","lat":"31.14762","category":"47","category_name":"住宅区","address":""},{"poiid":"B2094757DA65A5FB469B","title":"莫泰168(上海九星店)(原龙茗路店)","lon":"121.383117","lat":"31.151157","category":"216","category_name":"经济型连锁酒店","address":"上海市闵行区龙茗路1650号(近东兰路)"},{"poiid":"B2094757D06FAAFC419F","title":"海底捞火锅(龙茗路店)","lon":"121.3848","lat":"31.14438","category":"86","category_name":"火锅店","address":"闵行区龙茗路1300弄58号古美生活购物广场3楼(古龙路口)"},{"poiid":"B2094757D06AABF54893","title":"清花池会所","lon":"121.385418857","lat":"31.1430372242","category":"500","category_name":"未知分类","address":"上海龙茗路1300弄118号古美生活购物广场3F(靠平吉路)"},{"poiid":"B2094757D66BA3F94898","title":"虾满堂手抓龙虾 龙茗路店","lon":"121.382276","lat":"31.153223","category":"68","category_name":"快餐厅","address":"闵行区龙茗路1658号(近东兰路)"},{"poiid":"B2094655D264A2FA459F","title":"古美生活购物广场","lon":"121.38602","lat":"31.14339","category":"119","category_name":"商场","address":"闵行区龙茗路平吉路"},{"poiid":"B2094757D068A4F4479D","title":"蓝色港湾","lon":"121.3858","lat":"31.1476","category":"47","category_name":"住宅区","address":"上海龙茗路1458弄"},{"poiid":"B2094757D06FA4FF479E","title":"东苑半岛花园","lon":"121.38399","lat":"31.139565","category":"47","category_name":"住宅区","address":"上海顾戴路1266弄"},{"poiid":"B2094655D36CA1FF489A","title":"龙茗路古龙路","lon":"121.38472","lat":"31.14469","category":"38","category_name":"公交车站","address":""},{"poiid":"B2094757D06FA1FC4199","title":"欧风花都","lon":"121.38541","lat":"31.15246","category":"47","category_name":"住宅区","address":"上海东兰路1111弄"},{"poiid":"B2094655D26AA6FE419A","title":"香满堂 龙茗路店","lon":"121.383073054","lat":"31.152290793","category":"68","category_name":"快餐厅","address":"闵行区龙茗路1662号欧风新天地内(近东兰路)"},{"poiid":"B2094757D069A3FC439A","title":"闵行九星市场","lon":"121.37886047","lat":"31.151998519","category":"249","category_name":"购物服务","address":"上海东兰西路虹莘路"},{"poiid":"B2094757D06FA4FC4992","title":"一兆韦德(古美店)","lon":"121.38578","lat":"31.14249","category":"221","category_name":"健身中心","address":"闵行区龙茗路1300弄58号古美生活购物广场401室、501室(近十尚坊)"},{"poiid":"B2094757D069A1FE439F","title":"果果宠物诊所","lon":"121.382719642","lat":"31.1520434455","category":"668","category_name":"诊所","address":"闵行区龙茗路1662号欧风新天地F区110室(近东兰路)"},{"poiid":"B2094655D26FA5FC4398","title":"新时代富嘉花园","lon":"121.38657","lat":"31.144928","category":"47","category_name":"住宅区","address":"上海市普陀区新泉路66弄"},{"poiid":"B2094654DB6CA3FA459B","title":"平吉一村(南门)","lon":"121.3828","lat":"31.14497","category":"47","category_name":"住宅区","address":""},{"poiid":"B2094757D068A3FD4393","title":"世纪联华(龙茗路店)","lon":"121.38559","lat":"31.14352","category":"118","category_name":"超级市场","address":"闵行区龙茗路1256号(近平吉路)"},{"poiid":"B2094757D06AA7F5479F","title":"古美高级中学羽毛球馆","lon":"121.383572856","lat":"31.1498091576","category":"253","category_name":"校园生活","address":"闵行区龙茗路1628号(近平南路)"},{"poiid":"B2094757D069A1FF4193","title":"新招鲜本地鸡窝 龙茗路店","lon":"121.382521054","lat":"31.154755793","category":"86","category_name":"火锅店","address":"闵行区龙茗路1927号(近漕宝路)"},{"poiid":"B2094757D56CAAFD449C","title":"鸿润兴面馆","lon":"121.385271","lat":"31.144027","category":"68","category_name":"快餐厅","address":"闵行区龙茗路1256号"},{"poiid":"B2094757D165ABFC4799","title":"龙茗路","lon":"121.381011857","lat":"31.1446962574","category":"500","category_name":"未知分类","address":"上海市闵行区星友路"},{"poiid":"B2094757D06FA6FD409D","title":"平吉二村","lon":"121.380914","lat":"31.142429","category":"252","category_name":"楼宇机构","address":"上海虹莘路2288号"},{"poiid":"B2094757D46AABF8449B","title":"龙茗路大胡子烧烤","lon":"121.384584","lat":"31.145686","category":"269","category_name":"烧烤","address":"闵行区龙茗路1408号(近古龙路)"},{"poiid":"B2094654DA65A0FF4098","title":"九星茶叶区","lon":"121.37708","lat":"31.14761","category":"117","category_name":"便民商店/便利店","address":""},{"poiid":"B2094757D069A4F44899","title":"虾满堂","lon":"121.38660058","lat":"31.150679876","category":"500","category_name":"未知分类","address":"上海市闵行区龙茗路1658号(漕宝路)"},{"poiid":"B2094654DB6AA6FF429A","title":"平吉一村","lon":"121.38234","lat":"31.145792","category":"47","category_name":"住宅区","address":"虹莘路2388弄"},{"poiid":"B2094654DB6CA3FA439D","title":"上海市文来中学(高中部)","lon":"121.38175","lat":"31.14015","category":"55","category_name":"中学","address":"闵行区虹莘路2166号(近平吉路)"},{"poiid":"B2094757D164A1FF4299","title":"品味小厨","lon":"121.38273885","lat":"31.14436125","category":"76","category_name":"上海菜","address":"闵行区古龙路平吉一村(近龙茗路)"},{"poiid":"B2094757D06AA5FC4498","title":"东兰雅苑","lon":"121.38109","lat":"31.151621","category":"500","category_name":"未知分类","address":"上海龙茗路1699弄"},{"poiid":"B2094757D66EA3F54592","title":"宁波海鲜码头","lon":"121.386685857","lat":"31.1432392282","category":"75","category_name":"浙江菜","address":"闵行区龙茗路1300弄183号1楼(平吉路口)"},{"poiid":"B2094654DB6CA3FA4598","title":"华城花苑","lon":"121.38233","lat":"31.14579","category":"47","category_name":"住宅区","address":"古美路"},{"poiid":"B2094757D16BA1F5439B","title":"重庆鸡公煲 龙茗路店","lon":"121.384559","lat":"31.145326","category":"71","category_name":"四川菜","address":"闵行区龙茗路1680号欧风新天地内(近东兰路)"},{"poiid":"B2094654DB6CA3F9499A","title":"残障人辅助器具服务社","lon":"121.38258","lat":"31.14686","category":"162","category_name":"医院","address":"虹莘路2448弄118号"},{"poiid":"B2094654DB6CA3FA4192","title":"龙茗公寓(西门)","lon":"121.38084","lat":"31.14626","category":"47","category_name":"住宅区","address":"虹莘路2448弄98-161号"},{"poiid":"B2094654DB6CA3F94899","title":"平吉一村龙茗公寓(东门)","lon":"121.38378","lat":"31.14699","category":"47","category_name":"住宅区","address":"古美路"},{"poiid":"B2094655D26DA7F54593","title":"合成公寓(西门)","lon":"121.38085","lat":"31.14626","category":"47","category_name":"住宅区","address":"虹莘路2448弄98-161号"},{"poiid":"B2094757D16FA2F84092","title":"One piece","lon":"121.38166985","lat":"31.146557294","category":"500","category_name":"未知分类","address":"上海新大陆"},{"poiid":"B2094655D265A4F4469E","title":"新记茶餐厅","lon":"121.385663054","lat":"31.141303793","category":"72","category_name":"广东菜","address":"闵行区龙茗路1242号(近世纪联华)"},{"poiid":"B2094757DB6DA5FC469C","title":"维也纳国际酒店（上海九星店）","lon":"121.385759","lat":"31.142071","category":"216","category_name":"经济型连锁酒店","address":"上海市闵行区龙茗路1300弄181号(近漕宝路)"},{"poiid":"B2094655D26DAAF94492","title":"华城花苑(南门)","lon":"121.38281","lat":"31.14497","category":"47","category_name":"住宅区","address":""},{"poiid":"B2094655D36CA3F5489F","title":"博馨苑","lon":"121.38436","lat":"31.14663","category":"47","category_name":"住宅区","address":"上海市闵行区龙茗路1458弄"},{"poiid":"B2094750D76DA0FB459C","title":"台湾正宗牛肉面","lon":"121.384","lat":"31.1453","category":"68","category_name":"快餐厅","address":"闵行区龙茗路东北菜旁(古龙路龙茗路)"},{"poiid":"B2094654DB6CA3FA449A","title":"可的(古龙路)","lon":"121.38381","lat":"31.14485","category":"117","category_name":"便民商店/便利店","address":"闵行区古龙路1209号"},{"poiid":"B2094654DB6CA3F9479F","title":"好德便利No.3071","lon":"121.38442","lat":"31.14642","category":"117","category_name":"便民商店/便利店","address":"龙茗路1432号101室"},{"poiid":"B2094654DB6CA1FD409E","title":"上海市古美高级中学","lon":"121.38357","lat":"31.1498","category":"55","category_name":"中学","address":"龙茗路1628"},{"poiid":"B2094757D66CA6FA479F","title":"重庆鸡公堡","lon":"121.38448994","lat":"31.14586557","category":"247","category_name":"餐饮美食","address":"上海龙茗路1412号"},{"poiid":"B2094757D068A6FC4998","title":"富嘉花园","lon":"121.3857054","lat":"31.145056848","category":"47","category_name":"住宅区","address":"上海古龙路1065号"},{"poiid":"B2094757D16BA5FA419C","title":"湘里世家(闵行旗舰店)","lon":"121.382581","lat":"31.146858","category":"500","category_name":"未知分类","address":"上海市闵行区永平南路176号"},{"poiid":"B2094655D265A6FB4299","title":"都市麦风","lon":"121.38441","lat":"31.14504","category":"112","category_name":"糕饼店","address":""},{"poiid":"B2094654DB6CA3FA4092","title":"晟豪驾驶员培训中心","lon":"121.38367","lat":"31.14519","category":"192","category_name":"驾校","address":""},{"poiid":"B2094655D26DA0F9419B","title":"蓝色港湾(西2门)","lon":"121.38406","lat":"31.14762","category":"47","category_name":"住宅区","address":""},{"poiid":"B2094757DA65A5FB469B","title":"莫泰168(上海九星店)(原龙茗路店)","lon":"121.383117","lat":"31.151157","category":"216","category_name":"经济型连锁酒店","address":"上海市闵行区龙茗路1650号(近东兰路)"},{"poiid":"B2094757D06FAAFC419F","title":"海底捞火锅(龙茗路店)","lon":"121.3848","lat":"31.14438","category":"86","category_name":"火锅店","address":"闵行区龙茗路1300弄58号古美生活购物广场3楼(古龙路口)"},{"poiid":"B2094757D06AABF54893","title":"清花池会所","lon":"121.385418857","lat":"31.1430372242","category":"500","category_name":"未知分类","address":"上海龙茗路1300弄118号古美生活购物广场3F(靠平吉路)"},{"poiid":"B2094757D66BA3F94898","title":"虾满堂手抓龙虾 龙茗路店","lon":"121.382276","lat":"31.153223","category":"68","category_name":"快餐厅","address":"闵行区龙茗路1658号(近东兰路)"},{"poiid":"B2094655D264A2FA459F","title":"古美生活购物广场","lon":"121.38602","lat":"31.14339","category":"119","category_name":"商场","address":"闵行区龙茗路平吉路"},{"poiid":"B2094757D068A4F4479D","title":"蓝色港湾","lon":"121.3858","lat":"31.1476","category":"47","category_name":"住宅区","address":"上海龙茗路1458弄"},{"poiid":"B2094757D06FA4FF479E","title":"东苑半岛花园","lon":"121.38399","lat":"31.139565","category":"47","category_name":"住宅区","address":"上海顾戴路1266弄"},{"poiid":"B2094655D36CA1FF489A","title":"龙茗路古龙路","lon":"121.38472","lat":"31.14469","category":"38","category_name":"公交车站","address":""},{"poiid":"B2094757D06FA1FC4199","title":"欧风花都","lon":"121.38541","lat":"31.15246","category":"47","category_name":"住宅区","address":"上海东兰路1111弄"},{"poiid":"B2094655D26AA6FE419A","title":"香满堂 龙茗路店","lon":"121.383073054","lat":"31.152290793","category":"68","category_name":"快餐厅","address":"闵行区龙茗路1662号欧风新天地内(近东兰路)"},{"poiid":"B2094757D069A3FC439A","title":"闵行九星市场","lon":"121.37886047","lat":"31.151998519","category":"249","category_name":"购物服务","address":"上海东兰西路虹莘路"},{"poiid":"B2094757D06FA4FC4992","title":"一兆韦德(古美店)","lon":"121.38578","lat":"31.14249","category":"221","category_name":"健身中心","address":"闵行区龙茗路1300弄58号古美生活购物广场401室、501室(近十尚坊)"},{"poiid":"B2094757D069A1FE439F","title":"果果宠物诊所","lon":"121.382719642","lat":"31.1520434455","category":"668","category_name":"诊所","address":"闵行区龙茗路1662号欧风新天地F区110室(近东兰路)"},{"poiid":"B2094655D26FA5FC4398","title":"新时代富嘉花园","lon":"121.38657","lat":"31.144928","category":"47","category_name":"住宅区","address":"上海市普陀区新泉路66弄"},{"poiid":"B2094654DB6CA3FA459B","title":"平吉一村(南门)","lon":"121.3828","lat":"31.14497","category":"47","category_name":"住宅区","address":""},{"poiid":"B2094757D068A3FD4393","title":"世纪联华(龙茗路店)","lon":"121.38559","lat":"31.14352","category":"118","category_name":"超级市场","address":"闵行区龙茗路1256号(近平吉路)"},{"poiid":"B2094757D06AA7F5479F","title":"古美高级中学羽毛球馆","lon":"121.383572856","lat":"31.1498091576","category":"253","category_name":"校园生活","address":"闵行区龙茗路1628号(近平南路)"},{"poiid":"B2094757D069A1FF4193","title":"新招鲜本地鸡窝 龙茗路店","lon":"121.382521054","lat":"31.154755793","category":"86","category_name":"火锅店","address":"闵行区龙茗路1927号(近漕宝路)"},{"poiid":"B2094757D56CAAFD449C","title":"鸿润兴面馆","lon":"121.385271","lat":"31.144027","category":"68","category_name":"快餐厅","address":"闵行区龙茗路1256号"},{"poiid":"B2094757D165ABFC4799","title":"龙茗路","lon":"121.381011857","lat":"31.1446962574","category":"500","category_name":"未知分类","address":"上海市闵行区星友路"},{"poiid":"B2094757D06FA6FD409D","title":"平吉二村","lon":"121.380914","lat":"31.142429","category":"252","category_name":"楼宇机构","address":"上海虹莘路2288号"},{"poiid":"B2094757D46AABF8449B","title":"龙茗路大胡子烧烤","lon":"121.384584","lat":"31.145686","category":"269","category_name":"烧烤","address":"闵行区龙茗路1408号(近古龙路)"},{"poiid":"B2094654DA65A0FF4098","title":"九星茶叶区","lon":"121.37708","lat":"31.14761","category":"117","category_name":"便民商店/便利店","address":""},{"poiid":"B2094757D069A4F44899","title":"虾满堂","lon":"121.38660058","lat":"31.150679876","category":"500","category_name":"未知分类","address":"上海市闵行区龙茗路1658号(漕宝路)"},{"poiid":"B2094654DB6AA6FF429A","title":"平吉一村","lon":"121.38234","lat":"31.145792","category":"47","category_name":"住宅区","address":"虹莘路2388弄"},{"poiid":"B2094654DB6CA3FA439D","title":"上海市文来中学(高中部)","lon":"121.38175","lat":"31.14015","category":"55","category_name":"中学","address":"闵行区虹莘路2166号(近平吉路)"},{"poiid":"B2094757D164A1FF4299","title":"品味小厨","lon":"121.38273885","lat":"31.14436125","category":"76","category_name":"上海菜","address":"闵行区古龙路平吉一村(近龙茗路)"},{"poiid":"B2094757D06AA5FC4498","title":"东兰雅苑","lon":"121.38109","lat":"31.151621","category":"500","category_name":"未知分类","address":"上海龙茗路1699弄"},{"poiid":"B2094757D66EA3F54592","title":"宁波海鲜码头","lon":"121.386685857","lat":"31.1432392282","category":"75","category_name":"浙江菜","address":"闵行区龙茗路1300弄183号1楼(平吉路口)"},{"poiid":"B2094654DB6CA3FA4598","title":"华城花苑","lon":"121.38233","lat":"31.14579","category":"47","category_name":"住宅区","address":"古美路"},{"poiid":"B2094757D16BA1F5439B","title":"重庆鸡公煲 龙茗路店","lon":"121.384559","lat":"31.145326","category":"71","category_name":"四川菜","address":"闵行区龙茗路1680号欧风新天地内(近东兰路)"},{"poiid":"B2094654DB6CA3F9499A","title":"残障人辅助器具服务社","lon":"121.38258","lat":"31.14686","category":"162","category_name":"医院","address":"虹莘路2448弄118号"},{"poiid":"B2094654DB6CA3FA4192","title":"龙茗公寓(西门)","lon":"121.38084","lat":"31.14626","category":"47","category_name":"住宅区","address":"虹莘路2448弄98-161号"},{"poiid":"B2094654DB6CA3F94899","title":"平吉一村龙茗公寓(东门)","lon":"121.38378","lat":"31.14699","category":"47","category_name":"住宅区","address":"古美路"},{"poiid":"B2094655D26DA7F54593","title":"合成公寓(西门)","lon":"121.38085","lat":"31.14626","category":"47","category_name":"住宅区","address":"虹莘路2448弄98-161号"},{"poiid":"B2094757D16FA2F84092","title":"One piece","lon":"121.38166985","lat":"31.146557294","category":"500","category_name":"未知分类","address":"上海新大陆"},{"poiid":"B2094655D265A4F4469E","title":"新记茶餐厅","lon":"121.385663054","lat":"31.141303793","category":"72","category_name":"广东菜","address":"闵行区龙茗路1242号(近世纪联华)"},{"poiid":"B2094757DB6DA5FC469C","title":"维也纳国际酒店（上海九星店）","lon":"121.385759","lat":"31.142071","category":"216","category_name":"经济型连锁酒店","address":"上海市闵行区龙茗路1300弄181号(近漕宝路)"},{"poiid":"B2094655D26DAAF94492","title":"华城花苑(南门)","lon":"121.38281","lat":"31.14497","category":"47","category_name":"住宅区","address":""},{"poiid":"B2094655D36CA3F5489F","title":"博馨苑","lon":"121.38436","lat":"31.14663","category":"47","category_name":"住宅区","address":"上海市闵行区龙茗路1458弄"},{"poiid":"B2094750D76DA0FB459C","title":"台湾正宗牛肉面","lon":"121.384","lat":"31.1453","category":"68","category_name":"快餐厅","address":"闵行区龙茗路东北菜旁(古龙路龙茗路)"},{"poiid":"B2094654DB6CA3FA449A","title":"可的(古龙路)","lon":"121.38381","lat":"31.14485","category":"117","category_name":"便民商店/便利店","address":"闵行区古龙路1209号"},{"poiid":"B2094654DB6CA3F9479F","title":"好德便利No.3071","lon":"121.38442","lat":"31.14642","category":"117","category_name":"便民商店/便利店","address":"龙茗路1432号101室"},{"poiid":"B2094654DB6CA1FD409E","title":"上海市古美高级中学","lon":"121.38357","lat":"31.1498","category":"55","category_name":"中学","address":"龙茗路1628"},{"poiid":"B2094757D66CA6FA479F","title":"重庆鸡公堡","lon":"121.38448994","lat":"31.14586557","category":"247","category_name":"餐饮美食","address":"上海龙茗路1412号"},{"poiid":"B2094757D068A6FC4998","title":"富嘉花园","lon":"121.3857054","lat":"31.145056848","category":"47","category_name":"住宅区","address":"上海古龙路1065号"},{"poiid":"B2094757D16BA5FA419C","title":"湘里世家(闵行旗舰店)","lon":"121.382581","lat":"31.146858","category":"500","category_name":"未知分类","address":"上海市闵行区永平南路176号"},{"poiid":"B2094655D265A6FB4299","title":"都市麦风","lon":"121.38441","lat":"31.14504","category":"112","category_name":"糕饼店","address":""},{"poiid":"B2094654DB6CA3FA4092","title":"晟豪驾驶员培训中心","lon":"121.38367","lat":"31.14519","category":"192","category_name":"驾校","address":""},{"poiid":"B2094655D26DA0F9419B","title":"蓝色港湾(西2门)","lon":"121.38406","lat":"31.14762","category":"47","category_name":"住宅区","address":""},{"poiid":"B2094757DA65A5FB469B","title":"莫泰168(上海九星店)(原龙茗路店)","lon":"121.383117","lat":"31.151157","category":"216","category_name":"经济型连锁酒店","address":"上海市闵行区龙茗路1650号(近东兰路)"}]