[{"poiid":"B2094655D36DA7F44198","title":"莘庄地铁站","lon":"121.38465","lat":"31.11162","category":"36","category_name":"地铁站","address":"七莘路50号"},{"poiid":"B2094757D06BABFC4692","title":"莘庄百盛","lon":"121.386920457","lat":"31.1099640615","category":"249","category_name":"购物服务","address":"上海都市路5001号"},{"poiid":"B2094757D06FA4FD499A","title":"鲜芋仙(莘庄店)","lon":"121.386862757","lat":"31.1099118604","category":"67","category_name":"甜品店","address":"闵行区莘朱路270弄33号(近南广场)"},{"poiid":"B2094757DA64A2F9449D","title":"外婆家","lon":"121.38041168","lat":"31.11016523","category":"247","category_name":"餐饮美食","address":"闵行区都市路5001号仲盛世界商城4楼(近莘庄地铁南广场)"},{"poiid":"B2094750DB65A5F8479F","title":"伊秀手握寿司（仲盛店）","lon":"121.38619","lat":"31.10776","category":"95","category_name":"日本料理","address":"闵行区莘庄地铁站内"},{"poiid":"B2094757D06FAAFE4099","title":"闵行区人民政府","lon":"121.381676","lat":"31.11284","category":"47","category_name":"住宅区","address":"上海闵行区沪闵路6258号(近水清路)"},{"poiid":"B2094757DA6FA3F9439B","title":"莘庄仲盛南广场","lon":"121.386192","lat":"31.1077689999998","category":"249","category_name":"购物服务","address":"闵行区都市路5001号"},{"poiid":"B2094655D26AA0F9449E","title":"地铁莘庄站","lon":"121.38477","lat":"31.11158","category":"36","category_name":"地铁站","address":"地铁莘庄站"},{"poiid":"B2094757D068A7FF4892","title":"闵行区人民政府证照办理中心","lon":"121.385272","lat":"31.112516","category":"500","category_name":"未知分类","address":"上海莘建东路201号"},{"poiid":"B2094757DA6FA3FD4299","title":"花亭日本料理","lon":"121.386192","lat":"31.1077689999998","category":"95","category_name":"日本料理","address":"上海闵行区都市路5001号仲盛世界广场5楼"},{"poiid":"B2094757D06FABFF4192","title":"哈根达斯(莘庄仲盛店)","lon":"121.38690185","lat":"31.10841953","category":"113","category_name":"冷饮店","address":"上海闵行区都市路5001号仲盛世界商城1楼GF-11商铺"},{"poiid":"B2094750D26BA3FE469B","title":"健康煮 仲盛店","lon":"121.386192","lat":"31.107769","category":"86","category_name":"火锅店","address":"闵行区都市路5001号仲盛世界商城5楼13号商铺(近莘庄地铁南广场)"},{"poiid":"B2094757D06FAAFC489B","title":"肯德基 KFC (莘建店)","lon":"121.384571","lat":"31.112091","category":"68","category_name":"快餐厅","address":"闵行区水清南路20号莘庄地铁北广场(碧秀路水清南路)"},{"poiid":"B2094757DB69A6FF4793","title":"新贝乐意式休闲餐厅 莘庄仲盛店","lon":"121.386192","lat":"31.107769","category":"94","category_name":"西餐厅","address":"闵行区都市路5001号仲盛世界商城B1楼(近莘庄地铁南广场)"},{"poiid":"B2094654DB6AA2FC4598","title":"锦江之星(莘庄店)","lon":"121.38341","lat":"31.11122","category":"216","category_name":"经济型连锁酒店","address":"闵行区水清南路19号(莘庄地铁站北广场)"},{"poiid":"B2094757D465A5FF469E","title":"时光角落咖啡馆 Corner Cafe","lon":"121.38153971456","lat":"31.109362670664","category":"65","category_name":"咖啡厅","address":"闵行区莘建东路399弄26支弄54号(近莘庄地铁站北广场)"},{"poiid":"B2094757D065A7FA499A","title":"Corner Cafe (时光角落)","lon":"121.38288687","lat":"31.110040673","category":"500","category_name":"未知分类","address":"上海薪建东路广贤路囗"},{"poiid":"B2094753D36FA0F5479B","title":"maan coffee","lon":"121.385062","lat":"31.107086","category":"500","category_name":"未知分类","address":"上海市 珠城路158号(近富都路)"},{"poiid":"B2094757D16EA1F5489B","title":"味千拉面(莘庄龙之梦店)","lon":"121.38062575","lat":"31.109819058","category":"95","category_name":"日本料理","address":"闵行区沪闵路6088号莘庄凯德龙之梦购物中心内(近莘建路)"},{"poiid":"B2094757D06FA7F9439B","title":"超级鸡车(莘朱路店)","lon":"121.386578","lat":"31.109122","category":"68","category_name":"快餐厅","address":"闵行区莘朱路270弄27号(近地铁莘庄站南广场)"},{"poiid":"B2094654DB6CABF94293","title":"和大成弄堂小菜","lon":"121.38332","lat":"31.11069","category":"76","category_name":"上海菜","address":"闵行区莘建东路372号(近莘庄地铁站北广场)"},{"poiid":"B2094654DB6AA3FA4098","title":"兜率宫 莘庄店","lon":"121.38253678735","lat":"31.109881856097","category":"86","category_name":"火锅店","address":"闵行区广贤路188号(近莘建东路)"},{"poiid":"B2094654DB6CABF9439F","title":"众众家园(莘建东路)","lon":"121.38296","lat":"31.11046","category":"47","category_name":"住宅区","address":"莘建东路399弄12支弄"},{"poiid":"B2094654DB6CABF4409E","title":"众众家园商业步行街","lon":"121.3834","lat":"31.10991","category":"116","category_name":"特色商业街","address":""},{"poiid":"B2094757D064A4FF499B","title":"阿玛尼莘庄店","lon":"121.384725155","lat":"31.1106801878","category":"500","category_name":"未知分类","address":"上海莘朱路27号"},{"poiid":"B2094654DB6CABF4409D","title":"世轩热气涮羊肉","lon":"121.38336","lat":"31.10956","category":"86","category_name":"火锅店","address":"闵行区莘建东路399弄26支弄7号-9号(近莘庄地铁站北广场)"},{"poiid":"B2094753D66EA4FB479E","title":"闵行区图书馆","lon":"121.383938","lat":"31.110018","category":"181","category_name":"图书馆","address":"上海市 名都路85号"},{"poiid":"B2094654DB6CABF9439C","title":"快客(莘建东路)","lon":"121.38298","lat":"31.11037","category":"117","category_name":"便民商店/便利店","address":"莘建东路396"},{"poiid":"B2094654DB6CABF94399","title":"上海江川经济城(莘建东路)","lon":"121.38311","lat":"31.1105","category":"45","category_name":"产业园区","address":"莘建东路384"},{"poiid":"B2094654DB6CABF44098","title":"上海市心禾口腔门诊部","lon":"121.3833","lat":"31.10969","category":"162","category_name":"医院","address":""},{"poiid":"B2094750D66CA1FA489B","title":"上影CGV国际影城","lon":"121.385162","lat":"31.108039","category":"178","category_name":"电影院","address":"仲盛商场"},{"poiid":"B2094757D66BA0F54199","title":"烫我吧","lon":"121.38482","lat":"31.11188","category":"68","category_name":"快餐厅","address":"闵行区莘建东路58弄绿地广场101室(水清南路莘建东路)"},{"poiid":"B2094753D16DA4FA489C","title":"漫咖啡莘庄店","lon":"121.381522","lat":"31.109003","category":"500","category_name":"未知分类","address":"上海市 都市路4855号"},{"poiid":"B2094654DB6CABF44499","title":"江南苑","lon":"121.38554","lat":"31.108566","category":"47","category_name":"住宅区","address":"莘朱路222弄"},{"poiid":"B2094757D568A7FA4293","title":"三秦风味","lon":"121.38264893","lat":"31.10876845","category":"84","category_name":"西北菜","address":"闵行区莘建东路399弄26支弄41号"},{"poiid":"B2094757D165A6FA4793","title":"中国光大银行上海分行闵行支行","lon":"121.383285857","lat":"31.109937561","category":"500","category_name":"未知分类","address":"上海市闵行区水清南路20号"},{"poiid":"B2094751DA6FA0FD449E","title":"星记茶餐厅","lon":"121.3849732","lat":"31.1106145","category":"247","category_name":"餐饮美食","address":"上海市闵行区都市路5001号仲盛世界商城B1"},{"poiid":"B2094654DB6CABF9479C","title":"锦江大厨","lon":"121.38337","lat":"31.11125","category":"257","category_name":"中餐厅","address":"水清南路19号"},{"poiid":"B2094750D26DA0F4479E","title":"奥妙趣玩具王国","lon":"121.380441","lat":"31.108907","category":"248","category_name":"生活娱乐","address":"闵行区都市路5001号仲盛世界商城2-23号(近莘庄地铁站)"},{"poiid":"B2094757D16EA3F44098","title":"长寿新村闵行","lon":"121.383","lat":"31.1098","category":"500","category_name":"未知分类","address":"上海莘东路莘建路"},{"poiid":"B2094757D16FA0FF4992","title":"卡乐星","lon":"121.383371857","lat":"31.1136626356","category":"500","category_name":"未知分类","address":"上海莘庄龙之梦B1"},{"poiid":"B2094753DA68A2FD469D","title":"上海城市剧院","lon":"121.383261","lat":"31.109659","category":"500","category_name":"未知分类","address":"上海市 闵行区都市路4889号"},{"poiid":"B2094757D16FA5FA479E","title":"莘庄3路终点站","lon":"121.38356885","lat":"31.110542573","category":"500","category_name":"未知分类","address":"上海莘庄地铁北广场"},{"poiid":"B2094757D064A5FC409D","title":"许留山 (莘庄龙之梦店)","lon":"121.384234017","lat":"31.1134725118","category":"500","category_name":"未知分类","address":"上海闵行区沪闵路6088号凯德龙之梦B1"},{"poiid":"B2094655D26BA7F9469E","title":"一线天快意砂锅","lon":"121.38248","lat":"31.1087","category":"68","category_name":"快餐厅","address":"闵行区莘建东路399弄26支弄10号(近莘庄地铁站北广场)"},{"poiid":"B2094655D26FA3F4419B","title":"银霄大厦","lon":"121.38218","lat":"31.111526","category":"47","category_name":"住宅区","address":"沪闵路6259号"},{"poiid":"B2094654DB6CABF4409A","title":"吉的堡少儿英语","lon":"121.38317","lat":"31.10971","category":"190","category_name":"培训机构","address":"闵行区莘建东路399弄26支弄"},{"poiid":"B2094757D66FA0FC4098","title":"725莘庄地铁站","lon":"121.384976857","lat":"31.1103185686","category":"36","category_name":"地铁站","address":"上海莘庄地铁南广场"},{"poiid":"B2094757D569A2FB4499","title":"名绮美容养身金盟健康减肥(莘庄店)","lon":"121.3827002","lat":"31.11077528","category":"148","category_name":"美容美发店","address":"碧泉路59、63"},{"poiid":"B2094654DB6CABF94299","title":"现代齿科(碧泉路)","lon":"121.38176","lat":"31.11038","category":"162","category_name":"医院","address":"闵行区碧泉路116"},{"poiid":"B2094655D36DA7F44198","title":"莘庄地铁站","lon":"121.38465","lat":"31.11162","category":"36","category_name":"地铁站","address":"七莘路50号"},{"poiid":"B2094757D06BABFC4692","title":"莘庄百盛","lon":"121.386920457","lat":"31.1099640615","category":"249","category_name":"购物服务","address":"上海都市路5001号"},{"poiid":"B2094757D06FA4FD499A","title":"鲜芋仙(莘庄店)","lon":"121.386862757","lat":"31.1099118604","category":"67","category_name":"甜品店","address":"闵行区莘朱路270弄33号(近南广场)"},{"poiid":"B2094757DA64A2F9449D","title":"外婆家","lon":"121.38041168","lat":"31.11016523","category":"247","category_name":"餐饮美食","address":"闵行区都市路5001号仲盛世界商城4楼(近莘庄地铁南广场)"},{"poiid":"B2094750DB65A5F8479F","title":"伊秀手握寿司（仲盛店）","lon":"121.38619","lat":"31.10776","category":"95","category_name":"日本料理","address":"闵行区莘庄地铁站内"},{"poiid":"B2094757D06FAAFE4099","title":"闵行区人民政府","lon":"121.381676","lat":"31.11284","category":"47","category_name":"住宅区","address":"上海闵行区沪闵路6258号(近水清路)"},{"poiid":"B2094757DA6FA3F9439B","title":"莘庄仲盛南广场","lon":"121.386192","lat":"31.1077689999998","category":"249","category_name":"购物服务","address":"闵行区都市路5001号"},{"poiid":"B2094655D26AA0F9449E","title":"地铁莘庄站","lon":"121.38477","lat":"31.11158","category":"36","category_name":"地铁站","address":"地铁莘庄站"},{"poiid":"B2094757D068A7FF4892","title":"闵行区人民政府证照办理中心","lon":"121.385272","lat":"31.112516","category":"500","category_name":"未知分类","address":"上海莘建东路201号"},{"poiid":"B2094757DA6FA3FD4299","title":"花亭日本料理","lon":"121.386192","lat":"31.1077689999998","category":"95","category_name":"日本料理","address":"上海闵行区都市路5001号仲盛世界广场5楼"},{"poiid":"B2094757D06FABFF4192","title":"哈根达斯(莘庄仲盛店)","lon":"121.38690185","lat":"31.10841953","category":"113","category_name":"冷饮店","address":"上海闵行区都市路5001号仲盛世界商城1楼GF-11商铺"},{"poiid":"B2094750D26BA3FE469B","title":"健康煮 仲盛店","lon":"121.386192","lat":"31.107769","category":"86","category_name":"火锅店","address":"闵行区都市路5001号仲盛世界商城5楼13号商铺(近莘庄地铁南广场)"},{"poiid":"B2094757D06FAAFC489B","title":"肯德基 KFC (莘建店)","lon":"121.384571","lat":"31.112091","category":"68","category_name":"快餐厅","address":"闵行区水清南路20号莘庄地铁北广场(碧秀路水清南路)"},{"poiid":"B2094757DB69A6FF4793","title":"新贝乐意式休闲餐厅 莘庄仲盛店","lon":"121.386192","lat":"31.107769","category":"94","category_name":"西餐厅","address":"闵行区都市路5001号仲盛世界商城B1楼(近莘庄地铁南广场)"},{"poiid":"B2094654DB6AA2FC4598","title":"锦江之星(莘庄店)","lon":"121.38341","lat":"31.11122","category":"216","category_name":"经济型连锁酒店","address":"闵行区水清南路19号(莘庄地铁站北广场)"},{"poiid":"B2094757D465A5FF469E","title":"时光角落咖啡馆 Corner Cafe","lon":"121.38153971456","lat":"31.109362670664","category":"65","category_name":"咖啡厅","address":"闵行区莘建东路399弄26支弄54号(近莘庄地铁站北广场)"},{"poiid":"B2094757D065A7FA499A","title":"Corner Cafe (时光角落)","lon":"121.38288687","lat":"31.110040673","category":"500","category_name":"未知分类","address":"上海薪建东路广贤路囗"},{"poiid":"B2094753D36FA0F5479B","title":"maan coffee","lon":"121.385062","lat":"31.107086","category":"500","category_name":"未知分类","address":"上海市 珠城路158号(近富都路)"},{"poiid":"B2094757D16EA1F5489B","title":"味千拉面(莘庄龙之梦店)","lon":"121.38062575","lat":"31.109819058","category":"95","category_name":"日本料理","address":"闵行区沪闵路6088号莘庄凯德龙之梦购物中心内(近莘建路)"},{"poiid":"B2094757D06FA7F9439B","title":"超级鸡车(莘朱路店)","lon":"121.386578","lat":"31.109122","category":"68","category_name":"快餐厅","address":"闵行区莘朱路270弄27号(近地铁莘庄站南广场)"},{"poiid":"B2094654DB6CABF94293","title":"和大成弄堂小菜","lon":"121.38332","lat":"31.11069","category":"76","category_name":"上海菜","address":"闵行区莘建东路372号(近莘庄地铁站北广场)"},{"poiid":"B2094654DB6AA3FA4098","title":"兜率宫 莘庄店","lon":"121.38253678735","lat":"31.109881856097","category":"86","category_name":"火锅店","address":"闵行区广贤路188号(近莘建东路)"},{"poiid":"B2094654DB6CABF9439F","title":"众众家园(莘建东路)","lon":"121.38296","lat":"31.11046","category":"47","category_name":"住宅区","address":"莘建东路399弄12支弄"},{"poiid":"B2094654DB6CABF4409E","title":"众众家园商业步行街","lon":"121.3834","lat":"31.10991","category":"116","category_name":"特色商业街","address":""},{"poiid":"B2094757D064A4FF499B","title":"阿玛尼莘庄店","lon":"121.384725155","lat":"31.1106801878","category":"500","category_name":"未知分类","address":"上海莘朱路27号"},{"poiid":"B2094654DB6CABF4409D","title":"世轩热气涮羊肉","lon":"121.38336","lat":"31.10956","category":"86","category_name":"火锅店","address":"闵行区莘建东路399弄26支弄7号-9号(近莘庄地铁站北广场)"},{"poiid":"B2094753D66EA4FB479E","title":"闵行区图书馆","lon":"121.383938","lat":"31.110018","category":"181","category_name":"图书馆","address":"上海市 名都路85号"},{"poiid":"B2094654DB6CABF9439C","title":"快客(莘建东路)","lon":"121.38298","lat":"31.11037","category":"117","category_name":"便民商店/便利店","address":"莘建东路396"},{"poiid":"B2094654DB6CABF94399","title":"上海江川经济城(莘建东路)","lon":"121.38311","lat":"31.1105","category":"45","category_name":"产业园区","address":"莘建东路384"},{"poiid":"B2094654DB6CABF44098","title":"上海市心禾口腔门诊部","lon":"121.3833","lat":"31.10969","category":"162","category_name":"医院","address":""},{"poiid":"B2094750D66CA1FA489B","title":"上影CGV国际影城","lon":"121.385162","lat":"31.108039","category":"178","category_name":"电影院","address":"仲盛商场"},{"poiid":"B2094757D66BA0F54199","title":"烫我吧","lon":"121.38482","lat":"31.11188","category":"68","category_name":"快餐厅","address":"闵行区莘建东路58弄绿地广场101室(水清南路莘建东路)"},{"poiid":"B2094753D16DA4FA489C","title":"漫咖啡莘庄店","lon":"121.381522","lat":"31.109003","category":"500","category_name":"未知分类","address":"上海市 都市路4855号"},{"poiid":"B2094654DB6CABF44499","title":"江南苑","lon":"121.38554","lat":"31.108566","category":"47","category_name":"住宅区","address":"莘朱路222弄"},{"poiid":"B2094757D568A7FA4293","title":"三秦风味","lon":"121.38264893","lat":"31.10876845","category":"84","category_name":"西北菜","address":"闵行区莘建东路399弄26支弄41号"},{"poiid":"B2094757D165A6FA4793","title":"中国光大银行上海分行闵行支行","lon":"121.383285857","lat":"31.109937561","category":"500","category_name":"未知分类","address":"上海市闵行区水清南路20号"},{"poiid":"B2094751DA6FA0FD449E","title":"星记茶餐厅","lon":"121.3849732","lat":"31.1106145","category":"247","category_name":"餐饮美食","address":"上海市闵行区都市路5001号仲盛世界商城B1"},{"poiid":"B2094654DB6CABF9479C","title":"锦江大厨","lon":"121.38337","lat":"31.11125","category":"257","category_name":"中餐厅","address":"水清南路19号"},{"poiid":"B2094750D26DA0F4479E","title":"奥妙趣玩具王国","lon":"121.380441","lat":"31.108907","category":"248","category_name":"生活娱乐","address":"闵行区都市路5001号仲盛世界商城2-23号(近莘庄地铁站)"},{"poiid":"B2094757D16EA3F44098","title":"长寿新村闵行","lon":"121.383","lat":"31.1098","category":"500","category_name":"未知分类","address":"上海莘东路莘建路"},{"poiid":"B2094757D16FA0FF4992","title":"卡乐星","lon":"121.383371857","lat":"31.1136626356","category":"500","category_name":"未知分类","address":"上海莘庄龙之梦B1"},{"poiid":"B2094753DA68A2FD469D","title":"上海城市剧院","lon":"121.383261","lat":"31.109659","category":"500","category_name":"未知分类","address":"上海市 闵行区都市路4889号"},{"poiid":"B2094757D16FA5FA479E","title":"莘庄3路终点站","lon":"121.38356885","lat":"31.110542573","category":"500","category_name":"未知分类","address":"上海莘庄地铁北广场"},{"poiid":"B2094757D064A5FC409D","title":"许留山 (莘庄龙之梦店)","lon":"121.384234017","lat":"31.1134725118","category":"500","category_name":"未知分类","address":"上海闵行区沪闵路6088号凯德龙之梦B1"},{"poiid":"B2094655D26BA7F9469E","title":"一线天快意砂锅","lon":"121.38248","lat":"31.1087","category":"68","category_name":"快餐厅","address":"闵行区莘建东路399弄26支弄10号(近莘庄地铁站北广场)"},{"poiid":"B2094655D26FA3F4419B","title":"银霄大厦","lon":"121.38218","lat":"31.111526","category":"47","category_name":"住宅区","address":"沪闵路6259号"},{"poiid":"B2094654DB6CABF4409A","title":"吉的堡少儿英语","lon":"121.38317","lat":"31.10971","category":"190","category_name":"培训机构","address":"闵行区莘建东路399弄26支弄"},{"poiid":"B2094757D66FA0FC4098","title":"725莘庄地铁站","lon":"121.384976857","lat":"31.1103185686","category":"36","category_name":"地铁站","address":"上海莘庄地铁南广场"},{"poiid":"B2094757D569A2FB4499","title":"名绮美容养身金盟健康减肥(莘庄店)","lon":"121.3827002","lat":"31.11077528","category":"148","category_name":"美容美发店","address":"碧泉路59、63"},{"poiid":"B2094654DB6CABF94299","title":"现代齿科(碧泉路)","lon":"121.38176","lat":"31.11038","category":"162","category_name":"医院","address":"闵行区碧泉路116"},{"poiid":"B2094655D36DA7F44198","title":"莘庄地铁站","lon":"121.38465","lat":"31.11162","category":"36","category_name":"地铁站","address":"七莘路50号"},{"poiid":"B2094757D06BABFC4692","title":"莘庄百盛","lon":"121.386920457","lat":"31.1099640615","category":"249","category_name":"购物服务","address":"上海都市路5001号"},{"poiid":"B2094757D06FA4FD499A","title":"鲜芋仙(莘庄店)","lon":"121.386862757","lat":"31.1099118604","category":"67","category_name":"甜品店","address":"闵行区莘朱路270弄33号(近南广场)"},{"poiid":"B2094757DA64A2F9449D","title":"外婆家","lon":"121.38041168","lat":"31.11016523","category":"247","category_name":"餐饮美食","address":"闵行区都市路5001号仲盛世界商城4楼(近莘庄地铁南广场)"},{"poiid":"B2094750DB65A5F8479F","title":"伊秀手握寿司（仲盛店）","lon":"121.38619","lat":"31.10776","category":"95","category_name":"日本料理","address":"闵行区莘庄地铁站内"},{"poiid":"B2094757D06FAAFE4099","title":"闵行区人民政府","lon":"121.381676","lat":"31.11284","category":"47","category_name":"住宅区","address":"上海闵行区沪闵路6258号(近水清路)"},{"poiid":"B2094757DA6FA3F9439B","title":"莘庄仲盛南广场","lon":"121.386192","lat":"31.1077689999998","category":"249","category_name":"购物服务","address":"闵行区都市路5001号"},{"poiid":"B2094655D26AA0F9449E","title":"地铁莘庄站","lon":"121.38477","lat":"31.11158","category":"36","category_name":"地铁站","address":"地铁莘庄站"},{"poiid":"B2094757D068A7FF4892","title":"闵行区人民政府证照办理中心","lon":"121.385272","lat":"31.112516","category":"500","category_name":"未知分类","address":"上海莘建东路201号"},{"poiid":"B2094757DA6FA3FD4299","title":"花亭日本料理","lon":"121.386192","lat":"31.1077689999998","category":"95","category_name":"日本料理","address":"上海闵行区都市路5001号仲盛世界广场5楼"},{"poiid":"B2094757D06FABFF4192","title":"哈根达斯(莘庄仲盛店)","lon":"121.38690185","lat":"31.10841953","category":"113","category_name":"冷饮店","address":"上海闵行区都市路5001号仲盛世界商城1楼GF-11商铺"},{"poiid":"B2094750D26BA3FE469B","title":"健康煮 仲盛店","lon":"121.386192","lat":"31.107769","category":"86","category_name":"火锅店","address":"闵行区都市路5001号仲盛世界商城5楼13号商铺(近莘庄地铁南广场)"},{"poiid":"B2094757D06FAAFC489B","title":"肯德基 KFC (莘建店)","lon":"121.384571","lat":"31.112091","category":"68","category_name":"快餐厅","address":"闵行区水清南路20号莘庄地铁北广场(碧秀路水清南路)"},{"poiid":"B2094757DB69A6FF4793","title":"新贝乐意式休闲餐厅 莘庄仲盛店","lon":"121.386192","lat":"31.107769","category":"94","category_name":"西餐厅","address":"闵行区都市路5001号仲盛世界商城B1楼(近莘庄地铁南广场)"},{"poiid":"B2094654DB6AA2FC4598","title":"锦江之星(莘庄店)","lon":"121.38341","lat":"31.11122","category":"216","category_name":"经济型连锁酒店","address":"闵行区水清南路19号(莘庄地铁站北广场)"},{"poiid":"B2094757D465A5FF469E","title":"时光角落咖啡馆 Corner Cafe","lon":"121.38153971456","lat":"31.109362670664","category":"65","category_name":"咖啡厅","address":"闵行区莘建东路399弄26支弄54号(近莘庄地铁站北广场)"},{"poiid":"B2094757D065A7FA499A","title":"Corner Cafe (时光角落)","lon":"121.38288687","lat":"31.110040673","category":"500","category_name":"未知分类","address":"上海薪建东路广贤路囗"},{"poiid":"B2094753D36FA0F5479B","title":"maan coffee","lon":"121.385062","lat":"31.107086","category":"500","category_name":"未知分类","address":"上海市 珠城路158号(近富都路)"},{"poiid":"B2094757D16EA1F5489B","title":"味千拉面(莘庄龙之梦店)","lon":"121.38062575","lat":"31.109819058","category":"95","category_name":"日本料理","address":"闵行区沪闵路6088号莘庄凯德龙之梦购物中心内(近莘建路)"},{"poiid":"B2094757D06FA7F9439B","title":"超级鸡车(莘朱路店)","lon":"121.386578","lat":"31.109122","category":"68","category_name":"快餐厅","address":"闵行区莘朱路270弄27号(近地铁莘庄站南广场)"},{"poiid":"B2094654DB6CABF94293","title":"和大成弄堂小菜","lon":"121.38332","lat":"31.11069","category":"76","category_name":"上海菜","address":"闵行区莘建东路372号(近莘庄地铁站北广场)"},{"poiid":"B2094654DB6AA3FA4098","title":"兜率宫 莘庄店","lon":"121.38253678735","lat":"31.109881856097","category":"86","category_name":"火锅店","address":"闵行区广贤路188号(近莘建东路)"},{"poiid":"B2094654DB6CABF9439F","title":"众众家园(莘建东路)","lon":"121.38296","lat":"31.11046","category":"47","category_name":"住宅区","address":"莘建东路399弄12支弄"},{"poiid":"B2094654DB6CABF4409E","title":"众众家园商业步行街","lon":"121.3834","lat":"31.10991","category":"116","category_name":"特色商业街","address":""},{"poiid":"B2094757D064A4FF499B","title":"阿玛尼莘庄店","lon":"121.384725155","lat":"31.1106801878","category":"500","category_name":"未知分类","address":"上海莘朱路27号"},{"poiid":"B2094654DB6CABF4409D","title":"世轩热气涮羊肉","lon":"121.38336","lat":"31.10956","category":"86","category_name":"火锅店","address":"闵行区莘建东路399弄26支弄7号-9号(近莘庄地铁站北广场)"},{"poiid":"B2094753D66EA4FB479E","title":"闵行区图书馆","lon":"121.383938","lat":"31.110018","category":"181","category_name":"图书馆","address":"上海市 名都路85号"},{"poiid":"B2094654DB6CABF9439C","title":"快客(莘建东路)","lon":"121.38298","lat":"31.11037","category":"117","category_name":"便民商店/便利店","address":"莘建东路396"},{"poiid":"B2094654DB6CABF94399","title":"上海江川经济城(莘建东路)","lon":"121.38311","lat":"31.1105","category":"45","category_name":"产业园区","address":"莘建东路384"},{"poiid":"B2094654DB6CABF44098","title":"上海市心禾口腔门诊部","lon":"121.3833","lat":"31.10969","category":"162","category_name":"医院","address":""},{"poiid":"B2094750D66CA1FA489B","title":"上影CGV国际影城","lon":"121.385162","lat":"31.108039","category":"178","category_name":"电影院","address":"仲盛商场"},{"poiid":"B2094757D66BA0F54199","title":"烫我吧","lon":"121.38482","lat":"31.11188","category":"68","category_name":"快餐厅","address":"闵行区莘建东路58弄绿地广场101室(水清南路莘建东路)"},{"poiid":"B2094753D16DA4FA489C","title":"漫咖啡莘庄店","lon":"121.381522","lat":"31.109003","category":"500","category_name":"未知分类","address":"上海市 都市路4855号"},{"poiid":"B2094654DB6CABF44499","title":"江南苑","lon":"121.38554","lat":"31.108566","category":"47","category_name":"住宅区","address":"莘朱路222弄"},{"poiid":"B2094757D568A7FA4293","title":"三秦风味","lon":"121.38264893","lat":"31.10876845","category":"84","category_name":"西北菜","address":"闵行区莘建东路399弄26支弄41号"},{"poiid":"B2094757D165A6FA4793","title":"中国光大银行上海分行闵行支行","lon":"121.383285857","lat":"31.109937561","category":"500","category_name":"未知分类","address":"上海市闵行区水清南路20号"},{"poiid":"B2094751DA6FA0FD449E","title":"星记茶餐厅","lon":"121.3849732","lat":"31.1106145","category":"247","category_name":"餐饮美食","address":"上海市闵行区都市路5001号仲盛世界商城B1"},{"poiid":"B2094654DB6CABF9479C","title":"锦江大厨","lon":"121.38337","lat":"31.11125","category":"257","category_name":"中餐厅","address":"水清南路19号"},{"poiid":"B2094750D26DA0F4479E","title":"奥妙趣玩具王国","lon":"121.380441","lat":"31.108907","category":"248","category_name":"生活娱乐","address":"闵行区都市路5001号仲盛世界商城2-23号(近莘庄地铁站)"},{"poiid":"B2094757D16EA3F44098","title":"长寿新村闵行","lon":"121.383","lat":"31.1098","category":"500","category_name":"未知分类","address":"上海莘东路莘建路"},{"poiid":"B2094757D16FA0FF4992","title":"卡乐星","lon":"121.383371857","lat":"31.1136626356","category":"500","category_name":"未知分类","address":"上海莘庄龙之梦B1"},{"poiid":"B2094753DA68A2FD469D","title":"上海城市剧院","lon":"121.383261","lat":"31.109659","category":"500","category_name":"未知分类","address":"上海市 闵行区都市路4889号"},{"poiid":"B2094757D16FA5FA479E","title":"莘庄3路终点站","lon":"121.38356885","lat":"31.110542573","category":"500","category_name":"未知分类","address":"上海莘庄地铁北广场"},{"poiid":"B2094757D064A5FC409D","title":"许留山 (莘庄龙之梦店)","lon":"121.384234017","lat":"31.1134725118","category":"500","category_name":"未知分类","address":"上海闵行区沪闵路6088号凯德龙之梦B1"},{"poiid":"B2094655D26BA7F9469E","title":"一线天快意砂锅","lon":"121.38248","lat":"31.1087","category":"68","category_name":"快餐厅","address":"闵行区莘建东路399弄26支弄10号(近莘庄地铁站北广场)"},{"poiid":"B2094655D26FA3F4419B","title":"银霄大厦","lon":"121.38218","lat":"31.111526","category":"47","category_name":"住宅区","address":"沪闵路6259号"},{"poiid":"B2094654DB6CABF4409A","title":"吉的堡少儿英语","lon":"121.38317","lat":"31.10971","category":"190","category_name":"培训机构","address":"闵行区莘建东路399弄26支弄"},{"poiid":"B2094757D66FA0FC4098","title":"725莘庄地铁站","lon":"121.384976857","lat":"31.1103185686","category":"36","category_name":"地铁站","address":"上海莘庄地铁南广场"},{"poiid":"B2094757D569A2FB4499","title":"名绮美容养身金盟健康减肥(莘庄店)","lon":"121.3827002","lat":"31.11077528","category":"148","category_name":"美容美发店","address":"碧泉路59、63"},{"poiid":"B2094654DB6CABF94299","title":"现代齿科(碧泉路)","lon":"121.38176","lat":"31.11038","category":"162","category_name":"医院","address":"闵行区碧泉路116"},{"poiid":"B2094655D36DA7F44198","title":"莘庄地铁站","lon":"121.38465","lat":"31.11162","category":"36","category_name":"地铁站","address":"七莘路50号"},{"poiid":"B2094757D06BABFC4692","title":"莘庄百盛","lon":"121.386920457","lat":"31.1099640615","category":"249","category_name":"购物服务","address":"上海都市路5001号"},{"poiid":"B2094757D06FA4FD499A","title":"鲜芋仙(莘庄店)","lon":"121.386862757","lat":"31.1099118604","category":"67","category_name":"甜品店","address":"闵行区莘朱路270弄33号(近南广场)"},{"poiid":"B2094757DA64A2F9449D","title":"外婆家","lon":"121.38041168","lat":"31.11016523","category":"247","category_name":"餐饮美食","address":"闵行区都市路5001号仲盛世界商城4楼(近莘庄地铁南广场)"},{"poiid":"B2094750DB65A5F8479F","title":"伊秀手握寿司（仲盛店）","lon":"121.38619","lat":"31.10776","category":"95","category_name":"日本料理","address":"闵行区莘庄地铁站内"},{"poiid":"B2094757D06FAAFE4099","title":"闵行区人民政府","lon":"121.381676","lat":"31.11284","category":"47","category_name":"住宅区","address":"上海闵行区沪闵路6258号(近水清路)"},{"poiid":"B2094757DA6FA3F9439B","title":"莘庄仲盛南广场","lon":"121.386192","lat":"31.1077689999998","category":"249","category_name":"购物服务","address":"闵行区都市路5001号"},{"poiid":"B2094655D26AA0F9449E","title":"地铁莘庄站","lon":"121.38477","lat":"31.11158","category":"36","category_name":"地铁站","address":"地铁莘庄站"},{"poiid":"B2094757D068A7FF4892","title":"闵行区人民政府证照办理中心","lon":"121.385272","lat":"31.112516","category":"500","category_name":"未知分类","address":"上海莘建东路201号"},{"poiid":"B2094757DA6FA3FD4299","title":"花亭日本料理","lon":"121.386192","lat":"31.1077689999998","category":"95","category_name":"日本料理","address":"上海闵行区都市路5001号仲盛世界广场5楼"},{"poiid":"B2094757D06FABFF4192","title":"哈根达斯(莘庄仲盛店)","lon":"121.38690185","lat":"31.10841953","category":"113","category_name":"冷饮店","address":"上海闵行区都市路5001号仲盛世界商城1楼GF-11商铺"},{"poiid":"B2094750D26BA3FE469B","title":"健康煮 仲盛店","lon":"121.386192","lat":"31.107769","category":"86","category_name":"火锅店","address":"闵行区都市路5001号仲盛世界商城5楼13号商铺(近莘庄地铁南广场)"},{"poiid":"B2094757D06FAAFC489B","title":"肯德基 KFC (莘建店)","lon":"121.384571","lat":"31.112091","category":"68","category_name":"快餐厅","address":"闵行区水清南路20号莘庄地铁北广场(碧秀路水清南路)"},{"poiid":"B2094757DB69A6FF4793","title":"新贝乐意式休闲餐厅 莘庄仲盛店","lon":"121.386192","lat":"31.107769","category":"94","category_name":"西餐厅","address":"闵行区都市路5001号仲盛世界商城B1楼(近莘庄地铁南广场)"},{"poiid":"B2094654DB6AA2FC4598","title":"锦江之星(莘庄店)","lon":"121.38341","lat":"31.11122","category":"216","category_name":"经济型连锁酒店","address":"闵行区水清南路19号(莘庄地铁站北广场)"},{"poiid":"B2094757D465A5FF469E","title":"时光角落咖啡馆 Corner Cafe","lon":"121.38153971456","lat":"31.109362670664","category":"65","category_name":"咖啡厅","address":"闵行区莘建东路399弄26支弄54号(近莘庄地铁站北广场)"},{"poiid":"B2094757D065A7FA499A","title":"Corner Cafe (时光角落)","lon":"121.38288687","lat":"31.110040673","category":"500","category_name":"未知分类","address":"上海薪建东路广贤路囗"},{"poiid":"B2094753D36FA0F5479B","title":"maan coffee","lon":"121.385062","lat":"31.107086","category":"500","category_name":"未知分类","address":"上海市 珠城路158号(近富都路)"},{"poiid":"B2094757D16EA1F5489B","title":"味千拉面(莘庄龙之梦店)","lon":"121.38062575","lat":"31.109819058","category":"95","category_name":"日本料理","address":"闵行区沪闵路6088号莘庄凯德龙之梦购物中心内(近莘建路)"},{"poiid":"B2094757D06FA7F9439B","title":"超级鸡车(莘朱路店)","lon":"121.386578","lat":"31.109122","category":"68","category_name":"快餐厅","address":"闵行区莘朱路270弄27号(近地铁莘庄站南广场)"},{"poiid":"B2094654DB6CABF94293","title":"和大成弄堂小菜","lon":"121.38332","lat":"31.11069","category":"76","category_name":"上海菜","address":"闵行区莘建东路372号(近莘庄地铁站北广场)"},{"poiid":"B2094654DB6AA3FA4098","title":"兜率宫 莘庄店","lon":"121.38253678735","lat":"31.109881856097","category":"86","category_name":"火锅店","address":"闵行区广贤路188号(近莘建东路)"},{"poiid":"B2094654DB6CABF9439F","title":"众众家园(莘建东路)","lon":"121.38296","lat":"31.11046","category":"47","category_name":"住宅区","address":"莘建东路399弄12支弄"},{"poiid":"B2094654DB6CABF4409E","title":"众众家园商业步行街","lon":"121.3834","lat":"31.10991","category":"116","category_name":"特色商业街","address":""},{"poiid":"B2094757D064A4FF499B","title":"阿玛尼莘庄店","lon":"121.384725155","lat":"31.1106801878","category":"500","category_name":"未知分类","address":"上海莘朱路27号"},{"poiid":"B2094654DB6CABF4409D","title":"世轩热气涮羊肉","lon":"121.38336","lat":"31.10956","category":"86","category_name":"火锅店","address":"闵行区莘建东路399弄26支弄7号-9号(近莘庄地铁站北广场)"},{"poiid":"B2094753D66EA4FB479E","title":"闵行区图书馆","lon":"121.383938","lat":"31.110018","category":"181","category_name":"图书馆","address":"上海市 名都路85号"},{"poiid":"B2094654DB6CABF9439C","title":"快客(莘建东路)","lon":"121.38298","lat":"31.11037","category":"117","category_name":"便民商店/便利店","address":"莘建东路396"},{"poiid":"B2094654DB6CABF94399","title":"上海江川经济城(莘建东路)","lon":"121.38311","lat":"31.1105","category":"45","category_name":"产业园区","address":"莘建东路384"},{"poiid":"B2094654DB6CABF44098","title":"上海市心禾口腔门诊部","lon":"121.3833","lat":"31.10969","category":"162","category_name":"医院","address":""},{"poiid":"B2094750D66CA1FA489B","title":"上影CGV国际影城","lon":"121.385162","lat":"31.108039","category":"178","category_name":"电影院","address":"仲盛商场"},{"poiid":"B2094757D66BA0F54199","title":"烫我吧","lon":"121.38482","lat":"31.11188","category":"68","category_name":"快餐厅","address":"闵行区莘建东路58弄绿地广场101室(水清南路莘建东路)"},{"poiid":"B2094753D16DA4FA489C","title":"漫咖啡莘庄店","lon":"121.381522","lat":"31.109003","category":"500","category_name":"未知分类","address":"上海市 都市路4855号"},{"poiid":"B2094654DB6CABF44499","title":"江南苑","lon":"121.38554","lat":"31.108566","category":"47","category_name":"住宅区","address":"莘朱路222弄"},{"poiid":"B2094757D568A7FA4293","title":"三秦风味","lon":"121.38264893","lat":"31.10876845","category":"84","category_name":"西北菜","address":"闵行区莘建东路399弄26支弄41号"},{"poiid":"B2094757D165A6FA4793","title":"中国光大银行上海分行闵行支行","lon":"121.383285857","lat":"31.109937561","category":"500","category_name":"未知分类","address":"上海市闵行区水清南路20号"},{"poiid":"B2094751DA6FA0FD449E","title":"星记茶餐厅","lon":"121.3849732","lat":"31.1106145","category":"247","category_name":"餐饮美食","address":"上海市闵行区都市路5001号仲盛世界商城B1"},{"poiid":"B2094654DB6CABF9479C","title":"锦江大厨","lon":"121.38337","lat":"31.11125","category":"257","category_name":"中餐厅","address":"水清南路19号"},{"poiid":"B2094750D26DA0F4479E","title":"奥妙趣玩具王国","lon":"121.380441","lat":"31.108907","category":"248","category_name":"生活娱乐","address":"闵行区都市路5001号仲盛世界商城2-23号(近莘庄地铁站)"},{"poiid":"B2094757D16EA3F44098","title":"长寿新村闵行","lon":"121.383","lat":"31.1098","category":"500","category_name":"未知分类","address":"上海莘东路莘建路"},{"poiid":"B2094757D16FA0FF4992","title":"卡乐星","lon":"121.383371857","lat":"31.1136626356","category":"500","category_name":"未知分类","address":"上海莘庄龙之梦B1"},{"poiid":"B2094753DA68A2FD469D","title":"上海城市剧院","lon":"121.383261","lat":"31.109659","category":"500","category_name":"未知分类","address":"上海市 闵行区都市路4889号"},{"poiid":"B2094757D16FA5FA479E","title":"莘庄3路终点站","lon":"121.38356885","lat":"31.110542573","category":"500","category_name":"未知分类","address":"上海莘庄地铁北广场"},{"poiid":"B2094757D064A5FC409D","title":"许留山 (莘庄龙之梦店)","lon":"121.384234017","lat":"31.1134725118","category":"500","category_name":"未知分类","address":"上海闵行区沪闵路6088号凯德龙之梦B1"},{"poiid":"B2094655D26BA7F9469E","title":"一线天快意砂锅","lon":"121.38248","lat":"31.1087","category":"68","category_name":"快餐厅","address":"闵行区莘建东路399弄26支弄10号(近莘庄地铁站北广场)"},{"poiid":"B2094655D26FA3F4419B","title":"银霄大厦","lon":"121.38218","lat":"31.111526","category":"47","category_name":"住宅区","address":"沪闵路6259号"},{"poiid":"B2094654DB6CABF4409A","title":"吉的堡少儿英语","lon":"121.38317","lat":"31.10971","category":"190","category_name":"培训机构","address":"闵行区莘建东路399弄26支弄"},{"poiid":"B2094757D66FA0FC4098","title":"725莘庄地铁站","lon":"121.384976857","lat":"31.1103185686","category":"36","category_name":"地铁站","address":"上海莘庄地铁南广场"},{"poiid":"B2094757D569A2FB4499","title":"名绮美容养身金盟健康减肥(莘庄店)","lon":"121.3827002","lat":"31.11077528","category":"148","category_name":"美容美发店","address":"碧泉路59、63"},{"poiid":"B2094654DB6CABF94299","title":"现代齿科(碧泉路)","lon":"121.38176","lat":"31.11038","category":"162","category_name":"医院","address":"闵行区碧泉路116"}]