[{"poiid":"B2094757D06FABFD4299","title":"天水雅居","lon":"121.460732","lat":"31.263454","category":"74","category_name":"江苏菜","address":"闸北区共和新路1301号(近柳营路)"},{"poiid":"B2094655D36DA1FB419F","title":"西藏北路中山北路","lon":"121.46573","lat":"31.26343","category":"38","category_name":"公交车站","address":""},{"poiid":"B2094757D06FA3FE439A","title":"大润发(平型关店)","lon":"121.46653","lat":"31.26588","category":"118","category_name":"超级市场","address":"闸北区平型关路108号B1楼(近俞泾港路)"},{"poiid":"B2094757D06FA0FC419A","title":"上海市第二中级人民法院","lon":"121.46311027","lat":"31.2627168255","category":"608","category_name":"法院","address":"上海中山北路567号"},{"poiid":"B2094757D068A6FE439F","title":"舒友海鲜大酒楼(闸北店)","lon":"121.45961","lat":"31.26864","category":"88","category_name":"海鲜酒楼","address":"闸北区洛川东路437号(近共和新路)"},{"poiid":"B2094750D564A5FA4699","title":"金赢108创意广场","lon":"121.466904","lat":"31.2674","category":"47","category_name":"住宅区","address":"闸北区平型关路108号(近俞泾港路)"},{"poiid":"B2094757D06FA3F9459A","title":"贝拉婚纱","lon":"121.46698","lat":"31.2665","category":"260","category_name":"其他","address":"闸北区平型关路108弄27号宝山区北欧新镇罗芬路689弄41-44号嘉定区城中路136弄罗宾森步行街53-55号"},{"poiid":"B2094654DB6AAAFE489B","title":"汉庭快捷(西藏北路店)","lon":"121.46552","lat":"31.26422","category":"216","category_name":"经济型连锁酒店","address":"上海闸北区西藏北路1318号(近中山北路)"},{"poiid":"B2094655D26DA6FF489C","title":"上海百富大酒店","lon":"121.4633","lat":"31.26691","category":"76","category_name":"上海菜","address":"闸北区西藏北路1599号"},{"poiid":"B2094654DB64A6FB4692","title":"如家快捷酒店(上海西藏北路店)","lon":"121.46186","lat":"31.26615","category":"216","category_name":"经济型连锁酒店","address":"闸北区柳营路518号(近和田路)"},{"poiid":"B2094750D664AAFE449C","title":"重庆老火锅(平型关路店)","lon":"121.467","lat":"31.2667","category":"86","category_name":"火锅店","address":"闸北区平型关路108号108广场36号(近中山北路)"},{"poiid":"B2094757D66BA6F4459A","title":"康师傅私房牛肉面 平型关店","lon":"121.46596","lat":"31.26621","category":"68","category_name":"快餐厅","address":"闸北区俞泾港路11号大润发B1楼(近平型关路)"},{"poiid":"B2094757D064A6F94998","title":"闸北区教育局","lon":"121.4633021","lat":"31.265463318","category":"500","category_name":"未知分类","address":"上海市闸北区和田路195号"},{"poiid":"B2094757D06FA3F84292","title":"JEANS明星达人店(京世洛川店)","lon":"121.46167081","lat":"31.2697486153","category":"148","category_name":"美容美发店","address":"上海洛川东路360号"},{"poiid":"B2094757D068A5F5449B","title":"海世鲜","lon":"121.45945","lat":"31.26804","category":"72","category_name":"广东菜","address":"闸北区洛川东路490号(近共和新路)"},{"poiid":"B2094655D26CA0FF4792","title":"协和大厦","lon":"121.464","lat":"31.2657","category":"46","category_name":"楼宇","address":"上海市闸北区中山北路814弄"},{"poiid":"B2094757D069A2FA409B","title":"尊爵台球","lon":"121.464096103","lat":"31.2640032881","category":"171","category_name":"台球厅","address":"闸北区共和新路1165号帝芙特茶叶城2号楼4楼(中山北路口)"},{"poiid":"B2094757D06FA7FF4599","title":"零点桌球俱乐部","lon":"121.46106","lat":"31.2652","category":"171","category_name":"台球厅","address":"闸北区柳营路590号2楼(近共和新路)"},{"poiid":"B2094757D065A6FA449B","title":"大宁灵石绿地","lon":"121.4636131","lat":"31.266153333","category":"500","category_name":"未知分类","address":"上海市闸北区和田路"},{"poiid":"B2094757DB68A3FF419D","title":"虹桥人家(洛川路店)","lon":"121.461561","lat":"31.270225","category":"111","category_name":"休闲餐饮场所","address":"闸北区洛川东路327号(近地铁1号线延长路站)"},{"poiid":"B2094654D56CA3F4439F","title":"和福花苑","lon":"121.46318","lat":"31.265793","category":"47","category_name":"住宅区","address":"和福花苑位于闸北和田路288号"},{"poiid":"B2094655D26CA1FC479F","title":"阿英煲(洛川东路)","lon":"121.46159","lat":"31.26981","category":"257","category_name":"中餐厅","address":"上海市闸北区洛川东路370号"},{"poiid":"B2094757D068A1FD4498","title":"振鼎鸡(洛川店)","lon":"121.4611","lat":"31.26955","category":"68","category_name":"快餐厅","address":"闸北区洛川东路367号(近平型关路)"},{"poiid":"B2094757D06BA2F94693","title":"中山北路805弄小区","lon":"121.465","lat":"31.2665","category":"47","category_name":"住宅区","address":"上海中山北路805弄"},{"poiid":"B2094655D264A2F84592","title":"长虹大厦","lon":"121.464","lat":"31.2665","category":"46","category_name":"楼宇","address":"中山北路831弄"},{"poiid":"B2094757D468A4F9459F","title":"财神食府","lon":"121.460673","lat":"31.26541","category":"87","category_name":"特色／地方风味餐厅","address":"闸北区柳营路592号(近共和新路)"},{"poiid":"B2094757D06FA2FA4892","title":"网鱼网咖(洛川店)","lon":"121.461297731","lat":"31.2697043215","category":"173","category_name":"游戏厅","address":"闸北区洛川东路360号裙楼201室360-1室(近农行共和支行)"},{"poiid":"B2094654D464A1FD409F","title":"金甸大楼","lon":"121.463","lat":"31.2654","category":"46","category_name":"楼宇","address":"金甸大楼位于闸北中山北路864号"},{"poiid":"B2094655D26FAAF5419B","title":"和源名邸","lon":"121.4633","lat":"31.265421","category":"47","category_name":"住宅区","address":"上海市闸北区西藏北路1523号"},{"poiid":"B2094757D068A4F4489D","title":"新柳营灯饰广场","lon":"121.46351","lat":"31.26717","category":"123","category_name":"家具建材市场","address":"闸北区柳营路216号(近民和路)"},{"poiid":"B2094655D36DA1FB419B","title":"西藏北路民和路","lon":"121.46421","lat":"31.26619","category":"38","category_name":"公交车站","address":""},{"poiid":"B2094654D56CA2FC4499","title":"快客No.1166","lon":"121.46405","lat":"31.26675","category":"117","category_name":"便民商店/便利店","address":"民和路220号"},{"poiid":"B2094757D06FA6F8439C","title":"普善新苑","lon":"121.461","lat":"31.2664","category":"47","category_name":"住宅区","address":"上海闸北区普善路390弄"},{"poiid":"B2094757D16FABFB449F","title":"避风堂","lon":"121.463916173","lat":"31.2659938797","category":"500","category_name":"未知分类","address":"上海大悦城"},{"poiid":"B2094757DB6DA5FF429B","title":"上海海荷欧风酒店","lon":"121.460713148","lat":"31.263282515","category":"214","category_name":"四星级宾馆","address":"上海市闸北区共和新路1301号(近柳营路)"},{"poiid":"B2094750D56DA5FC449F","title":"108创意广场银座","lon":"121.466857","lat":"31.267145","category":"252","category_name":"楼宇机构","address":"闸北区平型关路138号"},{"poiid":"B2094655D268A7FF4599","title":"快客No.5235","lon":"121.46224","lat":"31.2658","category":"117","category_name":"便民商店/便利店","address":"和田路263"},{"poiid":"B2094655D26BA0F4469A","title":"良友","lon":"121.46297","lat":"31.2654","category":"117","category_name":"便民商店/便利店","address":"和田路268"},{"poiid":"B2094752DA6DA5F4409A","title":"桔子酒店精选上海西藏北路店","lon":"121.463443","lat":"31.266003","category":"500","category_name":"未知分类","address":"上海市中山北路311号"},{"poiid":"B2094757D06BA5F9479E","title":"温岭海鲜楼","lon":"121.46167563042","lat":"31.266039015698","category":"260","category_name":"其他","address":"闸北区柳营路518号如家快捷大酒店1楼(近和田路)"},{"poiid":"B2094757D66AA4F44692","title":"国建花园酒家","lon":"121.46463","lat":"31.26825","category":"76","category_name":"上海菜","address":"闸北区柳营路309号(近西藏北路)"},{"poiid":"B2094654D56CA3F9489C","title":"PaRK","lon":"121.46199","lat":"31.26677","category":"141","category_name":"服装鞋帽皮具店","address":""},{"poiid":"B2094655D26DA5F84399","title":"协和小区","lon":"121.464","lat":"31.2656","category":"47","category_name":"住宅区","address":"延安西路1289弄3-9号"},{"poiid":"B2094654D56CA2FC469A","title":"振和公寓","lon":"121.46484","lat":"31.267569","category":"47","category_name":"住宅区","address":"上海市闸北区柳营路328弄"},{"poiid":"B2094757D068A0FD409B","title":"乐业公寓","lon":"121.46507","lat":"31.266535","category":"500","category_name":"未知分类","address":"上海市闸北区俞泾港路15弄"},{"poiid":"B2094757D164A7FB4792","title":"国大药房(柳营路店)","lon":"121.4626","lat":"31.26525","category":"162","category_name":"医院","address":"闸北区和田路251号(和田路民和路)"},{"poiid":"B2094654D56CA3F4469E","title":"盛和玲珑苑","lon":"121.46401","lat":"31.26461","category":"47","category_name":"住宅区","address":"上海市闸北区和田路118弄"},{"poiid":"B2094655D26FA1FA4698","title":"鑫安公寓","lon":"121.46024","lat":"31.266449","category":"47","category_name":"住宅区","address":"上海市闸北区柳营路529号"},{"poiid":"B2094757D469A2FB459F","title":"85度C 平型关路店","lon":"121.46626","lat":"31.26615","category":"112","category_name":"糕饼店","address":"闸北区俞泾港路1号大润发超市2号柜(平型关路，近西藏北路)"},{"poiid":"B2094750D26AAAFF409E","title":"和田路","lon":"121.462951","lat":"31.267707","category":"500","category_name":"未知分类","address":"和田路"},{"poiid":"B2094757D06FABFD4299","title":"天水雅居","lon":"121.460732","lat":"31.263454","category":"74","category_name":"江苏菜","address":"闸北区共和新路1301号(近柳营路)"},{"poiid":"B2094655D36DA1FB419F","title":"西藏北路中山北路","lon":"121.46573","lat":"31.26343","category":"38","category_name":"公交车站","address":""},{"poiid":"B2094757D06FA3FE439A","title":"大润发(平型关店)","lon":"121.46653","lat":"31.26588","category":"118","category_name":"超级市场","address":"闸北区平型关路108号B1楼(近俞泾港路)"},{"poiid":"B2094757D06FA0FC419A","title":"上海市第二中级人民法院","lon":"121.46311027","lat":"31.2627168255","category":"608","category_name":"法院","address":"上海中山北路567号"},{"poiid":"B2094757D068A6FE439F","title":"舒友海鲜大酒楼(闸北店)","lon":"121.45961","lat":"31.26864","category":"88","category_name":"海鲜酒楼","address":"闸北区洛川东路437号(近共和新路)"},{"poiid":"B2094750D564A5FA4699","title":"金赢108创意广场","lon":"121.466904","lat":"31.2674","category":"47","category_name":"住宅区","address":"闸北区平型关路108号(近俞泾港路)"},{"poiid":"B2094757D06FA3F9459A","title":"贝拉婚纱","lon":"121.46698","lat":"31.2665","category":"260","category_name":"其他","address":"闸北区平型关路108弄27号宝山区北欧新镇罗芬路689弄41-44号嘉定区城中路136弄罗宾森步行街53-55号"},{"poiid":"B2094654DB6AAAFE489B","title":"汉庭快捷(西藏北路店)","lon":"121.46552","lat":"31.26422","category":"216","category_name":"经济型连锁酒店","address":"上海闸北区西藏北路1318号(近中山北路)"},{"poiid":"B2094655D26DA6FF489C","title":"上海百富大酒店","lon":"121.4633","lat":"31.26691","category":"76","category_name":"上海菜","address":"闸北区西藏北路1599号"},{"poiid":"B2094654DB64A6FB4692","title":"如家快捷酒店(上海西藏北路店)","lon":"121.46186","lat":"31.26615","category":"216","category_name":"经济型连锁酒店","address":"闸北区柳营路518号(近和田路)"},{"poiid":"B2094750D664AAFE449C","title":"重庆老火锅(平型关路店)","lon":"121.467","lat":"31.2667","category":"86","category_name":"火锅店","address":"闸北区平型关路108号108广场36号(近中山北路)"},{"poiid":"B2094757D66BA6F4459A","title":"康师傅私房牛肉面 平型关店","lon":"121.46596","lat":"31.26621","category":"68","category_name":"快餐厅","address":"闸北区俞泾港路11号大润发B1楼(近平型关路)"},{"poiid":"B2094757D064A6F94998","title":"闸北区教育局","lon":"121.4633021","lat":"31.265463318","category":"500","category_name":"未知分类","address":"上海市闸北区和田路195号"},{"poiid":"B2094757D06FA3F84292","title":"JEANS明星达人店(京世洛川店)","lon":"121.46167081","lat":"31.2697486153","category":"148","category_name":"美容美发店","address":"上海洛川东路360号"},{"poiid":"B2094757D068A5F5449B","title":"海世鲜","lon":"121.45945","lat":"31.26804","category":"72","category_name":"广东菜","address":"闸北区洛川东路490号(近共和新路)"},{"poiid":"B2094655D26CA0FF4792","title":"协和大厦","lon":"121.464","lat":"31.2657","category":"46","category_name":"楼宇","address":"上海市闸北区中山北路814弄"},{"poiid":"B2094757D069A2FA409B","title":"尊爵台球","lon":"121.464096103","lat":"31.2640032881","category":"171","category_name":"台球厅","address":"闸北区共和新路1165号帝芙特茶叶城2号楼4楼(中山北路口)"},{"poiid":"B2094757D06FA7FF4599","title":"零点桌球俱乐部","lon":"121.46106","lat":"31.2652","category":"171","category_name":"台球厅","address":"闸北区柳营路590号2楼(近共和新路)"},{"poiid":"B2094757D065A6FA449B","title":"大宁灵石绿地","lon":"121.4636131","lat":"31.266153333","category":"500","category_name":"未知分类","address":"上海市闸北区和田路"},{"poiid":"B2094757DB68A3FF419D","title":"虹桥人家(洛川路店)","lon":"121.461561","lat":"31.270225","category":"111","category_name":"休闲餐饮场所","address":"闸北区洛川东路327号(近地铁1号线延长路站)"},{"poiid":"B2094654D56CA3F4439F","title":"和福花苑","lon":"121.46318","lat":"31.265793","category":"47","category_name":"住宅区","address":"和福花苑位于闸北和田路288号"},{"poiid":"B2094655D26CA1FC479F","title":"阿英煲(洛川东路)","lon":"121.46159","lat":"31.26981","category":"257","category_name":"中餐厅","address":"上海市闸北区洛川东路370号"},{"poiid":"B2094757D068A1FD4498","title":"振鼎鸡(洛川店)","lon":"121.4611","lat":"31.26955","category":"68","category_name":"快餐厅","address":"闸北区洛川东路367号(近平型关路)"},{"poiid":"B2094757D06BA2F94693","title":"中山北路805弄小区","lon":"121.465","lat":"31.2665","category":"47","category_name":"住宅区","address":"上海中山北路805弄"},{"poiid":"B2094655D264A2F84592","title":"长虹大厦","lon":"121.464","lat":"31.2665","category":"46","category_name":"楼宇","address":"中山北路831弄"},{"poiid":"B2094757D468A4F9459F","title":"财神食府","lon":"121.460673","lat":"31.26541","category":"87","category_name":"特色／地方风味餐厅","address":"闸北区柳营路592号(近共和新路)"},{"poiid":"B2094757D06FA2FA4892","title":"网鱼网咖(洛川店)","lon":"121.461297731","lat":"31.2697043215","category":"173","category_name":"游戏厅","address":"闸北区洛川东路360号裙楼201室360-1室(近农行共和支行)"},{"poiid":"B2094654D464A1FD409F","title":"金甸大楼","lon":"121.463","lat":"31.2654","category":"46","category_name":"楼宇","address":"金甸大楼位于闸北中山北路864号"},{"poiid":"B2094655D26FAAF5419B","title":"和源名邸","lon":"121.4633","lat":"31.265421","category":"47","category_name":"住宅区","address":"上海市闸北区西藏北路1523号"},{"poiid":"B2094757D068A4F4489D","title":"新柳营灯饰广场","lon":"121.46351","lat":"31.26717","category":"123","category_name":"家具建材市场","address":"闸北区柳营路216号(近民和路)"},{"poiid":"B2094655D36DA1FB419B","title":"西藏北路民和路","lon":"121.46421","lat":"31.26619","category":"38","category_name":"公交车站","address":""},{"poiid":"B2094654D56CA2FC4499","title":"快客No.1166","lon":"121.46405","lat":"31.26675","category":"117","category_name":"便民商店/便利店","address":"民和路220号"},{"poiid":"B2094757D06FA6F8439C","title":"普善新苑","lon":"121.461","lat":"31.2664","category":"47","category_name":"住宅区","address":"上海闸北区普善路390弄"},{"poiid":"B2094757D16FABFB449F","title":"避风堂","lon":"121.463916173","lat":"31.2659938797","category":"500","category_name":"未知分类","address":"上海大悦城"},{"poiid":"B2094757DB6DA5FF429B","title":"上海海荷欧风酒店","lon":"121.460713148","lat":"31.263282515","category":"214","category_name":"四星级宾馆","address":"上海市闸北区共和新路1301号(近柳营路)"},{"poiid":"B2094750D56DA5FC449F","title":"108创意广场银座","lon":"121.466857","lat":"31.267145","category":"252","category_name":"楼宇机构","address":"闸北区平型关路138号"},{"poiid":"B2094655D268A7FF4599","title":"快客No.5235","lon":"121.46224","lat":"31.2658","category":"117","category_name":"便民商店/便利店","address":"和田路263"},{"poiid":"B2094655D26BA0F4469A","title":"良友","lon":"121.46297","lat":"31.2654","category":"117","category_name":"便民商店/便利店","address":"和田路268"},{"poiid":"B2094752DA6DA5F4409A","title":"桔子酒店精选上海西藏北路店","lon":"121.463443","lat":"31.266003","category":"500","category_name":"未知分类","address":"上海市中山北路311号"},{"poiid":"B2094757D06BA5F9479E","title":"温岭海鲜楼","lon":"121.46167563042","lat":"31.266039015698","category":"260","category_name":"其他","address":"闸北区柳营路518号如家快捷大酒店1楼(近和田路)"},{"poiid":"B2094757D66AA4F44692","title":"国建花园酒家","lon":"121.46463","lat":"31.26825","category":"76","category_name":"上海菜","address":"闸北区柳营路309号(近西藏北路)"},{"poiid":"B2094654D56CA3F9489C","title":"PaRK","lon":"121.46199","lat":"31.26677","category":"141","category_name":"服装鞋帽皮具店","address":""},{"poiid":"B2094655D26DA5F84399","title":"协和小区","lon":"121.464","lat":"31.2656","category":"47","category_name":"住宅区","address":"延安西路1289弄3-9号"},{"poiid":"B2094654D56CA2FC469A","title":"振和公寓","lon":"121.46484","lat":"31.267569","category":"47","category_name":"住宅区","address":"上海市闸北区柳营路328弄"},{"poiid":"B2094757D068A0FD409B","title":"乐业公寓","lon":"121.46507","lat":"31.266535","category":"500","category_name":"未知分类","address":"上海市闸北区俞泾港路15弄"},{"poiid":"B2094757D164A7FB4792","title":"国大药房(柳营路店)","lon":"121.4626","lat":"31.26525","category":"162","category_name":"医院","address":"闸北区和田路251号(和田路民和路)"},{"poiid":"B2094654D56CA3F4469E","title":"盛和玲珑苑","lon":"121.46401","lat":"31.26461","category":"47","category_name":"住宅区","address":"上海市闸北区和田路118弄"},{"poiid":"B2094655D26FA1FA4698","title":"鑫安公寓","lon":"121.46024","lat":"31.266449","category":"47","category_name":"住宅区","address":"上海市闸北区柳营路529号"},{"poiid":"B2094757D469A2FB459F","title":"85度C 平型关路店","lon":"121.46626","lat":"31.26615","category":"112","category_name":"糕饼店","address":"闸北区俞泾港路1号大润发超市2号柜(平型关路，近西藏北路)"},{"poiid":"B2094750D26AAAFF409E","title":"和田路","lon":"121.462951","lat":"31.267707","category":"500","category_name":"未知分类","address":"和田路"},{"poiid":"B2094757D06FABFD4299","title":"天水雅居","lon":"121.460732","lat":"31.263454","category":"74","category_name":"江苏菜","address":"闸北区共和新路1301号(近柳营路)"},{"poiid":"B2094655D36DA1FB419F","title":"西藏北路中山北路","lon":"121.46573","lat":"31.26343","category":"38","category_name":"公交车站","address":""},{"poiid":"B2094757D06FA3FE439A","title":"大润发(平型关店)","lon":"121.46653","lat":"31.26588","category":"118","category_name":"超级市场","address":"闸北区平型关路108号B1楼(近俞泾港路)"},{"poiid":"B2094757D06FA0FC419A","title":"上海市第二中级人民法院","lon":"121.46311027","lat":"31.2627168255","category":"608","category_name":"法院","address":"上海中山北路567号"},{"poiid":"B2094757D068A6FE439F","title":"舒友海鲜大酒楼(闸北店)","lon":"121.45961","lat":"31.26864","category":"88","category_name":"海鲜酒楼","address":"闸北区洛川东路437号(近共和新路)"},{"poiid":"B2094750D564A5FA4699","title":"金赢108创意广场","lon":"121.466904","lat":"31.2674","category":"47","category_name":"住宅区","address":"闸北区平型关路108号(近俞泾港路)"},{"poiid":"B2094757D06FA3F9459A","title":"贝拉婚纱","lon":"121.46698","lat":"31.2665","category":"260","category_name":"其他","address":"闸北区平型关路108弄27号宝山区北欧新镇罗芬路689弄41-44号嘉定区城中路136弄罗宾森步行街53-55号"},{"poiid":"B2094654DB6AAAFE489B","title":"汉庭快捷(西藏北路店)","lon":"121.46552","lat":"31.26422","category":"216","category_name":"经济型连锁酒店","address":"上海闸北区西藏北路1318号(近中山北路)"},{"poiid":"B2094655D26DA6FF489C","title":"上海百富大酒店","lon":"121.4633","lat":"31.26691","category":"76","category_name":"上海菜","address":"闸北区西藏北路1599号"},{"poiid":"B2094654DB64A6FB4692","title":"如家快捷酒店(上海西藏北路店)","lon":"121.46186","lat":"31.26615","category":"216","category_name":"经济型连锁酒店","address":"闸北区柳营路518号(近和田路)"},{"poiid":"B2094750D664AAFE449C","title":"重庆老火锅(平型关路店)","lon":"121.467","lat":"31.2667","category":"86","category_name":"火锅店","address":"闸北区平型关路108号108广场36号(近中山北路)"},{"poiid":"B2094757D66BA6F4459A","title":"康师傅私房牛肉面 平型关店","lon":"121.46596","lat":"31.26621","category":"68","category_name":"快餐厅","address":"闸北区俞泾港路11号大润发B1楼(近平型关路)"},{"poiid":"B2094757D064A6F94998","title":"闸北区教育局","lon":"121.4633021","lat":"31.265463318","category":"500","category_name":"未知分类","address":"上海市闸北区和田路195号"},{"poiid":"B2094757D06FA3F84292","title":"JEANS明星达人店(京世洛川店)","lon":"121.46167081","lat":"31.2697486153","category":"148","category_name":"美容美发店","address":"上海洛川东路360号"},{"poiid":"B2094757D068A5F5449B","title":"海世鲜","lon":"121.45945","lat":"31.26804","category":"72","category_name":"广东菜","address":"闸北区洛川东路490号(近共和新路)"},{"poiid":"B2094655D26CA0FF4792","title":"协和大厦","lon":"121.464","lat":"31.2657","category":"46","category_name":"楼宇","address":"上海市闸北区中山北路814弄"},{"poiid":"B2094757D069A2FA409B","title":"尊爵台球","lon":"121.464096103","lat":"31.2640032881","category":"171","category_name":"台球厅","address":"闸北区共和新路1165号帝芙特茶叶城2号楼4楼(中山北路口)"},{"poiid":"B2094757D06FA7FF4599","title":"零点桌球俱乐部","lon":"121.46106","lat":"31.2652","category":"171","category_name":"台球厅","address":"闸北区柳营路590号2楼(近共和新路)"},{"poiid":"B2094757D065A6FA449B","title":"大宁灵石绿地","lon":"121.4636131","lat":"31.266153333","category":"500","category_name":"未知分类","address":"上海市闸北区和田路"},{"poiid":"B2094757DB68A3FF419D","title":"虹桥人家(洛川路店)","lon":"121.461561","lat":"31.270225","category":"111","category_name":"休闲餐饮场所","address":"闸北区洛川东路327号(近地铁1号线延长路站)"},{"poiid":"B2094654D56CA3F4439F","title":"和福花苑","lon":"121.46318","lat":"31.265793","category":"47","category_name":"住宅区","address":"和福花苑位于闸北和田路288号"},{"poiid":"B2094655D26CA1FC479F","title":"阿英煲(洛川东路)","lon":"121.46159","lat":"31.26981","category":"257","category_name":"中餐厅","address":"上海市闸北区洛川东路370号"},{"poiid":"B2094757D068A1FD4498","title":"振鼎鸡(洛川店)","lon":"121.4611","lat":"31.26955","category":"68","category_name":"快餐厅","address":"闸北区洛川东路367号(近平型关路)"},{"poiid":"B2094757D06BA2F94693","title":"中山北路805弄小区","lon":"121.465","lat":"31.2665","category":"47","category_name":"住宅区","address":"上海中山北路805弄"},{"poiid":"B2094655D264A2F84592","title":"长虹大厦","lon":"121.464","lat":"31.2665","category":"46","category_name":"楼宇","address":"中山北路831弄"},{"poiid":"B2094757D468A4F9459F","title":"财神食府","lon":"121.460673","lat":"31.26541","category":"87","category_name":"特色／地方风味餐厅","address":"闸北区柳营路592号(近共和新路)"},{"poiid":"B2094757D06FA2FA4892","title":"网鱼网咖(洛川店)","lon":"121.461297731","lat":"31.2697043215","category":"173","category_name":"游戏厅","address":"闸北区洛川东路360号裙楼201室360-1室(近农行共和支行)"},{"poiid":"B2094654D464A1FD409F","title":"金甸大楼","lon":"121.463","lat":"31.2654","category":"46","category_name":"楼宇","address":"金甸大楼位于闸北中山北路864号"},{"poiid":"B2094655D26FAAF5419B","title":"和源名邸","lon":"121.4633","lat":"31.265421","category":"47","category_name":"住宅区","address":"上海市闸北区西藏北路1523号"},{"poiid":"B2094757D068A4F4489D","title":"新柳营灯饰广场","lon":"121.46351","lat":"31.26717","category":"123","category_name":"家具建材市场","address":"闸北区柳营路216号(近民和路)"},{"poiid":"B2094655D36DA1FB419B","title":"西藏北路民和路","lon":"121.46421","lat":"31.26619","category":"38","category_name":"公交车站","address":""},{"poiid":"B2094654D56CA2FC4499","title":"快客No.1166","lon":"121.46405","lat":"31.26675","category":"117","category_name":"便民商店/便利店","address":"民和路220号"},{"poiid":"B2094757D06FA6F8439C","title":"普善新苑","lon":"121.461","lat":"31.2664","category":"47","category_name":"住宅区","address":"上海闸北区普善路390弄"},{"poiid":"B2094757D16FABFB449F","title":"避风堂","lon":"121.463916173","lat":"31.2659938797","category":"500","category_name":"未知分类","address":"上海大悦城"},{"poiid":"B2094757DB6DA5FF429B","title":"上海海荷欧风酒店","lon":"121.460713148","lat":"31.263282515","category":"214","category_name":"四星级宾馆","address":"上海市闸北区共和新路1301号(近柳营路)"},{"poiid":"B2094750D56DA5FC449F","title":"108创意广场银座","lon":"121.466857","lat":"31.267145","category":"252","category_name":"楼宇机构","address":"闸北区平型关路138号"},{"poiid":"B2094655D268A7FF4599","title":"快客No.5235","lon":"121.46224","lat":"31.2658","category":"117","category_name":"便民商店/便利店","address":"和田路263"},{"poiid":"B2094655D26BA0F4469A","title":"良友","lon":"121.46297","lat":"31.2654","category":"117","category_name":"便民商店/便利店","address":"和田路268"},{"poiid":"B2094752DA6DA5F4409A","title":"桔子酒店精选上海西藏北路店","lon":"121.463443","lat":"31.266003","category":"500","category_name":"未知分类","address":"上海市中山北路311号"},{"poiid":"B2094757D06BA5F9479E","title":"温岭海鲜楼","lon":"121.46167563042","lat":"31.266039015698","category":"260","category_name":"其他","address":"闸北区柳营路518号如家快捷大酒店1楼(近和田路)"},{"poiid":"B2094757D66AA4F44692","title":"国建花园酒家","lon":"121.46463","lat":"31.26825","category":"76","category_name":"上海菜","address":"闸北区柳营路309号(近西藏北路)"},{"poiid":"B2094654D56CA3F9489C","title":"PaRK","lon":"121.46199","lat":"31.26677","category":"141","category_name":"服装鞋帽皮具店","address":""},{"poiid":"B2094655D26DA5F84399","title":"协和小区","lon":"121.464","lat":"31.2656","category":"47","category_name":"住宅区","address":"延安西路1289弄3-9号"},{"poiid":"B2094654D56CA2FC469A","title":"振和公寓","lon":"121.46484","lat":"31.267569","category":"47","category_name":"住宅区","address":"上海市闸北区柳营路328弄"},{"poiid":"B2094757D068A0FD409B","title":"乐业公寓","lon":"121.46507","lat":"31.266535","category":"500","category_name":"未知分类","address":"上海市闸北区俞泾港路15弄"},{"poiid":"B2094757D164A7FB4792","title":"国大药房(柳营路店)","lon":"121.4626","lat":"31.26525","category":"162","category_name":"医院","address":"闸北区和田路251号(和田路民和路)"},{"poiid":"B2094654D56CA3F4469E","title":"盛和玲珑苑","lon":"121.46401","lat":"31.26461","category":"47","category_name":"住宅区","address":"上海市闸北区和田路118弄"},{"poiid":"B2094655D26FA1FA4698","title":"鑫安公寓","lon":"121.46024","lat":"31.266449","category":"47","category_name":"住宅区","address":"上海市闸北区柳营路529号"},{"poiid":"B2094757D469A2FB459F","title":"85度C 平型关路店","lon":"121.46626","lat":"31.26615","category":"112","category_name":"糕饼店","address":"闸北区俞泾港路1号大润发超市2号柜(平型关路，近西藏北路)"},{"poiid":"B2094750D26AAAFF409E","title":"和田路","lon":"121.462951","lat":"31.267707","category":"500","category_name":"未知分类","address":"和田路"},{"poiid":"B2094757D06FABFD4299","title":"天水雅居","lon":"121.460732","lat":"31.263454","category":"74","category_name":"江苏菜","address":"闸北区共和新路1301号(近柳营路)"},{"poiid":"B2094655D36DA1FB419F","title":"西藏北路中山北路","lon":"121.46573","lat":"31.26343","category":"38","category_name":"公交车站","address":""},{"poiid":"B2094757D06FA3FE439A","title":"大润发(平型关店)","lon":"121.46653","lat":"31.26588","category":"118","category_name":"超级市场","address":"闸北区平型关路108号B1楼(近俞泾港路)"},{"poiid":"B2094757D06FA0FC419A","title":"上海市第二中级人民法院","lon":"121.46311027","lat":"31.2627168255","category":"608","category_name":"法院","address":"上海中山北路567号"},{"poiid":"B2094757D068A6FE439F","title":"舒友海鲜大酒楼(闸北店)","lon":"121.45961","lat":"31.26864","category":"88","category_name":"海鲜酒楼","address":"闸北区洛川东路437号(近共和新路)"},{"poiid":"B2094750D564A5FA4699","title":"金赢108创意广场","lon":"121.466904","lat":"31.2674","category":"47","category_name":"住宅区","address":"闸北区平型关路108号(近俞泾港路)"},{"poiid":"B2094757D06FA3F9459A","title":"贝拉婚纱","lon":"121.46698","lat":"31.2665","category":"260","category_name":"其他","address":"闸北区平型关路108弄27号宝山区北欧新镇罗芬路689弄41-44号嘉定区城中路136弄罗宾森步行街53-55号"},{"poiid":"B2094654DB6AAAFE489B","title":"汉庭快捷(西藏北路店)","lon":"121.46552","lat":"31.26422","category":"216","category_name":"经济型连锁酒店","address":"上海闸北区西藏北路1318号(近中山北路)"},{"poiid":"B2094655D26DA6FF489C","title":"上海百富大酒店","lon":"121.4633","lat":"31.26691","category":"76","category_name":"上海菜","address":"闸北区西藏北路1599号"},{"poiid":"B2094654DB64A6FB4692","title":"如家快捷酒店(上海西藏北路店)","lon":"121.46186","lat":"31.26615","category":"216","category_name":"经济型连锁酒店","address":"闸北区柳营路518号(近和田路)"},{"poiid":"B2094750D664AAFE449C","title":"重庆老火锅(平型关路店)","lon":"121.467","lat":"31.2667","category":"86","category_name":"火锅店","address":"闸北区平型关路108号108广场36号(近中山北路)"},{"poiid":"B2094757D66BA6F4459A","title":"康师傅私房牛肉面 平型关店","lon":"121.46596","lat":"31.26621","category":"68","category_name":"快餐厅","address":"闸北区俞泾港路11号大润发B1楼(近平型关路)"},{"poiid":"B2094757D064A6F94998","title":"闸北区教育局","lon":"121.4633021","lat":"31.265463318","category":"500","category_name":"未知分类","address":"上海市闸北区和田路195号"},{"poiid":"B2094757D06FA3F84292","title":"JEANS明星达人店(京世洛川店)","lon":"121.46167081","lat":"31.2697486153","category":"148","category_name":"美容美发店","address":"上海洛川东路360号"},{"poiid":"B2094757D068A5F5449B","title":"海世鲜","lon":"121.45945","lat":"31.26804","category":"72","category_name":"广东菜","address":"闸北区洛川东路490号(近共和新路)"},{"poiid":"B2094655D26CA0FF4792","title":"协和大厦","lon":"121.464","lat":"31.2657","category":"46","category_name":"楼宇","address":"上海市闸北区中山北路814弄"},{"poiid":"B2094757D069A2FA409B","title":"尊爵台球","lon":"121.464096103","lat":"31.2640032881","category":"171","category_name":"台球厅","address":"闸北区共和新路1165号帝芙特茶叶城2号楼4楼(中山北路口)"},{"poiid":"B2094757D06FA7FF4599","title":"零点桌球俱乐部","lon":"121.46106","lat":"31.2652","category":"171","category_name":"台球厅","address":"闸北区柳营路590号2楼(近共和新路)"},{"poiid":"B2094757D065A6FA449B","title":"大宁灵石绿地","lon":"121.4636131","lat":"31.266153333","category":"500","category_name":"未知分类","address":"上海市闸北区和田路"},{"poiid":"B2094757DB68A3FF419D","title":"虹桥人家(洛川路店)","lon":"121.461561","lat":"31.270225","category":"111","category_name":"休闲餐饮场所","address":"闸北区洛川东路327号(近地铁1号线延长路站)"},{"poiid":"B2094654D56CA3F4439F","title":"和福花苑","lon":"121.46318","lat":"31.265793","category":"47","category_name":"住宅区","address":"和福花苑位于闸北和田路288号"},{"poiid":"B2094655D26CA1FC479F","title":"阿英煲(洛川东路)","lon":"121.46159","lat":"31.26981","category":"257","category_name":"中餐厅","address":"上海市闸北区洛川东路370号"},{"poiid":"B2094757D068A1FD4498","title":"振鼎鸡(洛川店)","lon":"121.4611","lat":"31.26955","category":"68","category_name":"快餐厅","address":"闸北区洛川东路367号(近平型关路)"},{"poiid":"B2094757D06BA2F94693","title":"中山北路805弄小区","lon":"121.465","lat":"31.2665","category":"47","category_name":"住宅区","address":"上海中山北路805弄"},{"poiid":"B2094655D264A2F84592","title":"长虹大厦","lon":"121.464","lat":"31.2665","category":"46","category_name":"楼宇","address":"中山北路831弄"},{"poiid":"B2094757D468A4F9459F","title":"财神食府","lon":"121.460673","lat":"31.26541","category":"87","category_name":"特色／地方风味餐厅","address":"闸北区柳营路592号(近共和新路)"},{"poiid":"B2094757D06FA2FA4892","title":"网鱼网咖(洛川店)","lon":"121.461297731","lat":"31.2697043215","category":"173","category_name":"游戏厅","address":"闸北区洛川东路360号裙楼201室360-1室(近农行共和支行)"},{"poiid":"B2094654D464A1FD409F","title":"金甸大楼","lon":"121.463","lat":"31.2654","category":"46","category_name":"楼宇","address":"金甸大楼位于闸北中山北路864号"},{"poiid":"B2094655D26FAAF5419B","title":"和源名邸","lon":"121.4633","lat":"31.265421","category":"47","category_name":"住宅区","address":"上海市闸北区西藏北路1523号"},{"poiid":"B2094757D068A4F4489D","title":"新柳营灯饰广场","lon":"121.46351","lat":"31.26717","category":"123","category_name":"家具建材市场","address":"闸北区柳营路216号(近民和路)"},{"poiid":"B2094655D36DA1FB419B","title":"西藏北路民和路","lon":"121.46421","lat":"31.26619","category":"38","category_name":"公交车站","address":""},{"poiid":"B2094654D56CA2FC4499","title":"快客No.1166","lon":"121.46405","lat":"31.26675","category":"117","category_name":"便民商店/便利店","address":"民和路220号"},{"poiid":"B2094757D06FA6F8439C","title":"普善新苑","lon":"121.461","lat":"31.2664","category":"47","category_name":"住宅区","address":"上海闸北区普善路390弄"},{"poiid":"B2094757D16FABFB449F","title":"避风堂","lon":"121.463916173","lat":"31.2659938797","category":"500","category_name":"未知分类","address":"上海大悦城"},{"poiid":"B2094757DB6DA5FF429B","title":"上海海荷欧风酒店","lon":"121.460713148","lat":"31.263282515","category":"214","category_name":"四星级宾馆","address":"上海市闸北区共和新路1301号(近柳营路)"},{"poiid":"B2094750D56DA5FC449F","title":"108创意广场银座","lon":"121.466857","lat":"31.267145","category":"252","category_name":"楼宇机构","address":"闸北区平型关路138号"},{"poiid":"B2094655D268A7FF4599","title":"快客No.5235","lon":"121.46224","lat":"31.2658","category":"117","category_name":"便民商店/便利店","address":"和田路263"},{"poiid":"B2094655D26BA0F4469A","title":"良友","lon":"121.46297","lat":"31.2654","category":"117","category_name":"便民商店/便利店","address":"和田路268"},{"poiid":"B2094752DA6DA5F4409A","title":"桔子酒店精选上海西藏北路店","lon":"121.463443","lat":"31.266003","category":"500","category_name":"未知分类","address":"上海市中山北路311号"},{"poiid":"B2094757D06BA5F9479E","title":"温岭海鲜楼","lon":"121.46167563042","lat":"31.266039015698","category":"260","category_name":"其他","address":"闸北区柳营路518号如家快捷大酒店1楼(近和田路)"},{"poiid":"B2094757D66AA4F44692","title":"国建花园酒家","lon":"121.46463","lat":"31.26825","category":"76","category_name":"上海菜","address":"闸北区柳营路309号(近西藏北路)"},{"poiid":"B2094654D56CA3F9489C","title":"PaRK","lon":"121.46199","lat":"31.26677","category":"141","category_name":"服装鞋帽皮具店","address":""},{"poiid":"B2094655D26DA5F84399","title":"协和小区","lon":"121.464","lat":"31.2656","category":"47","category_name":"住宅区","address":"延安西路1289弄3-9号"},{"poiid":"B2094654D56CA2FC469A","title":"振和公寓","lon":"121.46484","lat":"31.267569","category":"47","category_name":"住宅区","address":"上海市闸北区柳营路328弄"},{"poiid":"B2094757D068A0FD409B","title":"乐业公寓","lon":"121.46507","lat":"31.266535","category":"500","category_name":"未知分类","address":"上海市闸北区俞泾港路15弄"},{"poiid":"B2094757D164A7FB4792","title":"国大药房(柳营路店)","lon":"121.4626","lat":"31.26525","category":"162","category_name":"医院","address":"闸北区和田路251号(和田路民和路)"},{"poiid":"B2094654D56CA3F4469E","title":"盛和玲珑苑","lon":"121.46401","lat":"31.26461","category":"47","category_name":"住宅区","address":"上海市闸北区和田路118弄"},{"poiid":"B2094655D26FA1FA4698","title":"鑫安公寓","lon":"121.46024","lat":"31.266449","category":"47","category_name":"住宅区","address":"上海市闸北区柳营路529号"},{"poiid":"B2094757D469A2FB459F","title":"85度C 平型关路店","lon":"121.46626","lat":"31.26615","category":"112","category_name":"糕饼店","address":"闸北区俞泾港路1号大润发超市2号柜(平型关路，近西藏北路)"},{"poiid":"B2094750D26AAAFF409E","title":"和田路","lon":"121.462951","lat":"31.267707","category":"500","category_name":"未知分类","address":"和田路"}]