[{"poiid":"B2094654D568AAFB489F","title":"上海通用汽车有限公司","lon":"121.62227","lat":"31.27651","category":"263","category_name":"公司","address":"浦东新区申江路1500号"},{"poiid":"B2094757D06FA1FE459F","title":"卜蜂莲花(杨高北路店)","lon":"121.60793","lat":"31.2776","category":"118","category_name":"超级市场","address":"浦东新区金高路1256号(近巨峰路)"},{"poiid":"B2094654DB65A6FD459B","title":"必胜客(金高店)","lon":"121.6099529","lat":"31.2776794","category":"94","category_name":"西餐厅","address":"浦东新区金高路1296弄147-150号1楼(金高路乐园路)"},{"poiid":"B2094655D36CA0FF479F","title":"金高路巨峰路","lon":"121.61003","lat":"31.281","category":"38","category_name":"公交车站","address":""},{"poiid":"B2094757D06FA6F84198","title":"上海通用汽车八号停车场","lon":"121.614784","lat":"31.279944","category":"500","category_name":"未知分类","address":"上海巨峰路  金京路"},{"poiid":"B2094757D069A2F4489A","title":"金苹果学校","lon":"121.61986","lat":"31.28107","category":"253","category_name":"校园生活","address":"浦东新区巨峰路1555号"},{"poiid":"B2094757D069A5FA459D","title":"上海通用汽车 南厂车身","lon":"121.619228339","lat":"31.2691012364","category":"500","category_name":"未知分类","address":"上海申江路1500"},{"poiid":"B2094757D06AA0FB449C","title":"上海通用北厂总装","lon":"121.62230717","lat":"31.275640826","category":"46","category_name":"楼宇","address":"上海申江路1500号"},{"poiid":"B2094757D068AAFA4793","title":"上海通用汽车新行政楼","lon":"121.62453292","lat":"31.278582974","category":"46","category_name":"楼宇","address":"申江路1500号上海通用汽车北厂内"},{"poiid":"B2094757D06FA4FD4292","title":"肯德基 KFC (金高店)","lon":"121.607864","lat":"31.278682","category":"68","category_name":"快餐厅","address":"浦东新区金高路1256号卜蜂莲花1楼(近巨峰路)"},{"poiid":"B2094655D26CA5FD499B","title":"东源名都(西门)","lon":"121.61276","lat":"31.28294","category":"656","category_name":"大门","address":"双桥路1108弄"},{"poiid":"B2094654D568A0FC4198","title":"上海通用汽车有限公司售后服务办公楼","lon":"121.61265","lat":"31.27379","category":"46","category_name":"楼宇","address":"佳桥路199"},{"poiid":"B2094655D26FA0F44699","title":"东源丽晶别墅南门(巨峰路)","lon":"121.62148","lat":"31.28082","category":"47","category_name":"住宅区","address":"巨峰路1585-1589弄(近申江路)"},{"poiid":"B2094757D06FA7FD4599","title":"华高一村","lon":"121.61272","lat":"31.281546","category":"500","category_name":"未知分类","address":"上海金高路巨峰路"},{"poiid":"B2094654D568A6F54093","title":"东源名都(东门)","lon":"121.61643","lat":"31.28361","category":"656","category_name":"大门","address":"双桥路1139弄1-14号"},{"poiid":"B2094757D665A0FB489E","title":"DQ冰雪皇后 金高路店 Dairy Queen","lon":"121.610019054","lat":"31.279228793","category":"113","category_name":"冷饮店","address":"浦东新区金高路1256号卜蜂莲花内(近巨峰路)"},{"poiid":"B2094655D265A6FF419A","title":"阳光城市家园","lon":"121.61479","lat":"31.272135","category":"47","category_name":"住宅区","address":"永宁路33弄"},{"poiid":"B2094654D568A0F8449E","title":"金色米兰苑","lon":"121.62175757199","lat":"31.275163350192","category":"47","category_name":"住宅区","address":"佳乐路255弄1-53号"},{"poiid":"B2094757D065A2F9449A","title":"乡村基 金桥易初店","lon":"121.609808054","lat":"31.279218793","category":"68","category_name":"快餐厅","address":"浦东新区金高路1256号卜蜂莲花超市旁(近巨峰路)"},{"poiid":"B2094655D36CA0FC4193","title":"巨峰路金京路","lon":"121.61473","lat":"31.27986","category":"38","category_name":"公交车站","address":""},{"poiid":"B2094757D064A1F84399","title":"金达莱韩式料理店","lon":"121.60998","lat":"31.27776","category":"96","category_name":"韩国料理","address":"浦东新区金高路1296弄30号(近乐园路)"},{"poiid":"B2094655D26FA1F44699","title":"莫泰168连锁旅店(张桥店)","lon":"121.60953","lat":"31.27474","category":"216","category_name":"经济型连锁酒店","address":"上海市浦东新区金高路1398号（近杨高北路）"},{"poiid":"B2094757D66BA0F94393","title":"爱情麻辣烫 金高路店","lon":"121.610151054","lat":"31.280833793","category":"87","category_name":"特色／地方风味餐厅","address":"浦东新区金高路1037号(近巨峰路)"},{"poiid":"B2094655D269AAFA439E","title":"蜀膳传火锅传奇 金高路店","lon":"121.610718054","lat":"31.282905793","category":"86","category_name":"火锅店","address":"浦东新区高行镇金高路1033号(金高路源华路)"},{"poiid":"B2094757D165A3FE469E","title":"阳光欧洲城四期","lon":"121.617997","lat":"31.277438","category":"47","category_name":"住宅区","address":"上海市闵行区罗秀路1869号"},{"poiid":"B2094757D66EA7FB439B","title":"易初莲花","lon":"121.615884899","lat":"31.27578137","category":"249","category_name":"购物服务","address":"上海金高路1256号"},{"poiid":"B2094654D568A0F84493","title":"上海通用汽车金京路2号门(西2)","lon":"121.61703","lat":"31.27753","category":"263","category_name":"公司","address":"金京路"},{"poiid":"B2094757D06AA5FC4192","title":"华高二村","lon":"121.617243587","lat":"31.2814044326","category":"252","category_name":"楼宇机构","address":"上海巨峰路997弄"},{"poiid":"B2094757D06BA6F4479D","title":"盛洁苏州汤包馆","lon":"121.60986","lat":"31.281524","category":"68","category_name":"快餐厅","address":"浦东新区金高路1094号-1096号(近金高医院)"},{"poiid":"B2094757D06AA4FB449D","title":"永和大王(巨峰路店)","lon":"121.61136","lat":"31.27974","category":"68","category_name":"快餐厅","address":"上海浦东新区巨峰路239号家乐福1楼(近利津路)  "},{"poiid":"B2094654D568A0FD439B","title":"阳光欧洲城蔷薇绅邻","lon":"121.61138","lat":"31.27231","category":"47","category_name":"住宅区","address":"金高路1617弄1-336号"},{"poiid":"B2094757D069A2F5489C","title":"香啡缤(通用汽车店)","lon":"121.622680864","lat":"31.27630421","category":"260","category_name":"其他","address":"浦东新区申江路1500号上海通用汽车行政楼新楼M楼(近巨峰路)"},{"poiid":"B2094757D169A1FC489F","title":"上海通用汽车八号停车场新食堂","lon":"121.614897539","lat":"31.2774891292","category":"500","category_name":"未知分类","address":"上海通用汽车"},{"poiid":"B2094654D568A6F5409C","title":"浦东新区华高小学","lon":"121.61528","lat":"31.28071","category":"56","category_name":"小学","address":"华高二村73"},{"poiid":"B2094757D164A7FF419F","title":"上海通用动力总成厂","lon":"121.61690773","lat":"31.279529376","category":"500","category_name":"未知分类","address":"上海申江路1500号"},{"poiid":"B2094757D664AAF9429E","title":"元子韩国料理 金桥店","lon":"121.606507","lat":"31.279224","category":"96","category_name":"韩国料理","address":"浦东新区乐林路135号(近巨峰路)"},{"poiid":"B2094757D16CA1F44693","title":"上海通用","lon":"121.622276306","lat":"31.276512146","category":"500","category_name":"未知分类","address":"上海申江路1500号"},{"poiid":"B2094655D265A4F84298","title":"邵福楼","lon":"121.60933","lat":"31.28471","category":"257","category_name":"中餐厅","address":"双桥路961"},{"poiid":"B2094757D06AA7F8429B","title":"coco都可茶饮(金桥店)","lon":"121.60775533","lat":"31.279059465","category":"113","category_name":"冷饮店","address":"浦东新区金高路1256号卜峰莲花底楼(乐林路杨高北路)"},{"poiid":"B2094655D26CA5FD4992","title":"东源名都","lon":"121.61501","lat":"31.283436","category":"47","category_name":"住宅区","address":"上海市宝山区上大路178号"},{"poiid":"B2094655D36CA0FC429B","title":"巨峰路","lon":"121.61688","lat":"31.28219","category":"38","category_name":"公交车站","address":""},{"poiid":"B2094654DB6BA1FC439B","title":"上海通汇汽车零部件集散中心有限公司","lon":"121.61509","lat":"31.27786","category":"263","category_name":"公司","address":"永宁路9"},{"poiid":"B2094757D16AA6F9409C","title":"申江路巨峰路","lon":"121.616908539","lat":"31.2795291761","category":"500","category_name":"未知分类","address":"上海浦东新区申江路巨峰路"},{"poiid":"B2094757D065A7F44099","title":"王记烧烤","lon":"121.61047","lat":"31.28195","category":"68","category_name":"快餐厅","address":"浦东新区金高路1039号(近巨峰路)"},{"poiid":"B2094757D16AA0FF469F","title":"通用汽车售后大楼","lon":"121.612072","lat":"31.273807","category":"46","category_name":"楼宇","address":"上海佳桥路199号"},{"poiid":"B2094751D364A7FD479C","title":"上海通用汽车员工活动中心","lon":"121.6190546","lat":"31.2774498","category":"500","category_name":"未知分类","address":null},{"poiid":"B2094757D065A1FB449F","title":"阳光欧洲城二期","lon":"121.615","lat":"31.2739","category":"47","category_name":"住宅区","address":"上海佳林路82弄"},{"poiid":"B2094757D164A2FA449A","title":"相忘于江湖","lon":"121.61366233","lat":"31.280209491","category":"247","category_name":"餐饮美食","address":"上海厌倦至终老"},{"poiid":"B2094655D26FA0FC439A","title":"华高二村西门(浦东新区华高小学西北)","lon":"121.61475","lat":"31.28101","category":"47","category_name":"住宅区","address":"巨峰路997弄28-89号"},{"poiid":"B2094757D66DA5FF4098","title":"养生粥","lon":"121.610305339","lat":"31.282000533","category":"68","category_name":"快餐厅","address":"浦东新区金高路1082号(近华高新村)"},{"poiid":"B2094654D568AAFB489F","title":"上海通用汽车有限公司","lon":"121.62227","lat":"31.27651","category":"263","category_name":"公司","address":"浦东新区申江路1500号"},{"poiid":"B2094757D06FA1FE459F","title":"卜蜂莲花(杨高北路店)","lon":"121.60793","lat":"31.2776","category":"118","category_name":"超级市场","address":"浦东新区金高路1256号(近巨峰路)"},{"poiid":"B2094654DB65A6FD459B","title":"必胜客(金高店)","lon":"121.6099529","lat":"31.2776794","category":"94","category_name":"西餐厅","address":"浦东新区金高路1296弄147-150号1楼(金高路乐园路)"},{"poiid":"B2094655D36CA0FF479F","title":"金高路巨峰路","lon":"121.61003","lat":"31.281","category":"38","category_name":"公交车站","address":""},{"poiid":"B2094757D06FA6F84198","title":"上海通用汽车八号停车场","lon":"121.614784","lat":"31.279944","category":"500","category_name":"未知分类","address":"上海巨峰路  金京路"},{"poiid":"B2094757D069A2F4489A","title":"金苹果学校","lon":"121.61986","lat":"31.28107","category":"253","category_name":"校园生活","address":"浦东新区巨峰路1555号"},{"poiid":"B2094757D069A5FA459D","title":"上海通用汽车 南厂车身","lon":"121.619228339","lat":"31.2691012364","category":"500","category_name":"未知分类","address":"上海申江路1500"},{"poiid":"B2094757D06AA0FB449C","title":"上海通用北厂总装","lon":"121.62230717","lat":"31.275640826","category":"46","category_name":"楼宇","address":"上海申江路1500号"},{"poiid":"B2094757D068AAFA4793","title":"上海通用汽车新行政楼","lon":"121.62453292","lat":"31.278582974","category":"46","category_name":"楼宇","address":"申江路1500号上海通用汽车北厂内"},{"poiid":"B2094757D06FA4FD4292","title":"肯德基 KFC (金高店)","lon":"121.607864","lat":"31.278682","category":"68","category_name":"快餐厅","address":"浦东新区金高路1256号卜蜂莲花1楼(近巨峰路)"},{"poiid":"B2094655D26CA5FD499B","title":"东源名都(西门)","lon":"121.61276","lat":"31.28294","category":"656","category_name":"大门","address":"双桥路1108弄"},{"poiid":"B2094654D568A0FC4198","title":"上海通用汽车有限公司售后服务办公楼","lon":"121.61265","lat":"31.27379","category":"46","category_name":"楼宇","address":"佳桥路199"},{"poiid":"B2094655D26FA0F44699","title":"东源丽晶别墅南门(巨峰路)","lon":"121.62148","lat":"31.28082","category":"47","category_name":"住宅区","address":"巨峰路1585-1589弄(近申江路)"},{"poiid":"B2094757D06FA7FD4599","title":"华高一村","lon":"121.61272","lat":"31.281546","category":"500","category_name":"未知分类","address":"上海金高路巨峰路"},{"poiid":"B2094654D568A6F54093","title":"东源名都(东门)","lon":"121.61643","lat":"31.28361","category":"656","category_name":"大门","address":"双桥路1139弄1-14号"},{"poiid":"B2094757D665A0FB489E","title":"DQ冰雪皇后 金高路店 Dairy Queen","lon":"121.610019054","lat":"31.279228793","category":"113","category_name":"冷饮店","address":"浦东新区金高路1256号卜蜂莲花内(近巨峰路)"},{"poiid":"B2094655D265A6FF419A","title":"阳光城市家园","lon":"121.61479","lat":"31.272135","category":"47","category_name":"住宅区","address":"永宁路33弄"},{"poiid":"B2094654D568A0F8449E","title":"金色米兰苑","lon":"121.62175757199","lat":"31.275163350192","category":"47","category_name":"住宅区","address":"佳乐路255弄1-53号"},{"poiid":"B2094757D065A2F9449A","title":"乡村基 金桥易初店","lon":"121.609808054","lat":"31.279218793","category":"68","category_name":"快餐厅","address":"浦东新区金高路1256号卜蜂莲花超市旁(近巨峰路)"},{"poiid":"B2094655D36CA0FC4193","title":"巨峰路金京路","lon":"121.61473","lat":"31.27986","category":"38","category_name":"公交车站","address":""},{"poiid":"B2094757D064A1F84399","title":"金达莱韩式料理店","lon":"121.60998","lat":"31.27776","category":"96","category_name":"韩国料理","address":"浦东新区金高路1296弄30号(近乐园路)"},{"poiid":"B2094655D26FA1F44699","title":"莫泰168连锁旅店(张桥店)","lon":"121.60953","lat":"31.27474","category":"216","category_name":"经济型连锁酒店","address":"上海市浦东新区金高路1398号（近杨高北路）"},{"poiid":"B2094757D66BA0F94393","title":"爱情麻辣烫 金高路店","lon":"121.610151054","lat":"31.280833793","category":"87","category_name":"特色／地方风味餐厅","address":"浦东新区金高路1037号(近巨峰路)"},{"poiid":"B2094655D269AAFA439E","title":"蜀膳传火锅传奇 金高路店","lon":"121.610718054","lat":"31.282905793","category":"86","category_name":"火锅店","address":"浦东新区高行镇金高路1033号(金高路源华路)"},{"poiid":"B2094757D165A3FE469E","title":"阳光欧洲城四期","lon":"121.617997","lat":"31.277438","category":"47","category_name":"住宅区","address":"上海市闵行区罗秀路1869号"},{"poiid":"B2094757D66EA7FB439B","title":"易初莲花","lon":"121.615884899","lat":"31.27578137","category":"249","category_name":"购物服务","address":"上海金高路1256号"},{"poiid":"B2094654D568A0F84493","title":"上海通用汽车金京路2号门(西2)","lon":"121.61703","lat":"31.27753","category":"263","category_name":"公司","address":"金京路"},{"poiid":"B2094757D06AA5FC4192","title":"华高二村","lon":"121.617243587","lat":"31.2814044326","category":"252","category_name":"楼宇机构","address":"上海巨峰路997弄"},{"poiid":"B2094757D06BA6F4479D","title":"盛洁苏州汤包馆","lon":"121.60986","lat":"31.281524","category":"68","category_name":"快餐厅","address":"浦东新区金高路1094号-1096号(近金高医院)"},{"poiid":"B2094757D06AA4FB449D","title":"永和大王(巨峰路店)","lon":"121.61136","lat":"31.27974","category":"68","category_name":"快餐厅","address":"上海浦东新区巨峰路239号家乐福1楼(近利津路)  "},{"poiid":"B2094654D568A0FD439B","title":"阳光欧洲城蔷薇绅邻","lon":"121.61138","lat":"31.27231","category":"47","category_name":"住宅区","address":"金高路1617弄1-336号"},{"poiid":"B2094757D069A2F5489C","title":"香啡缤(通用汽车店)","lon":"121.622680864","lat":"31.27630421","category":"260","category_name":"其他","address":"浦东新区申江路1500号上海通用汽车行政楼新楼M楼(近巨峰路)"},{"poiid":"B2094757D169A1FC489F","title":"上海通用汽车八号停车场新食堂","lon":"121.614897539","lat":"31.2774891292","category":"500","category_name":"未知分类","address":"上海通用汽车"},{"poiid":"B2094654D568A6F5409C","title":"浦东新区华高小学","lon":"121.61528","lat":"31.28071","category":"56","category_name":"小学","address":"华高二村73"},{"poiid":"B2094757D164A7FF419F","title":"上海通用动力总成厂","lon":"121.61690773","lat":"31.279529376","category":"500","category_name":"未知分类","address":"上海申江路1500号"},{"poiid":"B2094757D664AAF9429E","title":"元子韩国料理 金桥店","lon":"121.606507","lat":"31.279224","category":"96","category_name":"韩国料理","address":"浦东新区乐林路135号(近巨峰路)"},{"poiid":"B2094757D16CA1F44693","title":"上海通用","lon":"121.622276306","lat":"31.276512146","category":"500","category_name":"未知分类","address":"上海申江路1500号"},{"poiid":"B2094655D265A4F84298","title":"邵福楼","lon":"121.60933","lat":"31.28471","category":"257","category_name":"中餐厅","address":"双桥路961"},{"poiid":"B2094757D06AA7F8429B","title":"coco都可茶饮(金桥店)","lon":"121.60775533","lat":"31.279059465","category":"113","category_name":"冷饮店","address":"浦东新区金高路1256号卜峰莲花底楼(乐林路杨高北路)"},{"poiid":"B2094655D26CA5FD4992","title":"东源名都","lon":"121.61501","lat":"31.283436","category":"47","category_name":"住宅区","address":"上海市宝山区上大路178号"},{"poiid":"B2094655D36CA0FC429B","title":"巨峰路","lon":"121.61688","lat":"31.28219","category":"38","category_name":"公交车站","address":""},{"poiid":"B2094654DB6BA1FC439B","title":"上海通汇汽车零部件集散中心有限公司","lon":"121.61509","lat":"31.27786","category":"263","category_name":"公司","address":"永宁路9"},{"poiid":"B2094757D16AA6F9409C","title":"申江路巨峰路","lon":"121.616908539","lat":"31.2795291761","category":"500","category_name":"未知分类","address":"上海浦东新区申江路巨峰路"},{"poiid":"B2094757D065A7F44099","title":"王记烧烤","lon":"121.61047","lat":"31.28195","category":"68","category_name":"快餐厅","address":"浦东新区金高路1039号(近巨峰路)"},{"poiid":"B2094757D16AA0FF469F","title":"通用汽车售后大楼","lon":"121.612072","lat":"31.273807","category":"46","category_name":"楼宇","address":"上海佳桥路199号"},{"poiid":"B2094751D364A7FD479C","title":"上海通用汽车员工活动中心","lon":"121.6190546","lat":"31.2774498","category":"500","category_name":"未知分类","address":null},{"poiid":"B2094757D065A1FB449F","title":"阳光欧洲城二期","lon":"121.615","lat":"31.2739","category":"47","category_name":"住宅区","address":"上海佳林路82弄"},{"poiid":"B2094757D164A2FA449A","title":"相忘于江湖","lon":"121.61366233","lat":"31.280209491","category":"247","category_name":"餐饮美食","address":"上海厌倦至终老"},{"poiid":"B2094655D26FA0FC439A","title":"华高二村西门(浦东新区华高小学西北)","lon":"121.61475","lat":"31.28101","category":"47","category_name":"住宅区","address":"巨峰路997弄28-89号"},{"poiid":"B2094757D66DA5FF4098","title":"养生粥","lon":"121.610305339","lat":"31.282000533","category":"68","category_name":"快餐厅","address":"浦东新区金高路1082号(近华高新村)"},{"poiid":"B2094654D568AAFB489F","title":"上海通用汽车有限公司","lon":"121.62227","lat":"31.27651","category":"263","category_name":"公司","address":"浦东新区申江路1500号"},{"poiid":"B2094757D06FA1FE459F","title":"卜蜂莲花(杨高北路店)","lon":"121.60793","lat":"31.2776","category":"118","category_name":"超级市场","address":"浦东新区金高路1256号(近巨峰路)"},{"poiid":"B2094654DB65A6FD459B","title":"必胜客(金高店)","lon":"121.6099529","lat":"31.2776794","category":"94","category_name":"西餐厅","address":"浦东新区金高路1296弄147-150号1楼(金高路乐园路)"},{"poiid":"B2094655D36CA0FF479F","title":"金高路巨峰路","lon":"121.61003","lat":"31.281","category":"38","category_name":"公交车站","address":""},{"poiid":"B2094757D06FA6F84198","title":"上海通用汽车八号停车场","lon":"121.614784","lat":"31.279944","category":"500","category_name":"未知分类","address":"上海巨峰路  金京路"},{"poiid":"B2094757D069A2F4489A","title":"金苹果学校","lon":"121.61986","lat":"31.28107","category":"253","category_name":"校园生活","address":"浦东新区巨峰路1555号"},{"poiid":"B2094757D069A5FA459D","title":"上海通用汽车 南厂车身","lon":"121.619228339","lat":"31.2691012364","category":"500","category_name":"未知分类","address":"上海申江路1500"},{"poiid":"B2094757D06AA0FB449C","title":"上海通用北厂总装","lon":"121.62230717","lat":"31.275640826","category":"46","category_name":"楼宇","address":"上海申江路1500号"},{"poiid":"B2094757D068AAFA4793","title":"上海通用汽车新行政楼","lon":"121.62453292","lat":"31.278582974","category":"46","category_name":"楼宇","address":"申江路1500号上海通用汽车北厂内"},{"poiid":"B2094757D06FA4FD4292","title":"肯德基 KFC (金高店)","lon":"121.607864","lat":"31.278682","category":"68","category_name":"快餐厅","address":"浦东新区金高路1256号卜蜂莲花1楼(近巨峰路)"},{"poiid":"B2094655D26CA5FD499B","title":"东源名都(西门)","lon":"121.61276","lat":"31.28294","category":"656","category_name":"大门","address":"双桥路1108弄"},{"poiid":"B2094654D568A0FC4198","title":"上海通用汽车有限公司售后服务办公楼","lon":"121.61265","lat":"31.27379","category":"46","category_name":"楼宇","address":"佳桥路199"},{"poiid":"B2094655D26FA0F44699","title":"东源丽晶别墅南门(巨峰路)","lon":"121.62148","lat":"31.28082","category":"47","category_name":"住宅区","address":"巨峰路1585-1589弄(近申江路)"},{"poiid":"B2094757D06FA7FD4599","title":"华高一村","lon":"121.61272","lat":"31.281546","category":"500","category_name":"未知分类","address":"上海金高路巨峰路"},{"poiid":"B2094654D568A6F54093","title":"东源名都(东门)","lon":"121.61643","lat":"31.28361","category":"656","category_name":"大门","address":"双桥路1139弄1-14号"},{"poiid":"B2094757D665A0FB489E","title":"DQ冰雪皇后 金高路店 Dairy Queen","lon":"121.610019054","lat":"31.279228793","category":"113","category_name":"冷饮店","address":"浦东新区金高路1256号卜蜂莲花内(近巨峰路)"},{"poiid":"B2094655D265A6FF419A","title":"阳光城市家园","lon":"121.61479","lat":"31.272135","category":"47","category_name":"住宅区","address":"永宁路33弄"},{"poiid":"B2094654D568A0F8449E","title":"金色米兰苑","lon":"121.62175757199","lat":"31.275163350192","category":"47","category_name":"住宅区","address":"佳乐路255弄1-53号"},{"poiid":"B2094757D065A2F9449A","title":"乡村基 金桥易初店","lon":"121.609808054","lat":"31.279218793","category":"68","category_name":"快餐厅","address":"浦东新区金高路1256号卜蜂莲花超市旁(近巨峰路)"},{"poiid":"B2094655D36CA0FC4193","title":"巨峰路金京路","lon":"121.61473","lat":"31.27986","category":"38","category_name":"公交车站","address":""},{"poiid":"B2094757D064A1F84399","title":"金达莱韩式料理店","lon":"121.60998","lat":"31.27776","category":"96","category_name":"韩国料理","address":"浦东新区金高路1296弄30号(近乐园路)"},{"poiid":"B2094655D26FA1F44699","title":"莫泰168连锁旅店(张桥店)","lon":"121.60953","lat":"31.27474","category":"216","category_name":"经济型连锁酒店","address":"上海市浦东新区金高路1398号（近杨高北路）"},{"poiid":"B2094757D66BA0F94393","title":"爱情麻辣烫 金高路店","lon":"121.610151054","lat":"31.280833793","category":"87","category_name":"特色／地方风味餐厅","address":"浦东新区金高路1037号(近巨峰路)"},{"poiid":"B2094655D269AAFA439E","title":"蜀膳传火锅传奇 金高路店","lon":"121.610718054","lat":"31.282905793","category":"86","category_name":"火锅店","address":"浦东新区高行镇金高路1033号(金高路源华路)"},{"poiid":"B2094757D165A3FE469E","title":"阳光欧洲城四期","lon":"121.617997","lat":"31.277438","category":"47","category_name":"住宅区","address":"上海市闵行区罗秀路1869号"},{"poiid":"B2094757D66EA7FB439B","title":"易初莲花","lon":"121.615884899","lat":"31.27578137","category":"249","category_name":"购物服务","address":"上海金高路1256号"},{"poiid":"B2094654D568A0F84493","title":"上海通用汽车金京路2号门(西2)","lon":"121.61703","lat":"31.27753","category":"263","category_name":"公司","address":"金京路"},{"poiid":"B2094757D06AA5FC4192","title":"华高二村","lon":"121.617243587","lat":"31.2814044326","category":"252","category_name":"楼宇机构","address":"上海巨峰路997弄"},{"poiid":"B2094757D06BA6F4479D","title":"盛洁苏州汤包馆","lon":"121.60986","lat":"31.281524","category":"68","category_name":"快餐厅","address":"浦东新区金高路1094号-1096号(近金高医院)"},{"poiid":"B2094757D06AA4FB449D","title":"永和大王(巨峰路店)","lon":"121.61136","lat":"31.27974","category":"68","category_name":"快餐厅","address":"上海浦东新区巨峰路239号家乐福1楼(近利津路)  "},{"poiid":"B2094654D568A0FD439B","title":"阳光欧洲城蔷薇绅邻","lon":"121.61138","lat":"31.27231","category":"47","category_name":"住宅区","address":"金高路1617弄1-336号"},{"poiid":"B2094757D069A2F5489C","title":"香啡缤(通用汽车店)","lon":"121.622680864","lat":"31.27630421","category":"260","category_name":"其他","address":"浦东新区申江路1500号上海通用汽车行政楼新楼M楼(近巨峰路)"},{"poiid":"B2094757D169A1FC489F","title":"上海通用汽车八号停车场新食堂","lon":"121.614897539","lat":"31.2774891292","category":"500","category_name":"未知分类","address":"上海通用汽车"},{"poiid":"B2094654D568A6F5409C","title":"浦东新区华高小学","lon":"121.61528","lat":"31.28071","category":"56","category_name":"小学","address":"华高二村73"},{"poiid":"B2094757D164A7FF419F","title":"上海通用动力总成厂","lon":"121.61690773","lat":"31.279529376","category":"500","category_name":"未知分类","address":"上海申江路1500号"},{"poiid":"B2094757D664AAF9429E","title":"元子韩国料理 金桥店","lon":"121.606507","lat":"31.279224","category":"96","category_name":"韩国料理","address":"浦东新区乐林路135号(近巨峰路)"},{"poiid":"B2094757D16CA1F44693","title":"上海通用","lon":"121.622276306","lat":"31.276512146","category":"500","category_name":"未知分类","address":"上海申江路1500号"},{"poiid":"B2094655D265A4F84298","title":"邵福楼","lon":"121.60933","lat":"31.28471","category":"257","category_name":"中餐厅","address":"双桥路961"},{"poiid":"B2094757D06AA7F8429B","title":"coco都可茶饮(金桥店)","lon":"121.60775533","lat":"31.279059465","category":"113","category_name":"冷饮店","address":"浦东新区金高路1256号卜峰莲花底楼(乐林路杨高北路)"},{"poiid":"B2094655D26CA5FD4992","title":"东源名都","lon":"121.61501","lat":"31.283436","category":"47","category_name":"住宅区","address":"上海市宝山区上大路178号"},{"poiid":"B2094655D36CA0FC429B","title":"巨峰路","lon":"121.61688","lat":"31.28219","category":"38","category_name":"公交车站","address":""},{"poiid":"B2094654DB6BA1FC439B","title":"上海通汇汽车零部件集散中心有限公司","lon":"121.61509","lat":"31.27786","category":"263","category_name":"公司","address":"永宁路9"},{"poiid":"B2094757D16AA6F9409C","title":"申江路巨峰路","lon":"121.616908539","lat":"31.2795291761","category":"500","category_name":"未知分类","address":"上海浦东新区申江路巨峰路"},{"poiid":"B2094757D065A7F44099","title":"王记烧烤","lon":"121.61047","lat":"31.28195","category":"68","category_name":"快餐厅","address":"浦东新区金高路1039号(近巨峰路)"},{"poiid":"B2094757D16AA0FF469F","title":"通用汽车售后大楼","lon":"121.612072","lat":"31.273807","category":"46","category_name":"楼宇","address":"上海佳桥路199号"},{"poiid":"B2094751D364A7FD479C","title":"上海通用汽车员工活动中心","lon":"121.6190546","lat":"31.2774498","category":"500","category_name":"未知分类","address":null},{"poiid":"B2094757D065A1FB449F","title":"阳光欧洲城二期","lon":"121.615","lat":"31.2739","category":"47","category_name":"住宅区","address":"上海佳林路82弄"},{"poiid":"B2094757D164A2FA449A","title":"相忘于江湖","lon":"121.61366233","lat":"31.280209491","category":"247","category_name":"餐饮美食","address":"上海厌倦至终老"},{"poiid":"B2094655D26FA0FC439A","title":"华高二村西门(浦东新区华高小学西北)","lon":"121.61475","lat":"31.28101","category":"47","category_name":"住宅区","address":"巨峰路997弄28-89号"},{"poiid":"B2094757D66DA5FF4098","title":"养生粥","lon":"121.610305339","lat":"31.282000533","category":"68","category_name":"快餐厅","address":"浦东新区金高路1082号(近华高新村)"},{"poiid":"B2094654D568AAFB489F","title":"上海通用汽车有限公司","lon":"121.62227","lat":"31.27651","category":"263","category_name":"公司","address":"浦东新区申江路1500号"},{"poiid":"B2094757D06FA1FE459F","title":"卜蜂莲花(杨高北路店)","lon":"121.60793","lat":"31.2776","category":"118","category_name":"超级市场","address":"浦东新区金高路1256号(近巨峰路)"},{"poiid":"B2094654DB65A6FD459B","title":"必胜客(金高店)","lon":"121.6099529","lat":"31.2776794","category":"94","category_name":"西餐厅","address":"浦东新区金高路1296弄147-150号1楼(金高路乐园路)"},{"poiid":"B2094655D36CA0FF479F","title":"金高路巨峰路","lon":"121.61003","lat":"31.281","category":"38","category_name":"公交车站","address":""},{"poiid":"B2094757D06FA6F84198","title":"上海通用汽车八号停车场","lon":"121.614784","lat":"31.279944","category":"500","category_name":"未知分类","address":"上海巨峰路  金京路"},{"poiid":"B2094757D069A2F4489A","title":"金苹果学校","lon":"121.61986","lat":"31.28107","category":"253","category_name":"校园生活","address":"浦东新区巨峰路1555号"},{"poiid":"B2094757D069A5FA459D","title":"上海通用汽车 南厂车身","lon":"121.619228339","lat":"31.2691012364","category":"500","category_name":"未知分类","address":"上海申江路1500"},{"poiid":"B2094757D06AA0FB449C","title":"上海通用北厂总装","lon":"121.62230717","lat":"31.275640826","category":"46","category_name":"楼宇","address":"上海申江路1500号"},{"poiid":"B2094757D068AAFA4793","title":"上海通用汽车新行政楼","lon":"121.62453292","lat":"31.278582974","category":"46","category_name":"楼宇","address":"申江路1500号上海通用汽车北厂内"},{"poiid":"B2094757D06FA4FD4292","title":"肯德基 KFC (金高店)","lon":"121.607864","lat":"31.278682","category":"68","category_name":"快餐厅","address":"浦东新区金高路1256号卜蜂莲花1楼(近巨峰路)"},{"poiid":"B2094655D26CA5FD499B","title":"东源名都(西门)","lon":"121.61276","lat":"31.28294","category":"656","category_name":"大门","address":"双桥路1108弄"},{"poiid":"B2094654D568A0FC4198","title":"上海通用汽车有限公司售后服务办公楼","lon":"121.61265","lat":"31.27379","category":"46","category_name":"楼宇","address":"佳桥路199"},{"poiid":"B2094655D26FA0F44699","title":"东源丽晶别墅南门(巨峰路)","lon":"121.62148","lat":"31.28082","category":"47","category_name":"住宅区","address":"巨峰路1585-1589弄(近申江路)"},{"poiid":"B2094757D06FA7FD4599","title":"华高一村","lon":"121.61272","lat":"31.281546","category":"500","category_name":"未知分类","address":"上海金高路巨峰路"},{"poiid":"B2094654D568A6F54093","title":"东源名都(东门)","lon":"121.61643","lat":"31.28361","category":"656","category_name":"大门","address":"双桥路1139弄1-14号"},{"poiid":"B2094757D665A0FB489E","title":"DQ冰雪皇后 金高路店 Dairy Queen","lon":"121.610019054","lat":"31.279228793","category":"113","category_name":"冷饮店","address":"浦东新区金高路1256号卜蜂莲花内(近巨峰路)"},{"poiid":"B2094655D265A6FF419A","title":"阳光城市家园","lon":"121.61479","lat":"31.272135","category":"47","category_name":"住宅区","address":"永宁路33弄"},{"poiid":"B2094654D568A0F8449E","title":"金色米兰苑","lon":"121.62175757199","lat":"31.275163350192","category":"47","category_name":"住宅区","address":"佳乐路255弄1-53号"},{"poiid":"B2094757D065A2F9449A","title":"乡村基 金桥易初店","lon":"121.609808054","lat":"31.279218793","category":"68","category_name":"快餐厅","address":"浦东新区金高路1256号卜蜂莲花超市旁(近巨峰路)"},{"poiid":"B2094655D36CA0FC4193","title":"巨峰路金京路","lon":"121.61473","lat":"31.27986","category":"38","category_name":"公交车站","address":""},{"poiid":"B2094757D064A1F84399","title":"金达莱韩式料理店","lon":"121.60998","lat":"31.27776","category":"96","category_name":"韩国料理","address":"浦东新区金高路1296弄30号(近乐园路)"},{"poiid":"B2094655D26FA1F44699","title":"莫泰168连锁旅店(张桥店)","lon":"121.60953","lat":"31.27474","category":"216","category_name":"经济型连锁酒店","address":"上海市浦东新区金高路1398号（近杨高北路）"},{"poiid":"B2094757D66BA0F94393","title":"爱情麻辣烫 金高路店","lon":"121.610151054","lat":"31.280833793","category":"87","category_name":"特色／地方风味餐厅","address":"浦东新区金高路1037号(近巨峰路)"},{"poiid":"B2094655D269AAFA439E","title":"蜀膳传火锅传奇 金高路店","lon":"121.610718054","lat":"31.282905793","category":"86","category_name":"火锅店","address":"浦东新区高行镇金高路1033号(金高路源华路)"},{"poiid":"B2094757D165A3FE469E","title":"阳光欧洲城四期","lon":"121.617997","lat":"31.277438","category":"47","category_name":"住宅区","address":"上海市闵行区罗秀路1869号"},{"poiid":"B2094757D66EA7FB439B","title":"易初莲花","lon":"121.615884899","lat":"31.27578137","category":"249","category_name":"购物服务","address":"上海金高路1256号"},{"poiid":"B2094654D568A0F84493","title":"上海通用汽车金京路2号门(西2)","lon":"121.61703","lat":"31.27753","category":"263","category_name":"公司","address":"金京路"},{"poiid":"B2094757D06AA5FC4192","title":"华高二村","lon":"121.617243587","lat":"31.2814044326","category":"252","category_name":"楼宇机构","address":"上海巨峰路997弄"},{"poiid":"B2094757D06BA6F4479D","title":"盛洁苏州汤包馆","lon":"121.60986","lat":"31.281524","category":"68","category_name":"快餐厅","address":"浦东新区金高路1094号-1096号(近金高医院)"},{"poiid":"B2094757D06AA4FB449D","title":"永和大王(巨峰路店)","lon":"121.61136","lat":"31.27974","category":"68","category_name":"快餐厅","address":"上海浦东新区巨峰路239号家乐福1楼(近利津路)  "},{"poiid":"B2094654D568A0FD439B","title":"阳光欧洲城蔷薇绅邻","lon":"121.61138","lat":"31.27231","category":"47","category_name":"住宅区","address":"金高路1617弄1-336号"},{"poiid":"B2094757D069A2F5489C","title":"香啡缤(通用汽车店)","lon":"121.622680864","lat":"31.27630421","category":"260","category_name":"其他","address":"浦东新区申江路1500号上海通用汽车行政楼新楼M楼(近巨峰路)"},{"poiid":"B2094757D169A1FC489F","title":"上海通用汽车八号停车场新食堂","lon":"121.614897539","lat":"31.2774891292","category":"500","category_name":"未知分类","address":"上海通用汽车"},{"poiid":"B2094654D568A6F5409C","title":"浦东新区华高小学","lon":"121.61528","lat":"31.28071","category":"56","category_name":"小学","address":"华高二村73"},{"poiid":"B2094757D164A7FF419F","title":"上海通用动力总成厂","lon":"121.61690773","lat":"31.279529376","category":"500","category_name":"未知分类","address":"上海申江路1500号"},{"poiid":"B2094757D664AAF9429E","title":"元子韩国料理 金桥店","lon":"121.606507","lat":"31.279224","category":"96","category_name":"韩国料理","address":"浦东新区乐林路135号(近巨峰路)"},{"poiid":"B2094757D16CA1F44693","title":"上海通用","lon":"121.622276306","lat":"31.276512146","category":"500","category_name":"未知分类","address":"上海申江路1500号"},{"poiid":"B2094655D265A4F84298","title":"邵福楼","lon":"121.60933","lat":"31.28471","category":"257","category_name":"中餐厅","address":"双桥路961"},{"poiid":"B2094757D06AA7F8429B","title":"coco都可茶饮(金桥店)","lon":"121.60775533","lat":"31.279059465","category":"113","category_name":"冷饮店","address":"浦东新区金高路1256号卜峰莲花底楼(乐林路杨高北路)"},{"poiid":"B2094655D26CA5FD4992","title":"东源名都","lon":"121.61501","lat":"31.283436","category":"47","category_name":"住宅区","address":"上海市宝山区上大路178号"},{"poiid":"B2094655D36CA0FC429B","title":"巨峰路","lon":"121.61688","lat":"31.28219","category":"38","category_name":"公交车站","address":""},{"poiid":"B2094654DB6BA1FC439B","title":"上海通汇汽车零部件集散中心有限公司","lon":"121.61509","lat":"31.27786","category":"263","category_name":"公司","address":"永宁路9"},{"poiid":"B2094757D16AA6F9409C","title":"申江路巨峰路","lon":"121.616908539","lat":"31.2795291761","category":"500","category_name":"未知分类","address":"上海浦东新区申江路巨峰路"},{"poiid":"B2094757D065A7F44099","title":"王记烧烤","lon":"121.61047","lat":"31.28195","category":"68","category_name":"快餐厅","address":"浦东新区金高路1039号(近巨峰路)"},{"poiid":"B2094757D16AA0FF469F","title":"通用汽车售后大楼","lon":"121.612072","lat":"31.273807","category":"46","category_name":"楼宇","address":"上海佳桥路199号"},{"poiid":"B2094751D364A7FD479C","title":"上海通用汽车员工活动中心","lon":"121.6190546","lat":"31.2774498","category":"500","category_name":"未知分类","address":null},{"poiid":"B2094757D065A1FB449F","title":"阳光欧洲城二期","lon":"121.615","lat":"31.2739","category":"47","category_name":"住宅区","address":"上海佳林路82弄"},{"poiid":"B2094757D164A2FA449A","title":"相忘于江湖","lon":"121.61366233","lat":"31.280209491","category":"247","category_name":"餐饮美食","address":"上海厌倦至终老"},{"poiid":"B2094655D26FA0FC439A","title":"华高二村西门(浦东新区华高小学西北)","lon":"121.61475","lat":"31.28101","category":"47","category_name":"住宅区","address":"巨峰路997弄28-89号"},{"poiid":"B2094757D66DA5FF4098","title":"养生粥","lon":"121.610305339","lat":"31.282000533","category":"68","category_name":"快餐厅","address":"浦东新区金高路1082号(近华高新村)"}]