[{"poiid":"B2094757D06FA1FD459F","title":"四季绿城","lon":"121.47614294","lat":"31.330535534","category":"47","category_name":"住宅区","address":"上海市宝山区新二路999号"},{"poiid":"B2094654D56DA1FF429A","title":"诚嘉酒楼","lon":"121.46752","lat":"31.32075","category":"70","category_name":"综合酒楼","address":"宝山区江杨南路728号(近保德路)"},{"poiid":"B2094757D06FA1FC439F","title":"盛达家园","lon":"121.46577","lat":"31.330097","category":"47","category_name":"住宅区","address":"上海一二八纪念路55弄"},{"poiid":"B2094757D06FA1FF4793","title":"沃尔玛(宝山店)","lon":"121.4742","lat":"31.32014","category":"118","category_name":"超级市场","address":"宝山区高境镇殷高西路542号景瑞生活广场(近高跃路)"},{"poiid":"B2094654DB6BA3FD409A","title":"城投世纪名城","lon":"121.46231","lat":"31.32518","category":"47","category_name":"住宅区","address":"上海市宝山区一二八纪念路"},{"poiid":"B2094655D36DA0FA429B","title":"一二八纪念路","lon":"121.46217","lat":"31.32705","category":"38","category_name":"公交车站","address":"宝山区一二八纪念路"},{"poiid":"B2094757D06FA6F5409E","title":"三花现代城香梅苑","lon":"121.474579357","lat":"31.3185069398","category":"47","category_name":"住宅区","address":"上海云西路219弄"},{"poiid":"B2094757D06FA6FA4798","title":"卜蜂莲花(保德店)","lon":"121.467412884","lat":"31.3196074245","category":"118","category_name":"超级市场","address":"闸北区保德路88号(近江杨南路)"},{"poiid":"B2094757D06FA0FB4393","title":"麦当劳(银都店)","lon":"121.4737897","lat":"31.320562519","category":"68","category_name":"快餐厅","address":"宝山区殷高西路542号景瑞生活广场(近沃尔玛)"},{"poiid":"B2094655D264A7F8459F","title":"上海临汾名城二期","lon":"121.472417","lat":"31.320972","category":"47","category_name":"住宅区","address":"上海市闸北区汾西路88弄"},{"poiid":"B2094757D068ABFB4992","title":"嘉骏花苑","lon":"121.47465","lat":"31.328863","category":"47","category_name":"住宅区","address":"上海宝山区新二路1088弄"},{"poiid":"B2094757D06FA4FC4993","title":"昌鑫时代绿园","lon":"121.46167","lat":"31.32811","category":"500","category_name":"未知分类","address":"上海虎林路99弄"},{"poiid":"B2094750D268A1FD479B","title":"和源名城","lon":"121.468139","lat":"31.317493","category":"47","category_name":"住宅区","address":"保德路江杨南路466弄"},{"poiid":"B2094757D16DA2FB479D","title":"上海东华之星汽车服务有限公司","lon":"121.467099","lat":"31.325347","category":"500","category_name":"未知分类","address":"上海市宝山区江杨南路980号"},{"poiid":"B2094757D065A7F44092","title":"馨良苑","lon":"121.4754","lat":"31.32555","category":"252","category_name":"楼宇机构","address":"上海市宝山区新二路183弄"},{"poiid":"B2094757D66AA4F5419C","title":"荣城大酒家","lon":"121.47506","lat":"31.32956","category":"76","category_name":"上海菜","address":"宝山区新二路777号(近殷高西路)"},{"poiid":"B2094757D06BA3F9449C","title":"瑞孚荣威4S店","lon":"121.467138","lat":"31.326228","category":"158","category_name":"汽车销售","address":"上海宝山区江杨南路1058号"},{"poiid":"B2094757D06FABFE459D","title":"田家炳中学","lon":"121.46329","lat":"31.31989","category":"55","category_name":"中学","address":"闸北区景风路185号(近阳泉路)"},{"poiid":"B2094757D56DA3F8459D","title":"乔老爷老北京铜炉涮锅","lon":"121.4618465","lat":"31.3233447","category":"86","category_name":"火锅店","address":"宝山区共康东路113-115号(近阳曲路)"},{"poiid":"B2094757D06EAAFB4298","title":"中进众旺汽车销售服务有限公司","lon":"121.466981508","lat":"31.324331515","category":"158","category_name":"汽车销售","address":"宝山区江杨南路1381号(近一二八纪念路)"},{"poiid":"B2094757D169ABFE449E","title":"�郭师傅私房菜","lon":"121.470945029","lat":"31.3200127005","category":"76","category_name":"上海菜","address":"宝山区殷高西路628号101座"},{"poiid":"B2094655D26AA5F44399","title":"北京现代汽车现峰特约销售服务店","lon":"121.46713","lat":"31.32522","category":"247","category_name":"餐饮美食","address":"宝山区江杨南路980号(江杨南路一二八纪念路)"},{"poiid":"B2094757D069AAFC439C","title":"泽丰大酒店","lon":"121.466511431","lat":"31.329192138","category":"76","category_name":"上海菜","address":"宝山区一二八纪念路29号(近江杨南路)"},{"poiid":"B2094757D06BA2FF4792","title":"瑞锦别克4S店","lon":"121.46674305","lat":"31.32628404","category":"500","category_name":"未知分类","address":"上海江杨南路1138号"},{"poiid":"B2094655D26AA6FD4893","title":"村夫烤鱼 殷高西路店","lon":"121.468526054","lat":"31.318988793","category":"71","category_name":"四川菜","address":"宝山区殷高西路628号106室(近江杨南路)"},{"poiid":"B2094655D36CA4FC4599","title":"保德路江杨南路","lon":"121.46814","lat":"31.32004","category":"38","category_name":"公交车站","address":""},{"poiid":"B2094655D36CA0F84898","title":"江杨南路一二八纪念路","lon":"121.46776","lat":"31.32614","category":"38","category_name":"公交车站","address":""},{"poiid":"B2094757D16CA2FF489D","title":"西上海信杰 捷豹路虎4S店","lon":"121.4662051","lat":"31.332297716","category":"500","category_name":"未知分类","address":"上海市宝山区江杨南路1373号"},{"poiid":"B2094654DB64A6FE4698","title":"肯德基保德店","lon":"121.46736","lat":"31.31954","category":"68","category_name":"快餐厅","address":"闸北区保德路88号(近江杨南路)"},{"poiid":"B2094757D16FA1F5419D","title":"KIA 4S 东悦","lon":"121.467830303","lat":"31.3241756465","category":"500","category_name":"未知分类","address":"上海江杨南路1008号"},{"poiid":"B2094757D66EA7FC489E","title":"众诺汽车销售公司(雷诺4S店)","lon":"121.467371403","lat":"31.3247041575","category":"158","category_name":"汽车销售","address":"上海江杨南路980号"},{"poiid":"B2094757D06FAAFC409F","title":"共和一村","lon":"121.463846","lat":"31.320436","category":"500","category_name":"未知分类","address":"上海市阳泉路"},{"poiid":"B2094757D06BA7FD479F","title":"大桶大足浴(殷高西路店)","lon":"121.4741931","lat":"31.318448426","category":"149","category_name":"洗浴推拿场所","address":"宝山区殷高西路618号(近江杨南路)"},{"poiid":"B2094751D26AA6FD439D","title":"欢歌KTV","lon":"121.468872","lat":"31.322004","category":"170","category_name":"KTV","address":"殷高西路"},{"poiid":"B2094757D16BA5FE439D","title":"高境派出所","lon":"121.467298703","lat":"31.3227809673","category":"609","category_name":"警察局","address":"上海新二路101号"},{"poiid":"B2094655D264A2F8469E","title":"福建闽东小吃","lon":"121.46916","lat":"31.32091","category":"68","category_name":"快餐厅","address":"杨浦区政立路1688号(近吉浦路)"},{"poiid":"B2094757D66FA2F8439B","title":"共和五村","lon":"121.4641751","lat":"31.324313549","category":"252","category_name":"楼宇机构","address":"上海共康东路共和五村"},{"poiid":"B2094757D069A4FB449E","title":"哈鲜面馆","lon":"121.46945","lat":"31.3194","category":"68","category_name":"快餐厅","address":"宝山区殷高西路628号102(近江杨南路)"},{"poiid":"B2094655D264A7FC449D","title":"上海临汾名城三期","lon":"121.47315","lat":"31.31852","category":"47","category_name":"住宅区","address":"上海市闸北区临汾路80弄"},{"poiid":"B2094757D16FA1FF4998","title":"东昌广本","lon":"121.46744549","lat":"31.324478652","category":"263","category_name":"公司","address":"上海江杨南路928号"},{"poiid":"B2094751D56AA3FF429B","title":"恒盛豪庭","lon":"121.46683","lat":"31.3215792","category":"47","category_name":"住宅区","address":"宝山区恒高路江杨南路"},{"poiid":"B2094655D26CA1FF459F","title":"上海东悦汽车销售服务有限公司","lon":"121.46706","lat":"31.32581","category":"159","category_name":"汽车维修","address":"宝山区江杨南路1008号"},{"poiid":"B2094655D26AA7FE4793","title":"高校出租","lon":"121.4669","lat":"31.32719","category":"247","category_name":"餐饮美食","address":"闸北区江杨南路1106号(高境路江杨南路)"},{"poiid":"B2094654D56DA1F84099","title":"梦家园","lon":"121.466376","lat":"31.328837","category":"47","category_name":"住宅区","address":"上海市长宁区延安西路1235弄"},{"poiid":"B2094654DB6BA3FC4993","title":"宝山区高境镇社区卫生服务中心","lon":"121.46282","lat":"31.3238","category":"162","category_name":"医院","address":"共康东路55"},{"poiid":"B2094654D56DA1FF4293","title":"味之都(保德路)","lon":"121.46693","lat":"31.3195","category":"68","category_name":"快餐厅","address":"闸北区保德路88号(近江杨南路)"},{"poiid":"B2094757D069A3F8469D","title":"长江国际商业购物中心","lon":"121.47097886","lat":"31.320503276","category":"119","category_name":"商场","address":"上海宝山区殷高西路333号(近江杨南路)"},{"poiid":"B2094655D36CA0F8479C","title":"江杨南路殷高西路","lon":"121.47","lat":"31.31983","category":"38","category_name":"公交车站","address":""},{"poiid":"B2094655D26DAAFF469C","title":"广州本田浦利店","lon":"121.46702","lat":"31.32412","category":"159","category_name":"汽车维修","address":"江杨南路928号"},{"poiid":"B2094654DB6BA3FB4493","title":"育英学校","lon":"121.46765","lat":"31.32819","category":"55","category_name":"中学","address":"江杨南路1165号"},{"poiid":"B2094757D06FA1FD459F","title":"四季绿城","lon":"121.47614294","lat":"31.330535534","category":"47","category_name":"住宅区","address":"上海市宝山区新二路999号"},{"poiid":"B2094654D56DA1FF429A","title":"诚嘉酒楼","lon":"121.46752","lat":"31.32075","category":"70","category_name":"综合酒楼","address":"宝山区江杨南路728号(近保德路)"},{"poiid":"B2094757D06FA1FC439F","title":"盛达家园","lon":"121.46577","lat":"31.330097","category":"47","category_name":"住宅区","address":"上海一二八纪念路55弄"},{"poiid":"B2094757D06FA1FF4793","title":"沃尔玛(宝山店)","lon":"121.4742","lat":"31.32014","category":"118","category_name":"超级市场","address":"宝山区高境镇殷高西路542号景瑞生活广场(近高跃路)"},{"poiid":"B2094654DB6BA3FD409A","title":"城投世纪名城","lon":"121.46231","lat":"31.32518","category":"47","category_name":"住宅区","address":"上海市宝山区一二八纪念路"},{"poiid":"B2094655D36DA0FA429B","title":"一二八纪念路","lon":"121.46217","lat":"31.32705","category":"38","category_name":"公交车站","address":"宝山区一二八纪念路"},{"poiid":"B2094757D06FA6F5409E","title":"三花现代城香梅苑","lon":"121.474579357","lat":"31.3185069398","category":"47","category_name":"住宅区","address":"上海云西路219弄"},{"poiid":"B2094757D06FA6FA4798","title":"卜蜂莲花(保德店)","lon":"121.467412884","lat":"31.3196074245","category":"118","category_name":"超级市场","address":"闸北区保德路88号(近江杨南路)"},{"poiid":"B2094757D06FA0FB4393","title":"麦当劳(银都店)","lon":"121.4737897","lat":"31.320562519","category":"68","category_name":"快餐厅","address":"宝山区殷高西路542号景瑞生活广场(近沃尔玛)"},{"poiid":"B2094655D264A7F8459F","title":"上海临汾名城二期","lon":"121.472417","lat":"31.320972","category":"47","category_name":"住宅区","address":"上海市闸北区汾西路88弄"},{"poiid":"B2094757D068ABFB4992","title":"嘉骏花苑","lon":"121.47465","lat":"31.328863","category":"47","category_name":"住宅区","address":"上海宝山区新二路1088弄"},{"poiid":"B2094757D06FA4FC4993","title":"昌鑫时代绿园","lon":"121.46167","lat":"31.32811","category":"500","category_name":"未知分类","address":"上海虎林路99弄"},{"poiid":"B2094750D268A1FD479B","title":"和源名城","lon":"121.468139","lat":"31.317493","category":"47","category_name":"住宅区","address":"保德路江杨南路466弄"},{"poiid":"B2094757D16DA2FB479D","title":"上海东华之星汽车服务有限公司","lon":"121.467099","lat":"31.325347","category":"500","category_name":"未知分类","address":"上海市宝山区江杨南路980号"},{"poiid":"B2094757D065A7F44092","title":"馨良苑","lon":"121.4754","lat":"31.32555","category":"252","category_name":"楼宇机构","address":"上海市宝山区新二路183弄"},{"poiid":"B2094757D66AA4F5419C","title":"荣城大酒家","lon":"121.47506","lat":"31.32956","category":"76","category_name":"上海菜","address":"宝山区新二路777号(近殷高西路)"},{"poiid":"B2094757D06BA3F9449C","title":"瑞孚荣威4S店","lon":"121.467138","lat":"31.326228","category":"158","category_name":"汽车销售","address":"上海宝山区江杨南路1058号"},{"poiid":"B2094757D06FABFE459D","title":"田家炳中学","lon":"121.46329","lat":"31.31989","category":"55","category_name":"中学","address":"闸北区景风路185号(近阳泉路)"},{"poiid":"B2094757D56DA3F8459D","title":"乔老爷老北京铜炉涮锅","lon":"121.4618465","lat":"31.3233447","category":"86","category_name":"火锅店","address":"宝山区共康东路113-115号(近阳曲路)"},{"poiid":"B2094757D06EAAFB4298","title":"中进众旺汽车销售服务有限公司","lon":"121.466981508","lat":"31.324331515","category":"158","category_name":"汽车销售","address":"宝山区江杨南路1381号(近一二八纪念路)"},{"poiid":"B2094757D169ABFE449E","title":"�郭师傅私房菜","lon":"121.470945029","lat":"31.3200127005","category":"76","category_name":"上海菜","address":"宝山区殷高西路628号101座"},{"poiid":"B2094655D26AA5F44399","title":"北京现代汽车现峰特约销售服务店","lon":"121.46713","lat":"31.32522","category":"247","category_name":"餐饮美食","address":"宝山区江杨南路980号(江杨南路一二八纪念路)"},{"poiid":"B2094757D069AAFC439C","title":"泽丰大酒店","lon":"121.466511431","lat":"31.329192138","category":"76","category_name":"上海菜","address":"宝山区一二八纪念路29号(近江杨南路)"},{"poiid":"B2094757D06BA2FF4792","title":"瑞锦别克4S店","lon":"121.46674305","lat":"31.32628404","category":"500","category_name":"未知分类","address":"上海江杨南路1138号"},{"poiid":"B2094655D26AA6FD4893","title":"村夫烤鱼 殷高西路店","lon":"121.468526054","lat":"31.318988793","category":"71","category_name":"四川菜","address":"宝山区殷高西路628号106室(近江杨南路)"},{"poiid":"B2094655D36CA4FC4599","title":"保德路江杨南路","lon":"121.46814","lat":"31.32004","category":"38","category_name":"公交车站","address":""},{"poiid":"B2094655D36CA0F84898","title":"江杨南路一二八纪念路","lon":"121.46776","lat":"31.32614","category":"38","category_name":"公交车站","address":""},{"poiid":"B2094757D16CA2FF489D","title":"西上海信杰 捷豹路虎4S店","lon":"121.4662051","lat":"31.332297716","category":"500","category_name":"未知分类","address":"上海市宝山区江杨南路1373号"},{"poiid":"B2094654DB64A6FE4698","title":"肯德基保德店","lon":"121.46736","lat":"31.31954","category":"68","category_name":"快餐厅","address":"闸北区保德路88号(近江杨南路)"},{"poiid":"B2094757D16FA1F5419D","title":"KIA 4S 东悦","lon":"121.467830303","lat":"31.3241756465","category":"500","category_name":"未知分类","address":"上海江杨南路1008号"},{"poiid":"B2094757D66EA7FC489E","title":"众诺汽车销售公司(雷诺4S店)","lon":"121.467371403","lat":"31.3247041575","category":"158","category_name":"汽车销售","address":"上海江杨南路980号"},{"poiid":"B2094757D06FAAFC409F","title":"共和一村","lon":"121.463846","lat":"31.320436","category":"500","category_name":"未知分类","address":"上海市阳泉路"},{"poiid":"B2094757D06BA7FD479F","title":"大桶大足浴(殷高西路店)","lon":"121.4741931","lat":"31.318448426","category":"149","category_name":"洗浴推拿场所","address":"宝山区殷高西路618号(近江杨南路)"},{"poiid":"B2094751D26AA6FD439D","title":"欢歌KTV","lon":"121.468872","lat":"31.322004","category":"170","category_name":"KTV","address":"殷高西路"},{"poiid":"B2094757D16BA5FE439D","title":"高境派出所","lon":"121.467298703","lat":"31.3227809673","category":"609","category_name":"警察局","address":"上海新二路101号"},{"poiid":"B2094655D264A2F8469E","title":"福建闽东小吃","lon":"121.46916","lat":"31.32091","category":"68","category_name":"快餐厅","address":"杨浦区政立路1688号(近吉浦路)"},{"poiid":"B2094757D66FA2F8439B","title":"共和五村","lon":"121.4641751","lat":"31.324313549","category":"252","category_name":"楼宇机构","address":"上海共康东路共和五村"},{"poiid":"B2094757D069A4FB449E","title":"哈鲜面馆","lon":"121.46945","lat":"31.3194","category":"68","category_name":"快餐厅","address":"宝山区殷高西路628号102(近江杨南路)"},{"poiid":"B2094655D264A7FC449D","title":"上海临汾名城三期","lon":"121.47315","lat":"31.31852","category":"47","category_name":"住宅区","address":"上海市闸北区临汾路80弄"},{"poiid":"B2094757D16FA1FF4998","title":"东昌广本","lon":"121.46744549","lat":"31.324478652","category":"263","category_name":"公司","address":"上海江杨南路928号"},{"poiid":"B2094751D56AA3FF429B","title":"恒盛豪庭","lon":"121.46683","lat":"31.3215792","category":"47","category_name":"住宅区","address":"宝山区恒高路江杨南路"},{"poiid":"B2094655D26CA1FF459F","title":"上海东悦汽车销售服务有限公司","lon":"121.46706","lat":"31.32581","category":"159","category_name":"汽车维修","address":"宝山区江杨南路1008号"},{"poiid":"B2094655D26AA7FE4793","title":"高校出租","lon":"121.4669","lat":"31.32719","category":"247","category_name":"餐饮美食","address":"闸北区江杨南路1106号(高境路江杨南路)"},{"poiid":"B2094654D56DA1F84099","title":"梦家园","lon":"121.466376","lat":"31.328837","category":"47","category_name":"住宅区","address":"上海市长宁区延安西路1235弄"},{"poiid":"B2094654DB6BA3FC4993","title":"宝山区高境镇社区卫生服务中心","lon":"121.46282","lat":"31.3238","category":"162","category_name":"医院","address":"共康东路55"},{"poiid":"B2094654D56DA1FF4293","title":"味之都(保德路)","lon":"121.46693","lat":"31.3195","category":"68","category_name":"快餐厅","address":"闸北区保德路88号(近江杨南路)"},{"poiid":"B2094757D069A3F8469D","title":"长江国际商业购物中心","lon":"121.47097886","lat":"31.320503276","category":"119","category_name":"商场","address":"上海宝山区殷高西路333号(近江杨南路)"},{"poiid":"B2094655D36CA0F8479C","title":"江杨南路殷高西路","lon":"121.47","lat":"31.31983","category":"38","category_name":"公交车站","address":""},{"poiid":"B2094655D26DAAFF469C","title":"广州本田浦利店","lon":"121.46702","lat":"31.32412","category":"159","category_name":"汽车维修","address":"江杨南路928号"},{"poiid":"B2094654DB6BA3FB4493","title":"育英学校","lon":"121.46765","lat":"31.32819","category":"55","category_name":"中学","address":"江杨南路1165号"},{"poiid":"B2094757D06FA1FD459F","title":"四季绿城","lon":"121.47614294","lat":"31.330535534","category":"47","category_name":"住宅区","address":"上海市宝山区新二路999号"},{"poiid":"B2094654D56DA1FF429A","title":"诚嘉酒楼","lon":"121.46752","lat":"31.32075","category":"70","category_name":"综合酒楼","address":"宝山区江杨南路728号(近保德路)"},{"poiid":"B2094757D06FA1FC439F","title":"盛达家园","lon":"121.46577","lat":"31.330097","category":"47","category_name":"住宅区","address":"上海一二八纪念路55弄"},{"poiid":"B2094757D06FA1FF4793","title":"沃尔玛(宝山店)","lon":"121.4742","lat":"31.32014","category":"118","category_name":"超级市场","address":"宝山区高境镇殷高西路542号景瑞生活广场(近高跃路)"},{"poiid":"B2094654DB6BA3FD409A","title":"城投世纪名城","lon":"121.46231","lat":"31.32518","category":"47","category_name":"住宅区","address":"上海市宝山区一二八纪念路"},{"poiid":"B2094655D36DA0FA429B","title":"一二八纪念路","lon":"121.46217","lat":"31.32705","category":"38","category_name":"公交车站","address":"宝山区一二八纪念路"},{"poiid":"B2094757D06FA6F5409E","title":"三花现代城香梅苑","lon":"121.474579357","lat":"31.3185069398","category":"47","category_name":"住宅区","address":"上海云西路219弄"},{"poiid":"B2094757D06FA6FA4798","title":"卜蜂莲花(保德店)","lon":"121.467412884","lat":"31.3196074245","category":"118","category_name":"超级市场","address":"闸北区保德路88号(近江杨南路)"},{"poiid":"B2094757D06FA0FB4393","title":"麦当劳(银都店)","lon":"121.4737897","lat":"31.320562519","category":"68","category_name":"快餐厅","address":"宝山区殷高西路542号景瑞生活广场(近沃尔玛)"},{"poiid":"B2094655D264A7F8459F","title":"上海临汾名城二期","lon":"121.472417","lat":"31.320972","category":"47","category_name":"住宅区","address":"上海市闸北区汾西路88弄"},{"poiid":"B2094757D068ABFB4992","title":"嘉骏花苑","lon":"121.47465","lat":"31.328863","category":"47","category_name":"住宅区","address":"上海宝山区新二路1088弄"},{"poiid":"B2094757D06FA4FC4993","title":"昌鑫时代绿园","lon":"121.46167","lat":"31.32811","category":"500","category_name":"未知分类","address":"上海虎林路99弄"},{"poiid":"B2094750D268A1FD479B","title":"和源名城","lon":"121.468139","lat":"31.317493","category":"47","category_name":"住宅区","address":"保德路江杨南路466弄"},{"poiid":"B2094757D16DA2FB479D","title":"上海东华之星汽车服务有限公司","lon":"121.467099","lat":"31.325347","category":"500","category_name":"未知分类","address":"上海市宝山区江杨南路980号"},{"poiid":"B2094757D065A7F44092","title":"馨良苑","lon":"121.4754","lat":"31.32555","category":"252","category_name":"楼宇机构","address":"上海市宝山区新二路183弄"},{"poiid":"B2094757D66AA4F5419C","title":"荣城大酒家","lon":"121.47506","lat":"31.32956","category":"76","category_name":"上海菜","address":"宝山区新二路777号(近殷高西路)"},{"poiid":"B2094757D06BA3F9449C","title":"瑞孚荣威4S店","lon":"121.467138","lat":"31.326228","category":"158","category_name":"汽车销售","address":"上海宝山区江杨南路1058号"},{"poiid":"B2094757D06FABFE459D","title":"田家炳中学","lon":"121.46329","lat":"31.31989","category":"55","category_name":"中学","address":"闸北区景风路185号(近阳泉路)"},{"poiid":"B2094757D56DA3F8459D","title":"乔老爷老北京铜炉涮锅","lon":"121.4618465","lat":"31.3233447","category":"86","category_name":"火锅店","address":"宝山区共康东路113-115号(近阳曲路)"},{"poiid":"B2094757D06EAAFB4298","title":"中进众旺汽车销售服务有限公司","lon":"121.466981508","lat":"31.324331515","category":"158","category_name":"汽车销售","address":"宝山区江杨南路1381号(近一二八纪念路)"},{"poiid":"B2094757D169ABFE449E","title":"�郭师傅私房菜","lon":"121.470945029","lat":"31.3200127005","category":"76","category_name":"上海菜","address":"宝山区殷高西路628号101座"},{"poiid":"B2094655D26AA5F44399","title":"北京现代汽车现峰特约销售服务店","lon":"121.46713","lat":"31.32522","category":"247","category_name":"餐饮美食","address":"宝山区江杨南路980号(江杨南路一二八纪念路)"},{"poiid":"B2094757D069AAFC439C","title":"泽丰大酒店","lon":"121.466511431","lat":"31.329192138","category":"76","category_name":"上海菜","address":"宝山区一二八纪念路29号(近江杨南路)"},{"poiid":"B2094757D06BA2FF4792","title":"瑞锦别克4S店","lon":"121.46674305","lat":"31.32628404","category":"500","category_name":"未知分类","address":"上海江杨南路1138号"},{"poiid":"B2094655D26AA6FD4893","title":"村夫烤鱼 殷高西路店","lon":"121.468526054","lat":"31.318988793","category":"71","category_name":"四川菜","address":"宝山区殷高西路628号106室(近江杨南路)"},{"poiid":"B2094655D36CA4FC4599","title":"保德路江杨南路","lon":"121.46814","lat":"31.32004","category":"38","category_name":"公交车站","address":""},{"poiid":"B2094655D36CA0F84898","title":"江杨南路一二八纪念路","lon":"121.46776","lat":"31.32614","category":"38","category_name":"公交车站","address":""},{"poiid":"B2094757D16CA2FF489D","title":"西上海信杰 捷豹路虎4S店","lon":"121.4662051","lat":"31.332297716","category":"500","category_name":"未知分类","address":"上海市宝山区江杨南路1373号"},{"poiid":"B2094654DB64A6FE4698","title":"肯德基保德店","lon":"121.46736","lat":"31.31954","category":"68","category_name":"快餐厅","address":"闸北区保德路88号(近江杨南路)"},{"poiid":"B2094757D16FA1F5419D","title":"KIA 4S 东悦","lon":"121.467830303","lat":"31.3241756465","category":"500","category_name":"未知分类","address":"上海江杨南路1008号"},{"poiid":"B2094757D66EA7FC489E","title":"众诺汽车销售公司(雷诺4S店)","lon":"121.467371403","lat":"31.3247041575","category":"158","category_name":"汽车销售","address":"上海江杨南路980号"},{"poiid":"B2094757D06FAAFC409F","title":"共和一村","lon":"121.463846","lat":"31.320436","category":"500","category_name":"未知分类","address":"上海市阳泉路"},{"poiid":"B2094757D06BA7FD479F","title":"大桶大足浴(殷高西路店)","lon":"121.4741931","lat":"31.318448426","category":"149","category_name":"洗浴推拿场所","address":"宝山区殷高西路618号(近江杨南路)"},{"poiid":"B2094751D26AA6FD439D","title":"欢歌KTV","lon":"121.468872","lat":"31.322004","category":"170","category_name":"KTV","address":"殷高西路"},{"poiid":"B2094757D16BA5FE439D","title":"高境派出所","lon":"121.467298703","lat":"31.3227809673","category":"609","category_name":"警察局","address":"上海新二路101号"},{"poiid":"B2094655D264A2F8469E","title":"福建闽东小吃","lon":"121.46916","lat":"31.32091","category":"68","category_name":"快餐厅","address":"杨浦区政立路1688号(近吉浦路)"},{"poiid":"B2094757D66FA2F8439B","title":"共和五村","lon":"121.4641751","lat":"31.324313549","category":"252","category_name":"楼宇机构","address":"上海共康东路共和五村"},{"poiid":"B2094757D069A4FB449E","title":"哈鲜面馆","lon":"121.46945","lat":"31.3194","category":"68","category_name":"快餐厅","address":"宝山区殷高西路628号102(近江杨南路)"},{"poiid":"B2094655D264A7FC449D","title":"上海临汾名城三期","lon":"121.47315","lat":"31.31852","category":"47","category_name":"住宅区","address":"上海市闸北区临汾路80弄"},{"poiid":"B2094757D16FA1FF4998","title":"东昌广本","lon":"121.46744549","lat":"31.324478652","category":"263","category_name":"公司","address":"上海江杨南路928号"},{"poiid":"B2094751D56AA3FF429B","title":"恒盛豪庭","lon":"121.46683","lat":"31.3215792","category":"47","category_name":"住宅区","address":"宝山区恒高路江杨南路"},{"poiid":"B2094655D26CA1FF459F","title":"上海东悦汽车销售服务有限公司","lon":"121.46706","lat":"31.32581","category":"159","category_name":"汽车维修","address":"宝山区江杨南路1008号"},{"poiid":"B2094655D26AA7FE4793","title":"高校出租","lon":"121.4669","lat":"31.32719","category":"247","category_name":"餐饮美食","address":"闸北区江杨南路1106号(高境路江杨南路)"},{"poiid":"B2094654D56DA1F84099","title":"梦家园","lon":"121.466376","lat":"31.328837","category":"47","category_name":"住宅区","address":"上海市长宁区延安西路1235弄"},{"poiid":"B2094654DB6BA3FC4993","title":"宝山区高境镇社区卫生服务中心","lon":"121.46282","lat":"31.3238","category":"162","category_name":"医院","address":"共康东路55"},{"poiid":"B2094654D56DA1FF4293","title":"味之都(保德路)","lon":"121.46693","lat":"31.3195","category":"68","category_name":"快餐厅","address":"闸北区保德路88号(近江杨南路)"},{"poiid":"B2094757D069A3F8469D","title":"长江国际商业购物中心","lon":"121.47097886","lat":"31.320503276","category":"119","category_name":"商场","address":"上海宝山区殷高西路333号(近江杨南路)"},{"poiid":"B2094655D36CA0F8479C","title":"江杨南路殷高西路","lon":"121.47","lat":"31.31983","category":"38","category_name":"公交车站","address":""},{"poiid":"B2094655D26DAAFF469C","title":"广州本田浦利店","lon":"121.46702","lat":"31.32412","category":"159","category_name":"汽车维修","address":"江杨南路928号"},{"poiid":"B2094654DB6BA3FB4493","title":"育英学校","lon":"121.46765","lat":"31.32819","category":"55","category_name":"中学","address":"江杨南路1165号"},{"poiid":"B2094757D06FA1FD459F","title":"四季绿城","lon":"121.47614294","lat":"31.330535534","category":"47","category_name":"住宅区","address":"上海市宝山区新二路999号"},{"poiid":"B2094654D56DA1FF429A","title":"诚嘉酒楼","lon":"121.46752","lat":"31.32075","category":"70","category_name":"综合酒楼","address":"宝山区江杨南路728号(近保德路)"},{"poiid":"B2094757D06FA1FC439F","title":"盛达家园","lon":"121.46577","lat":"31.330097","category":"47","category_name":"住宅区","address":"上海一二八纪念路55弄"},{"poiid":"B2094757D06FA1FF4793","title":"沃尔玛(宝山店)","lon":"121.4742","lat":"31.32014","category":"118","category_name":"超级市场","address":"宝山区高境镇殷高西路542号景瑞生活广场(近高跃路)"},{"poiid":"B2094654DB6BA3FD409A","title":"城投世纪名城","lon":"121.46231","lat":"31.32518","category":"47","category_name":"住宅区","address":"上海市宝山区一二八纪念路"},{"poiid":"B2094655D36DA0FA429B","title":"一二八纪念路","lon":"121.46217","lat":"31.32705","category":"38","category_name":"公交车站","address":"宝山区一二八纪念路"},{"poiid":"B2094757D06FA6F5409E","title":"三花现代城香梅苑","lon":"121.474579357","lat":"31.3185069398","category":"47","category_name":"住宅区","address":"上海云西路219弄"},{"poiid":"B2094757D06FA6FA4798","title":"卜蜂莲花(保德店)","lon":"121.467412884","lat":"31.3196074245","category":"118","category_name":"超级市场","address":"闸北区保德路88号(近江杨南路)"},{"poiid":"B2094757D06FA0FB4393","title":"麦当劳(银都店)","lon":"121.4737897","lat":"31.320562519","category":"68","category_name":"快餐厅","address":"宝山区殷高西路542号景瑞生活广场(近沃尔玛)"},{"poiid":"B2094655D264A7F8459F","title":"上海临汾名城二期","lon":"121.472417","lat":"31.320972","category":"47","category_name":"住宅区","address":"上海市闸北区汾西路88弄"},{"poiid":"B2094757D068ABFB4992","title":"嘉骏花苑","lon":"121.47465","lat":"31.328863","category":"47","category_name":"住宅区","address":"上海宝山区新二路1088弄"},{"poiid":"B2094757D06FA4FC4993","title":"昌鑫时代绿园","lon":"121.46167","lat":"31.32811","category":"500","category_name":"未知分类","address":"上海虎林路99弄"},{"poiid":"B2094750D268A1FD479B","title":"和源名城","lon":"121.468139","lat":"31.317493","category":"47","category_name":"住宅区","address":"保德路江杨南路466弄"},{"poiid":"B2094757D16DA2FB479D","title":"上海东华之星汽车服务有限公司","lon":"121.467099","lat":"31.325347","category":"500","category_name":"未知分类","address":"上海市宝山区江杨南路980号"},{"poiid":"B2094757D065A7F44092","title":"馨良苑","lon":"121.4754","lat":"31.32555","category":"252","category_name":"楼宇机构","address":"上海市宝山区新二路183弄"},{"poiid":"B2094757D66AA4F5419C","title":"荣城大酒家","lon":"121.47506","lat":"31.32956","category":"76","category_name":"上海菜","address":"宝山区新二路777号(近殷高西路)"},{"poiid":"B2094757D06BA3F9449C","title":"瑞孚荣威4S店","lon":"121.467138","lat":"31.326228","category":"158","category_name":"汽车销售","address":"上海宝山区江杨南路1058号"},{"poiid":"B2094757D06FABFE459D","title":"田家炳中学","lon":"121.46329","lat":"31.31989","category":"55","category_name":"中学","address":"闸北区景风路185号(近阳泉路)"},{"poiid":"B2094757D56DA3F8459D","title":"乔老爷老北京铜炉涮锅","lon":"121.4618465","lat":"31.3233447","category":"86","category_name":"火锅店","address":"宝山区共康东路113-115号(近阳曲路)"},{"poiid":"B2094757D06EAAFB4298","title":"中进众旺汽车销售服务有限公司","lon":"121.466981508","lat":"31.324331515","category":"158","category_name":"汽车销售","address":"宝山区江杨南路1381号(近一二八纪念路)"},{"poiid":"B2094757D169ABFE449E","title":"�郭师傅私房菜","lon":"121.470945029","lat":"31.3200127005","category":"76","category_name":"上海菜","address":"宝山区殷高西路628号101座"},{"poiid":"B2094655D26AA5F44399","title":"北京现代汽车现峰特约销售服务店","lon":"121.46713","lat":"31.32522","category":"247","category_name":"餐饮美食","address":"宝山区江杨南路980号(江杨南路一二八纪念路)"},{"poiid":"B2094757D069AAFC439C","title":"泽丰大酒店","lon":"121.466511431","lat":"31.329192138","category":"76","category_name":"上海菜","address":"宝山区一二八纪念路29号(近江杨南路)"},{"poiid":"B2094757D06BA2FF4792","title":"瑞锦别克4S店","lon":"121.46674305","lat":"31.32628404","category":"500","category_name":"未知分类","address":"上海江杨南路1138号"},{"poiid":"B2094655D26AA6FD4893","title":"村夫烤鱼 殷高西路店","lon":"121.468526054","lat":"31.318988793","category":"71","category_name":"四川菜","address":"宝山区殷高西路628号106室(近江杨南路)"},{"poiid":"B2094655D36CA4FC4599","title":"保德路江杨南路","lon":"121.46814","lat":"31.32004","category":"38","category_name":"公交车站","address":""},{"poiid":"B2094655D36CA0F84898","title":"江杨南路一二八纪念路","lon":"121.46776","lat":"31.32614","category":"38","category_name":"公交车站","address":""},{"poiid":"B2094757D16CA2FF489D","title":"西上海信杰 捷豹路虎4S店","lon":"121.4662051","lat":"31.332297716","category":"500","category_name":"未知分类","address":"上海市宝山区江杨南路1373号"},{"poiid":"B2094654DB64A6FE4698","title":"肯德基保德店","lon":"121.46736","lat":"31.31954","category":"68","category_name":"快餐厅","address":"闸北区保德路88号(近江杨南路)"},{"poiid":"B2094757D16FA1F5419D","title":"KIA 4S 东悦","lon":"121.467830303","lat":"31.3241756465","category":"500","category_name":"未知分类","address":"上海江杨南路1008号"},{"poiid":"B2094757D66EA7FC489E","title":"众诺汽车销售公司(雷诺4S店)","lon":"121.467371403","lat":"31.3247041575","category":"158","category_name":"汽车销售","address":"上海江杨南路980号"},{"poiid":"B2094757D06FAAFC409F","title":"共和一村","lon":"121.463846","lat":"31.320436","category":"500","category_name":"未知分类","address":"上海市阳泉路"},{"poiid":"B2094757D06BA7FD479F","title":"大桶大足浴(殷高西路店)","lon":"121.4741931","lat":"31.318448426","category":"149","category_name":"洗浴推拿场所","address":"宝山区殷高西路618号(近江杨南路)"},{"poiid":"B2094751D26AA6FD439D","title":"欢歌KTV","lon":"121.468872","lat":"31.322004","category":"170","category_name":"KTV","address":"殷高西路"},{"poiid":"B2094757D16BA5FE439D","title":"高境派出所","lon":"121.467298703","lat":"31.3227809673","category":"609","category_name":"警察局","address":"上海新二路101号"},{"poiid":"B2094655D264A2F8469E","title":"福建闽东小吃","lon":"121.46916","lat":"31.32091","category":"68","category_name":"快餐厅","address":"杨浦区政立路1688号(近吉浦路)"},{"poiid":"B2094757D66FA2F8439B","title":"共和五村","lon":"121.4641751","lat":"31.324313549","category":"252","category_name":"楼宇机构","address":"上海共康东路共和五村"},{"poiid":"B2094757D069A4FB449E","title":"哈鲜面馆","lon":"121.46945","lat":"31.3194","category":"68","category_name":"快餐厅","address":"宝山区殷高西路628号102(近江杨南路)"},{"poiid":"B2094655D264A7FC449D","title":"上海临汾名城三期","lon":"121.47315","lat":"31.31852","category":"47","category_name":"住宅区","address":"上海市闸北区临汾路80弄"},{"poiid":"B2094757D16FA1FF4998","title":"东昌广本","lon":"121.46744549","lat":"31.324478652","category":"263","category_name":"公司","address":"上海江杨南路928号"},{"poiid":"B2094751D56AA3FF429B","title":"恒盛豪庭","lon":"121.46683","lat":"31.3215792","category":"47","category_name":"住宅区","address":"宝山区恒高路江杨南路"},{"poiid":"B2094655D26CA1FF459F","title":"上海东悦汽车销售服务有限公司","lon":"121.46706","lat":"31.32581","category":"159","category_name":"汽车维修","address":"宝山区江杨南路1008号"},{"poiid":"B2094655D26AA7FE4793","title":"高校出租","lon":"121.4669","lat":"31.32719","category":"247","category_name":"餐饮美食","address":"闸北区江杨南路1106号(高境路江杨南路)"},{"poiid":"B2094654D56DA1F84099","title":"梦家园","lon":"121.466376","lat":"31.328837","category":"47","category_name":"住宅区","address":"上海市长宁区延安西路1235弄"},{"poiid":"B2094654DB6BA3FC4993","title":"宝山区高境镇社区卫生服务中心","lon":"121.46282","lat":"31.3238","category":"162","category_name":"医院","address":"共康东路55"},{"poiid":"B2094654D56DA1FF4293","title":"味之都(保德路)","lon":"121.46693","lat":"31.3195","category":"68","category_name":"快餐厅","address":"闸北区保德路88号(近江杨南路)"},{"poiid":"B2094757D069A3F8469D","title":"长江国际商业购物中心","lon":"121.47097886","lat":"31.320503276","category":"119","category_name":"商场","address":"上海宝山区殷高西路333号(近江杨南路)"},{"poiid":"B2094655D36CA0F8479C","title":"江杨南路殷高西路","lon":"121.47","lat":"31.31983","category":"38","category_name":"公交车站","address":""},{"poiid":"B2094655D26DAAFF469C","title":"广州本田浦利店","lon":"121.46702","lat":"31.32412","category":"159","category_name":"汽车维修","address":"江杨南路928号"},{"poiid":"B2094654DB6BA3FB4493","title":"育英学校","lon":"121.46765","lat":"31.32819","category":"55","category_name":"中学","address":"江杨南路1165号"}]