[{"poiid":"B2094757DA6AAAF54993","title":"国金中心","lon":"121.479226","lat":"31.231752","category":"500","category_name":"未知分类","address":"阿迪达斯国金中心IFC店"},{"poiid":"B2094655D268A4F9409F","title":"上海国金中心IFC","lon":"121.50226752034189","lat":"31.2362712719287","category":"119","category_name":"商场","address":"浦东新区世纪大道8号(近东泰路)"},{"poiid":"B2094757D06FABF54292","title":"丽思卡尔顿酒店(The Ritz-Carlton)","lon":"121.50138631619564","lat":"31.236426742043335","category":"213","category_name":"五星级宾馆","address":"上海浦东新区陆家嘴世纪大道8号上海国金中心(需至52楼办理入住手续)"},{"poiid":"B209475CD564A7F84392","title":"上海滩浦东香格里拉店","lon":"121.50058","lat":"31.23634","category":"119","category_name":"商场","address":"浦东富成路33号香格里拉酒店内大堂层"},{"poiid":"B2094655D36DA6FE409E","title":"陆家嘴","lon":"121.50163","lat":"31.23807","category":"38","category_name":"公交车站","address":"时代金融中心"},{"poiid":"B2094757D06EAAFF449F","title":"食尚港丽(国金店)","lon":"121.50596","lat":"31.23591","category":"72","category_name":"广东菜","address":"浦东新区世纪大道8号国金中心商场LG1-20号商铺(近东泰路)"},{"poiid":"B2094757D06FA2F8419C","title":"莫尔顿牛排坊","lon":"121.501268246","lat":"31.2370047514","category":"94","category_name":"西餐厅","address":"浦东新区世纪大道8号国金中心商场4楼15-16号商铺(近银城中路)"},{"poiid":"B2094757D06EAAFF459D","title":"Apple  Store 苹果官方零售店(上海浦东店)","lon":"121.50101869280331","lat":"31.23755114250053","category":"138","category_name":"家电电子卖场","address":"浦东新区陆家嘴世纪大道8号上海国金中心IFC商场LG2-27号"},{"poiid":"B2094757D06FA5FB4493","title":"东方明珠旋转餐厅","lon":"121.50184","lat":"31.23831","category":"268","category_name":"自助","address":"浦东新区世纪大道1号东方明珠电视塔(近二号线陆家嘴站)"},{"poiid":"B2094757D165A0FC4793","title":"东方明珠","lon":"121.501606738","lat":"31.2372364494","category":"500","category_name":"未知分类","address":"浦东世纪大道1号，坐落于黄浦江畔浦东陆家嘴嘴尖上，与外滩的万国建筑博览群隔江相望"},{"poiid":"B2094757D06EAAFB439A","title":"星巴克(国金中心店)","lon":"121.500683","lat":"31.23677","category":"260","category_name":"其他","address":"浦东新区世纪大道8号国金中心商场LG2楼(近银城中路)"},{"poiid":"B2094757D06FA2FF4398","title":"天家(国金中心店)","lon":"121.50596","lat":"31.23591","category":"95","category_name":"日本料理","address":"浦东新区世纪大道8号国金中心商场4楼(近东泰路)"},{"poiid":"B2094757D068A6F5409C","title":"Flair Rooftop","lon":"121.501254738","lat":"31.2362914293","category":"260","category_name":"其他","address":"浦东新区世纪大道8号上海国金中心丽思卡尔顿酒店58楼(东泰路世纪大道)"},{"poiid":"B2094655D26BA1F4419B","title":"陆家嘴地铁站","lon":"121.50161","lat":"31.23788","category":"36","category_name":"地铁站","address":"上海轨道交通 二号线 轨交陆家嘴站"},{"poiid":"B2094757D06FA3FD4392","title":"利苑(国金中心店)","lon":"121.501273278","lat":"31.2366628513","category":"47","category_name":"住宅区","address":"浦东新区世纪大道8号上海国金中心3楼(近陆家嘴东路)"},{"poiid":"B2094757D06FA1FB489B","title":"Haiku by Hatsune(国金中心店)","lon":"121.50596","lat":"31.23591","category":"95","category_name":"日本料理","address":"浦东新区世纪大道8号国金中心商场LG1楼36号铺(近东泰路)"},{"poiid":"B2094757D06FA7FD4099","title":"Godiva(国金中心店)","lon":"121.502431321","lat":"31.2363452182","category":"67","category_name":"甜品店","address":"浦东新区陆家嘴世纪大道8号国际金融中心B2楼LG2-36、37号铺(近东泰路)"},{"poiid":"B2094757DB64A6F9479F","title":"金牛苑越南菜馆（上海IFC商场店）","lon":"121.501","lat":"31.2366","category":"141","category_name":"服装鞋帽皮具店","address":"浦东新区世纪大道8号上海国金中心L3-19号(近东泰路)"},{"poiid":"B2094757D164A3FD419A","title":"Baker&Spice(国金中心店)","lon":"121.50242473","lat":"31.237036445","category":"67","category_name":"甜品店","address":"浦东新区世纪大道8号国金中心IFC商场LG层16室(近浦东大道)"},{"poiid":"B2094757D06FA5FB4292","title":"安薇塔英国茶体系 国金中心店 Annvita English Tea Company","lon":"121.50131","lat":"31.23663","category":"260","category_name":"其他","address":"浦东新区世纪大道8号国金中心商场LG2楼(近浦东大道)"},{"poiid":"B2094757D068A7FF469C","title":"Cova","lon":"121.50131","lat":"31.23663","category":"67","category_name":"甜品店","address":"浦东新区世纪大道8号国金中心商场L1楼30号商铺(近东泰路)"},{"poiid":"B2094757D06BA1FE449F","title":"COSTA COFFEE(国金中心店)","lon":"121.50132707050625","lat":"31.236917862206965","category":"65","category_name":"咖啡厅","address":"浦东新区世纪大道8号上海国金中心D座B1楼LG1-37室"},{"poiid":"B2094757D06EAAFA489E","title":"陆家嘴天桥","lon":"121.50079971","lat":"31.237515497","category":"260","category_name":"其他","address":"上海浦东新区陆家嘴中心地区"},{"poiid":"B2094757DB64A6F8419B","title":"正斗粥面专家（上海IFC商场店）","lon":"121.501","lat":"31.2366","category":"141","category_name":"服装鞋帽皮具店","address":"上海浦东新区世纪大道8号国际金融中心 上海IFC商场三层"},{"poiid":"B2094757D06EABF5459A","title":"City Super 超生活(国金中心店)","lon":"121.501665","lat":"31.236665","category":"118","category_name":"超级市场","address":"上海浦东新区世纪大道8号国际金融中心B2楼"},{"poiid":"B2094757D068A1F8459B","title":"汇丰银行大楼","lon":"121.50146652","lat":"31.236643826","category":"500","category_name":"未知分类","address":"浦东新区世纪大道8号上海国金中心"},{"poiid":"B2094757D068ABF54492","title":"星美正大影城六號廳","lon":"121.501231968","lat":"31.2374576441","category":"500","category_name":"未知分类","address":"上海浦东新区陆家嘴西路168号正大广场8楼"},{"poiid":"B2094757DB64AAFD4098","title":"丸金日式拉面（上海IFC商场店）","lon":"121.501","lat":"31.2366","category":"247","category_name":"餐饮美食","address":"浦东新区世纪大道8号国金中心"},{"poiid":"B2094757DB64A6FA409F","title":"太和殿精致麻辣火锅（上海IFC商场店）","lon":"121.501","lat":"31.2366","category":"141","category_name":"服装鞋帽皮具店","address":"上海浦东新区世纪大道8号国际金融中心 上海IFC商场三层"},{"poiid":"B2094757D06FA2FB4498","title":"PANKOO釜山料理(国金中心店)","lon":"121.50154973","lat":"31.236637341","category":"96","category_name":"韩国料理","address":"浦东新区世纪大道8号国金中心商场4楼(近浦东大道)"},{"poiid":"B2094757D06FA2FB499B","title":"大众书局（正大广场店）","lon":"121.500551","lat":"31.23664","category":"125","category_name":"书店","address":"上海市浦东新区陆家嘴西路168号正大广场7楼"},{"poiid":"B2094757D06FABFC439E","title":"Aura","lon":"121.501827738","lat":"31.2367564392","category":"260","category_name":"其他","address":"浦东新区世纪大道8号上海国金中心丽思卡尔顿酒店52楼(东泰路世纪大道)"},{"poiid":"B2094750D268A5FA439A","title":"俏江南 国金中心店 South Beauty","lon":"121.50131","lat":"31.23663","category":"71","category_name":"四川菜","address":"世纪大道8号上海国际金融中心(国金中心)4楼近银城中路"},{"poiid":"B2094757D068A6FF4099","title":"Whittard of Chelsea","lon":"121.502784738","lat":"31.2368724417","category":"113","category_name":"冷饮店","address":"陆家嘴世纪大道8号上海国金中心D座四层L4-12室"},{"poiid":"B2094757D06FA3FA419E","title":"瓢六(国金中心店)","lon":"121.50596","lat":"31.23591","category":"95","category_name":"日本料理","address":"浦东新区世纪大道8号国金中心商场B2楼C-2号商铺(近东泰路)"},{"poiid":"B2094750D76FABFE429E","title":"美厨汇","lon":"121.501","lat":"31.2364","category":"68","category_name":"快餐厅","address":"浦东新区世纪大道8号国金中心L4-1、2、3(近浦东大道)"},{"poiid":"B2094757D06FA2FD469F","title":"威尔士健身会所(正大旗舰店)","lon":"121.50046","lat":"31.23736","category":"221","category_name":"健身中心","address":"上海浦东新区陆家嘴西路168号正大广场7楼(近东方明珠)"},{"poiid":"B2094757D66CABFF4198","title":"蘇浙總會(国金中心店)","lon":"121.502735738","lat":"31.2373164511","category":"248","category_name":"生活娱乐","address":"上海浦东新区世纪大道8号国金中心L4"},{"poiid":"B2094757DB64A6FF4593","title":"COVA（上海IFC商场店）","lon":"121.501","lat":"31.2366","category":"141","category_name":"服装鞋帽皮具店","address":"上海浦东新区世纪大道8号国际金融中心 上海IFC商场一层"},{"poiid":"B2094757D06FA7FD4799","title":"圣久代","lon":"121.502195738","lat":"31.2372974507","category":"113","category_name":"冷饮店","address":"浦东新区世纪大道8号国金中心IFC商场LG2(近CitySuper)"},{"poiid":"B2094757D068ABF5499F","title":"Haiku隐泉之语","lon":"121.50104992","lat":"31.236761629","category":"95","category_name":"日本料理","address":"上海ifc国金店"},{"poiid":"B2094757DB64A6FF429D","title":"Annvita Tea Boutique（上海IFC商场店）","lon":"121.501","lat":"31.2366","category":"66","category_name":"茶艺馆","address":"上海浦东新区世纪大道8号国际金融中心 上海IFC商场地下二层"},{"poiid":"B2094757D16EABFB4793","title":"Latina","lon":"121.50173373","lat":"31.237477454","category":"500","category_name":"未知分类","address":"上海陆家嘴环路165号"},{"poiid":"B2094757D66EA5F9469A","title":"唐宫海鲜坊","lon":"121.50139373","lat":"31.237452454","category":"247","category_name":"餐饮美食","address":"上海浦东新区规二路"},{"poiid":"B2094655D26AA0FA469F","title":"地铁陆家嘴站","lon":"121.50163","lat":"31.23807","category":"36","category_name":"地铁站","address":""},{"poiid":"B2094750D365ABF94092","title":"正大广场星美国际影城3号厅","lon":"121.501655","lat":"31.237243","category":"500","category_name":"未知分类","address":null},{"poiid":"B2094753D36EA0F8419C","title":"乐新皇朝","lon":"121.501285","lat":"31.236626","category":"68","category_name":"快餐厅","address":"世纪大道8号IFC商场L3-36"},{"poiid":"B2094757D66FA1FE469E","title":"Flair","lon":"121.501119738","lat":"31.2368084403","category":"500","category_name":"未知分类","address":"上海The,Ritz,Carlton"},{"poiid":"B2094757D06AABF4439D","title":"釜山料理","lon":"121.50271673","lat":"31.236967443","category":"247","category_name":"餐饮美食","address":"上海世纪大道8号国金中心商场4楼"},{"poiid":"B2094757D16AA5FC469C","title":"上海板长寿司（国金中心店）","lon":"121.50117573","lat":"31.237380452","category":"247","category_name":"餐饮美食","address":"浦东新区世纪大道8号国金中心LG1-18号商铺(近东泰路)"},{"poiid":"B2094750D26FA7FA4498","title":"湯姆熊","lon":"121.500656","lat":"31.237621","category":"500","category_name":"未知分类","address":"正大廣場"},{"poiid":"B2094750D26AA3F5489D","title":"正大星美影城IMAX厅","lon":"121.500671","lat":"31.2376","category":"500","category_name":"未知分类","address":null},{"poiid":"B2094757D06FA5FB459D","title":"CHANEL(国金中心店)","lon":"121.501498713","lat":"31.236634653","category":"122","category_name":"个人用品/化妆品店","address":"浦东新区世纪大道8号国金中心商场1楼(近东泰路)"},{"poiid":"B2094750D76FABFC4393","title":"烧肉孙三郎","lon":"121.501","lat":"31.2364","category":"95","category_name":"日本料理","address":"浦东新区世纪大道8号国金中心4楼3铺(近东方明珠)"},{"poiid":"B2094757D069A7FB489E","title":"苹果店","lon":"121.501245738","lat":"31.237543456","category":"249","category_name":"购物服务","address":"上海IFC"},{"poiid":"B2094751D56CA3FE419E","title":"COSTA COFFEE(国金中心店)","lon":"121.50102","lat":"31.23639","category":"65","category_name":"咖啡厅","address":"浦东新区世纪大道8号上海国金中心D座B1楼LG1-37室(近浦东大道)"},{"poiid":"B2094655D36CA6F84798","title":"丰和路陆家嘴环路(正大广场)","lon":"121.50051","lat":"31.2375","category":"38","category_name":"公交车站","address":""},{"poiid":"B2094757D16CA2FA439B","title":"品面","lon":"121.502659738","lat":"31.2365974358","category":"68","category_name":"快餐厅","address":"浦东新区世纪大道8号国金中心商场LG2楼B座11号(近正大广场)"},{"poiid":"B2094752D264A7FB4798","title":"isola上海国金中心IFC","lon":"121.501307","lat":"31.23788","category":"247","category_name":"餐饮美食","address":"上海国金中心"},{"poiid":"B2094757D068A0F8409A","title":"一番屋 陆家嘴店","lon":"121.500551","lat":"31.23664","category":"95","category_name":"日本料理","address":"陆家嘴西路168号正大广场近丰和路"},{"poiid":"B2094757D068A7FD459F","title":"會津まる家(环球金融店)","lon":"121.501646738","lat":"31.2373394516","category":"95","category_name":"日本料理","address":"上海环球金融中心B1"},{"poiid":"B2094757D064A7FE4193","title":"蘭•俏江南","lon":"121.50144302","lat":"31.237995465","category":"500","category_name":"未知分类","address":"上海世紀大道8號4樓"},{"poiid":"B2094757D06FA7FF419C","title":"銀座スウーッ","lon":"121.50168477","lat":"31.237163137","category":"67","category_name":"甜品店","address":"浦东新区世纪大道8号国金中心商场LG2楼B-5号(近东泰路)"},{"poiid":"B2094757D16BAAFB4792","title":"DQ","lon":"121.501070738","lat":"31.2378164618","category":"247","category_name":"餐饮美食","address":"上海市浦东新区滨江大道正大广场"},{"poiid":"B2094757D06BA7FC4498","title":"甜沁 国金店 Lis Dessert","lon":"121.50097","lat":"31.23665","category":"67","category_name":"甜品店","address":"浦东新区世纪大道8号国金中心商场LG2楼(近东泰路)"},{"poiid":"B2094757D068A3FA429A","title":"爱马仕(国金中心店)","lon":"121.50167827","lat":"31.237389342","category":"141","category_name":"服装鞋帽皮具店","address":"上海浦东新区世纪大道8号国金中心商场1楼"},{"poiid":"B2094750D568A1F44798","title":"哈根达斯(国金中心店)","lon":"121.502","lat":"31.2363","category":"113","category_name":"冷饮店","address":"浦东新区世纪大道8号国金中心商场LG1-39号商铺(近东泰路预计12月开店)"},{"poiid":"B209475CD36FA5FD459B","title":"一風堂拉面  Ippudo","lon":"121.50218","lat":"31.23644","category":"95","category_name":"日本料理","address":"世纪大道8号国金中心LG1-79-80号(近正大广场)"},{"poiid":"B2094757D06BAAFA489E","title":"欧米亚咖啡餐厅","lon":"121.501632","lat":"31.238073","category":"65","category_name":"咖啡厅","address":"上海陆家嘴"},{"poiid":"B2094757D16DA4FE419A","title":"红久茶餐厅(DMC)","lon":"121.501860738","lat":"31.2367344387","category":"72","category_name":"广东菜","address":"浦东新区世纪大道55号世纪天桥2楼-2(近陆家嘴东路)"},{"poiid":"B2094751D56DA1FD429A","title":"外婆家","lon":"121.50098","lat":"31.23637","category":"75","category_name":"浙江菜","address":"浦东新区世纪大道8号上海国金中心内(近陆家嘴东路)"},{"poiid":"B2094757D76AA1FE469D","title":"东京咖喱 TOKYO CURRY","lon":"121.50097","lat":"31.23665","category":"95","category_name":"日本料理","address":"浦东新区世纪大道8号国金中心商场B2楼B-6号商铺(近浦东大道)"},{"poiid":"B209475CD06AAAFA439B","title":"星期五餐厅 陆家嘴滨江店 T.G.I. Friday’s","lon":"121.50214783363","lat":"31.236340695148","category":"94","category_name":"西餐厅","address":"富城路16号近正大广场"},{"poiid":"B2094757D765A4FF4298","title":"自家乌冬","lon":"121.501318","lat":"31.236634","category":"95","category_name":"日本料理","address":"浦东新区世纪大道8号国金中心商场LG1-18号商铺(近东泰路)"},{"poiid":"B2094750D76FA6F8409B","title":"Momi&Toys(国金中心店)","lon":"121.501","lat":"31.2367","category":"67","category_name":"甜品店","address":"浦东新区世纪大道8号国金中心商场LG2楼(近浦东大道)"},{"poiid":"B2094750D768A0F44098","title":"Royce'Chocolates(国金中心店)","lon":"121.501","lat":"31.2366","category":"68","category_name":"快餐厅","address":"世纪大道8号上海国金中心LG2楼city'super内(近东泰路)"},{"poiid":"B2094757D06AAAFC429F","title":"大华银行","lon":"121.50055526","lat":"31.237818561","category":"500","category_name":"未知分类","address":"浦东新区东园路111号"},{"poiid":"B2094757D064A5FF4698","title":"味之都(陆家嘴店)","lon":"121.50082458","lat":"31.237667458","category":"75","category_name":"浙江菜","address":"浦东新区世纪大道55号东方浮庭2F-3室(近丰和路)"},{"poiid":"B2094752D264A6FF4593","title":"上海国金中心商场","lon":"121.50251991973016","lat":"31.23634463506569","category":"627","category_name":"一般地点标志","address":"上海市浦东新区世纪大道8号"},{"poiid":"B2094757D06BA6FD4192","title":"饭田烧/汤泽(IFC店)","lon":"121.50236673","lat":"31.237176448","category":"72","category_name":"广东菜","address":"浦东新区世纪大道8号国金中心商场LG2楼B8-9号铺(近东泰路)"},{"poiid":"B2094654DB69A5FF469B","title":"赛百味 东方明珠店 Subway","lon":"121.499655054","lat":"31.239509793","category":"94","category_name":"西餐厅","address":"浦东新区世纪大道1号东方明珠电视塔售票处旁(近二号线陆家嘴站)"},{"poiid":"B2094757D165AAF4479C","title":"IFC 利苑","lon":"121.50163473","lat":"31.237222449","category":"47","category_name":"住宅区","address":"上海市浦东新区明珠塔路"},{"poiid":"B2094757D16CA0F54098","title":"陆家嘴环路","lon":"121.500677591","lat":"31.2365047395","category":"500","category_name":"未知分类","address":"上海浦东银行集中营"},{"poiid":"B2094752D465AAF84599","title":"Simply Thai","lon":"121.502369","lat":"31.237186","category":"247","category_name":"餐饮美食","address":"世纪大道8号国金中心商场F4楼"},{"poiid":"B209475CD06AA7F9429F","title":"SCENA  Scena","lon":"121.50131","lat":"31.23663","category":"98","category_name":"意式菜品餐厅","address":"世纪大道8号上海国金中心52楼丽思卡尔顿酒店(东泰路世纪大道)"},{"poiid":"B2094757D06AA1FC489A","title":"爱茜茜里(国金中心店)","lon":"121.50215996","lat":"31.236412854","category":"113","category_name":"冷饮店","address":"浦东新区世纪大道2000号科技馆B1楼(近二号线科技馆站)"},{"poiid":"B2094757D16CA2FE4392","title":"LITTLE MERMAID BAKERY","lon":"121.502515888","lat":"31.2368289407","category":"67","category_name":"甜品店","address":"浦东新区世纪大道8号国金中心商场B2楼LG2(近东泰路)"},{"poiid":"B2094750D664A3FD499D","title":"玉房(正大广场店)","lon":"121.501","lat":"31.2366","category":"95","category_name":"日本料理","address":"浦东新区陆家嘴西路168号正大广场B2楼(近东方明珠)"},{"poiid":"B2094757D16FAAFA409E","title":"GODIVA(久光)","lon":"121.50143373","lat":"31.237721459","category":"500","category_name":"未知分类","address":"上海南京西路久光广场B1"},{"poiid":"B2094757D56DA4FF469E","title":"THE RITZ CARLTON HOTEL PUDONG","lon":"121.50140762329102","lat":"31.237389460298523","category":"251","category_name":"出行住宿","address":"上海 上海市 世纪大道8号国金中心丽丝卡尔顿酒店"},{"poiid":"B2094750D768A2F5479B","title":"翰林烧烤(正大广场店)","lon":"121.501","lat":"31.2376","category":"68","category_name":"快餐厅","address":"浦东新区陆家嘴西路168号正大广场8楼(近东方明珠)"},{"poiid":"B2094757D169ABFB449A","title":"Lartina拉蒂娜","lon":"121.501356738","lat":"31.2362474283","category":"148","category_name":"美容美发店","address":"上海ShanghaiPudong XinquGui'er Rd"},{"poiid":"B2094757D065A0FC4099","title":"Mcdonald's","lon":"121.502280738","lat":"31.2371114467","category":"500","category_name":"未知分类","address":"上海陆家嘴国金中心LG2层"},{"poiid":"B209475DD36AA3FF449E","title":"翠华","lon":"121.502342","lat":"31.23681","category":"249","category_name":"购物服务","address":"上海市 国金"},{"poiid":"B2094757D16DA3FE4492","title":"国金52楼爵士酒吧","lon":"121.50245273","lat":"31.237055445","category":"172","category_name":"酒吧","address":"上海浦东陆家嘴国金中心"},{"poiid":"B2094757D66EA5F8459A","title":"雲南美食園","lon":"121.500679038","lat":"31.2378972635","category":"86","category_name":"火锅店","address":"上海正大廣場"},{"poiid":"B2094757D76AA1FE4599","title":"甜言物语 国金中心店 Sweet&Honey","lon":"121.50097","lat":"31.23665","category":"68","category_name":"快餐厅","address":"浦东新区世纪大道8号国金中心商场B2楼A-11、12号商铺(近浦东大道)"},{"poiid":"B2094752D364A5FA4999","title":"珍面轩香港鱼汤米线","lon":"121.502609","lat":"31.23703","category":"247","category_name":"餐饮美食","address":"上海市浦东新区世纪大道8号国金中心LG2-B8&B9"},{"poiid":"B2094757D068A5F5449D","title":"DOUNT KING多乐星(IFC店)","lon":"121.502437165","lat":"31.2363480183","category":"67","category_name":"甜品店","address":"浦东新区世纪大道8号国金中心商场LG2楼(近东泰路)"},{"poiid":"B2094750D76DA6FD4099","title":"丽思卡尔顿酒店咖啡厅","lon":"121.501","lat":"31.2366","category":"269","category_name":"烧烤","address":"世纪大道8号国金中心1楼(近陆家嘴环路)"},{"poiid":"B2094757DB64AAFC4793","title":"西树泡芙（上海IFC商场店）","lon":"121.501","lat":"31.2366","category":"249","category_name":"购物服务","address":"浦东新区世纪大道8号国金中心商场LG2楼(近浦东大道)"},{"poiid":"B2094757D46EABFF439A","title":"久留米寿司 世纪大道店","lon":"121.501318","lat":"31.236634","category":"68","category_name":"快餐厅","address":"浦东新区世纪大道8号国金中心B2楼(近东方明珠正大广场)"},{"poiid":"B2094757D16CA6FA4799","title":"fusion deli","lon":"121.50178493","lat":"31.236601675","category":"68","category_name":"快餐厅","address":"浦东新区世纪大道8号国金中心商场B2楼(近东泰路)"},{"poiid":"B2094750D66CA2F5449E","title":"IFC\\'Mortons","lon":"121.501914","lat":"31.236852","category":"247","category_name":"餐饮美食","address":null},{"poiid":"B2094757D06AA3FE499E","title":"Miu Miu(国金中心店)","lon":"121.501254696","lat":"31.2366373415","category":"141","category_name":"服装鞋帽皮具店","address":"上海浦东新区世纪大道8号国金中心商场1楼"},{"poiid":"B2094757D169A5F44993","title":"HSBC","lon":"121.50110273","lat":"31.237093446","category":"500","category_name":"未知分类","address":"上海市世纪大道8号国金中心汇丰银行大楼"},{"poiid":"B2094757D06AABF44693","title":"汇丰银行国金中心支行","lon":"121.50131973","lat":"31.236649436","category":"150","category_name":"银行","address":"浦东新区世纪大道8号国金中心汇丰银行大楼B1楼(近浦东大道)"},{"poiid":"B2094757D16EA0F84993","title":"国金中心汇丰银行大楼23楼会议室层","lon":"121.50123443","lat":"31.238291871","category":"500","category_name":"未知分类","address":"世纪大道8号上海国金中心汇丰银行大楼23楼"},{"poiid":"B2094757DB64A6FF479B","title":"LOUIS VUITTON（上海IFC商场店）","lon":"121.501","lat":"31.2366","category":"141","category_name":"服装鞋帽皮具店","address":"上海浦东新区世纪大道8号国际金融中心 上海IFC商场一层"},{"poiid":"B2094751DA6DA6FB4198","title":"上海陆家嘴国金ifc","lon":"121.501193","lat":"31.236986","category":"500","category_name":"未知分类","address":"浦东新区世纪大道8号"},{"poiid":"B2094757D16CA5FD4199","title":"延安东路隧道浦西出口","lon":"121.502583738","lat":"31.237310451","category":"500","category_name":"未知分类","address":"上海延安东路"},{"poiid":"B2094757D16EA4FB489D","title":"爱茜茜里(正大店)","lon":"121.50192","lat":"31.23782","category":"247","category_name":"餐饮美食","address":"上海浦东新区陆家嘴西路168号正大广场3楼(近东方明珠)  "},{"poiid":"B209475CD569A3FC4093","title":"乐意坊Alla Torre（陆家嘴店）","lon":"121.501086","lat":"31.236802","category":"256","category_name":"外国餐厅","address":"上海市 陆家嘴环路165号"},{"poiid":"B2094751DB6EA0F44793","title":"丽思卡尔顿行政酒廊","lon":"121.501335","lat":"31.236671","category":"247","category_name":"餐饮美食","address":"浦东新区世纪大道8号上海国金中心丽思卡尔顿酒店49楼(东泰路世纪大道)"},{"poiid":"B2094757D66EA7F4469E","title":"795终点站","lon":"121.501930838","lat":"31.2379298642","category":"38","category_name":"公交车站","address":"上海陆家嘴公交枢纽"},{"poiid":"B2094757D568A4FF469D","title":"上海X3-2大厦","lon":"121.501031","lat":"31.23666","category":"46","category_name":"楼宇","address":"中国上海市浦东新区陆家嘴环路"},{"poiid":"B2094752D46FA1FA499E","title":"上海环球金融中心柏悦酒店87楼","lon":"121.502687","lat":"31.23677","category":"500","category_name":"未知分类","address":null},{"poiid":"B2094757DB64A6FF489C","title":"卡地亚（上海IFC商场店）","lon":"121.501","lat":"31.2366","category":"131","category_name":"珠宝首饰工艺品","address":"浦东新区世纪大道8号国金中心商场1楼(近东泰路)查看地图"},{"poiid":"B2094757D16EA7FB4999","title":"可丽饼","lon":"121.501907405","lat":"31.2374637876","category":"247","category_name":"餐饮美食","address":"上海国金中心"},{"poiid":"B2094757D76AA1FE499E","title":"洋食屋寅八轩","lon":"121.501318","lat":"31.236634","category":"68","category_name":"快餐厅","address":"世纪大道8号上海国际金融中心（国金中心）内近银城中路"},{"poiid":"B2094750D76DA2FA469E","title":"Chef'sPavillion","lon":"121.501","lat":"31.2364","category":"76","category_name":"上海菜","address":"世纪大道8号上海国金中心L4铺(近浦东大道)"},{"poiid":"B2094757D169A2FF4293","title":"国金Subway","lon":"121.501939058","lat":"31.2365756753","category":"67","category_name":"甜品店","address":"上海国金中心LG2"},{"poiid":"B2094757DB64A6FF419D","title":"GODIVA Chocolatier（上海IFC商场店）","lon":"121.501","lat":"31.2366","category":"249","category_name":"购物服务","address":"上海浦东新区世纪大道8号国际金融中心 上海IFC商场地下二层"},{"poiid":"B2094757D16EAAFB449E","title":"环球赤板亭","lon":"121.50139673","lat":"31.237021444","category":"500","category_name":"未知分类","address":"上海环球三楼"},{"poiid":"B2094753D46BA5F84998","title":"小辉哥火锅","lon":"121.500999","lat":"31.236995","category":"247","category_name":"餐饮美食","address":"上海市 陆家嘴西路168号8F02A"},{"poiid":"B209475CD36CA6FF4098","title":"丽思卡尔顿酒店金轩中餐厅","lon":"121.50131","lat":"31.23663","category":"72","category_name":"广东菜","address":"世纪大道8号上海国金中心丽思卡尔顿酒店53楼(东泰路世纪大道)"},{"poiid":"B2094751D46AA2F4439A","title":"屯金拉面","lon":"121.502","lat":"31.23694","category":"247","category_name":"餐饮美食","address":null},{"poiid":"B2094757D168ABFC479B","title":"普陀图书馆11楼自习室","lon":"121.50193013","lat":"31.237076746","category":"181","category_name":"图书馆","address":"上海大渡河路1800号"},{"poiid":"B2094757D168A6FF449A","title":"GODIVA ifc","lon":"121.502779738","lat":"31.236890442","category":"500","category_name":"未知分类","address":"上海市浦东新区延安东路隧道"},{"poiid":"B2094757DB64A6FF459B","title":"ENOTECA（上海IFC商场店）","lon":"121.501","lat":"31.2366","category":"172","category_name":"酒吧","address":"上海浦东新区世纪大道8号国际金融中心 上海IFC商场四层"},{"poiid":"B2094757D165ABF5469F","title":"久留米壽司(国金店)","lon":"121.50263373","lat":"31.237031445","category":"247","category_name":"餐饮美食","address":"浦东上海国金中心LG2"},{"poiid":"B2094757D66EA7F5429C","title":"一品粥坊","lon":"121.50168273","lat":"31.23729845","category":"247","category_name":"餐饮美食","address":"上海市浦东新区浦三路"},{"poiid":"B2094757DB64A6FF459E","title":"IL Colpo(Hair&Nail)（上海IFC商场店）","lon":"121.501","lat":"31.2366","category":"150","category_name":"银行","address":"上海浦东新区世纪大道8号国际金融中心 上海IFC商场四层"},{"poiid":"B2094757D06FA5F54292","title":"百思买(正大广场店)","lon":"121.50032043","lat":"31.23698616","category":"138","category_name":"家电电子卖场","address":"上海浦东新区陆家嘴西路168号正大广场4楼(近东方明珠)  "},{"poiid":"B2094757D16EA4F54198","title":"肯德基 KFC (恒丰店)","lon":"121.50189578","lat":"31.237304702","category":"500","category_name":"未知分类","address":"上海天目西路311号"},{"poiid":"B2094757D16AA0F9469A","title":"新九龙城","lon":"121.501654738","lat":"31.2371814482","category":"252","category_name":"楼宇机构","address":"上海96广场"},{"poiid":"B2094757DB64A6FB479B","title":"bread n butter（上海IFC商场店）","lon":"121.501","lat":"31.2366","category":"141","category_name":"服装鞋帽皮具店","address":"上海浦东新区世纪大道8号国际金融中心 上海IFC商场地下二层"},{"poiid":"B2094751D268ABF5459B","title":"UGG Australia(国金店)","lon":"121.50138","lat":"31.23771","category":"141","category_name":"服装鞋帽皮具店","address":"浦东新区世纪大道8号国金中心LG1-30铺"},{"poiid":"B2094757D069A6F4409C","title":"82路陆家嘴车站","lon":"121.501826714","lat":"31.2375594948","category":"500","category_name":"未知分类","address":"上海市浦东新区世纪大道陆家嘴环路东侧"},{"poiid":"B2094752DB6AA6F9439C","title":"ISOLA","lon":"121.501471","lat":"31.23764","category":"500","category_name":"未知分类","address":"上海市 世纪大道8号上海国金中心L4楼17号铺"},{"poiid":"B2094757DB64A6FF4293","title":"麗思卡薾顿酒店（上海IFC商场店）","lon":"121.501","lat":"31.2366","category":"260","category_name":"其他","address":"上海浦东新区世纪大道8号国际金融中心 上海IFC商场一层"},{"poiid":"B2094757D064A6F84298","title":"Fusion Deli(by city super)","lon":"121.50139173","lat":"31.237614457","category":"500","category_name":"未知分类","address":"上海市浦东新区陆家嘴"},{"poiid":"B2094757DB64A6F9409E","title":"克里斯汀·迪奥（上海IFC商场店）","lon":"121.501","lat":"31.2366","category":"141","category_name":"服装鞋帽皮具店","address":"上海浦东新区世纪大道8号国际金融中心 上海IFC商场一层"},{"poiid":"B2094752D064A6F94398","title":"国金百丽宫影院","lon":"121.50112780968288","lat":"31.23641978194263","category":"178","category_name":"电影院","address":"浦东新区世纪大道8号国金中心商场B1-B2楼"},{"poiid":"B2094757DB64A6FB409D","title":"耐克（上海IFC商场店）","lon":"121.501","lat":"31.2366","category":"140","category_name":"体育用品店","address":"上海浦东新区世纪大道8号国际金融中心 上海IFC商场地下一层"},{"poiid":"B2094757D164A2FA449E","title":"iphone store","lon":"121.501789438","lat":"31.2369793439","category":"500","category_name":"未知分类","address":"上海世纪大道8号"},{"poiid":"B209475DD36EA7FD469B","title":"香奈儿上海国金中心商场精品店","lon":"121.501923","lat":"31.236729","category":"141","category_name":"服装鞋帽皮具店","address":"上海国金中心商场首层 浦东世纪大道8号"},{"poiid":"B2094757D16EA1FB499E","title":"ck Calvin Klein(国金中心店)","lon":"121.50187589","lat":"31.23666152","category":"141","category_name":"服装鞋帽皮具店","address":"上海浦东新区世纪大道8号上海国金中心B1楼"},{"poiid":"B2094757DB64A6F44292","title":"Jean Paul Gaultier（上海IFC商场店）","lon":"121.501","lat":"31.2366","category":"141","category_name":"服装鞋帽皮具店","address":"上海浦东新区世纪大道8号国际金融中心 上海IFC商场二层"},{"poiid":"B2094753D56EA7F94298","title":"Morton's","lon":"121.501518","lat":"31.237237","category":"500","category_name":"未知分类","address":"上海市 IFC"},{"poiid":"B2094751D465A2F9419D","title":"Wyoga瑜伽馆","lon":"121.502484","lat":"31.237601","category":"248","category_name":"生活娱乐","address":"上海市浦东新区世纪大道100号环球金融中心B1"},{"poiid":"B2094757DA6BA3FC459D","title":"阿迪达斯上海国金中心IFC店","lon":"121.501332","lat":"31.236883","category":"249","category_name":"购物服务","address":"上海市浦东新区世纪大道8号国金中心地下一楼"},{"poiid":"B2094757D06AABF8469B","title":"上行线(陆家嘴店)","lon":"121.50164188","lat":"31.238098941","category":"125","category_name":"书店","address":"上海浦东新区地铁二号线陆家嘴站"},{"poiid":"B2094757DB64A6FF489E","title":"杰尼亚（上海IFC商场店）","lon":"121.501","lat":"31.2366","category":"141","category_name":"服装鞋帽皮具店","address":"浦东新区世纪大道8号国金中心商场D座L1-11铺(近东泰路)"},{"poiid":"B2094757D16DABF9469E","title":"Burger King","lon":"121.50041955","lat":"31.237443289","category":"500","category_name":"未知分类","address":"上海正大广场五楼"},{"poiid":"B2094757D165A7FE459D","title":"Bros Wasabi","lon":"121.500760838","lat":"31.2378454624","category":"500","category_name":"未知分类","address":"上海市浦东新区世纪大道100号"},{"poiid":"B2094757D66EA2FA4392","title":"Cloud 9","lon":"121.501225","lat":"31.237536","category":"500","category_name":"未知分类","address":"上海88 Century Boulevard"},{"poiid":"B2094757DB64A6FA409D","title":"FRENCH CONNECTION（上海IFC商场店）","lon":"121.501","lat":"31.2366","category":"141","category_name":"服装鞋帽皮具店","address":"上海浦东新区世纪大道8号国际金融中心 上海IFC商场地下一层"},{"poiid":"B209475CDA6EA4FC4198","title":"Eva新世纪福音战士展馆","lon":"121.500442","lat":"31.237545","category":"500","category_name":"未知分类","address":"上海市 上海市浦东新区正大广场9楼"},{"poiid":"B2094757DB64A6F8449B","title":"AIX ARMANI EXCHANGE（上海IFC商场店）","lon":"121.501","lat":"31.2366","category":"141","category_name":"服装鞋帽皮具店","address":"上海浦东新区世纪大道8号国际金融中心 上海IFC商场地下一层"},{"poiid":"B2094752D168AAF8499D","title":"上海外灘","lon":"121.501607","lat":"31.237236","category":"500","category_name":"未知分类","address":null},{"poiid":"B2094757DB64A6F9499B","title":"Belford（上海IFC商场店）","lon":"121.501","lat":"31.2366","category":"141","category_name":"服装鞋帽皮具店","address":"上海浦东新区世纪大道8号国际金融中心 上海IFC商场三层"},{"poiid":"B2094757D165ABFC439E","title":"Tea Culture&amp;Art","lon":"121.50222973","lat":"31.236765439","category":"500","category_name":"未知分类","address":"上海浦东新区國金4樓"},{"poiid":"B2094757D16FABFC499E","title":"陆家嘴公交枢纽","lon":"121.501309738","lat":"31.2374604542","category":"500","category_name":"未知分类","address":"上海市浦东新区规二路"},{"poiid":"B2094757D16FA0FB479F","title":"enoteca","lon":"121.501748978","lat":"31.237125467","category":"500","category_name":"未知分类","address":"浦东新区世纪大道8号上海国金中心L4-21铺(近银城中路)"},{"poiid":"B2094757D66EA6FD459D","title":"北京中伦律师事务所","lon":"121.50194593","lat":"31.237061945","category":"623","category_name":"律师事务所","address":"上海国金中心二期10楼"},{"poiid":"B2094752D169A6F9409E","title":"金茂君悦酒店精饼屋","lon":"121.501183","lat":"31.237437","category":"247","category_name":"餐饮美食","address":null},{"poiid":"B2094757D168A6FC4999","title":"苹果专卖","lon":"121.50064773","lat":"31.236480433","category":"249","category_name":"购物服务","address":"上海市浦东新区滨江大道"},{"poiid":"B2094757D064A0FB4292","title":"799路终点站","lon":"121.501497828","lat":"31.2366510369","category":"500","category_name":"未知分类","address":"上海陆家嘴地铁站口"},{"poiid":"B2094752DB65A0F5489D","title":"上海柏悦酒店","lon":"121.50137","lat":"31.237313","category":"500","category_name":"未知分类","address":"上海市 上海浦东新区花园石桥路，东泰路"},{"poiid":"B2094757D065A3F5469B","title":"Marc by Marc Jacobs(国金店)","lon":"121.500612","lat":"31.236427","category":"500","category_name":"未知分类","address":"上海浦东新区世纪大道8号国金中心3楼L3-12"},{"poiid":"B2094750D16AABFD439D","title":"哈佛大学上海中心","lon":"121.501397","lat":"31.236839","category":"190","category_name":"培训机构","address":"浦东新区世纪大道8号上海国金中心内(近浦东大道)"},{"poiid":"B2094757D16FABFC419A","title":"LaForet","lon":"121.50183973","lat":"31.23632593","category":"500","category_name":"未知分类","address":"上海国金中心LG2"},{"poiid":"B2094757DB64AAFD409C","title":"银座名点（上海IFC商场店）","lon":"121.501","lat":"31.2366","category":"249","category_name":"购物服务","address":"上海浦东新区世纪大道8号国际金融中心 上海IFC商场地下二层"},{"poiid":"B2094757D168A4F4479B","title":"GIORGIO ARMANI(IFC)","lon":"121.50189173","lat":"31.237026444","category":"500","category_name":"未知分类","address":"上海市浦东世纪大道8号1楼23"},{"poiid":"B2094757D16DAAF8439D","title":"Clarins spa娇韵诗美妍中心","lon":"121.501481738","lat":"31.2373084509","category":"500","category_name":"未知分类","address":"上海市浦东新区国金中心LG1-60"},{"poiid":"B2094757D66DABF84698","title":"FASHION GALLERY(国金中心)","lon":"121.502342738","lat":"31.2370694459","category":"500","category_name":"未知分类","address":"上海市浦东新区世纪大道"},{"poiid":"B2094757D16CA1FE469A","title":"agnes'b","lon":"121.501652738","lat":"31.23726245","category":"500","category_name":"未知分类","address":"上海浦东新区"},{"poiid":"B2094757D16EA4F4429F","title":"Bread Talk","lon":"121.500354354","lat":"31.2368794962","category":"500","category_name":"未知分类","address":"上海浦东新区陆家嘴正大广场B2"},{"poiid":"B2094757D66DA2FB449F","title":"苹果","lon":"121.50158273","lat":"31.237243449","category":"249","category_name":"购物服务","address":"上海市浦东新区"},{"poiid":"B2094757D66EAAFC4993","title":"Bloomberg","lon":"121.50115073","lat":"31.237184448","category":"500","category_name":"未知分类","address":"上海ifc"},{"poiid":"B2094757D16BA6FF489D","title":"FANCL国金中心店","lon":"121.501945338","lat":"31.2370681458","category":"500","category_name":"未知分类","address":"上海国金中心"},{"poiid":"B2094757D16AAAFA4998","title":"DSQUARED²","lon":"121.50230578","lat":"31.236208249","category":"500","category_name":"未知分类","address":"上海IFC国金中心两楼"},{"poiid":"B2094757D66CA3F84992","title":"建设银行板泉路支行","lon":"121.50046263","lat":"31.237604557","category":"150","category_name":"银行","address":"上海上南路杨思路路口"},{"poiid":"B2094757D66DA0FB4898","title":"balmain","lon":"121.501152738","lat":"31.2379424645","category":"500","category_name":"未知分类","address":"上海IFC2楼"},{"poiid":"B2094757D06FAAF44899","title":"国金中心项目部","lon":"121.50235473","lat":"31.237162447","category":"500","category_name":"未知分类","address":"上海世纪大道8号B2层"},{"poiid":"B2094757D065A5F4469F","title":"慧俪轻体正大店","lon":"121.500324","lat":"31.236988","category":"500","category_name":"未知分类","address":"上海 陆家嘴西路168号 B1"},{"poiid":"B2094757D66FA7F4409E","title":"金融城1路","lon":"121.50156073","lat":"31.237215449","category":"500","category_name":"未知分类","address":"上海市浦东新区规二路"},{"poiid":"B2094757D66EA0FB429A","title":"上海五角场汽车销售服务有限公司(上海大众4S)","lon":"121.501275738","lat":"31.2383204725","category":"500","category_name":"未知分类","address":"杨浦区上海市杨浦区国和路800号"},{"poiid":"B2094757D66DA5FC479F","title":"PIAGET","lon":"121.50271373","lat":"31.236959443","category":"500","category_name":"未知分类","address":"上海市浦东新区世纪大道8号"},{"poiid":"B2094757D16CA4FB4599","title":"淘宝网根据地","lon":"121.50143173","lat":"31.237366452","category":"500","category_name":"未知分类","address":"上海市浦东新区国金中心"},{"poiid":"B2094757D165A3F8449F","title":"LG2服务台","lon":"121.50238273","lat":"31.237107446","category":"500","category_name":"未知分类","address":"上海浦东新区国金中心"},{"poiid":"B2094757D66EA7FE4498","title":"临时583终点站","lon":"121.50188833","lat":"31.237002544","category":"500","category_name":"未知分类","address":"上海陆家嘴天桥下面"},{"poiid":"B2094757D66EA0F9499F","title":"C.P.U","lon":"121.501546738","lat":"31.2375514561","category":"500","category_name":"未知分类","address":"上海国金LG2层"},{"poiid":"B2094757D66DA7F4429B","title":"Happy Lemon","lon":"121.50120673","lat":"31.236031423","category":"500","category_name":"未知分类","address":"上海国金中心b2"},{"poiid":"B2094757D16CA2F44792","title":"Lacoste国金店","lon":"121.501594738","lat":"31.2372984507","category":"249","category_name":"购物服务","address":"上海市浦东新区"},{"poiid":"B2094757DB64A6FA4493","title":"Links of London（上海IFC商场店）","lon":"121.501","lat":"31.2366","category":"131","category_name":"珠宝首饰工艺品","address":"上海浦东新区世纪大道8号国际金融中心 上海IFC商场地下一层"},{"poiid":"B2094757D66CA7FD4398","title":"草莓之日-sanrio特别珍藏版","lon":"121.500809638","lat":"31.2378969635","category":"249","category_name":"购物服务","address":null},{"poiid":"B2094752D16FAAFD479A","title":"金茂大厦54层咖啡厅","lon":"121.500631","lat":"31.236628","category":"627","category_name":"一般地点标志","address":null},{"poiid":"B2094757DA6EABFA4898","title":"BILLABONG(NOVO上海IFC店)","lon":"121.502432999999","lat":"31.2363450000001","category":"249","category_name":"购物服务","address":"浦东新区世纪大道8号"},{"poiid":"B2094757D16CA6F44092","title":"哆啦A梦圣诞小屋(2011圣诞限定)","lon":"121.50126116","lat":"31.2370626743","category":"260","category_name":"其他","address":"上海正大广场3楼黄金大道"}]