[{"poiid":"B2094654DB6BAAF8479D","title":"环球金融中心","lon":"121.514","lat":"31.241","category":"46","category_name":"楼宇","address":"上海市浦东新区陆家嘴世纪大道8号"},{"poiid":"B2094654DA69A7FB4599","title":"金茂大厦","lon":"121.5124569976","lat":"31.240872238236","category":"46","category_name":"楼宇","address":"浦东新区世纪大道88号金茂大厦内(近二号线陆家嘴站)"},{"poiid":"B2094654DA69AAFB4799","title":"裕景大饭店","lon":"121.52018","lat":"31.2409","category":"213","category_name":"五星级宾馆","address":"上海市浦东新区浦东大道535号(近东方路)"},{"poiid":"B209475CD564A7F84392","title":"上海滩浦东香格里拉店","lon":"121.50058","lat":"31.23634","category":"119","category_name":"商场","address":"浦东富成路33号香格里拉酒店内大堂层"},{"poiid":"B2094654DA69A7FB489A","title":"渣打银行大厦","lon":"121.516","lat":"31.2415","category":"46","category_name":"楼宇","address":"浦东区金融贸易区D3-5"},{"poiid":"B2094655D26FA5F9439B","title":"上海证券大厦","lon":"121.517707","lat":"31.241749","category":"46","category_name":"楼宇","address":"浦东新区浦东南路528号"},{"poiid":"B2094655D36DA6FE429A","title":"浦东大道","lon":"121.51984","lat":"31.24032","category":"38","category_name":"公交车站","address":""},{"poiid":"B2094757D06FA1FA4498","title":"招商局大厦","lon":"121.515135","lat":"31.242879","category":"46","category_name":"楼宇","address":"浦东新区陆家嘴东路161号"},{"poiid":"B2094757D06FA5FA479F","title":"华夏银行大厦","lon":"121.5152","lat":"31.245346","category":"46","category_name":"楼宇","address":"上海浦东新区浦东南路256号"},{"poiid":"B2094655D26AA0F9409A","title":"地铁浦东大道站","lon":"121.51984","lat":"31.24032","category":"36","category_name":"地铁站","address":""},{"poiid":"B2094757D06FA2FF4099","title":"中国保险大厦","lon":"121.516","lat":"31.2421","category":"46","category_name":"楼宇","address":"浦东临港新城主城区申港大道200号"},{"poiid":"B2094757D06FA7F44199","title":"光头烧烤吧(南泉北路店)","lon":"121.51594","lat":"31.23765","category":"68","category_name":"快餐厅","address":"浦东新区南泉北路47号(近东方医院)"},{"poiid":"B2094757D068A1FA489C","title":"其昌栈渡口","lon":"121.51963307","lat":"31.242515608","category":"500","category_name":"未知分类","address":"上海东方路滨江大道"},{"poiid":"B2094757D068AAFC469B","title":"保利广场","lon":"121.514956916","lat":"31.2433600232","category":"500","category_name":"未知分类","address":"闸北区共和新路3703,3737号"},{"poiid":"B2094655D26FA5FF479B","title":"华能联合大厦","lon":"121.515","lat":"31.245","category":"46","category_name":"楼宇","address":"朝阳华威桥东北角"},{"poiid":"B2094757D069A7F4429B","title":"浦东新舞台","lon":"121.51503","lat":"31.23892","category":"179","category_name":"音乐厅","address":"浦东新区浦东大道143号(南泉北路浦东大道)"},{"poiid":"B2094757D16CABFF429D","title":"雅典皇宫","lon":"121.51895673","lat":"31.242752567","category":"500","category_name":"未知分类","address":"上海浦东新区东方路8号(近浦东大道)  "},{"poiid":"B2094757DB69A3F44599","title":"富淳饭店 保利店","lon":"121.5189019","lat":"31.242405","category":"72","category_name":"广东菜","address":"浦东新区东方路18号保利广场E座G楼"},{"poiid":"B2094655D36DA2FB459B","title":"大连路隧道","lon":"121.51973","lat":"31.2428","category":"250","category_name":"公园户外","address":"上海市杨浦区大连路-浦东新区东方路"},{"poiid":"B2094750D66CABFB4693","title":"Mio Ita","lon":"121.517906","lat":"31.243383","category":"94","category_name":"西餐厅","address":"浦东新区东方路18号保利大厦E栋2楼"},{"poiid":"B2094757D064AAF5409A","title":"浦东陆家嘴图书馆","lon":"121.518913","lat":"31.241753","category":"181","category_name":"图书馆","address":"上海浦东新区东方路38号"},{"poiid":"B2094654DA69A1F54992","title":"金穗大厦","lon":"121.517","lat":"31.245","category":"46","category_name":"楼宇","address":"上海市奉贤区环城东路455,465弄"},{"poiid":"B2094757D068A6FD489F","title":"永华大厦","lon":"121.51416015","lat":"31.238700866","category":"46","category_name":"楼宇","address":"浦东大道138号"},{"poiid":"B2094757D06AA3FC409B","title":"浦东大道钱仓路","lon":"121.520092738","lat":"31.2396905017","category":"500","category_name":"未知分类","address":"上海浦东大道"},{"poiid":"B2094757D068A3F94192","title":"东北四季饺子王(浦东大道店)","lon":"121.51492","lat":"31.23906","category":"82","category_name":"东北菜","address":"上海浦东新区浦东大道143号甲(即墨路口)"},{"poiid":"B2094757D469A5F9409A","title":"松临日本料理 保利广场店","lon":"121.5189019","lat":"31.242405","category":"95","category_name":"日本料理","address":"浦东新区东方路18号保利广场E座2楼(近地铁四号线浦东大道站)"},{"poiid":"B2094757D068A6FC449A","title":"即墨路","lon":"121.51289367","lat":"31.239175796","category":"500","category_name":"未知分类","address":"上海即墨路"},{"poiid":"B2094757D068A5F44392","title":"裕景咖啡厅","lon":"121.52051","lat":"31.2408","category":"268","category_name":"自助","address":"浦东新区浦东大道535号裕景大饭店3楼(近东方路)"},{"poiid":"B2094757D06EAAFF4993","title":"浦电路地铁站(四号线)","lon":"121.519854","lat":"31.240301","category":"36","category_name":"地铁站","address":"上海轨道交通 四号线 轨交浦东大道站 轻轨 4"},{"poiid":"B2094757D06FAAFF4693","title":"大壶春(浦东总店)","lon":"121.51408","lat":"31.23824","category":"68","category_name":"快餐厅","address":"浦东新区浦东大道136弄4-6号(近即墨路)"},{"poiid":"B2094753D76DA4F8439D","title":"上海电影博物馆","lon":"121.520019","lat":"31.240804","category":"500","category_name":"未知分类","address":"上海市 上海电影制片厂漕溪北路595号"},{"poiid":"B2094654DA69A0FC499D","title":"荣城花苑","lon":"121.51794","lat":"31.242142","category":"47","category_name":"住宅区","address":"荣城路9弄"},{"poiid":"B2094757D068A5F8459B","title":"月亮生煎大王","lon":"121.51692","lat":"31.23806","category":"68","category_name":"快餐厅","address":"浦东新区崂山路80号101室(近浦东大道)"},{"poiid":"B2094753D76BA0FF4898","title":"伊秀手握寿司","lon":"121.520011","lat":"31.240814","category":"247","category_name":"餐饮美食","address":"上海市 上海市第一食品商店"},{"poiid":"B2094757D06AA7F8429A","title":"德兴面馆(浦东店)","lon":"121.5153","lat":"31.2387","category":"68","category_name":"快餐厅","address":"浦东新区南泉北路1号(浦东大道口)"},{"poiid":"B2094654DA69A0FD4792","title":"半岛鱼翅潮州酒楼","lon":"121.51827247863","lat":"31.24055145864","category":"72","category_name":"广东菜","address":"浦东新区浦东大道281号2楼(浦东大道荣成路)"},{"poiid":"B2094655D264ABF94793","title":"富橙投资","lon":"121.51634","lat":"31.23925","category":"46","category_name":"楼宇","address":"浦东区浦东大道288号"},{"poiid":"B2094654DA69A0FC499F","title":"荣成大厦","lon":"121.51813","lat":"31.24095","category":"47","category_name":"住宅区","address":"荣成路85弄1-2号"},{"poiid":"B2094654DA69A0FD4793","title":"东海宾馆","lon":"121.51625","lat":"31.23986","category":"215","category_name":"三星级宾馆","address":"浦东新区浦东大道281号(近东方路)"},{"poiid":"B2094757D465A3F9439D","title":"柯记港式茶餐厅","lon":"121.513903054","lat":"31.240806793","category":"72","category_name":"广东菜","address":"浦东新区昌邑路88号(近即墨路)"},{"poiid":"B2094753D668A6F54393","title":"黃記煌三汁燜鍋（第一食品商店）","lon":"121.515002","lat":"31.2428","category":"247","category_name":"餐饮美食","address":"上海市 第一食品商店"},{"poiid":"B2094654DA69A0FC4992","title":"荣城花苑(南门)","lon":"121.51731","lat":"31.24166","category":"47","category_name":"住宅区","address":"荣城路9弄"},{"poiid":"B2094757D16BA5FB439C","title":"招远二村","lon":"121.516076438","lat":"31.2414186386","category":"47","category_name":"住宅区","address":"上海陆家嘴招远路即墨路"},{"poiid":"B2094757D164A2F9429C","title":"光头烧烤","lon":"121.51228","lat":"31.24018","category":"68","category_name":"快餐厅","address":"浦东新区崂山路47号(东昌电影院)"},{"poiid":"B2094654DA69A0FC499C","title":"荣成大厦(西门)","lon":"121.51765","lat":"31.24108","category":"47","category_name":"住宅区","address":"荣成路85弄1-2号"},{"poiid":"B2094757D16CA6F44992","title":"昌邑小区","lon":"121.51673","lat":"31.240412","category":"47","category_name":"住宅区","address":"上海市浦东新区浦东大道荣城路"},{"poiid":"B2094654DB6BAAFE429E","title":"红辣椒 浦东店","lon":"121.51873393805","lat":"31.240492205441","category":"257","category_name":"中餐厅","address":"浦东大道279号东海宾馆底层近东方路"},{"poiid":"B2094654DA69A0FC479F","title":"浦江茗园","lon":"121.5135","lat":"31.241152","category":"47","category_name":"住宅区","address":"上海市浦东新区昌邑路55弄"},{"poiid":"B2094757D16DA7FD4192","title":"荣成小区","lon":"121.51881","lat":"31.240702","category":"47","category_name":"住宅区","address":"上海浦东新区浦东大道501弄"},{"poiid":"B2094757D464A7FD4298","title":"御庭","lon":"121.519856064","lat":"31.242143345783","category":"72","category_name":"广东菜","address":"浦东新区浦东大道535号裕景大饭店5楼(近东方路)"},{"poiid":"B2094654DB6BAAF8479D","title":"环球金融中心","lon":"121.514","lat":"31.241","category":"46","category_name":"楼宇","address":"上海市浦东新区陆家嘴世纪大道8号"},{"poiid":"B2094654DA69A7FB4599","title":"金茂大厦","lon":"121.5124569976","lat":"31.240872238236","category":"46","category_name":"楼宇","address":"浦东新区世纪大道88号金茂大厦内(近二号线陆家嘴站)"},{"poiid":"B2094654DA69AAFB4799","title":"裕景大饭店","lon":"121.52018","lat":"31.2409","category":"213","category_name":"五星级宾馆","address":"上海市浦东新区浦东大道535号(近东方路)"},{"poiid":"B209475CD564A7F84392","title":"上海滩浦东香格里拉店","lon":"121.50058","lat":"31.23634","category":"119","category_name":"商场","address":"浦东富成路33号香格里拉酒店内大堂层"},{"poiid":"B2094654DA69A7FB489A","title":"渣打银行大厦","lon":"121.516","lat":"31.2415","category":"46","category_name":"楼宇","address":"浦东区金融贸易区D3-5"},{"poiid":"B2094655D26FA5F9439B","title":"上海证券大厦","lon":"121.517707","lat":"31.241749","category":"46","category_name":"楼宇","address":"浦东新区浦东南路528号"},{"poiid":"B2094655D36DA6FE429A","title":"浦东大道","lon":"121.51984","lat":"31.24032","category":"38","category_name":"公交车站","address":""},{"poiid":"B2094757D06FA1FA4498","title":"招商局大厦","lon":"121.515135","lat":"31.242879","category":"46","category_name":"楼宇","address":"浦东新区陆家嘴东路161号"},{"poiid":"B2094757D06FA5FA479F","title":"华夏银行大厦","lon":"121.5152","lat":"31.245346","category":"46","category_name":"楼宇","address":"上海浦东新区浦东南路256号"},{"poiid":"B2094655D26AA0F9409A","title":"地铁浦东大道站","lon":"121.51984","lat":"31.24032","category":"36","category_name":"地铁站","address":""},{"poiid":"B2094757D06FA2FF4099","title":"中国保险大厦","lon":"121.516","lat":"31.2421","category":"46","category_name":"楼宇","address":"浦东临港新城主城区申港大道200号"},{"poiid":"B2094757D06FA7F44199","title":"光头烧烤吧(南泉北路店)","lon":"121.51594","lat":"31.23765","category":"68","category_name":"快餐厅","address":"浦东新区南泉北路47号(近东方医院)"},{"poiid":"B2094757D068A1FA489C","title":"其昌栈渡口","lon":"121.51963307","lat":"31.242515608","category":"500","category_name":"未知分类","address":"上海东方路滨江大道"},{"poiid":"B2094757D068AAFC469B","title":"保利广场","lon":"121.514956916","lat":"31.2433600232","category":"500","category_name":"未知分类","address":"闸北区共和新路3703,3737号"},{"poiid":"B2094655D26FA5FF479B","title":"华能联合大厦","lon":"121.515","lat":"31.245","category":"46","category_name":"楼宇","address":"朝阳华威桥东北角"},{"poiid":"B2094757D069A7F4429B","title":"浦东新舞台","lon":"121.51503","lat":"31.23892","category":"179","category_name":"音乐厅","address":"浦东新区浦东大道143号(南泉北路浦东大道)"},{"poiid":"B2094757D16CABFF429D","title":"雅典皇宫","lon":"121.51895673","lat":"31.242752567","category":"500","category_name":"未知分类","address":"上海浦东新区东方路8号(近浦东大道)  "},{"poiid":"B2094757DB69A3F44599","title":"富淳饭店 保利店","lon":"121.5189019","lat":"31.242405","category":"72","category_name":"广东菜","address":"浦东新区东方路18号保利广场E座G楼"},{"poiid":"B2094655D36DA2FB459B","title":"大连路隧道","lon":"121.51973","lat":"31.2428","category":"250","category_name":"公园户外","address":"上海市杨浦区大连路-浦东新区东方路"},{"poiid":"B2094750D66CABFB4693","title":"Mio Ita","lon":"121.517906","lat":"31.243383","category":"94","category_name":"西餐厅","address":"浦东新区东方路18号保利大厦E栋2楼"},{"poiid":"B2094757D064AAF5409A","title":"浦东陆家嘴图书馆","lon":"121.518913","lat":"31.241753","category":"181","category_name":"图书馆","address":"上海浦东新区东方路38号"},{"poiid":"B2094654DA69A1F54992","title":"金穗大厦","lon":"121.517","lat":"31.245","category":"46","category_name":"楼宇","address":"上海市奉贤区环城东路455,465弄"},{"poiid":"B2094757D068A6FD489F","title":"永华大厦","lon":"121.51416015","lat":"31.238700866","category":"46","category_name":"楼宇","address":"浦东大道138号"},{"poiid":"B2094757D06AA3FC409B","title":"浦东大道钱仓路","lon":"121.520092738","lat":"31.2396905017","category":"500","category_name":"未知分类","address":"上海浦东大道"},{"poiid":"B2094757D068A3F94192","title":"东北四季饺子王(浦东大道店)","lon":"121.51492","lat":"31.23906","category":"82","category_name":"东北菜","address":"上海浦东新区浦东大道143号甲(即墨路口)"},{"poiid":"B2094757D469A5F9409A","title":"松临日本料理 保利广场店","lon":"121.5189019","lat":"31.242405","category":"95","category_name":"日本料理","address":"浦东新区东方路18号保利广场E座2楼(近地铁四号线浦东大道站)"},{"poiid":"B2094757D068A6FC449A","title":"即墨路","lon":"121.51289367","lat":"31.239175796","category":"500","category_name":"未知分类","address":"上海即墨路"},{"poiid":"B2094757D068A5F44392","title":"裕景咖啡厅","lon":"121.52051","lat":"31.2408","category":"268","category_name":"自助","address":"浦东新区浦东大道535号裕景大饭店3楼(近东方路)"},{"poiid":"B2094757D06EAAFF4993","title":"浦电路地铁站(四号线)","lon":"121.519854","lat":"31.240301","category":"36","category_name":"地铁站","address":"上海轨道交通 四号线 轨交浦东大道站 轻轨 4"},{"poiid":"B2094757D06FAAFF4693","title":"大壶春(浦东总店)","lon":"121.51408","lat":"31.23824","category":"68","category_name":"快餐厅","address":"浦东新区浦东大道136弄4-6号(近即墨路)"},{"poiid":"B2094753D76DA4F8439D","title":"上海电影博物馆","lon":"121.520019","lat":"31.240804","category":"500","category_name":"未知分类","address":"上海市 上海电影制片厂漕溪北路595号"},{"poiid":"B2094654DA69A0FC499D","title":"荣城花苑","lon":"121.51794","lat":"31.242142","category":"47","category_name":"住宅区","address":"荣城路9弄"},{"poiid":"B2094757D068A5F8459B","title":"月亮生煎大王","lon":"121.51692","lat":"31.23806","category":"68","category_name":"快餐厅","address":"浦东新区崂山路80号101室(近浦东大道)"},{"poiid":"B2094753D76BA0FF4898","title":"伊秀手握寿司","lon":"121.520011","lat":"31.240814","category":"247","category_name":"餐饮美食","address":"上海市 上海市第一食品商店"},{"poiid":"B2094757D06AA7F8429A","title":"德兴面馆(浦东店)","lon":"121.5153","lat":"31.2387","category":"68","category_name":"快餐厅","address":"浦东新区南泉北路1号(浦东大道口)"},{"poiid":"B2094654DA69A0FD4792","title":"半岛鱼翅潮州酒楼","lon":"121.51827247863","lat":"31.24055145864","category":"72","category_name":"广东菜","address":"浦东新区浦东大道281号2楼(浦东大道荣成路)"},{"poiid":"B2094655D264ABF94793","title":"富橙投资","lon":"121.51634","lat":"31.23925","category":"46","category_name":"楼宇","address":"浦东区浦东大道288号"},{"poiid":"B2094654DA69A0FC499F","title":"荣成大厦","lon":"121.51813","lat":"31.24095","category":"47","category_name":"住宅区","address":"荣成路85弄1-2号"},{"poiid":"B2094654DA69A0FD4793","title":"东海宾馆","lon":"121.51625","lat":"31.23986","category":"215","category_name":"三星级宾馆","address":"浦东新区浦东大道281号(近东方路)"},{"poiid":"B2094757D465A3F9439D","title":"柯记港式茶餐厅","lon":"121.513903054","lat":"31.240806793","category":"72","category_name":"广东菜","address":"浦东新区昌邑路88号(近即墨路)"},{"poiid":"B2094753D668A6F54393","title":"黃記煌三汁燜鍋（第一食品商店）","lon":"121.515002","lat":"31.2428","category":"247","category_name":"餐饮美食","address":"上海市 第一食品商店"},{"poiid":"B2094654DA69A0FC4992","title":"荣城花苑(南门)","lon":"121.51731","lat":"31.24166","category":"47","category_name":"住宅区","address":"荣城路9弄"},{"poiid":"B2094757D16BA5FB439C","title":"招远二村","lon":"121.516076438","lat":"31.2414186386","category":"47","category_name":"住宅区","address":"上海陆家嘴招远路即墨路"},{"poiid":"B2094757D164A2F9429C","title":"光头烧烤","lon":"121.51228","lat":"31.24018","category":"68","category_name":"快餐厅","address":"浦东新区崂山路47号(东昌电影院)"},{"poiid":"B2094654DA69A0FC499C","title":"荣成大厦(西门)","lon":"121.51765","lat":"31.24108","category":"47","category_name":"住宅区","address":"荣成路85弄1-2号"},{"poiid":"B2094757D16CA6F44992","title":"昌邑小区","lon":"121.51673","lat":"31.240412","category":"47","category_name":"住宅区","address":"上海市浦东新区浦东大道荣城路"},{"poiid":"B2094654DB6BAAFE429E","title":"红辣椒 浦东店","lon":"121.51873393805","lat":"31.240492205441","category":"257","category_name":"中餐厅","address":"浦东大道279号东海宾馆底层近东方路"},{"poiid":"B2094654DA69A0FC479F","title":"浦江茗园","lon":"121.5135","lat":"31.241152","category":"47","category_name":"住宅区","address":"上海市浦东新区昌邑路55弄"},{"poiid":"B2094757D16DA7FD4192","title":"荣成小区","lon":"121.51881","lat":"31.240702","category":"47","category_name":"住宅区","address":"上海浦东新区浦东大道501弄"},{"poiid":"B2094757D464A7FD4298","title":"御庭","lon":"121.519856064","lat":"31.242143345783","category":"72","category_name":"广东菜","address":"浦东新区浦东大道535号裕景大饭店5楼(近东方路)"},{"poiid":"B2094654DB6BAAF8479D","title":"环球金融中心","lon":"121.514","lat":"31.241","category":"46","category_name":"楼宇","address":"上海市浦东新区陆家嘴世纪大道8号"},{"poiid":"B2094654DA69A7FB4599","title":"金茂大厦","lon":"121.5124569976","lat":"31.240872238236","category":"46","category_name":"楼宇","address":"浦东新区世纪大道88号金茂大厦内(近二号线陆家嘴站)"},{"poiid":"B2094654DA69AAFB4799","title":"裕景大饭店","lon":"121.52018","lat":"31.2409","category":"213","category_name":"五星级宾馆","address":"上海市浦东新区浦东大道535号(近东方路)"},{"poiid":"B209475CD564A7F84392","title":"上海滩浦东香格里拉店","lon":"121.50058","lat":"31.23634","category":"119","category_name":"商场","address":"浦东富成路33号香格里拉酒店内大堂层"},{"poiid":"B2094654DA69A7FB489A","title":"渣打银行大厦","lon":"121.516","lat":"31.2415","category":"46","category_name":"楼宇","address":"浦东区金融贸易区D3-5"},{"poiid":"B2094655D26FA5F9439B","title":"上海证券大厦","lon":"121.517707","lat":"31.241749","category":"46","category_name":"楼宇","address":"浦东新区浦东南路528号"},{"poiid":"B2094655D36DA6FE429A","title":"浦东大道","lon":"121.51984","lat":"31.24032","category":"38","category_name":"公交车站","address":""},{"poiid":"B2094757D06FA1FA4498","title":"招商局大厦","lon":"121.515135","lat":"31.242879","category":"46","category_name":"楼宇","address":"浦东新区陆家嘴东路161号"},{"poiid":"B2094757D06FA5FA479F","title":"华夏银行大厦","lon":"121.5152","lat":"31.245346","category":"46","category_name":"楼宇","address":"上海浦东新区浦东南路256号"},{"poiid":"B2094655D26AA0F9409A","title":"地铁浦东大道站","lon":"121.51984","lat":"31.24032","category":"36","category_name":"地铁站","address":""},{"poiid":"B2094757D06FA2FF4099","title":"中国保险大厦","lon":"121.516","lat":"31.2421","category":"46","category_name":"楼宇","address":"浦东临港新城主城区申港大道200号"},{"poiid":"B2094757D06FA7F44199","title":"光头烧烤吧(南泉北路店)","lon":"121.51594","lat":"31.23765","category":"68","category_name":"快餐厅","address":"浦东新区南泉北路47号(近东方医院)"},{"poiid":"B2094757D068A1FA489C","title":"其昌栈渡口","lon":"121.51963307","lat":"31.242515608","category":"500","category_name":"未知分类","address":"上海东方路滨江大道"},{"poiid":"B2094757D068AAFC469B","title":"保利广场","lon":"121.514956916","lat":"31.2433600232","category":"500","category_name":"未知分类","address":"闸北区共和新路3703,3737号"},{"poiid":"B2094655D26FA5FF479B","title":"华能联合大厦","lon":"121.515","lat":"31.245","category":"46","category_name":"楼宇","address":"朝阳华威桥东北角"},{"poiid":"B2094757D069A7F4429B","title":"浦东新舞台","lon":"121.51503","lat":"31.23892","category":"179","category_name":"音乐厅","address":"浦东新区浦东大道143号(南泉北路浦东大道)"},{"poiid":"B2094757D16CABFF429D","title":"雅典皇宫","lon":"121.51895673","lat":"31.242752567","category":"500","category_name":"未知分类","address":"上海浦东新区东方路8号(近浦东大道)  "},{"poiid":"B2094757DB69A3F44599","title":"富淳饭店 保利店","lon":"121.5189019","lat":"31.242405","category":"72","category_name":"广东菜","address":"浦东新区东方路18号保利广场E座G楼"},{"poiid":"B2094655D36DA2FB459B","title":"大连路隧道","lon":"121.51973","lat":"31.2428","category":"250","category_name":"公园户外","address":"上海市杨浦区大连路-浦东新区东方路"},{"poiid":"B2094750D66CABFB4693","title":"Mio Ita","lon":"121.517906","lat":"31.243383","category":"94","category_name":"西餐厅","address":"浦东新区东方路18号保利大厦E栋2楼"},{"poiid":"B2094757D064AAF5409A","title":"浦东陆家嘴图书馆","lon":"121.518913","lat":"31.241753","category":"181","category_name":"图书馆","address":"上海浦东新区东方路38号"},{"poiid":"B2094654DA69A1F54992","title":"金穗大厦","lon":"121.517","lat":"31.245","category":"46","category_name":"楼宇","address":"上海市奉贤区环城东路455,465弄"},{"poiid":"B2094757D068A6FD489F","title":"永华大厦","lon":"121.51416015","lat":"31.238700866","category":"46","category_name":"楼宇","address":"浦东大道138号"},{"poiid":"B2094757D06AA3FC409B","title":"浦东大道钱仓路","lon":"121.520092738","lat":"31.2396905017","category":"500","category_name":"未知分类","address":"上海浦东大道"},{"poiid":"B2094757D068A3F94192","title":"东北四季饺子王(浦东大道店)","lon":"121.51492","lat":"31.23906","category":"82","category_name":"东北菜","address":"上海浦东新区浦东大道143号甲(即墨路口)"},{"poiid":"B2094757D469A5F9409A","title":"松临日本料理 保利广场店","lon":"121.5189019","lat":"31.242405","category":"95","category_name":"日本料理","address":"浦东新区东方路18号保利广场E座2楼(近地铁四号线浦东大道站)"},{"poiid":"B2094757D068A6FC449A","title":"即墨路","lon":"121.51289367","lat":"31.239175796","category":"500","category_name":"未知分类","address":"上海即墨路"},{"poiid":"B2094757D068A5F44392","title":"裕景咖啡厅","lon":"121.52051","lat":"31.2408","category":"268","category_name":"自助","address":"浦东新区浦东大道535号裕景大饭店3楼(近东方路)"},{"poiid":"B2094757D06EAAFF4993","title":"浦电路地铁站(四号线)","lon":"121.519854","lat":"31.240301","category":"36","category_name":"地铁站","address":"上海轨道交通 四号线 轨交浦东大道站 轻轨 4"},{"poiid":"B2094757D06FAAFF4693","title":"大壶春(浦东总店)","lon":"121.51408","lat":"31.23824","category":"68","category_name":"快餐厅","address":"浦东新区浦东大道136弄4-6号(近即墨路)"},{"poiid":"B2094753D76DA4F8439D","title":"上海电影博物馆","lon":"121.520019","lat":"31.240804","category":"500","category_name":"未知分类","address":"上海市 上海电影制片厂漕溪北路595号"},{"poiid":"B2094654DA69A0FC499D","title":"荣城花苑","lon":"121.51794","lat":"31.242142","category":"47","category_name":"住宅区","address":"荣城路9弄"},{"poiid":"B2094757D068A5F8459B","title":"月亮生煎大王","lon":"121.51692","lat":"31.23806","category":"68","category_name":"快餐厅","address":"浦东新区崂山路80号101室(近浦东大道)"},{"poiid":"B2094753D76BA0FF4898","title":"伊秀手握寿司","lon":"121.520011","lat":"31.240814","category":"247","category_name":"餐饮美食","address":"上海市 上海市第一食品商店"},{"poiid":"B2094757D06AA7F8429A","title":"德兴面馆(浦东店)","lon":"121.5153","lat":"31.2387","category":"68","category_name":"快餐厅","address":"浦东新区南泉北路1号(浦东大道口)"},{"poiid":"B2094654DA69A0FD4792","title":"半岛鱼翅潮州酒楼","lon":"121.51827247863","lat":"31.24055145864","category":"72","category_name":"广东菜","address":"浦东新区浦东大道281号2楼(浦东大道荣成路)"},{"poiid":"B2094655D264ABF94793","title":"富橙投资","lon":"121.51634","lat":"31.23925","category":"46","category_name":"楼宇","address":"浦东区浦东大道288号"},{"poiid":"B2094654DA69A0FC499F","title":"荣成大厦","lon":"121.51813","lat":"31.24095","category":"47","category_name":"住宅区","address":"荣成路85弄1-2号"},{"poiid":"B2094654DA69A0FD4793","title":"东海宾馆","lon":"121.51625","lat":"31.23986","category":"215","category_name":"三星级宾馆","address":"浦东新区浦东大道281号(近东方路)"},{"poiid":"B2094757D465A3F9439D","title":"柯记港式茶餐厅","lon":"121.513903054","lat":"31.240806793","category":"72","category_name":"广东菜","address":"浦东新区昌邑路88号(近即墨路)"},{"poiid":"B2094753D668A6F54393","title":"黃記煌三汁燜鍋（第一食品商店）","lon":"121.515002","lat":"31.2428","category":"247","category_name":"餐饮美食","address":"上海市 第一食品商店"},{"poiid":"B2094654DA69A0FC4992","title":"荣城花苑(南门)","lon":"121.51731","lat":"31.24166","category":"47","category_name":"住宅区","address":"荣城路9弄"},{"poiid":"B2094757D16BA5FB439C","title":"招远二村","lon":"121.516076438","lat":"31.2414186386","category":"47","category_name":"住宅区","address":"上海陆家嘴招远路即墨路"},{"poiid":"B2094757D164A2F9429C","title":"光头烧烤","lon":"121.51228","lat":"31.24018","category":"68","category_name":"快餐厅","address":"浦东新区崂山路47号(东昌电影院)"},{"poiid":"B2094654DA69A0FC499C","title":"荣成大厦(西门)","lon":"121.51765","lat":"31.24108","category":"47","category_name":"住宅区","address":"荣成路85弄1-2号"},{"poiid":"B2094757D16CA6F44992","title":"昌邑小区","lon":"121.51673","lat":"31.240412","category":"47","category_name":"住宅区","address":"上海市浦东新区浦东大道荣城路"},{"poiid":"B2094654DB6BAAFE429E","title":"红辣椒 浦东店","lon":"121.51873393805","lat":"31.240492205441","category":"257","category_name":"中餐厅","address":"浦东大道279号东海宾馆底层近东方路"},{"poiid":"B2094654DA69A0FC479F","title":"浦江茗园","lon":"121.5135","lat":"31.241152","category":"47","category_name":"住宅区","address":"上海市浦东新区昌邑路55弄"},{"poiid":"B2094757D16DA7FD4192","title":"荣成小区","lon":"121.51881","lat":"31.240702","category":"47","category_name":"住宅区","address":"上海浦东新区浦东大道501弄"},{"poiid":"B2094757D464A7FD4298","title":"御庭","lon":"121.519856064","lat":"31.242143345783","category":"72","category_name":"广东菜","address":"浦东新区浦东大道535号裕景大饭店5楼(近东方路)"},{"poiid":"B2094654DB6BAAF8479D","title":"环球金融中心","lon":"121.514","lat":"31.241","category":"46","category_name":"楼宇","address":"上海市浦东新区陆家嘴世纪大道8号"},{"poiid":"B2094654DA69A7FB4599","title":"金茂大厦","lon":"121.5124569976","lat":"31.240872238236","category":"46","category_name":"楼宇","address":"浦东新区世纪大道88号金茂大厦内(近二号线陆家嘴站)"},{"poiid":"B2094654DA69AAFB4799","title":"裕景大饭店","lon":"121.52018","lat":"31.2409","category":"213","category_name":"五星级宾馆","address":"上海市浦东新区浦东大道535号(近东方路)"},{"poiid":"B209475CD564A7F84392","title":"上海滩浦东香格里拉店","lon":"121.50058","lat":"31.23634","category":"119","category_name":"商场","address":"浦东富成路33号香格里拉酒店内大堂层"},{"poiid":"B2094654DA69A7FB489A","title":"渣打银行大厦","lon":"121.516","lat":"31.2415","category":"46","category_name":"楼宇","address":"浦东区金融贸易区D3-5"},{"poiid":"B2094655D26FA5F9439B","title":"上海证券大厦","lon":"121.517707","lat":"31.241749","category":"46","category_name":"楼宇","address":"浦东新区浦东南路528号"},{"poiid":"B2094655D36DA6FE429A","title":"浦东大道","lon":"121.51984","lat":"31.24032","category":"38","category_name":"公交车站","address":""},{"poiid":"B2094757D06FA1FA4498","title":"招商局大厦","lon":"121.515135","lat":"31.242879","category":"46","category_name":"楼宇","address":"浦东新区陆家嘴东路161号"},{"poiid":"B2094757D06FA5FA479F","title":"华夏银行大厦","lon":"121.5152","lat":"31.245346","category":"46","category_name":"楼宇","address":"上海浦东新区浦东南路256号"},{"poiid":"B2094655D26AA0F9409A","title":"地铁浦东大道站","lon":"121.51984","lat":"31.24032","category":"36","category_name":"地铁站","address":""},{"poiid":"B2094757D06FA2FF4099","title":"中国保险大厦","lon":"121.516","lat":"31.2421","category":"46","category_name":"楼宇","address":"浦东临港新城主城区申港大道200号"},{"poiid":"B2094757D06FA7F44199","title":"光头烧烤吧(南泉北路店)","lon":"121.51594","lat":"31.23765","category":"68","category_name":"快餐厅","address":"浦东新区南泉北路47号(近东方医院)"},{"poiid":"B2094757D068A1FA489C","title":"其昌栈渡口","lon":"121.51963307","lat":"31.242515608","category":"500","category_name":"未知分类","address":"上海东方路滨江大道"},{"poiid":"B2094757D068AAFC469B","title":"保利广场","lon":"121.514956916","lat":"31.2433600232","category":"500","category_name":"未知分类","address":"闸北区共和新路3703,3737号"},{"poiid":"B2094655D26FA5FF479B","title":"华能联合大厦","lon":"121.515","lat":"31.245","category":"46","category_name":"楼宇","address":"朝阳华威桥东北角"},{"poiid":"B2094757D069A7F4429B","title":"浦东新舞台","lon":"121.51503","lat":"31.23892","category":"179","category_name":"音乐厅","address":"浦东新区浦东大道143号(南泉北路浦东大道)"},{"poiid":"B2094757D16CABFF429D","title":"雅典皇宫","lon":"121.51895673","lat":"31.242752567","category":"500","category_name":"未知分类","address":"上海浦东新区东方路8号(近浦东大道)  "},{"poiid":"B2094757DB69A3F44599","title":"富淳饭店 保利店","lon":"121.5189019","lat":"31.242405","category":"72","category_name":"广东菜","address":"浦东新区东方路18号保利广场E座G楼"},{"poiid":"B2094655D36DA2FB459B","title":"大连路隧道","lon":"121.51973","lat":"31.2428","category":"250","category_name":"公园户外","address":"上海市杨浦区大连路-浦东新区东方路"},{"poiid":"B2094750D66CABFB4693","title":"Mio Ita","lon":"121.517906","lat":"31.243383","category":"94","category_name":"西餐厅","address":"浦东新区东方路18号保利大厦E栋2楼"},{"poiid":"B2094757D064AAF5409A","title":"浦东陆家嘴图书馆","lon":"121.518913","lat":"31.241753","category":"181","category_name":"图书馆","address":"上海浦东新区东方路38号"},{"poiid":"B2094654DA69A1F54992","title":"金穗大厦","lon":"121.517","lat":"31.245","category":"46","category_name":"楼宇","address":"上海市奉贤区环城东路455,465弄"},{"poiid":"B2094757D068A6FD489F","title":"永华大厦","lon":"121.51416015","lat":"31.238700866","category":"46","category_name":"楼宇","address":"浦东大道138号"},{"poiid":"B2094757D06AA3FC409B","title":"浦东大道钱仓路","lon":"121.520092738","lat":"31.2396905017","category":"500","category_name":"未知分类","address":"上海浦东大道"},{"poiid":"B2094757D068A3F94192","title":"东北四季饺子王(浦东大道店)","lon":"121.51492","lat":"31.23906","category":"82","category_name":"东北菜","address":"上海浦东新区浦东大道143号甲(即墨路口)"},{"poiid":"B2094757D469A5F9409A","title":"松临日本料理 保利广场店","lon":"121.5189019","lat":"31.242405","category":"95","category_name":"日本料理","address":"浦东新区东方路18号保利广场E座2楼(近地铁四号线浦东大道站)"},{"poiid":"B2094757D068A6FC449A","title":"即墨路","lon":"121.51289367","lat":"31.239175796","category":"500","category_name":"未知分类","address":"上海即墨路"},{"poiid":"B2094757D068A5F44392","title":"裕景咖啡厅","lon":"121.52051","lat":"31.2408","category":"268","category_name":"自助","address":"浦东新区浦东大道535号裕景大饭店3楼(近东方路)"},{"poiid":"B2094757D06EAAFF4993","title":"浦电路地铁站(四号线)","lon":"121.519854","lat":"31.240301","category":"36","category_name":"地铁站","address":"上海轨道交通 四号线 轨交浦东大道站 轻轨 4"},{"poiid":"B2094757D06FAAFF4693","title":"大壶春(浦东总店)","lon":"121.51408","lat":"31.23824","category":"68","category_name":"快餐厅","address":"浦东新区浦东大道136弄4-6号(近即墨路)"},{"poiid":"B2094753D76DA4F8439D","title":"上海电影博物馆","lon":"121.520019","lat":"31.240804","category":"500","category_name":"未知分类","address":"上海市 上海电影制片厂漕溪北路595号"},{"poiid":"B2094654DA69A0FC499D","title":"荣城花苑","lon":"121.51794","lat":"31.242142","category":"47","category_name":"住宅区","address":"荣城路9弄"},{"poiid":"B2094757D068A5F8459B","title":"月亮生煎大王","lon":"121.51692","lat":"31.23806","category":"68","category_name":"快餐厅","address":"浦东新区崂山路80号101室(近浦东大道)"},{"poiid":"B2094753D76BA0FF4898","title":"伊秀手握寿司","lon":"121.520011","lat":"31.240814","category":"247","category_name":"餐饮美食","address":"上海市 上海市第一食品商店"},{"poiid":"B2094757D06AA7F8429A","title":"德兴面馆(浦东店)","lon":"121.5153","lat":"31.2387","category":"68","category_name":"快餐厅","address":"浦东新区南泉北路1号(浦东大道口)"},{"poiid":"B2094654DA69A0FD4792","title":"半岛鱼翅潮州酒楼","lon":"121.51827247863","lat":"31.24055145864","category":"72","category_name":"广东菜","address":"浦东新区浦东大道281号2楼(浦东大道荣成路)"},{"poiid":"B2094655D264ABF94793","title":"富橙投资","lon":"121.51634","lat":"31.23925","category":"46","category_name":"楼宇","address":"浦东区浦东大道288号"},{"poiid":"B2094654DA69A0FC499F","title":"荣成大厦","lon":"121.51813","lat":"31.24095","category":"47","category_name":"住宅区","address":"荣成路85弄1-2号"},{"poiid":"B2094654DA69A0FD4793","title":"东海宾馆","lon":"121.51625","lat":"31.23986","category":"215","category_name":"三星级宾馆","address":"浦东新区浦东大道281号(近东方路)"},{"poiid":"B2094757D465A3F9439D","title":"柯记港式茶餐厅","lon":"121.513903054","lat":"31.240806793","category":"72","category_name":"广东菜","address":"浦东新区昌邑路88号(近即墨路)"},{"poiid":"B2094753D668A6F54393","title":"黃記煌三汁燜鍋（第一食品商店）","lon":"121.515002","lat":"31.2428","category":"247","category_name":"餐饮美食","address":"上海市 第一食品商店"},{"poiid":"B2094654DA69A0FC4992","title":"荣城花苑(南门)","lon":"121.51731","lat":"31.24166","category":"47","category_name":"住宅区","address":"荣城路9弄"},{"poiid":"B2094757D16BA5FB439C","title":"招远二村","lon":"121.516076438","lat":"31.2414186386","category":"47","category_name":"住宅区","address":"上海陆家嘴招远路即墨路"},{"poiid":"B2094757D164A2F9429C","title":"光头烧烤","lon":"121.51228","lat":"31.24018","category":"68","category_name":"快餐厅","address":"浦东新区崂山路47号(东昌电影院)"},{"poiid":"B2094654DA69A0FC499C","title":"荣成大厦(西门)","lon":"121.51765","lat":"31.24108","category":"47","category_name":"住宅区","address":"荣成路85弄1-2号"},{"poiid":"B2094757D16CA6F44992","title":"昌邑小区","lon":"121.51673","lat":"31.240412","category":"47","category_name":"住宅区","address":"上海市浦东新区浦东大道荣城路"},{"poiid":"B2094654DB6BAAFE429E","title":"红辣椒 浦东店","lon":"121.51873393805","lat":"31.240492205441","category":"257","category_name":"中餐厅","address":"浦东大道279号东海宾馆底层近东方路"},{"poiid":"B2094654DA69A0FC479F","title":"浦江茗园","lon":"121.5135","lat":"31.241152","category":"47","category_name":"住宅区","address":"上海市浦东新区昌邑路55弄"},{"poiid":"B2094757D16DA7FD4192","title":"荣成小区","lon":"121.51881","lat":"31.240702","category":"47","category_name":"住宅区","address":"上海浦东新区浦东大道501弄"},{"poiid":"B2094757D464A7FD4298","title":"御庭","lon":"121.519856064","lat":"31.242143345783","category":"72","category_name":"广东菜","address":"浦东新区浦东大道535号裕景大饭店5楼(近东方路)"},{"poiid":"B2094654DB6BAAF8479D","title":"环球金融中心","lon":"121.514","lat":"31.241","category":"46","category_name":"楼宇","address":"上海市浦东新区陆家嘴世纪大道8号"},{"poiid":"B2094654DA69A7FB4599","title":"金茂大厦","lon":"121.5124569976","lat":"31.240872238236","category":"46","category_name":"楼宇","address":"浦东新区世纪大道88号金茂大厦内(近二号线陆家嘴站)"},{"poiid":"B2094654DA69AAFB4799","title":"裕景大饭店","lon":"121.52018","lat":"31.2409","category":"213","category_name":"五星级宾馆","address":"上海市浦东新区浦东大道535号(近东方路)"},{"poiid":"B209475CD564A7F84392","title":"上海滩浦东香格里拉店","lon":"121.50058","lat":"31.23634","category":"119","category_name":"商场","address":"浦东富成路33号香格里拉酒店内大堂层"},{"poiid":"B2094654DA69A7FB489A","title":"渣打银行大厦","lon":"121.516","lat":"31.2415","category":"46","category_name":"楼宇","address":"浦东区金融贸易区D3-5"},{"poiid":"B2094655D26FA5F9439B","title":"上海证券大厦","lon":"121.517707","lat":"31.241749","category":"46","category_name":"楼宇","address":"浦东新区浦东南路528号"},{"poiid":"B2094655D36DA6FE429A","title":"浦东大道","lon":"121.51984","lat":"31.24032","category":"38","category_name":"公交车站","address":""},{"poiid":"B2094757D06FA1FA4498","title":"招商局大厦","lon":"121.515135","lat":"31.242879","category":"46","category_name":"楼宇","address":"浦东新区陆家嘴东路161号"},{"poiid":"B2094757D06FA5FA479F","title":"华夏银行大厦","lon":"121.5152","lat":"31.245346","category":"46","category_name":"楼宇","address":"上海浦东新区浦东南路256号"},{"poiid":"B2094655D26AA0F9409A","title":"地铁浦东大道站","lon":"121.51984","lat":"31.24032","category":"36","category_name":"地铁站","address":""},{"poiid":"B2094757D06FA2FF4099","title":"中国保险大厦","lon":"121.516","lat":"31.2421","category":"46","category_name":"楼宇","address":"浦东临港新城主城区申港大道200号"},{"poiid":"B2094757D06FA7F44199","title":"光头烧烤吧(南泉北路店)","lon":"121.51594","lat":"31.23765","category":"68","category_name":"快餐厅","address":"浦东新区南泉北路47号(近东方医院)"},{"poiid":"B2094757D068A1FA489C","title":"其昌栈渡口","lon":"121.51963307","lat":"31.242515608","category":"500","category_name":"未知分类","address":"上海东方路滨江大道"},{"poiid":"B2094757D068AAFC469B","title":"保利广场","lon":"121.514956916","lat":"31.2433600232","category":"500","category_name":"未知分类","address":"闸北区共和新路3703,3737号"},{"poiid":"B2094655D26FA5FF479B","title":"华能联合大厦","lon":"121.515","lat":"31.245","category":"46","category_name":"楼宇","address":"朝阳华威桥东北角"},{"poiid":"B2094757D069A7F4429B","title":"浦东新舞台","lon":"121.51503","lat":"31.23892","category":"179","category_name":"音乐厅","address":"浦东新区浦东大道143号(南泉北路浦东大道)"},{"poiid":"B2094757D16CABFF429D","title":"雅典皇宫","lon":"121.51895673","lat":"31.242752567","category":"500","category_name":"未知分类","address":"上海浦东新区东方路8号(近浦东大道)  "},{"poiid":"B2094757DB69A3F44599","title":"富淳饭店 保利店","lon":"121.5189019","lat":"31.242405","category":"72","category_name":"广东菜","address":"浦东新区东方路18号保利广场E座G楼"},{"poiid":"B2094655D36DA2FB459B","title":"大连路隧道","lon":"121.51973","lat":"31.2428","category":"250","category_name":"公园户外","address":"上海市杨浦区大连路-浦东新区东方路"},{"poiid":"B2094750D66CABFB4693","title":"Mio Ita","lon":"121.517906","lat":"31.243383","category":"94","category_name":"西餐厅","address":"浦东新区东方路18号保利大厦E栋2楼"},{"poiid":"B2094757D064AAF5409A","title":"浦东陆家嘴图书馆","lon":"121.518913","lat":"31.241753","category":"181","category_name":"图书馆","address":"上海浦东新区东方路38号"},{"poiid":"B2094654DA69A1F54992","title":"金穗大厦","lon":"121.517","lat":"31.245","category":"46","category_name":"楼宇","address":"上海市奉贤区环城东路455,465弄"},{"poiid":"B2094757D068A6FD489F","title":"永华大厦","lon":"121.51416015","lat":"31.238700866","category":"46","category_name":"楼宇","address":"浦东大道138号"},{"poiid":"B2094757D06AA3FC409B","title":"浦东大道钱仓路","lon":"121.520092738","lat":"31.2396905017","category":"500","category_name":"未知分类","address":"上海浦东大道"},{"poiid":"B2094757D068A3F94192","title":"东北四季饺子王(浦东大道店)","lon":"121.51492","lat":"31.23906","category":"82","category_name":"东北菜","address":"上海浦东新区浦东大道143号甲(即墨路口)"},{"poiid":"B2094757D469A5F9409A","title":"松临日本料理 保利广场店","lon":"121.5189019","lat":"31.242405","category":"95","category_name":"日本料理","address":"浦东新区东方路18号保利广场E座2楼(近地铁四号线浦东大道站)"},{"poiid":"B2094757D068A6FC449A","title":"即墨路","lon":"121.51289367","lat":"31.239175796","category":"500","category_name":"未知分类","address":"上海即墨路"},{"poiid":"B2094757D068A5F44392","title":"裕景咖啡厅","lon":"121.52051","lat":"31.2408","category":"268","category_name":"自助","address":"浦东新区浦东大道535号裕景大饭店3楼(近东方路)"},{"poiid":"B2094757D06EAAFF4993","title":"浦电路地铁站(四号线)","lon":"121.519854","lat":"31.240301","category":"36","category_name":"地铁站","address":"上海轨道交通 四号线 轨交浦东大道站 轻轨 4"},{"poiid":"B2094757D06FAAFF4693","title":"大壶春(浦东总店)","lon":"121.51408","lat":"31.23824","category":"68","category_name":"快餐厅","address":"浦东新区浦东大道136弄4-6号(近即墨路)"},{"poiid":"B2094753D76DA4F8439D","title":"上海电影博物馆","lon":"121.520019","lat":"31.240804","category":"500","category_name":"未知分类","address":"上海市 上海电影制片厂漕溪北路595号"},{"poiid":"B2094654DA69A0FC499D","title":"荣城花苑","lon":"121.51794","lat":"31.242142","category":"47","category_name":"住宅区","address":"荣城路9弄"},{"poiid":"B2094757D068A5F8459B","title":"月亮生煎大王","lon":"121.51692","lat":"31.23806","category":"68","category_name":"快餐厅","address":"浦东新区崂山路80号101室(近浦东大道)"},{"poiid":"B2094753D76BA0FF4898","title":"伊秀手握寿司","lon":"121.520011","lat":"31.240814","category":"247","category_name":"餐饮美食","address":"上海市 上海市第一食品商店"},{"poiid":"B2094757D06AA7F8429A","title":"德兴面馆(浦东店)","lon":"121.5153","lat":"31.2387","category":"68","category_name":"快餐厅","address":"浦东新区南泉北路1号(浦东大道口)"},{"poiid":"B2094654DA69A0FD4792","title":"半岛鱼翅潮州酒楼","lon":"121.51827247863","lat":"31.24055145864","category":"72","category_name":"广东菜","address":"浦东新区浦东大道281号2楼(浦东大道荣成路)"},{"poiid":"B2094655D264ABF94793","title":"富橙投资","lon":"121.51634","lat":"31.23925","category":"46","category_name":"楼宇","address":"浦东区浦东大道288号"},{"poiid":"B2094654DA69A0FC499F","title":"荣成大厦","lon":"121.51813","lat":"31.24095","category":"47","category_name":"住宅区","address":"荣成路85弄1-2号"},{"poiid":"B2094654DA69A0FD4793","title":"东海宾馆","lon":"121.51625","lat":"31.23986","category":"215","category_name":"三星级宾馆","address":"浦东新区浦东大道281号(近东方路)"},{"poiid":"B2094757D465A3F9439D","title":"柯记港式茶餐厅","lon":"121.513903054","lat":"31.240806793","category":"72","category_name":"广东菜","address":"浦东新区昌邑路88号(近即墨路)"},{"poiid":"B2094753D668A6F54393","title":"黃記煌三汁燜鍋（第一食品商店）","lon":"121.515002","lat":"31.2428","category":"247","category_name":"餐饮美食","address":"上海市 第一食品商店"},{"poiid":"B2094654DA69A0FC4992","title":"荣城花苑(南门)","lon":"121.51731","lat":"31.24166","category":"47","category_name":"住宅区","address":"荣城路9弄"},{"poiid":"B2094757D16BA5FB439C","title":"招远二村","lon":"121.516076438","lat":"31.2414186386","category":"47","category_name":"住宅区","address":"上海陆家嘴招远路即墨路"},{"poiid":"B2094757D164A2F9429C","title":"光头烧烤","lon":"121.51228","lat":"31.24018","category":"68","category_name":"快餐厅","address":"浦东新区崂山路47号(东昌电影院)"},{"poiid":"B2094654DA69A0FC499C","title":"荣成大厦(西门)","lon":"121.51765","lat":"31.24108","category":"47","category_name":"住宅区","address":"荣成路85弄1-2号"},{"poiid":"B2094757D16CA6F44992","title":"昌邑小区","lon":"121.51673","lat":"31.240412","category":"47","category_name":"住宅区","address":"上海市浦东新区浦东大道荣城路"},{"poiid":"B2094654DB6BAAFE429E","title":"红辣椒 浦东店","lon":"121.51873393805","lat":"31.240492205441","category":"257","category_name":"中餐厅","address":"浦东大道279号东海宾馆底层近东方路"},{"poiid":"B2094654DA69A0FC479F","title":"浦江茗园","lon":"121.5135","lat":"31.241152","category":"47","category_name":"住宅区","address":"上海市浦东新区昌邑路55弄"},{"poiid":"B2094757D16DA7FD4192","title":"荣成小区","lon":"121.51881","lat":"31.240702","category":"47","category_name":"住宅区","address":"上海浦东新区浦东大道501弄"},{"poiid":"B2094757D464A7FD4298","title":"御庭","lon":"121.519856064","lat":"31.242143345783","category":"72","category_name":"广东菜","address":"浦东新区浦东大道535号裕景大饭店5楼(近东方路)"}]