[{"poiid":"B2094757D06AA7FE489B","title":"万和亚隆国际酒店","lon":"121.55862081","lat":"31.235370223","category":"217","category_name":"旅馆招待所","address":"上海浦东新区崮山路688号"},{"poiid":"B2094654DB6BAAFC469E","title":"正大生活馆","lon":"121.55447874603271","lat":"31.231048348101393","category":"119","category_name":"商场","address":"上海浦东新区杨高中路2128号"},{"poiid":"B2094757D06FA4F5419E","title":"浦东人才交流中心","lon":"121.55255","lat":"31.23843","category":"500","category_name":"未知分类","address":"浦东新区张杨路1996号(近巨野路)"},{"poiid":"B2094757D06FA5FD449D","title":"北洋泾路地铁站","lon":"121.55226618","lat":"31.239124386","category":"36","category_name":"地铁站","address":"上海轨道交通 六号线 轨交北洋泾路站 6"},{"poiid":"B2094757DA6EA4F5469B","title":"鲜芋仙(正大生活馆店)","lon":"121.553948000001","lat":"31.2307359999998","category":"67","category_name":"甜品店","address":"浦东新区杨高中路2128号卜蜂莲花1楼"},{"poiid":"B2094757D06AA3F9489A","title":"进才中学北校苗圃校区","lon":"121.554034588","lat":"31.2350048018","category":"55","category_name":"中学","address":"上海苗圃路555号"},{"poiid":"B2094757D069A6FF499B","title":"苗圃路张扬路","lon":"121.550906","lat":"31.237402","category":"500","category_name":"未知分类","address":"上海苗圃路张扬路"},{"poiid":"B2094757D064A7FA479B","title":"盱眙倪氏龙虾","lon":"121.55591","lat":"31.23737","category":"68","category_name":"快餐厅","address":"浦东新区羽山路983号(南洋泾路羽山路)"},{"poiid":"B2094654DB6BAAFC469D","title":"一茶一坐 杨高店","lon":"121.554856054","lat":"31.230660793","category":"260","category_name":"其他","address":"浦东新区杨高中路2128号正大生活馆内(近四方路)"},{"poiid":"B2094757D06AA1FF419E","title":"中星海上景庭","lon":"121.54897","lat":"31.238739","category":"47","category_name":"住宅区","address":"上海市浦东新区杨高中路1708弄"},{"poiid":"B2094750D76EABFD439B","title":"K Cafe&Zakka","lon":"121.553","lat":"31.2336","category":"260","category_name":"其他","address":"浦东新区苗圃路596号(近羽山路)"},{"poiid":"B2094654DA69A2F5499F","title":"小精灵宠物医院有限公司","lon":"121.55506","lat":"31.23657","category":"162","category_name":"医院","address":"羽山路948-950"},{"poiid":"B2094757D069ABFA439D","title":"泾南公园","lon":"121.55389","lat":"31.23549","category":"196","category_name":"公园","address":"浦东新区羽山路850号(南洋泾路羽山路)"},{"poiid":"B2094655D36DA0F5429B","title":"羽山路南洋泾路","lon":"121.5554","lat":"31.23702","category":"38","category_name":"公交车站","address":""},{"poiid":"B2094757D064A5FE4398","title":"新城名庭","lon":"121.5528405","lat":"31.237446338","category":"47","category_name":"住宅区","address":"上海市浦东新区羽山路851号"},{"poiid":"B2094757D06BA0FF489D","title":"中新公寓","lon":"121.55328","lat":"31.238466","category":"47","category_name":"住宅区","address":"上海市普陀区宁夏路335号"},{"poiid":"B2094757D069AAFC409F","title":"阿香米线(杨高中路店)","lon":"121.554282","lat":"31.230963","category":"68","category_name":"快餐厅","address":"浦东新区杨高中路2128号正大生活馆内(近四方路)"},{"poiid":"B2094655D26DA7F4419A","title":"申立苑","lon":"121.555","lat":"31.2371","category":"47","category_name":"住宅区","address":"上海市浦东新区灵山路(民生路)729弄1-7号"},{"poiid":"B2094757D069AAFC429F","title":"百春原南味粉面","lon":"121.55412673","lat":"31.231033317","category":"68","category_name":"快餐厅","address":"浦东新区杨高中路2128号正大生活馆1楼(世纪公园)"},{"poiid":"B2094655D26BABFB429F","title":"张杨南苑","lon":"121.55281","lat":"31.237694","category":"47","category_name":"住宅区","address":"上海市浦东新区苗圃路466弄(张杨路口)"},{"poiid":"B2094655D26BA0FC4198","title":"上海交通大学医学院附属仁济医院北院","lon":"121.55102","lat":"31.23343","category":"162","category_name":"医院","address":"浦东新区灵山路(巨野路口)"},{"poiid":"B2094655D26DA6F84899","title":"肯德基 杨高中路店 KFC","lon":"121.554856054","lat":"31.230660793","category":"68","category_name":"快餐厅","address":"浦东新区杨高中路2128号正大生活馆内(近四方路)"},{"poiid":"B2094757D165A7FF479C","title":"易初莲花","lon":"121.551837738","lat":"31.2341403834","category":"249","category_name":"购物服务","address":"上海市浦东新区杨高中路"},{"poiid":"B2094757D069A3FF4898","title":"上海三菱电机-上菱空调机电器有限公司","lon":"121.555980989","lat":"31.2345528324","category":"46","category_name":"楼宇","address":"上海市浦东新区南洋泾路505号"},{"poiid":"B2094654DA69A2F5499C","title":"永琪美容美发(羽山路)","lon":"121.55506","lat":"31.23663","category":"148","category_name":"美容美发店","address":"羽山路952"},{"poiid":"B2094654DA69A2FB429F","title":"金囡幼儿园","lon":"121.55158","lat":"31.23708","category":"57","category_name":"幼儿园","address":"浦东新区苗圃路470号(近羽山路)"},{"poiid":"B2094752D66BA1FD4999","title":"世纪大道地铁站","lon":"121.548349","lat":"31.234841","category":"36","category_name":"地铁站","address":"东方路世纪大道"},{"poiid":"B2094757D06BA2FF479A","title":"上海汽车进出口有限公司","lon":"121.552408","lat":"31.239503","category":"263","category_name":"公司","address":"张杨路2119号上汽国贸大楼A18室"},{"poiid":"B2094655D26AA0FA4399","title":"地铁北洋泾路站","lon":"121.55226","lat":"31.23912","category":"36","category_name":"地铁站","address":""},{"poiid":"B2094654DA69A1FC409B","title":"上海亚美口腔门诊部No.16","lon":"121.55556","lat":"31.23693","category":"162","category_name":"医院","address":"浦东新区羽山路968号(近南洋径路)"},{"poiid":"B2094757D064A3F4479C","title":"美时美分","lon":"121.55426","lat":"31.23615","category":"149","category_name":"洗浴推拿场所","address":"上海浦东新区羽山路招商银行旁(近桃林路)"},{"poiid":"B2094757D569A0FC479C","title":"新泽西庄园(森林湾)","lon":"121.5556156","lat":"31.23794889","category":"47","category_name":"住宅区","address":"新泽西庄园(森林湾)位于浦东羽山路979号"},{"poiid":"B2094655D36DA0F54193","title":"羽山路苗圃路","lon":"121.55119","lat":"31.2354","category":"38","category_name":"公交车站","address":""},{"poiid":"B2094654DA69A1FC479B","title":"南洋苑","lon":"121.55491","lat":"31.238665","category":"47","category_name":"住宅区","address":"上海市浦东新区南洋泾路287弄(近张杨路口)"},{"poiid":"B2094654DA69A1FC459A","title":"艾玛·贝尼瑜伽美容女子会所","lon":"121.55519","lat":"31.23716","category":"148","category_name":"美容美发店","address":"羽山路963-965"},{"poiid":"B2094655D268A0FF469F","title":"张扬南苑(东门)","lon":"121.55384","lat":"31.23816","category":"47","category_name":"住宅区","address":""},{"poiid":"B2094654DA69A2FA479C","title":"上海市浦东新区第二中心小学","lon":"121.55004","lat":"31.23579","category":"56","category_name":"小学","address":"浦东新区巨野路517号(近张杨路)"},{"poiid":"B2094654DA69A2FB4299","title":"新城名园","lon":"121.55157","lat":"31.238045","category":"47","category_name":"住宅区","address":"上海市浦东新区苗圃路438弄"},{"poiid":"B2094654DA69A1FC4693","title":"华阳苑","lon":"121.5545","lat":"31.239582","category":"47","category_name":"住宅区","address":"上海市浦东新区张扬路2100弄"},{"poiid":"B2094655D26DA1FE409F","title":"舟渔人家","lon":"121.55686","lat":"31.23268","category":"75","category_name":"浙江菜","address":"浦东新区杨高中路2108号汉庭宾馆后面(南洋泾路口)"},{"poiid":"B2094654DA69A2F4459D","title":"申舟明阳苑","lon":"121.556","lat":"31.2363","category":"47","category_name":"住宅区","address":"民生路1001弄1-9号"},{"poiid":"B2094757D66CA4FA429A","title":"上海天丰和益汽车服务有限公司","lon":"121.55457353","lat":"31.237006909","category":"500","category_name":"未知分类","address":"上海市羽山路986-988号"},{"poiid":"B2094654DA69A2FB499F","title":"灵山大楼","lon":"121.55115","lat":"31.23171","category":"46","category_name":"楼宇","address":"灵山路800号"},{"poiid":"B2094757D164A7FE419A","title":"cold stone(大拇指店)","lon":"121.55567062","lat":"31.235986145","category":"500","category_name":"未知分类","address":"上海市浦东新区芳甸路199弄9号"},{"poiid":"B2094654DA69A1FC469F","title":"光明便利No.451","lon":"121.55393","lat":"31.23898","category":"117","category_name":"便民商店/便利店","address":"南洋泾路283"},{"poiid":"B2094757D66DA4F9469A","title":"香楼","lon":"121.55239273","lat":"31.238342473","category":"247","category_name":"餐饮美食","address":"上海市浦东新区苗圃路472号"},{"poiid":"B2094757D065A1FA479B","title":"爱婴室(羽山店)","lon":"121.55364683","lat":"31.238201295","category":"500","category_name":"未知分类","address":"浦东新区南洋泾路393号(近羽山路)"},{"poiid":"B2094757D568A6FC4992","title":"奇知教育","lon":"121.55466498","lat":"31.23738553","category":"190","category_name":"培训机构","address":"南洋泾路373"},{"poiid":"B2094757D569A2F84398","title":"99旅馆","lon":"121.55322645","lat":"31.23907172","category":"216","category_name":"经济型连锁酒店","address":"张杨路2078"},{"poiid":"B2094654DA69A2FA489B","title":"乔家栅 巨野店","lon":"121.548596054","lat":"31.237229793","category":"68","category_name":"快餐厅","address":"浦东新区巨野路469号(张杨路口)"},{"poiid":"B2094757D06AA7FE489B","title":"万和亚隆国际酒店","lon":"121.55862081","lat":"31.235370223","category":"217","category_name":"旅馆招待所","address":"上海浦东新区崮山路688号"},{"poiid":"B2094654DB6BAAFC469E","title":"正大生活馆","lon":"121.55447874603271","lat":"31.231048348101393","category":"119","category_name":"商场","address":"上海浦东新区杨高中路2128号"},{"poiid":"B2094757D06FA4F5419E","title":"浦东人才交流中心","lon":"121.55255","lat":"31.23843","category":"500","category_name":"未知分类","address":"浦东新区张杨路1996号(近巨野路)"},{"poiid":"B2094757D06FA5FD449D","title":"北洋泾路地铁站","lon":"121.55226618","lat":"31.239124386","category":"36","category_name":"地铁站","address":"上海轨道交通 六号线 轨交北洋泾路站 6"},{"poiid":"B2094757DA6EA4F5469B","title":"鲜芋仙(正大生活馆店)","lon":"121.553948000001","lat":"31.2307359999998","category":"67","category_name":"甜品店","address":"浦东新区杨高中路2128号卜蜂莲花1楼"},{"poiid":"B2094757D06AA3F9489A","title":"进才中学北校苗圃校区","lon":"121.554034588","lat":"31.2350048018","category":"55","category_name":"中学","address":"上海苗圃路555号"},{"poiid":"B2094757D069A6FF499B","title":"苗圃路张扬路","lon":"121.550906","lat":"31.237402","category":"500","category_name":"未知分类","address":"上海苗圃路张扬路"},{"poiid":"B2094757D064A7FA479B","title":"盱眙倪氏龙虾","lon":"121.55591","lat":"31.23737","category":"68","category_name":"快餐厅","address":"浦东新区羽山路983号(南洋泾路羽山路)"},{"poiid":"B2094654DB6BAAFC469D","title":"一茶一坐 杨高店","lon":"121.554856054","lat":"31.230660793","category":"260","category_name":"其他","address":"浦东新区杨高中路2128号正大生活馆内(近四方路)"},{"poiid":"B2094757D06AA1FF419E","title":"中星海上景庭","lon":"121.54897","lat":"31.238739","category":"47","category_name":"住宅区","address":"上海市浦东新区杨高中路1708弄"},{"poiid":"B2094750D76EABFD439B","title":"K Cafe&Zakka","lon":"121.553","lat":"31.2336","category":"260","category_name":"其他","address":"浦东新区苗圃路596号(近羽山路)"},{"poiid":"B2094654DA69A2F5499F","title":"小精灵宠物医院有限公司","lon":"121.55506","lat":"31.23657","category":"162","category_name":"医院","address":"羽山路948-950"},{"poiid":"B2094757D069ABFA439D","title":"泾南公园","lon":"121.55389","lat":"31.23549","category":"196","category_name":"公园","address":"浦东新区羽山路850号(南洋泾路羽山路)"},{"poiid":"B2094655D36DA0F5429B","title":"羽山路南洋泾路","lon":"121.5554","lat":"31.23702","category":"38","category_name":"公交车站","address":""},{"poiid":"B2094757D064A5FE4398","title":"新城名庭","lon":"121.5528405","lat":"31.237446338","category":"47","category_name":"住宅区","address":"上海市浦东新区羽山路851号"},{"poiid":"B2094757D06BA0FF489D","title":"中新公寓","lon":"121.55328","lat":"31.238466","category":"47","category_name":"住宅区","address":"上海市普陀区宁夏路335号"},{"poiid":"B2094757D069AAFC409F","title":"阿香米线(杨高中路店)","lon":"121.554282","lat":"31.230963","category":"68","category_name":"快餐厅","address":"浦东新区杨高中路2128号正大生活馆内(近四方路)"},{"poiid":"B2094655D26DA7F4419A","title":"申立苑","lon":"121.555","lat":"31.2371","category":"47","category_name":"住宅区","address":"上海市浦东新区灵山路(民生路)729弄1-7号"},{"poiid":"B2094757D069AAFC429F","title":"百春原南味粉面","lon":"121.55412673","lat":"31.231033317","category":"68","category_name":"快餐厅","address":"浦东新区杨高中路2128号正大生活馆1楼(世纪公园)"},{"poiid":"B2094655D26BABFB429F","title":"张杨南苑","lon":"121.55281","lat":"31.237694","category":"47","category_name":"住宅区","address":"上海市浦东新区苗圃路466弄(张杨路口)"},{"poiid":"B2094655D26BA0FC4198","title":"上海交通大学医学院附属仁济医院北院","lon":"121.55102","lat":"31.23343","category":"162","category_name":"医院","address":"浦东新区灵山路(巨野路口)"},{"poiid":"B2094655D26DA6F84899","title":"肯德基 杨高中路店 KFC","lon":"121.554856054","lat":"31.230660793","category":"68","category_name":"快餐厅","address":"浦东新区杨高中路2128号正大生活馆内(近四方路)"},{"poiid":"B2094757D165A7FF479C","title":"易初莲花","lon":"121.551837738","lat":"31.2341403834","category":"249","category_name":"购物服务","address":"上海市浦东新区杨高中路"},{"poiid":"B2094757D069A3FF4898","title":"上海三菱电机-上菱空调机电器有限公司","lon":"121.555980989","lat":"31.2345528324","category":"46","category_name":"楼宇","address":"上海市浦东新区南洋泾路505号"},{"poiid":"B2094654DA69A2F5499C","title":"永琪美容美发(羽山路)","lon":"121.55506","lat":"31.23663","category":"148","category_name":"美容美发店","address":"羽山路952"},{"poiid":"B2094654DA69A2FB429F","title":"金囡幼儿园","lon":"121.55158","lat":"31.23708","category":"57","category_name":"幼儿园","address":"浦东新区苗圃路470号(近羽山路)"},{"poiid":"B2094752D66BA1FD4999","title":"世纪大道地铁站","lon":"121.548349","lat":"31.234841","category":"36","category_name":"地铁站","address":"东方路世纪大道"},{"poiid":"B2094757D06BA2FF479A","title":"上海汽车进出口有限公司","lon":"121.552408","lat":"31.239503","category":"263","category_name":"公司","address":"张杨路2119号上汽国贸大楼A18室"},{"poiid":"B2094655D26AA0FA4399","title":"地铁北洋泾路站","lon":"121.55226","lat":"31.23912","category":"36","category_name":"地铁站","address":""},{"poiid":"B2094654DA69A1FC409B","title":"上海亚美口腔门诊部No.16","lon":"121.55556","lat":"31.23693","category":"162","category_name":"医院","address":"浦东新区羽山路968号(近南洋径路)"},{"poiid":"B2094757D064A3F4479C","title":"美时美分","lon":"121.55426","lat":"31.23615","category":"149","category_name":"洗浴推拿场所","address":"上海浦东新区羽山路招商银行旁(近桃林路)"},{"poiid":"B2094757D569A0FC479C","title":"新泽西庄园(森林湾)","lon":"121.5556156","lat":"31.23794889","category":"47","category_name":"住宅区","address":"新泽西庄园(森林湾)位于浦东羽山路979号"},{"poiid":"B2094655D36DA0F54193","title":"羽山路苗圃路","lon":"121.55119","lat":"31.2354","category":"38","category_name":"公交车站","address":""},{"poiid":"B2094654DA69A1FC479B","title":"南洋苑","lon":"121.55491","lat":"31.238665","category":"47","category_name":"住宅区","address":"上海市浦东新区南洋泾路287弄(近张杨路口)"},{"poiid":"B2094654DA69A1FC459A","title":"艾玛·贝尼瑜伽美容女子会所","lon":"121.55519","lat":"31.23716","category":"148","category_name":"美容美发店","address":"羽山路963-965"},{"poiid":"B2094655D268A0FF469F","title":"张扬南苑(东门)","lon":"121.55384","lat":"31.23816","category":"47","category_name":"住宅区","address":""},{"poiid":"B2094654DA69A2FA479C","title":"上海市浦东新区第二中心小学","lon":"121.55004","lat":"31.23579","category":"56","category_name":"小学","address":"浦东新区巨野路517号(近张杨路)"},{"poiid":"B2094654DA69A2FB4299","title":"新城名园","lon":"121.55157","lat":"31.238045","category":"47","category_name":"住宅区","address":"上海市浦东新区苗圃路438弄"},{"poiid":"B2094654DA69A1FC4693","title":"华阳苑","lon":"121.5545","lat":"31.239582","category":"47","category_name":"住宅区","address":"上海市浦东新区张扬路2100弄"},{"poiid":"B2094655D26DA1FE409F","title":"舟渔人家","lon":"121.55686","lat":"31.23268","category":"75","category_name":"浙江菜","address":"浦东新区杨高中路2108号汉庭宾馆后面(南洋泾路口)"},{"poiid":"B2094654DA69A2F4459D","title":"申舟明阳苑","lon":"121.556","lat":"31.2363","category":"47","category_name":"住宅区","address":"民生路1001弄1-9号"},{"poiid":"B2094757D66CA4FA429A","title":"上海天丰和益汽车服务有限公司","lon":"121.55457353","lat":"31.237006909","category":"500","category_name":"未知分类","address":"上海市羽山路986-988号"},{"poiid":"B2094654DA69A2FB499F","title":"灵山大楼","lon":"121.55115","lat":"31.23171","category":"46","category_name":"楼宇","address":"灵山路800号"},{"poiid":"B2094757D164A7FE419A","title":"cold stone(大拇指店)","lon":"121.55567062","lat":"31.235986145","category":"500","category_name":"未知分类","address":"上海市浦东新区芳甸路199弄9号"},{"poiid":"B2094654DA69A1FC469F","title":"光明便利No.451","lon":"121.55393","lat":"31.23898","category":"117","category_name":"便民商店/便利店","address":"南洋泾路283"},{"poiid":"B2094757D66DA4F9469A","title":"香楼","lon":"121.55239273","lat":"31.238342473","category":"247","category_name":"餐饮美食","address":"上海市浦东新区苗圃路472号"},{"poiid":"B2094757D065A1FA479B","title":"爱婴室(羽山店)","lon":"121.55364683","lat":"31.238201295","category":"500","category_name":"未知分类","address":"浦东新区南洋泾路393号(近羽山路)"},{"poiid":"B2094757D568A6FC4992","title":"奇知教育","lon":"121.55466498","lat":"31.23738553","category":"190","category_name":"培训机构","address":"南洋泾路373"},{"poiid":"B2094757D569A2F84398","title":"99旅馆","lon":"121.55322645","lat":"31.23907172","category":"216","category_name":"经济型连锁酒店","address":"张杨路2078"},{"poiid":"B2094654DA69A2FA489B","title":"乔家栅 巨野店","lon":"121.548596054","lat":"31.237229793","category":"68","category_name":"快餐厅","address":"浦东新区巨野路469号(张杨路口)"},{"poiid":"B2094757D06AA7FE489B","title":"万和亚隆国际酒店","lon":"121.55862081","lat":"31.235370223","category":"217","category_name":"旅馆招待所","address":"上海浦东新区崮山路688号"},{"poiid":"B2094654DB6BAAFC469E","title":"正大生活馆","lon":"121.55447874603271","lat":"31.231048348101393","category":"119","category_name":"商场","address":"上海浦东新区杨高中路2128号"},{"poiid":"B2094757D06FA4F5419E","title":"浦东人才交流中心","lon":"121.55255","lat":"31.23843","category":"500","category_name":"未知分类","address":"浦东新区张杨路1996号(近巨野路)"},{"poiid":"B2094757D06FA5FD449D","title":"北洋泾路地铁站","lon":"121.55226618","lat":"31.239124386","category":"36","category_name":"地铁站","address":"上海轨道交通 六号线 轨交北洋泾路站 6"},{"poiid":"B2094757DA6EA4F5469B","title":"鲜芋仙(正大生活馆店)","lon":"121.553948000001","lat":"31.2307359999998","category":"67","category_name":"甜品店","address":"浦东新区杨高中路2128号卜蜂莲花1楼"},{"poiid":"B2094757D06AA3F9489A","title":"进才中学北校苗圃校区","lon":"121.554034588","lat":"31.2350048018","category":"55","category_name":"中学","address":"上海苗圃路555号"},{"poiid":"B2094757D069A6FF499B","title":"苗圃路张扬路","lon":"121.550906","lat":"31.237402","category":"500","category_name":"未知分类","address":"上海苗圃路张扬路"},{"poiid":"B2094757D064A7FA479B","title":"盱眙倪氏龙虾","lon":"121.55591","lat":"31.23737","category":"68","category_name":"快餐厅","address":"浦东新区羽山路983号(南洋泾路羽山路)"},{"poiid":"B2094654DB6BAAFC469D","title":"一茶一坐 杨高店","lon":"121.554856054","lat":"31.230660793","category":"260","category_name":"其他","address":"浦东新区杨高中路2128号正大生活馆内(近四方路)"},{"poiid":"B2094757D06AA1FF419E","title":"中星海上景庭","lon":"121.54897","lat":"31.238739","category":"47","category_name":"住宅区","address":"上海市浦东新区杨高中路1708弄"},{"poiid":"B2094750D76EABFD439B","title":"K Cafe&Zakka","lon":"121.553","lat":"31.2336","category":"260","category_name":"其他","address":"浦东新区苗圃路596号(近羽山路)"},{"poiid":"B2094654DA69A2F5499F","title":"小精灵宠物医院有限公司","lon":"121.55506","lat":"31.23657","category":"162","category_name":"医院","address":"羽山路948-950"},{"poiid":"B2094757D069ABFA439D","title":"泾南公园","lon":"121.55389","lat":"31.23549","category":"196","category_name":"公园","address":"浦东新区羽山路850号(南洋泾路羽山路)"},{"poiid":"B2094655D36DA0F5429B","title":"羽山路南洋泾路","lon":"121.5554","lat":"31.23702","category":"38","category_name":"公交车站","address":""},{"poiid":"B2094757D064A5FE4398","title":"新城名庭","lon":"121.5528405","lat":"31.237446338","category":"47","category_name":"住宅区","address":"上海市浦东新区羽山路851号"},{"poiid":"B2094757D06BA0FF489D","title":"中新公寓","lon":"121.55328","lat":"31.238466","category":"47","category_name":"住宅区","address":"上海市普陀区宁夏路335号"},{"poiid":"B2094757D069AAFC409F","title":"阿香米线(杨高中路店)","lon":"121.554282","lat":"31.230963","category":"68","category_name":"快餐厅","address":"浦东新区杨高中路2128号正大生活馆内(近四方路)"},{"poiid":"B2094655D26DA7F4419A","title":"申立苑","lon":"121.555","lat":"31.2371","category":"47","category_name":"住宅区","address":"上海市浦东新区灵山路(民生路)729弄1-7号"},{"poiid":"B2094757D069AAFC429F","title":"百春原南味粉面","lon":"121.55412673","lat":"31.231033317","category":"68","category_name":"快餐厅","address":"浦东新区杨高中路2128号正大生活馆1楼(世纪公园)"},{"poiid":"B2094655D26BABFB429F","title":"张杨南苑","lon":"121.55281","lat":"31.237694","category":"47","category_name":"住宅区","address":"上海市浦东新区苗圃路466弄(张杨路口)"},{"poiid":"B2094655D26BA0FC4198","title":"上海交通大学医学院附属仁济医院北院","lon":"121.55102","lat":"31.23343","category":"162","category_name":"医院","address":"浦东新区灵山路(巨野路口)"},{"poiid":"B2094655D26DA6F84899","title":"肯德基 杨高中路店 KFC","lon":"121.554856054","lat":"31.230660793","category":"68","category_name":"快餐厅","address":"浦东新区杨高中路2128号正大生活馆内(近四方路)"},{"poiid":"B2094757D165A7FF479C","title":"易初莲花","lon":"121.551837738","lat":"31.2341403834","category":"249","category_name":"购物服务","address":"上海市浦东新区杨高中路"},{"poiid":"B2094757D069A3FF4898","title":"上海三菱电机-上菱空调机电器有限公司","lon":"121.555980989","lat":"31.2345528324","category":"46","category_name":"楼宇","address":"上海市浦东新区南洋泾路505号"},{"poiid":"B2094654DA69A2F5499C","title":"永琪美容美发(羽山路)","lon":"121.55506","lat":"31.23663","category":"148","category_name":"美容美发店","address":"羽山路952"},{"poiid":"B2094654DA69A2FB429F","title":"金囡幼儿园","lon":"121.55158","lat":"31.23708","category":"57","category_name":"幼儿园","address":"浦东新区苗圃路470号(近羽山路)"},{"poiid":"B2094752D66BA1FD4999","title":"世纪大道地铁站","lon":"121.548349","lat":"31.234841","category":"36","category_name":"地铁站","address":"东方路世纪大道"},{"poiid":"B2094757D06BA2FF479A","title":"上海汽车进出口有限公司","lon":"121.552408","lat":"31.239503","category":"263","category_name":"公司","address":"张杨路2119号上汽国贸大楼A18室"},{"poiid":"B2094655D26AA0FA4399","title":"地铁北洋泾路站","lon":"121.55226","lat":"31.23912","category":"36","category_name":"地铁站","address":""},{"poiid":"B2094654DA69A1FC409B","title":"上海亚美口腔门诊部No.16","lon":"121.55556","lat":"31.23693","category":"162","category_name":"医院","address":"浦东新区羽山路968号(近南洋径路)"},{"poiid":"B2094757D064A3F4479C","title":"美时美分","lon":"121.55426","lat":"31.23615","category":"149","category_name":"洗浴推拿场所","address":"上海浦东新区羽山路招商银行旁(近桃林路)"},{"poiid":"B2094757D569A0FC479C","title":"新泽西庄园(森林湾)","lon":"121.5556156","lat":"31.23794889","category":"47","category_name":"住宅区","address":"新泽西庄园(森林湾)位于浦东羽山路979号"},{"poiid":"B2094655D36DA0F54193","title":"羽山路苗圃路","lon":"121.55119","lat":"31.2354","category":"38","category_name":"公交车站","address":""},{"poiid":"B2094654DA69A1FC479B","title":"南洋苑","lon":"121.55491","lat":"31.238665","category":"47","category_name":"住宅区","address":"上海市浦东新区南洋泾路287弄(近张杨路口)"},{"poiid":"B2094654DA69A1FC459A","title":"艾玛·贝尼瑜伽美容女子会所","lon":"121.55519","lat":"31.23716","category":"148","category_name":"美容美发店","address":"羽山路963-965"},{"poiid":"B2094655D268A0FF469F","title":"张扬南苑(东门)","lon":"121.55384","lat":"31.23816","category":"47","category_name":"住宅区","address":""},{"poiid":"B2094654DA69A2FA479C","title":"上海市浦东新区第二中心小学","lon":"121.55004","lat":"31.23579","category":"56","category_name":"小学","address":"浦东新区巨野路517号(近张杨路)"},{"poiid":"B2094654DA69A2FB4299","title":"新城名园","lon":"121.55157","lat":"31.238045","category":"47","category_name":"住宅区","address":"上海市浦东新区苗圃路438弄"},{"poiid":"B2094654DA69A1FC4693","title":"华阳苑","lon":"121.5545","lat":"31.239582","category":"47","category_name":"住宅区","address":"上海市浦东新区张扬路2100弄"},{"poiid":"B2094655D26DA1FE409F","title":"舟渔人家","lon":"121.55686","lat":"31.23268","category":"75","category_name":"浙江菜","address":"浦东新区杨高中路2108号汉庭宾馆后面(南洋泾路口)"},{"poiid":"B2094654DA69A2F4459D","title":"申舟明阳苑","lon":"121.556","lat":"31.2363","category":"47","category_name":"住宅区","address":"民生路1001弄1-9号"},{"poiid":"B2094757D66CA4FA429A","title":"上海天丰和益汽车服务有限公司","lon":"121.55457353","lat":"31.237006909","category":"500","category_name":"未知分类","address":"上海市羽山路986-988号"},{"poiid":"B2094654DA69A2FB499F","title":"灵山大楼","lon":"121.55115","lat":"31.23171","category":"46","category_name":"楼宇","address":"灵山路800号"},{"poiid":"B2094757D164A7FE419A","title":"cold stone(大拇指店)","lon":"121.55567062","lat":"31.235986145","category":"500","category_name":"未知分类","address":"上海市浦东新区芳甸路199弄9号"},{"poiid":"B2094654DA69A1FC469F","title":"光明便利No.451","lon":"121.55393","lat":"31.23898","category":"117","category_name":"便民商店/便利店","address":"南洋泾路283"},{"poiid":"B2094757D66DA4F9469A","title":"香楼","lon":"121.55239273","lat":"31.238342473","category":"247","category_name":"餐饮美食","address":"上海市浦东新区苗圃路472号"},{"poiid":"B2094757D065A1FA479B","title":"爱婴室(羽山店)","lon":"121.55364683","lat":"31.238201295","category":"500","category_name":"未知分类","address":"浦东新区南洋泾路393号(近羽山路)"},{"poiid":"B2094757D568A6FC4992","title":"奇知教育","lon":"121.55466498","lat":"31.23738553","category":"190","category_name":"培训机构","address":"南洋泾路373"},{"poiid":"B2094757D569A2F84398","title":"99旅馆","lon":"121.55322645","lat":"31.23907172","category":"216","category_name":"经济型连锁酒店","address":"张杨路2078"},{"poiid":"B2094654DA69A2FA489B","title":"乔家栅 巨野店","lon":"121.548596054","lat":"31.237229793","category":"68","category_name":"快餐厅","address":"浦东新区巨野路469号(张杨路口)"},{"poiid":"B2094757D06AA7FE489B","title":"万和亚隆国际酒店","lon":"121.55862081","lat":"31.235370223","category":"217","category_name":"旅馆招待所","address":"上海浦东新区崮山路688号"},{"poiid":"B2094654DB6BAAFC469E","title":"正大生活馆","lon":"121.55447874603271","lat":"31.231048348101393","category":"119","category_name":"商场","address":"上海浦东新区杨高中路2128号"},{"poiid":"B2094757D06FA4F5419E","title":"浦东人才交流中心","lon":"121.55255","lat":"31.23843","category":"500","category_name":"未知分类","address":"浦东新区张杨路1996号(近巨野路)"},{"poiid":"B2094757D06FA5FD449D","title":"北洋泾路地铁站","lon":"121.55226618","lat":"31.239124386","category":"36","category_name":"地铁站","address":"上海轨道交通 六号线 轨交北洋泾路站 6"},{"poiid":"B2094757DA6EA4F5469B","title":"鲜芋仙(正大生活馆店)","lon":"121.553948000001","lat":"31.2307359999998","category":"67","category_name":"甜品店","address":"浦东新区杨高中路2128号卜蜂莲花1楼"},{"poiid":"B2094757D06AA3F9489A","title":"进才中学北校苗圃校区","lon":"121.554034588","lat":"31.2350048018","category":"55","category_name":"中学","address":"上海苗圃路555号"},{"poiid":"B2094757D069A6FF499B","title":"苗圃路张扬路","lon":"121.550906","lat":"31.237402","category":"500","category_name":"未知分类","address":"上海苗圃路张扬路"},{"poiid":"B2094757D064A7FA479B","title":"盱眙倪氏龙虾","lon":"121.55591","lat":"31.23737","category":"68","category_name":"快餐厅","address":"浦东新区羽山路983号(南洋泾路羽山路)"},{"poiid":"B2094654DB6BAAFC469D","title":"一茶一坐 杨高店","lon":"121.554856054","lat":"31.230660793","category":"260","category_name":"其他","address":"浦东新区杨高中路2128号正大生活馆内(近四方路)"},{"poiid":"B2094757D06AA1FF419E","title":"中星海上景庭","lon":"121.54897","lat":"31.238739","category":"47","category_name":"住宅区","address":"上海市浦东新区杨高中路1708弄"},{"poiid":"B2094750D76EABFD439B","title":"K Cafe&Zakka","lon":"121.553","lat":"31.2336","category":"260","category_name":"其他","address":"浦东新区苗圃路596号(近羽山路)"},{"poiid":"B2094654DA69A2F5499F","title":"小精灵宠物医院有限公司","lon":"121.55506","lat":"31.23657","category":"162","category_name":"医院","address":"羽山路948-950"},{"poiid":"B2094757D069ABFA439D","title":"泾南公园","lon":"121.55389","lat":"31.23549","category":"196","category_name":"公园","address":"浦东新区羽山路850号(南洋泾路羽山路)"},{"poiid":"B2094655D36DA0F5429B","title":"羽山路南洋泾路","lon":"121.5554","lat":"31.23702","category":"38","category_name":"公交车站","address":""},{"poiid":"B2094757D064A5FE4398","title":"新城名庭","lon":"121.5528405","lat":"31.237446338","category":"47","category_name":"住宅区","address":"上海市浦东新区羽山路851号"},{"poiid":"B2094757D06BA0FF489D","title":"中新公寓","lon":"121.55328","lat":"31.238466","category":"47","category_name":"住宅区","address":"上海市普陀区宁夏路335号"},{"poiid":"B2094757D069AAFC409F","title":"阿香米线(杨高中路店)","lon":"121.554282","lat":"31.230963","category":"68","category_name":"快餐厅","address":"浦东新区杨高中路2128号正大生活馆内(近四方路)"},{"poiid":"B2094655D26DA7F4419A","title":"申立苑","lon":"121.555","lat":"31.2371","category":"47","category_name":"住宅区","address":"上海市浦东新区灵山路(民生路)729弄1-7号"},{"poiid":"B2094757D069AAFC429F","title":"百春原南味粉面","lon":"121.55412673","lat":"31.231033317","category":"68","category_name":"快餐厅","address":"浦东新区杨高中路2128号正大生活馆1楼(世纪公园)"},{"poiid":"B2094655D26BABFB429F","title":"张杨南苑","lon":"121.55281","lat":"31.237694","category":"47","category_name":"住宅区","address":"上海市浦东新区苗圃路466弄(张杨路口)"},{"poiid":"B2094655D26BA0FC4198","title":"上海交通大学医学院附属仁济医院北院","lon":"121.55102","lat":"31.23343","category":"162","category_name":"医院","address":"浦东新区灵山路(巨野路口)"},{"poiid":"B2094655D26DA6F84899","title":"肯德基 杨高中路店 KFC","lon":"121.554856054","lat":"31.230660793","category":"68","category_name":"快餐厅","address":"浦东新区杨高中路2128号正大生活馆内(近四方路)"},{"poiid":"B2094757D165A7FF479C","title":"易初莲花","lon":"121.551837738","lat":"31.2341403834","category":"249","category_name":"购物服务","address":"上海市浦东新区杨高中路"},{"poiid":"B2094757D069A3FF4898","title":"上海三菱电机-上菱空调机电器有限公司","lon":"121.555980989","lat":"31.2345528324","category":"46","category_name":"楼宇","address":"上海市浦东新区南洋泾路505号"},{"poiid":"B2094654DA69A2F5499C","title":"永琪美容美发(羽山路)","lon":"121.55506","lat":"31.23663","category":"148","category_name":"美容美发店","address":"羽山路952"},{"poiid":"B2094654DA69A2FB429F","title":"金囡幼儿园","lon":"121.55158","lat":"31.23708","category":"57","category_name":"幼儿园","address":"浦东新区苗圃路470号(近羽山路)"},{"poiid":"B2094752D66BA1FD4999","title":"世纪大道地铁站","lon":"121.548349","lat":"31.234841","category":"36","category_name":"地铁站","address":"东方路世纪大道"},{"poiid":"B2094757D06BA2FF479A","title":"上海汽车进出口有限公司","lon":"121.552408","lat":"31.239503","category":"263","category_name":"公司","address":"张杨路2119号上汽国贸大楼A18室"},{"poiid":"B2094655D26AA0FA4399","title":"地铁北洋泾路站","lon":"121.55226","lat":"31.23912","category":"36","category_name":"地铁站","address":""},{"poiid":"B2094654DA69A1FC409B","title":"上海亚美口腔门诊部No.16","lon":"121.55556","lat":"31.23693","category":"162","category_name":"医院","address":"浦东新区羽山路968号(近南洋径路)"},{"poiid":"B2094757D064A3F4479C","title":"美时美分","lon":"121.55426","lat":"31.23615","category":"149","category_name":"洗浴推拿场所","address":"上海浦东新区羽山路招商银行旁(近桃林路)"},{"poiid":"B2094757D569A0FC479C","title":"新泽西庄园(森林湾)","lon":"121.5556156","lat":"31.23794889","category":"47","category_name":"住宅区","address":"新泽西庄园(森林湾)位于浦东羽山路979号"},{"poiid":"B2094655D36DA0F54193","title":"羽山路苗圃路","lon":"121.55119","lat":"31.2354","category":"38","category_name":"公交车站","address":""},{"poiid":"B2094654DA69A1FC479B","title":"南洋苑","lon":"121.55491","lat":"31.238665","category":"47","category_name":"住宅区","address":"上海市浦东新区南洋泾路287弄(近张杨路口)"},{"poiid":"B2094654DA69A1FC459A","title":"艾玛·贝尼瑜伽美容女子会所","lon":"121.55519","lat":"31.23716","category":"148","category_name":"美容美发店","address":"羽山路963-965"},{"poiid":"B2094655D268A0FF469F","title":"张扬南苑(东门)","lon":"121.55384","lat":"31.23816","category":"47","category_name":"住宅区","address":""},{"poiid":"B2094654DA69A2FA479C","title":"上海市浦东新区第二中心小学","lon":"121.55004","lat":"31.23579","category":"56","category_name":"小学","address":"浦东新区巨野路517号(近张杨路)"},{"poiid":"B2094654DA69A2FB4299","title":"新城名园","lon":"121.55157","lat":"31.238045","category":"47","category_name":"住宅区","address":"上海市浦东新区苗圃路438弄"},{"poiid":"B2094654DA69A1FC4693","title":"华阳苑","lon":"121.5545","lat":"31.239582","category":"47","category_name":"住宅区","address":"上海市浦东新区张扬路2100弄"},{"poiid":"B2094655D26DA1FE409F","title":"舟渔人家","lon":"121.55686","lat":"31.23268","category":"75","category_name":"浙江菜","address":"浦东新区杨高中路2108号汉庭宾馆后面(南洋泾路口)"},{"poiid":"B2094654DA69A2F4459D","title":"申舟明阳苑","lon":"121.556","lat":"31.2363","category":"47","category_name":"住宅区","address":"民生路1001弄1-9号"},{"poiid":"B2094757D66CA4FA429A","title":"上海天丰和益汽车服务有限公司","lon":"121.55457353","lat":"31.237006909","category":"500","category_name":"未知分类","address":"上海市羽山路986-988号"},{"poiid":"B2094654DA69A2FB499F","title":"灵山大楼","lon":"121.55115","lat":"31.23171","category":"46","category_name":"楼宇","address":"灵山路800号"},{"poiid":"B2094757D164A7FE419A","title":"cold stone(大拇指店)","lon":"121.55567062","lat":"31.235986145","category":"500","category_name":"未知分类","address":"上海市浦东新区芳甸路199弄9号"},{"poiid":"B2094654DA69A1FC469F","title":"光明便利No.451","lon":"121.55393","lat":"31.23898","category":"117","category_name":"便民商店/便利店","address":"南洋泾路283"},{"poiid":"B2094757D66DA4F9469A","title":"香楼","lon":"121.55239273","lat":"31.238342473","category":"247","category_name":"餐饮美食","address":"上海市浦东新区苗圃路472号"},{"poiid":"B2094757D065A1FA479B","title":"爱婴室(羽山店)","lon":"121.55364683","lat":"31.238201295","category":"500","category_name":"未知分类","address":"浦东新区南洋泾路393号(近羽山路)"},{"poiid":"B2094757D568A6FC4992","title":"奇知教育","lon":"121.55466498","lat":"31.23738553","category":"190","category_name":"培训机构","address":"南洋泾路373"},{"poiid":"B2094757D569A2F84398","title":"99旅馆","lon":"121.55322645","lat":"31.23907172","category":"216","category_name":"经济型连锁酒店","address":"张杨路2078"},{"poiid":"B2094654DA69A2FA489B","title":"乔家栅 巨野店","lon":"121.548596054","lat":"31.237229793","category":"68","category_name":"快餐厅","address":"浦东新区巨野路469号(张杨路口)"}]