[{"poiid":"B2094757D06FA5FD479B","title":"莘庄公园","lon":"121.373303237","lat":"31.1020471815","category":"196","category_name":"公园","address":"上海市闵行区莘浜路421号"},{"poiid":"B2094655D26EA5FF469E","title":"上海市公安局交通警察总队车辆管理所","lon":"121.3829","lat":"31.09784","category":"250","category_name":"公园户外","address":"沁春路179号"},{"poiid":"B2094757DA6FA3F4449A","title":"赤坂亭(莘庄龙之梦店)","lon":"121.380429267886","lat":"31.1055304292266","category":"269","category_name":"烧烤","address":"闵行区沪闵路6088号莘庄凯德龙之梦购物中心4楼24-27号(近莘建路)"},{"poiid":"B2094757D069A0F9469C","title":"自由港量贩式KTV(莘庄店)","lon":"121.37836","lat":"31.10617","category":"170","category_name":"KTV","address":"闵行区莘东路100号(近莘浜路)"},{"poiid":"B2094654DA65A3FD4898","title":"沁春园三村","lon":"121.373374","lat":"31.094646","category":"47","category_name":"住宅区","address":"上海市闵行区沁春路1366号"},{"poiid":"B2094654DA65A3FD479B","title":"蜀香村川菜 莘庄店","lon":"121.37300644648","lat":"31.105044614193","category":"71","category_name":"四川菜","address":"闵行区莘西路299号(莘松路口)"},{"poiid":"B2094655D268A1FE489E","title":"邻里苑","lon":"121.38082","lat":"31.10209","category":"47","category_name":"住宅区","address":"沪闵路5600弄"},{"poiid":"B2094757D66CA5F8479D","title":"莘松路智慧园","lon":"121.37286485","lat":"31.10539497","category":"252","category_name":"楼宇机构","address":"上海莘松路380号"},{"poiid":"B2094757D068AAF44599","title":"公园天下","lon":"121.372984","lat":"31.100528","category":"196","category_name":"公园","address":"闵行区西园路128弄(近莘庄公园)"},{"poiid":"B2094757D069A2FE429B","title":"三春汇秀苑","lon":"121.37458","lat":"31.093777","category":"47","category_name":"住宅区","address":"上海市闵行区沁春路355弄"},{"poiid":"B2094751D468A4FD4298","title":"饗enjoy","lon":"121.372954","lat":"31.105127","category":"247","category_name":"餐饮美食","address":"闵行区莘西路299号(近莘松路)"},{"poiid":"B2094654DA64AAFC4399","title":"沁春园一村","lon":"121.37898","lat":"31.097126","category":"47","category_name":"住宅区","address":"莘西南路400弄1-107号"},{"poiid":"B2094655D26AA6FC409B","title":"龙之梦影城","lon":"121.37568","lat":"31.10515","category":"178","category_name":"电影院","address":"闵行区莘建路2号莘庄龙之梦购物中心(近沪闵路尚未开业)"},{"poiid":"B2094757D069A1F54699","title":"阿杰烧烤店","lon":"121.376477054","lat":"31.105606793","category":"68","category_name":"快餐厅","address":"闵行区莘中路119号(近莘建路)"},{"poiid":"B2094751D265AAFA4998","title":"珍豪海鲜大酒楼","lon":"121.37484","lat":"31.09491","category":"247","category_name":"餐饮美食","address":"闵行区沁春路1378号"},{"poiid":"B2094654DA64AAFF4192","title":"上海市莘庄中学","lon":"121.37727","lat":"31.10425","category":"55","category_name":"中学","address":"闵行区莘中路35号(莘南路莘中路)"},{"poiid":"B2094654DA64AAFD459E","title":"中国银行上海市闵行支行","lon":"121.37543","lat":"31.10548","category":"150","category_name":"银行","address":"闵行区莘建路256号(近莘建支路)"},{"poiid":"B2094757D064A5F9429B","title":"权味石锅拌饭(莘庄龙之梦店)","lon":"121.375785657","lat":"31.1026759155","category":"247","category_name":"餐饮美食","address":"上海闵行区沪闵路6088号凯德龙之梦闵行B2"},{"poiid":"B2094757D66FA1FA479E","title":"上海市第二十六机动车安全检测站","lon":"121.37463685","lat":"31.094220246","category":"500","category_name":"未知分类","address":"闵行区沁春路699号(中春路口)"},{"poiid":"B2094655D36DA7F4409B","title":"莘西南路沁春路","lon":"121.37743","lat":"31.09767","category":"38","category_name":"公交车站","address":""},{"poiid":"B2094655D268A2F94193","title":"沁春园一村(西三号门)","lon":"121.37739","lat":"31.09819","category":"47","category_name":"住宅区","address":"莘西南路380弄"},{"poiid":"B2094655D268A2F9429A","title":"沁春园一村(西四号门)","lon":"121.37654","lat":"31.1","category":"47","category_name":"住宅区","address":""},{"poiid":"B2094654DB6CABFB4392","title":"源成春苑","lon":"121.3807","lat":"31.097881","category":"47","category_name":"住宅区","address":"上海市闵行区沁春路168弄"},{"poiid":"B2094655D268A4FF4698","title":"沁春园三村(东门)","lon":"121.37592","lat":"31.09883","category":"47","category_name":"住宅区","address":""},{"poiid":"B2094757D06FA5F54598","title":"上海市交通警察总队车辆管理所(莘庄二分所)","lon":"121.378987","lat":"31.096148","category":"500","category_name":"未知分类","address":"上海市闵行区沁春路179号"},{"poiid":"B2094757D66CA2FD479C","title":"中国石化莘庄加油站","lon":"121.376767857","lat":"31.0996743554","category":"154","category_name":"加油加气站","address":"上海市闵行区沪闵路5515号"},{"poiid":"B2094757D66BA1FC419E","title":"吴记老锅底麻辣火锅 沁春路店","lon":"121.3760908","lat":"31.0951889","category":"86","category_name":"火锅店","address":"闵行区沁春路1326号(中春路口)"},{"poiid":"B2094654DA65A3FE459D","title":"莘纪苑小区(西园路)","lon":"121.37352","lat":"31.09948","category":"47","category_name":"住宅区","address":"西园路128弄"},{"poiid":"B2094757D06FAAFF409F","title":"团结花苑","lon":"121.37217","lat":"31.104425","category":"47","category_name":"住宅区","address":"上海闵行区莘建路375弄"},{"poiid":"B2094757D065AAF94999","title":"閔行莘庄镇小学(南校区)","lon":"121.37889185","lat":"31.100107364","category":"500","category_name":"未知分类","address":"上海市闵行区莘西南路"},{"poiid":"B2094757D06BA1FB499C","title":"沁春二村","lon":"121.377639","lat":"31.095369","category":"252","category_name":"楼宇机构","address":"上海莘西南路155弄"},{"poiid":"B2094654DA64AAFC439D","title":"光明乳业莘庄配送站","lon":"121.37801","lat":"31.09708","category":"117","category_name":"便民商店/便利店","address":""},{"poiid":"B2094655D26FAAFF469B","title":"沁春园一村(西二号门)","lon":"121.37782","lat":"31.09744","category":"47","category_name":"住宅区","address":"莘西南路300弄、400弄"},{"poiid":"B2094654DA64AAFF4193","title":"莘南新村","lon":"121.37842","lat":"31.103016","category":"47","category_name":"住宅区","address":"上海市闵行区莘中路15弄(近莘南路)"},{"poiid":"B2094655D36DA7F4409A","title":"莘西路莘浜路","lon":"121.37408","lat":"31.10404","category":"38","category_name":"公交车站","address":""},{"poiid":"B2094757D065A4FD469C","title":"吴记老锅底麻辣火锅(沁春店)","lon":"121.380580857","lat":"31.0976668152","category":"247","category_name":"餐饮美食","address":"上海闵行区沁春路1326号(近中春路口)"},{"poiid":"B2094654DB6CABFB459C","title":"九宫宾馆","lon":"121.38305","lat":"31.1003","category":"217","category_name":"旅馆招待所","address":"闵行区沪闵路5588号(近春申路)"},{"poiid":"B2094655D26BABFA4899","title":"小富人家","lon":"121.38102","lat":"31.09734","category":"47","category_name":"住宅区","address":"小富人家(闵行)位于闵行沁春路168弄近沪闵路"},{"poiid":"B2094757D168A7F54398","title":"CHANGI airport singapore","lon":"121.379488857","lat":"31.0989183403","category":"500","category_name":"未知分类","address":"上海新加坡樟宜机场"},{"poiid":"B2094757D16FA3FC429E","title":"莘庄镇小学(北校区)","lon":"121.375675","lat":"31.103687","category":"56","category_name":"小学","address":"上海闵行区莘浜路315号"},{"poiid":"B2094757D06FA4F4469A","title":"85度C(莘建店)","lon":"121.37843","lat":"31.10652","category":"112","category_name":"糕饼店","address":"闵行区莘建路71号(近莘东路)"},{"poiid":"B2094757D06EABF5469E","title":"地铁五号线","lon":"121.37514495","lat":"31.105545043","category":"36","category_name":"地铁站","address":"上海莘庄 - 闵行开发区  轨道交通五号线"},{"poiid":"B2094654DA65A3FE4598","title":"莘松幼儿园莘纪苑分园","lon":"121.37378","lat":"31.09977","category":"57","category_name":"幼儿园","address":"西园路128弄77号"},{"poiid":"B2094655D268A3F4449F","title":"上海阿婆","lon":"121.37389337816","lat":"31.106513257287","category":"76","category_name":"上海菜","address":"闵行区莘建支路72号(近莘松路)"},{"poiid":"B2094654DA65A3FE459F","title":"快客NO.6366","lon":"121.37326","lat":"31.09953","category":"117","category_name":"便民商店/便利店","address":"西园路128弄10"},{"poiid":"B2094757D165A4FE479C","title":"国安土菜馆","lon":"121.376205857","lat":"31.1047704575","category":"247","category_name":"餐饮美食","address":"上海市闵行区莘西路"},{"poiid":"B2094654DA65A3FD459D","title":"小桥流水 莘庄店","lon":"121.37211204282","lat":"31.105556136737","category":"47","category_name":"住宅区","address":"闵行区莘松路355号(近莘西路)"},{"poiid":"B2094757D66AA5FD4993","title":"小丁香","lon":"121.374194054","lat":"31.105971793","category":"76","category_name":"上海菜","address":"闵行区莘建支路58号(永乐旁)"},{"poiid":"B2094655D268A0FD449F","title":"沁春路1122弄小区","lon":"121.37712","lat":"31.09621","category":"47","category_name":"住宅区","address":"沁春路1122弄"},{"poiid":"B2094654DA64AAFC459B","title":"华氏大药房沁春路药房","lon":"121.37875","lat":"31.09631","category":"162","category_name":"医院","address":"闵行区沁春路1052号(沁春路莘西南路)"},{"poiid":"B2094757D06FA5FD479B","title":"莘庄公园","lon":"121.373303237","lat":"31.1020471815","category":"196","category_name":"公园","address":"上海市闵行区莘浜路421号"},{"poiid":"B2094655D26EA5FF469E","title":"上海市公安局交通警察总队车辆管理所","lon":"121.3829","lat":"31.09784","category":"250","category_name":"公园户外","address":"沁春路179号"},{"poiid":"B2094757DA6FA3F4449A","title":"赤坂亭(莘庄龙之梦店)","lon":"121.380429267886","lat":"31.1055304292266","category":"269","category_name":"烧烤","address":"闵行区沪闵路6088号莘庄凯德龙之梦购物中心4楼24-27号(近莘建路)"},{"poiid":"B2094757D069A0F9469C","title":"自由港量贩式KTV(莘庄店)","lon":"121.37836","lat":"31.10617","category":"170","category_name":"KTV","address":"闵行区莘东路100号(近莘浜路)"},{"poiid":"B2094654DA65A3FD4898","title":"沁春园三村","lon":"121.373374","lat":"31.094646","category":"47","category_name":"住宅区","address":"上海市闵行区沁春路1366号"},{"poiid":"B2094654DA65A3FD479B","title":"蜀香村川菜 莘庄店","lon":"121.37300644648","lat":"31.105044614193","category":"71","category_name":"四川菜","address":"闵行区莘西路299号(莘松路口)"},{"poiid":"B2094655D268A1FE489E","title":"邻里苑","lon":"121.38082","lat":"31.10209","category":"47","category_name":"住宅区","address":"沪闵路5600弄"},{"poiid":"B2094757D66CA5F8479D","title":"莘松路智慧园","lon":"121.37286485","lat":"31.10539497","category":"252","category_name":"楼宇机构","address":"上海莘松路380号"},{"poiid":"B2094757D068AAF44599","title":"公园天下","lon":"121.372984","lat":"31.100528","category":"196","category_name":"公园","address":"闵行区西园路128弄(近莘庄公园)"},{"poiid":"B2094757D069A2FE429B","title":"三春汇秀苑","lon":"121.37458","lat":"31.093777","category":"47","category_name":"住宅区","address":"上海市闵行区沁春路355弄"},{"poiid":"B2094751D468A4FD4298","title":"饗enjoy","lon":"121.372954","lat":"31.105127","category":"247","category_name":"餐饮美食","address":"闵行区莘西路299号(近莘松路)"},{"poiid":"B2094654DA64AAFC4399","title":"沁春园一村","lon":"121.37898","lat":"31.097126","category":"47","category_name":"住宅区","address":"莘西南路400弄1-107号"},{"poiid":"B2094655D26AA6FC409B","title":"龙之梦影城","lon":"121.37568","lat":"31.10515","category":"178","category_name":"电影院","address":"闵行区莘建路2号莘庄龙之梦购物中心(近沪闵路尚未开业)"},{"poiid":"B2094757D069A1F54699","title":"阿杰烧烤店","lon":"121.376477054","lat":"31.105606793","category":"68","category_name":"快餐厅","address":"闵行区莘中路119号(近莘建路)"},{"poiid":"B2094751D265AAFA4998","title":"珍豪海鲜大酒楼","lon":"121.37484","lat":"31.09491","category":"247","category_name":"餐饮美食","address":"闵行区沁春路1378号"},{"poiid":"B2094654DA64AAFF4192","title":"上海市莘庄中学","lon":"121.37727","lat":"31.10425","category":"55","category_name":"中学","address":"闵行区莘中路35号(莘南路莘中路)"},{"poiid":"B2094654DA64AAFD459E","title":"中国银行上海市闵行支行","lon":"121.37543","lat":"31.10548","category":"150","category_name":"银行","address":"闵行区莘建路256号(近莘建支路)"},{"poiid":"B2094757D064A5F9429B","title":"权味石锅拌饭(莘庄龙之梦店)","lon":"121.375785657","lat":"31.1026759155","category":"247","category_name":"餐饮美食","address":"上海闵行区沪闵路6088号凯德龙之梦闵行B2"},{"poiid":"B2094757D66FA1FA479E","title":"上海市第二十六机动车安全检测站","lon":"121.37463685","lat":"31.094220246","category":"500","category_name":"未知分类","address":"闵行区沁春路699号(中春路口)"},{"poiid":"B2094655D36DA7F4409B","title":"莘西南路沁春路","lon":"121.37743","lat":"31.09767","category":"38","category_name":"公交车站","address":""},{"poiid":"B2094655D268A2F94193","title":"沁春园一村(西三号门)","lon":"121.37739","lat":"31.09819","category":"47","category_name":"住宅区","address":"莘西南路380弄"},{"poiid":"B2094655D268A2F9429A","title":"沁春园一村(西四号门)","lon":"121.37654","lat":"31.1","category":"47","category_name":"住宅区","address":""},{"poiid":"B2094654DB6CABFB4392","title":"源成春苑","lon":"121.3807","lat":"31.097881","category":"47","category_name":"住宅区","address":"上海市闵行区沁春路168弄"},{"poiid":"B2094655D268A4FF4698","title":"沁春园三村(东门)","lon":"121.37592","lat":"31.09883","category":"47","category_name":"住宅区","address":""},{"poiid":"B2094757D06FA5F54598","title":"上海市交通警察总队车辆管理所(莘庄二分所)","lon":"121.378987","lat":"31.096148","category":"500","category_name":"未知分类","address":"上海市闵行区沁春路179号"},{"poiid":"B2094757D66CA2FD479C","title":"中国石化莘庄加油站","lon":"121.376767857","lat":"31.0996743554","category":"154","category_name":"加油加气站","address":"上海市闵行区沪闵路5515号"},{"poiid":"B2094757D66BA1FC419E","title":"吴记老锅底麻辣火锅 沁春路店","lon":"121.3760908","lat":"31.0951889","category":"86","category_name":"火锅店","address":"闵行区沁春路1326号(中春路口)"},{"poiid":"B2094654DA65A3FE459D","title":"莘纪苑小区(西园路)","lon":"121.37352","lat":"31.09948","category":"47","category_name":"住宅区","address":"西园路128弄"},{"poiid":"B2094757D06FAAFF409F","title":"团结花苑","lon":"121.37217","lat":"31.104425","category":"47","category_name":"住宅区","address":"上海闵行区莘建路375弄"},{"poiid":"B2094757D065AAF94999","title":"閔行莘庄镇小学(南校区)","lon":"121.37889185","lat":"31.100107364","category":"500","category_name":"未知分类","address":"上海市闵行区莘西南路"},{"poiid":"B2094757D06BA1FB499C","title":"沁春二村","lon":"121.377639","lat":"31.095369","category":"252","category_name":"楼宇机构","address":"上海莘西南路155弄"},{"poiid":"B2094654DA64AAFC439D","title":"光明乳业莘庄配送站","lon":"121.37801","lat":"31.09708","category":"117","category_name":"便民商店/便利店","address":""},{"poiid":"B2094655D26FAAFF469B","title":"沁春园一村(西二号门)","lon":"121.37782","lat":"31.09744","category":"47","category_name":"住宅区","address":"莘西南路300弄、400弄"},{"poiid":"B2094654DA64AAFF4193","title":"莘南新村","lon":"121.37842","lat":"31.103016","category":"47","category_name":"住宅区","address":"上海市闵行区莘中路15弄(近莘南路)"},{"poiid":"B2094655D36DA7F4409A","title":"莘西路莘浜路","lon":"121.37408","lat":"31.10404","category":"38","category_name":"公交车站","address":""},{"poiid":"B2094757D065A4FD469C","title":"吴记老锅底麻辣火锅(沁春店)","lon":"121.380580857","lat":"31.0976668152","category":"247","category_name":"餐饮美食","address":"上海闵行区沁春路1326号(近中春路口)"},{"poiid":"B2094654DB6CABFB459C","title":"九宫宾馆","lon":"121.38305","lat":"31.1003","category":"217","category_name":"旅馆招待所","address":"闵行区沪闵路5588号(近春申路)"},{"poiid":"B2094655D26BABFA4899","title":"小富人家","lon":"121.38102","lat":"31.09734","category":"47","category_name":"住宅区","address":"小富人家(闵行)位于闵行沁春路168弄近沪闵路"},{"poiid":"B2094757D168A7F54398","title":"CHANGI airport singapore","lon":"121.379488857","lat":"31.0989183403","category":"500","category_name":"未知分类","address":"上海新加坡樟宜机场"},{"poiid":"B2094757D16FA3FC429E","title":"莘庄镇小学(北校区)","lon":"121.375675","lat":"31.103687","category":"56","category_name":"小学","address":"上海闵行区莘浜路315号"},{"poiid":"B2094757D06FA4F4469A","title":"85度C(莘建店)","lon":"121.37843","lat":"31.10652","category":"112","category_name":"糕饼店","address":"闵行区莘建路71号(近莘东路)"},{"poiid":"B2094757D06EABF5469E","title":"地铁五号线","lon":"121.37514495","lat":"31.105545043","category":"36","category_name":"地铁站","address":"上海莘庄 - 闵行开发区  轨道交通五号线"},{"poiid":"B2094654DA65A3FE4598","title":"莘松幼儿园莘纪苑分园","lon":"121.37378","lat":"31.09977","category":"57","category_name":"幼儿园","address":"西园路128弄77号"},{"poiid":"B2094655D268A3F4449F","title":"上海阿婆","lon":"121.37389337816","lat":"31.106513257287","category":"76","category_name":"上海菜","address":"闵行区莘建支路72号(近莘松路)"},{"poiid":"B2094654DA65A3FE459F","title":"快客NO.6366","lon":"121.37326","lat":"31.09953","category":"117","category_name":"便民商店/便利店","address":"西园路128弄10"},{"poiid":"B2094757D165A4FE479C","title":"国安土菜馆","lon":"121.376205857","lat":"31.1047704575","category":"247","category_name":"餐饮美食","address":"上海市闵行区莘西路"},{"poiid":"B2094654DA65A3FD459D","title":"小桥流水 莘庄店","lon":"121.37211204282","lat":"31.105556136737","category":"47","category_name":"住宅区","address":"闵行区莘松路355号(近莘西路)"},{"poiid":"B2094757D66AA5FD4993","title":"小丁香","lon":"121.374194054","lat":"31.105971793","category":"76","category_name":"上海菜","address":"闵行区莘建支路58号(永乐旁)"},{"poiid":"B2094655D268A0FD449F","title":"沁春路1122弄小区","lon":"121.37712","lat":"31.09621","category":"47","category_name":"住宅区","address":"沁春路1122弄"},{"poiid":"B2094654DA64AAFC459B","title":"华氏大药房沁春路药房","lon":"121.37875","lat":"31.09631","category":"162","category_name":"医院","address":"闵行区沁春路1052号(沁春路莘西南路)"},{"poiid":"B2094757D06FA5FD479B","title":"莘庄公园","lon":"121.373303237","lat":"31.1020471815","category":"196","category_name":"公园","address":"上海市闵行区莘浜路421号"},{"poiid":"B2094655D26EA5FF469E","title":"上海市公安局交通警察总队车辆管理所","lon":"121.3829","lat":"31.09784","category":"250","category_name":"公园户外","address":"沁春路179号"},{"poiid":"B2094757DA6FA3F4449A","title":"赤坂亭(莘庄龙之梦店)","lon":"121.380429267886","lat":"31.1055304292266","category":"269","category_name":"烧烤","address":"闵行区沪闵路6088号莘庄凯德龙之梦购物中心4楼24-27号(近莘建路)"},{"poiid":"B2094757D069A0F9469C","title":"自由港量贩式KTV(莘庄店)","lon":"121.37836","lat":"31.10617","category":"170","category_name":"KTV","address":"闵行区莘东路100号(近莘浜路)"},{"poiid":"B2094654DA65A3FD4898","title":"沁春园三村","lon":"121.373374","lat":"31.094646","category":"47","category_name":"住宅区","address":"上海市闵行区沁春路1366号"},{"poiid":"B2094654DA65A3FD479B","title":"蜀香村川菜 莘庄店","lon":"121.37300644648","lat":"31.105044614193","category":"71","category_name":"四川菜","address":"闵行区莘西路299号(莘松路口)"},{"poiid":"B2094655D268A1FE489E","title":"邻里苑","lon":"121.38082","lat":"31.10209","category":"47","category_name":"住宅区","address":"沪闵路5600弄"},{"poiid":"B2094757D66CA5F8479D","title":"莘松路智慧园","lon":"121.37286485","lat":"31.10539497","category":"252","category_name":"楼宇机构","address":"上海莘松路380号"},{"poiid":"B2094757D068AAF44599","title":"公园天下","lon":"121.372984","lat":"31.100528","category":"196","category_name":"公园","address":"闵行区西园路128弄(近莘庄公园)"},{"poiid":"B2094757D069A2FE429B","title":"三春汇秀苑","lon":"121.37458","lat":"31.093777","category":"47","category_name":"住宅区","address":"上海市闵行区沁春路355弄"},{"poiid":"B2094751D468A4FD4298","title":"饗enjoy","lon":"121.372954","lat":"31.105127","category":"247","category_name":"餐饮美食","address":"闵行区莘西路299号(近莘松路)"},{"poiid":"B2094654DA64AAFC4399","title":"沁春园一村","lon":"121.37898","lat":"31.097126","category":"47","category_name":"住宅区","address":"莘西南路400弄1-107号"},{"poiid":"B2094655D26AA6FC409B","title":"龙之梦影城","lon":"121.37568","lat":"31.10515","category":"178","category_name":"电影院","address":"闵行区莘建路2号莘庄龙之梦购物中心(近沪闵路尚未开业)"},{"poiid":"B2094757D069A1F54699","title":"阿杰烧烤店","lon":"121.376477054","lat":"31.105606793","category":"68","category_name":"快餐厅","address":"闵行区莘中路119号(近莘建路)"},{"poiid":"B2094751D265AAFA4998","title":"珍豪海鲜大酒楼","lon":"121.37484","lat":"31.09491","category":"247","category_name":"餐饮美食","address":"闵行区沁春路1378号"},{"poiid":"B2094654DA64AAFF4192","title":"上海市莘庄中学","lon":"121.37727","lat":"31.10425","category":"55","category_name":"中学","address":"闵行区莘中路35号(莘南路莘中路)"},{"poiid":"B2094654DA64AAFD459E","title":"中国银行上海市闵行支行","lon":"121.37543","lat":"31.10548","category":"150","category_name":"银行","address":"闵行区莘建路256号(近莘建支路)"},{"poiid":"B2094757D064A5F9429B","title":"权味石锅拌饭(莘庄龙之梦店)","lon":"121.375785657","lat":"31.1026759155","category":"247","category_name":"餐饮美食","address":"上海闵行区沪闵路6088号凯德龙之梦闵行B2"},{"poiid":"B2094757D66FA1FA479E","title":"上海市第二十六机动车安全检测站","lon":"121.37463685","lat":"31.094220246","category":"500","category_name":"未知分类","address":"闵行区沁春路699号(中春路口)"},{"poiid":"B2094655D36DA7F4409B","title":"莘西南路沁春路","lon":"121.37743","lat":"31.09767","category":"38","category_name":"公交车站","address":""},{"poiid":"B2094655D268A2F94193","title":"沁春园一村(西三号门)","lon":"121.37739","lat":"31.09819","category":"47","category_name":"住宅区","address":"莘西南路380弄"},{"poiid":"B2094655D268A2F9429A","title":"沁春园一村(西四号门)","lon":"121.37654","lat":"31.1","category":"47","category_name":"住宅区","address":""},{"poiid":"B2094654DB6CABFB4392","title":"源成春苑","lon":"121.3807","lat":"31.097881","category":"47","category_name":"住宅区","address":"上海市闵行区沁春路168弄"},{"poiid":"B2094655D268A4FF4698","title":"沁春园三村(东门)","lon":"121.37592","lat":"31.09883","category":"47","category_name":"住宅区","address":""},{"poiid":"B2094757D06FA5F54598","title":"上海市交通警察总队车辆管理所(莘庄二分所)","lon":"121.378987","lat":"31.096148","category":"500","category_name":"未知分类","address":"上海市闵行区沁春路179号"},{"poiid":"B2094757D66CA2FD479C","title":"中国石化莘庄加油站","lon":"121.376767857","lat":"31.0996743554","category":"154","category_name":"加油加气站","address":"上海市闵行区沪闵路5515号"},{"poiid":"B2094757D66BA1FC419E","title":"吴记老锅底麻辣火锅 沁春路店","lon":"121.3760908","lat":"31.0951889","category":"86","category_name":"火锅店","address":"闵行区沁春路1326号(中春路口)"},{"poiid":"B2094654DA65A3FE459D","title":"莘纪苑小区(西园路)","lon":"121.37352","lat":"31.09948","category":"47","category_name":"住宅区","address":"西园路128弄"},{"poiid":"B2094757D06FAAFF409F","title":"团结花苑","lon":"121.37217","lat":"31.104425","category":"47","category_name":"住宅区","address":"上海闵行区莘建路375弄"},{"poiid":"B2094757D065AAF94999","title":"閔行莘庄镇小学(南校区)","lon":"121.37889185","lat":"31.100107364","category":"500","category_name":"未知分类","address":"上海市闵行区莘西南路"},{"poiid":"B2094757D06BA1FB499C","title":"沁春二村","lon":"121.377639","lat":"31.095369","category":"252","category_name":"楼宇机构","address":"上海莘西南路155弄"},{"poiid":"B2094654DA64AAFC439D","title":"光明乳业莘庄配送站","lon":"121.37801","lat":"31.09708","category":"117","category_name":"便民商店/便利店","address":""},{"poiid":"B2094655D26FAAFF469B","title":"沁春园一村(西二号门)","lon":"121.37782","lat":"31.09744","category":"47","category_name":"住宅区","address":"莘西南路300弄、400弄"},{"poiid":"B2094654DA64AAFF4193","title":"莘南新村","lon":"121.37842","lat":"31.103016","category":"47","category_name":"住宅区","address":"上海市闵行区莘中路15弄(近莘南路)"},{"poiid":"B2094655D36DA7F4409A","title":"莘西路莘浜路","lon":"121.37408","lat":"31.10404","category":"38","category_name":"公交车站","address":""},{"poiid":"B2094757D065A4FD469C","title":"吴记老锅底麻辣火锅(沁春店)","lon":"121.380580857","lat":"31.0976668152","category":"247","category_name":"餐饮美食","address":"上海闵行区沁春路1326号(近中春路口)"},{"poiid":"B2094654DB6CABFB459C","title":"九宫宾馆","lon":"121.38305","lat":"31.1003","category":"217","category_name":"旅馆招待所","address":"闵行区沪闵路5588号(近春申路)"},{"poiid":"B2094655D26BABFA4899","title":"小富人家","lon":"121.38102","lat":"31.09734","category":"47","category_name":"住宅区","address":"小富人家(闵行)位于闵行沁春路168弄近沪闵路"},{"poiid":"B2094757D168A7F54398","title":"CHANGI airport singapore","lon":"121.379488857","lat":"31.0989183403","category":"500","category_name":"未知分类","address":"上海新加坡樟宜机场"},{"poiid":"B2094757D16FA3FC429E","title":"莘庄镇小学(北校区)","lon":"121.375675","lat":"31.103687","category":"56","category_name":"小学","address":"上海闵行区莘浜路315号"},{"poiid":"B2094757D06FA4F4469A","title":"85度C(莘建店)","lon":"121.37843","lat":"31.10652","category":"112","category_name":"糕饼店","address":"闵行区莘建路71号(近莘东路)"},{"poiid":"B2094757D06EABF5469E","title":"地铁五号线","lon":"121.37514495","lat":"31.105545043","category":"36","category_name":"地铁站","address":"上海莘庄 - 闵行开发区  轨道交通五号线"},{"poiid":"B2094654DA65A3FE4598","title":"莘松幼儿园莘纪苑分园","lon":"121.37378","lat":"31.09977","category":"57","category_name":"幼儿园","address":"西园路128弄77号"},{"poiid":"B2094655D268A3F4449F","title":"上海阿婆","lon":"121.37389337816","lat":"31.106513257287","category":"76","category_name":"上海菜","address":"闵行区莘建支路72号(近莘松路)"},{"poiid":"B2094654DA65A3FE459F","title":"快客NO.6366","lon":"121.37326","lat":"31.09953","category":"117","category_name":"便民商店/便利店","address":"西园路128弄10"},{"poiid":"B2094757D165A4FE479C","title":"国安土菜馆","lon":"121.376205857","lat":"31.1047704575","category":"247","category_name":"餐饮美食","address":"上海市闵行区莘西路"},{"poiid":"B2094654DA65A3FD459D","title":"小桥流水 莘庄店","lon":"121.37211204282","lat":"31.105556136737","category":"47","category_name":"住宅区","address":"闵行区莘松路355号(近莘西路)"},{"poiid":"B2094757D66AA5FD4993","title":"小丁香","lon":"121.374194054","lat":"31.105971793","category":"76","category_name":"上海菜","address":"闵行区莘建支路58号(永乐旁)"},{"poiid":"B2094655D268A0FD449F","title":"沁春路1122弄小区","lon":"121.37712","lat":"31.09621","category":"47","category_name":"住宅区","address":"沁春路1122弄"},{"poiid":"B2094654DA64AAFC459B","title":"华氏大药房沁春路药房","lon":"121.37875","lat":"31.09631","category":"162","category_name":"医院","address":"闵行区沁春路1052号(沁春路莘西南路)"},{"poiid":"B2094757D06FA5FD479B","title":"莘庄公园","lon":"121.373303237","lat":"31.1020471815","category":"196","category_name":"公园","address":"上海市闵行区莘浜路421号"},{"poiid":"B2094655D26EA5FF469E","title":"上海市公安局交通警察总队车辆管理所","lon":"121.3829","lat":"31.09784","category":"250","category_name":"公园户外","address":"沁春路179号"},{"poiid":"B2094757DA6FA3F4449A","title":"赤坂亭(莘庄龙之梦店)","lon":"121.380429267886","lat":"31.1055304292266","category":"269","category_name":"烧烤","address":"闵行区沪闵路6088号莘庄凯德龙之梦购物中心4楼24-27号(近莘建路)"},{"poiid":"B2094757D069A0F9469C","title":"自由港量贩式KTV(莘庄店)","lon":"121.37836","lat":"31.10617","category":"170","category_name":"KTV","address":"闵行区莘东路100号(近莘浜路)"},{"poiid":"B2094654DA65A3FD4898","title":"沁春园三村","lon":"121.373374","lat":"31.094646","category":"47","category_name":"住宅区","address":"上海市闵行区沁春路1366号"},{"poiid":"B2094654DA65A3FD479B","title":"蜀香村川菜 莘庄店","lon":"121.37300644648","lat":"31.105044614193","category":"71","category_name":"四川菜","address":"闵行区莘西路299号(莘松路口)"},{"poiid":"B2094655D268A1FE489E","title":"邻里苑","lon":"121.38082","lat":"31.10209","category":"47","category_name":"住宅区","address":"沪闵路5600弄"},{"poiid":"B2094757D66CA5F8479D","title":"莘松路智慧园","lon":"121.37286485","lat":"31.10539497","category":"252","category_name":"楼宇机构","address":"上海莘松路380号"},{"poiid":"B2094757D068AAF44599","title":"公园天下","lon":"121.372984","lat":"31.100528","category":"196","category_name":"公园","address":"闵行区西园路128弄(近莘庄公园)"},{"poiid":"B2094757D069A2FE429B","title":"三春汇秀苑","lon":"121.37458","lat":"31.093777","category":"47","category_name":"住宅区","address":"上海市闵行区沁春路355弄"},{"poiid":"B2094751D468A4FD4298","title":"饗enjoy","lon":"121.372954","lat":"31.105127","category":"247","category_name":"餐饮美食","address":"闵行区莘西路299号(近莘松路)"},{"poiid":"B2094654DA64AAFC4399","title":"沁春园一村","lon":"121.37898","lat":"31.097126","category":"47","category_name":"住宅区","address":"莘西南路400弄1-107号"},{"poiid":"B2094655D26AA6FC409B","title":"龙之梦影城","lon":"121.37568","lat":"31.10515","category":"178","category_name":"电影院","address":"闵行区莘建路2号莘庄龙之梦购物中心(近沪闵路尚未开业)"},{"poiid":"B2094757D069A1F54699","title":"阿杰烧烤店","lon":"121.376477054","lat":"31.105606793","category":"68","category_name":"快餐厅","address":"闵行区莘中路119号(近莘建路)"},{"poiid":"B2094751D265AAFA4998","title":"珍豪海鲜大酒楼","lon":"121.37484","lat":"31.09491","category":"247","category_name":"餐饮美食","address":"闵行区沁春路1378号"},{"poiid":"B2094654DA64AAFF4192","title":"上海市莘庄中学","lon":"121.37727","lat":"31.10425","category":"55","category_name":"中学","address":"闵行区莘中路35号(莘南路莘中路)"},{"poiid":"B2094654DA64AAFD459E","title":"中国银行上海市闵行支行","lon":"121.37543","lat":"31.10548","category":"150","category_name":"银行","address":"闵行区莘建路256号(近莘建支路)"},{"poiid":"B2094757D064A5F9429B","title":"权味石锅拌饭(莘庄龙之梦店)","lon":"121.375785657","lat":"31.1026759155","category":"247","category_name":"餐饮美食","address":"上海闵行区沪闵路6088号凯德龙之梦闵行B2"},{"poiid":"B2094757D66FA1FA479E","title":"上海市第二十六机动车安全检测站","lon":"121.37463685","lat":"31.094220246","category":"500","category_name":"未知分类","address":"闵行区沁春路699号(中春路口)"},{"poiid":"B2094655D36DA7F4409B","title":"莘西南路沁春路","lon":"121.37743","lat":"31.09767","category":"38","category_name":"公交车站","address":""},{"poiid":"B2094655D268A2F94193","title":"沁春园一村(西三号门)","lon":"121.37739","lat":"31.09819","category":"47","category_name":"住宅区","address":"莘西南路380弄"},{"poiid":"B2094655D268A2F9429A","title":"沁春园一村(西四号门)","lon":"121.37654","lat":"31.1","category":"47","category_name":"住宅区","address":""},{"poiid":"B2094654DB6CABFB4392","title":"源成春苑","lon":"121.3807","lat":"31.097881","category":"47","category_name":"住宅区","address":"上海市闵行区沁春路168弄"},{"poiid":"B2094655D268A4FF4698","title":"沁春园三村(东门)","lon":"121.37592","lat":"31.09883","category":"47","category_name":"住宅区","address":""},{"poiid":"B2094757D06FA5F54598","title":"上海市交通警察总队车辆管理所(莘庄二分所)","lon":"121.378987","lat":"31.096148","category":"500","category_name":"未知分类","address":"上海市闵行区沁春路179号"},{"poiid":"B2094757D66CA2FD479C","title":"中国石化莘庄加油站","lon":"121.376767857","lat":"31.0996743554","category":"154","category_name":"加油加气站","address":"上海市闵行区沪闵路5515号"},{"poiid":"B2094757D66BA1FC419E","title":"吴记老锅底麻辣火锅 沁春路店","lon":"121.3760908","lat":"31.0951889","category":"86","category_name":"火锅店","address":"闵行区沁春路1326号(中春路口)"},{"poiid":"B2094654DA65A3FE459D","title":"莘纪苑小区(西园路)","lon":"121.37352","lat":"31.09948","category":"47","category_name":"住宅区","address":"西园路128弄"},{"poiid":"B2094757D06FAAFF409F","title":"团结花苑","lon":"121.37217","lat":"31.104425","category":"47","category_name":"住宅区","address":"上海闵行区莘建路375弄"},{"poiid":"B2094757D065AAF94999","title":"閔行莘庄镇小学(南校区)","lon":"121.37889185","lat":"31.100107364","category":"500","category_name":"未知分类","address":"上海市闵行区莘西南路"},{"poiid":"B2094757D06BA1FB499C","title":"沁春二村","lon":"121.377639","lat":"31.095369","category":"252","category_name":"楼宇机构","address":"上海莘西南路155弄"},{"poiid":"B2094654DA64AAFC439D","title":"光明乳业莘庄配送站","lon":"121.37801","lat":"31.09708","category":"117","category_name":"便民商店/便利店","address":""},{"poiid":"B2094655D26FAAFF469B","title":"沁春园一村(西二号门)","lon":"121.37782","lat":"31.09744","category":"47","category_name":"住宅区","address":"莘西南路300弄、400弄"},{"poiid":"B2094654DA64AAFF4193","title":"莘南新村","lon":"121.37842","lat":"31.103016","category":"47","category_name":"住宅区","address":"上海市闵行区莘中路15弄(近莘南路)"},{"poiid":"B2094655D36DA7F4409A","title":"莘西路莘浜路","lon":"121.37408","lat":"31.10404","category":"38","category_name":"公交车站","address":""},{"poiid":"B2094757D065A4FD469C","title":"吴记老锅底麻辣火锅(沁春店)","lon":"121.380580857","lat":"31.0976668152","category":"247","category_name":"餐饮美食","address":"上海闵行区沁春路1326号(近中春路口)"},{"poiid":"B2094654DB6CABFB459C","title":"九宫宾馆","lon":"121.38305","lat":"31.1003","category":"217","category_name":"旅馆招待所","address":"闵行区沪闵路5588号(近春申路)"},{"poiid":"B2094655D26BABFA4899","title":"小富人家","lon":"121.38102","lat":"31.09734","category":"47","category_name":"住宅区","address":"小富人家(闵行)位于闵行沁春路168弄近沪闵路"},{"poiid":"B2094757D168A7F54398","title":"CHANGI airport singapore","lon":"121.379488857","lat":"31.0989183403","category":"500","category_name":"未知分类","address":"上海新加坡樟宜机场"},{"poiid":"B2094757D16FA3FC429E","title":"莘庄镇小学(北校区)","lon":"121.375675","lat":"31.103687","category":"56","category_name":"小学","address":"上海闵行区莘浜路315号"},{"poiid":"B2094757D06FA4F4469A","title":"85度C(莘建店)","lon":"121.37843","lat":"31.10652","category":"112","category_name":"糕饼店","address":"闵行区莘建路71号(近莘东路)"},{"poiid":"B2094757D06EABF5469E","title":"地铁五号线","lon":"121.37514495","lat":"31.105545043","category":"36","category_name":"地铁站","address":"上海莘庄 - 闵行开发区  轨道交通五号线"},{"poiid":"B2094654DA65A3FE4598","title":"莘松幼儿园莘纪苑分园","lon":"121.37378","lat":"31.09977","category":"57","category_name":"幼儿园","address":"西园路128弄77号"},{"poiid":"B2094655D268A3F4449F","title":"上海阿婆","lon":"121.37389337816","lat":"31.106513257287","category":"76","category_name":"上海菜","address":"闵行区莘建支路72号(近莘松路)"},{"poiid":"B2094654DA65A3FE459F","title":"快客NO.6366","lon":"121.37326","lat":"31.09953","category":"117","category_name":"便民商店/便利店","address":"西园路128弄10"},{"poiid":"B2094757D165A4FE479C","title":"国安土菜馆","lon":"121.376205857","lat":"31.1047704575","category":"247","category_name":"餐饮美食","address":"上海市闵行区莘西路"},{"poiid":"B2094654DA65A3FD459D","title":"小桥流水 莘庄店","lon":"121.37211204282","lat":"31.105556136737","category":"47","category_name":"住宅区","address":"闵行区莘松路355号(近莘西路)"},{"poiid":"B2094757D66AA5FD4993","title":"小丁香","lon":"121.374194054","lat":"31.105971793","category":"76","category_name":"上海菜","address":"闵行区莘建支路58号(永乐旁)"},{"poiid":"B2094655D268A0FD449F","title":"沁春路1122弄小区","lon":"121.37712","lat":"31.09621","category":"47","category_name":"住宅区","address":"沁春路1122弄"},{"poiid":"B2094654DA64AAFC459B","title":"华氏大药房沁春路药房","lon":"121.37875","lat":"31.09631","category":"162","category_name":"医院","address":"闵行区沁春路1052号(沁春路莘西南路)"}]