[{"poiid":"B2094654DB6DA5F5469B","title":"陈云故居暨青浦革命历史纪念馆","lon":"121.04409","lat":"31.00633","category":"240","category_name":"国家级景点","address":"上海市青浦区练塘镇朱枫公路3516号"},{"poiid":"B2094757D068A6F5499E","title":"陈云故里","lon":"121.04824017","lat":"31.010403104","category":"250","category_name":"公园户外","address":"上海市青浦区老朱枫公路"},{"poiid":"B2094655D36CA1FA449F","title":"练塘镇","lon":"121.04338","lat":"31.01201","category":"38","category_name":"公交车站","address":""},{"poiid":"B2094654DB6DA5F54693","title":"天光禅寺","lon":"121.05731","lat":"31.01501","category":"244","category_name":"寺庙道观","address":""},{"poiid":"B2094655D26BA1FB4899","title":"陆家浜站","lon":"121.05655","lat":"31.01373","category":"38","category_name":"公交车站","address":""},{"poiid":"B2094654DB6DA5F5489E","title":"三泖森林","lon":"121.05088","lat":"31.0145","category":"250","category_name":"公园户外","address":""},{"poiid":"B2094757D16FA0FA4292","title":"花都酒楼","lon":"121.04411","lat":"31.00946","category":"76","category_name":"上海菜","address":"青浦区练塘镇朱枫公路3415号3楼(练新街口)"},{"poiid":"B2094654DB6DA5F54993","title":"上海练塘工业园区","lon":"121.06334","lat":"31.00025","category":"45","category_name":"产业园区","address":""},{"poiid":"B2094654DB6DA5F5499E","title":"九州仙境","lon":"121.05018","lat":"31.01444","category":"250","category_name":"公园户外","address":""},{"poiid":"B2094757D16AAAFE4693","title":"三柳鱼庄","lon":"121.05095917","lat":"31.015225213","category":"247","category_name":"餐饮美食","address":"上海市青浦区朱枫路连接线"},{"poiid":"B2094655D36CA1FA459A","title":"练塘","lon":"121.04343","lat":"31.01162","category":"38","category_name":"公交车站","address":"下塘街20弄"},{"poiid":"B2094757D16AA4F9459C","title":"旭辉朗悦庭","lon":"121.052274179","lat":"31.001865911","category":"47","category_name":"住宅区","address":"上海章练塘路泾珠路"},{"poiid":"B2094654DB6DA5F5409C","title":"练塘汽车站","lon":"121.04313","lat":"31.01216","category":"35","category_name":"长途汽车站","address":"青浦区练塘镇朱枫公路3306号"},{"poiid":"B2094654DB6DA4FC4492","title":"陈云故居","lon":"121.04484","lat":"31.0079","category":"250","category_name":"公园户外","address":"青浦区练塘镇朱枫公路3516号(近下塘街)"},{"poiid":"B2094654DB6DA4FD419A","title":"爱丽宫百货商场","lon":"121.04387","lat":"31.00899","category":"119","category_name":"商场","address":""},{"poiid":"B2094757D16EA5F4469A","title":"巴比馒头","lon":"121.045559","lat":"31.006893","category":"247","category_name":"餐饮美食","address":"上海练塘镇"},{"poiid":"B2094654DB6DA5F4489F","title":"练北小区","lon":"121.04046","lat":"31.00783","category":"47","category_name":"住宅区","address":"青浦区练塘镇练北小区"},{"poiid":"B2094654DB6AA1FA4899","title":"青浦区练塘第二中学","lon":"121.04558","lat":"31.00522","category":"55","category_name":"中学","address":"青浦区练塘镇下塘街"},{"poiid":"B2094654DB6DA5F44793","title":"青浦区联塘第二中学","lon":"121.0456","lat":"31.0054","category":"55","category_name":"中学","address":""},{"poiid":"B2094654DB6DA5F5409D","title":"上海市青浦区颜安中学","lon":"121.04301","lat":"31.00624","category":"55","category_name":"中学","address":"练汇街228"},{"poiid":"B2094654DB6DA5F5499A","title":"练塘影剧院","lon":"121.042265","lat":"31.008403","category":"178","category_name":"电影院","address":"青浦区练塘镇练新路99号"},{"poiid":"B2094654DB6DA4FC4098","title":"发缘地","lon":"121.06065","lat":"31.00227","category":"148","category_name":"美容美发店","address":""},{"poiid":"B2094654DB6DA5F5469C","title":"汽车站","lon":"121.04163","lat":"31.01286","category":"35","category_name":"长途汽车站","address":""},{"poiid":"B2094654DB6DA5F54892","title":"中国建设银行上海市练塘支行","lon":"121.04283","lat":"31.00912","category":"150","category_name":"银行","address":"练新路58"},{"poiid":"B2094654DB6DA5F5499F","title":"青浦区练塘镇社区卫生服务中心","lon":"121.04693","lat":"30.99879","category":"162","category_name":"医院","address":"朱枫公路3619号"},{"poiid":"B2094654DB6DA5F5499B","title":"颜安小学(西部学区)","lon":"121.03924","lat":"31.00732","category":"56","category_name":"小学","address":""},{"poiid":"B2094757D164A6FA459F","title":"三泖渔庄","lon":"121.0459","lat":"31.02603","category":"76","category_name":"上海菜","address":"青浦区练塘镇朱枫公路连接线三泖森林内"},{"poiid":"B2094757D069A6F9429F","title":"MITO COFFEE","lon":"121.06118774","lat":"30.9996109","category":"260","category_name":"其他","address":"工业园区月光码头休闲广场A3-B"},{"poiid":"B2094757D165A3FE4893","title":"青浦税务分局第十二税务所","lon":"121.063341","lat":"31.00029","category":"500","category_name":"未知分类","address":"上海青浦练塘"},{"poiid":"B2094654DB6FA4F5419E","title":"练塘园区","lon":"121.06327","lat":"30.99315","category":"45","category_name":"产业园区","address":""},{"poiid":"B2094757D66DA2FE499E","title":"京东商城华东第一物流中心","lon":"121.06459595","lat":"30.993459701","category":"500","category_name":"未知分类","address":"上海芦潼路近朱枫公路"},{"poiid":"B2094654DB69A7FB419A","title":"练塘派出所","lon":"121.03676","lat":"31.00646","category":"609","category_name":"警察局","address":"青浦区练新路256号"},{"poiid":"B2094757D164A4FD4399","title":"萬泰汽車零部件","lon":"121.06583594","lat":"30.997997144","category":"263","category_name":"公司","address":"上海市青浦区章练塘路"}]