[{"poiid":"B2094757D06FA1FC499C","title":"动漫博物馆","lon":"121.611773","lat":"31.212253","category":"182","category_name":"博物馆","address":"浦东新区张江路69号(近丹桂路)"},{"poiid":"B2094654DB64A3F9429C","title":"上海浦东软件园(郭守敬路)","lon":"121.59803","lat":"31.2104","category":"45","category_name":"产业园区","address":"上海浦东新区郭守敬路498号"},{"poiid":"B2094757D06EAAFE489D","title":"金科路地铁站","lon":"121.60199942","lat":"31.204334926","category":"36","category_name":"地铁站","address":"上海轨道交通,二号线,轨交金科路站,2"},{"poiid":"B2094757D068A2FF459C","title":"张江出入境接待大厅","lon":"121.61040415","lat":"31.216254419","category":"500","category_name":"未知分类","address":"上海张江路39号"},{"poiid":"B2094757D465A3F9409B","title":"深山老屋 张江路店","lon":"121.61209","lat":"31.21124","category":"260","category_name":"其他","address":"浦东新区张江路91号(近龙东大道)"},{"poiid":"B2094757D06FA7F4489D","title":"张江行政服务中心","lon":"121.61096954","lat":"31.213911056","category":"46","category_name":"楼宇","address":"上海张江路39号"},{"poiid":"B2094655D36DA1F4479E","title":"香楠小区","lon":"121.61279","lat":"31.216309","category":"47","category_name":"住宅区","address":"上海香楠路199弄"},{"poiid":"B2094655D36DA7FB449F","title":"祖冲之路张江路","lon":"121.61147","lat":"31.20692","category":"38","category_name":"公交车站","address":""},{"poiid":"B2094757D068A0FE439F","title":"中芯国际上海厂","lon":"121.60877","lat":"31.21776","category":"68","category_name":"快餐厅","address":"上海浦东新区张江路18号中芯国际"},{"poiid":"B2094757D068A0F4499E","title":"惠普全球软件服务中心","lon":"121.60092563","lat":"31.212782197","category":"500","category_name":"未知分类","address":"上海金科路2557号"},{"poiid":"B2094757D06AA5F54799","title":"锦江之星(张江店)","lon":"121.61236","lat":"31.21097","category":"500","category_name":"未知分类","address":"上海市浦东新区张江路91号"},{"poiid":"B2094757D16DA3F9419E","title":"浦东机场一楼(机场四线)","lon":"121.60590455","lat":"31.206038928","category":"21","category_name":"飞机场","address":"上海T1首站"},{"poiid":"B2094757D064AAF8409C","title":"龙东大道张江路","lon":"121.6085755","lat":"31.2196991","category":"38","category_name":"公交车站","address":"上海龙东大道张江路交叉口"},{"poiid":"B2094757D069A6F84498","title":"佳思多食品料理店(张江店)","lon":"121.6148","lat":"31.2139","category":"91","category_name":"台湾菜","address":"浦东新区香楠路399弄2号会所1楼东区(丹桂路香楠路)"},{"poiid":"B2094654DB64A3FA4199","title":"上海宏力半导体制造有限公司","lon":"121.60787","lat":"31.20683","category":"263","category_name":"公司","address":"哈雷路501"},{"poiid":"B2094655D36DA7FD4492","title":"张江路郭守敬路","lon":"121.61051","lat":"31.2142","category":"38","category_name":"公交车站","address":""},{"poiid":"B2094757D069ABFC4092","title":"张江中学足球场","lon":"121.6172","lat":"31.20647","category":"253","category_name":"校园生活","address":"浦东新区江东路54号张江体育中心"},{"poiid":"B2094750D464A3FB4693","title":"阿斯利康张江园区","lon":"121.60511","lat":"31.204441","category":"263","category_name":"公司","address":"亮景路199号"},{"poiid":"B2094654DA6AA6F44293","title":"中芯国际集成电路制造(上海)有限公司(郭守敬路)","lon":"121.60755","lat":"31.2131","category":"263","category_name":"公司","address":"郭守敬路965"},{"poiid":"B2094757D164A7F8479A","title":"美阿丽韩国料理","lon":"121.61231","lat":"31.21069","category":"247","category_name":"餐饮美食","address":"浦东新区张江路(近紫微路)"},{"poiid":"B2094654DA6AA5F44098","title":"上海市张江高科技园区","lon":"121.59851","lat":"31.21081","category":"45","category_name":"产业园区","address":"郭守敬路498"},{"poiid":"B2094655D265ABFE419C","title":"张江镇政府大楼","lon":"121.61186","lat":"31.21066","category":"46","category_name":"楼宇","address":"张江路576号"},{"poiid":"B2094757D16EA7F5479F","title":"深山老屋土菜","lon":"121.60945217","lat":"31.215785822","category":"247","category_name":"餐饮美食","address":"上海張江路91號"},{"poiid":"B2094654DB6AA0F84892","title":"凸版中芯彩晶电子(上海)有限公司","lon":"121.60754","lat":"31.21316","category":"263","category_name":"公司","address":"浦东新区郭守敬路965号"},{"poiid":"B2094757D06FA1FB4098","title":"COSTA COFFEE(张江店)","lon":"121.6057431","lat":"31.2029256","category":"65","category_name":"咖啡厅","address":"浦东新区博云路2号浦软大厦1楼104区"},{"poiid":"B2094757D068A7F4429B","title":"上海集成电路研发中心","lon":"121.60787697","lat":"31.208949562","category":"500","category_name":"未知分类","address":"上海市浦东新区高斯路497号"},{"poiid":"B2094757D068ABF84893","title":"上海超级计算中心","lon":"121.600575","lat":"31.211526","category":"46","category_name":"楼宇","address":"上海浦东新区郭守敬路585号"},{"poiid":"B2094753D26FA2FF419A","title":"上海惠普有限公司","lon":"121.605683","lat":"31.21338","category":"263","category_name":"公司","address":"上海市 上海巿浦东新区金科路2727号"},{"poiid":"B2094757D069A6FF4793","title":"夏宫别墅会所","lon":"121.61552429","lat":"31.210952758","category":"500","category_name":"未知分类","address":"上海香楠路488号"},{"poiid":"B2094654DA6AA6F4439B","title":"上海市公安局浦东分局交通警察支队五大队","lon":"121.60643","lat":"31.2189","category":"250","category_name":"公园户外","address":"龙东大道1920"},{"poiid":"B2094757D16EA6FC419A","title":"张江高科实验小学","lon":"121.613740975","lat":"31.214896702","category":"500","category_name":"未知分类","address":"浦东新区香楠路295号(丹桂路香楠路)"},{"poiid":"B2094757D165A7FD4192","title":"浦东新区税务局第九税务所","lon":"121.609585975","lat":"31.2164417382","category":"500","category_name":"未知分类","address":"上海市浦东新区张江路39号3号楼"},{"poiid":"B2094654DA6AA5FE459F","title":"汤臣豪庭(香楠路)","lon":"121.61635","lat":"31.21997","category":"47","category_name":"住宅区","address":"广兰路50弄1-54号"},{"poiid":"B2094757D168A3FB4193","title":"上海华虹NEC电子有限公司(二厂)","lon":"121.60198263","lat":"31.210970194","category":"46","category_name":"楼宇","address":"上海浦东新区郭守敬路668号"},{"poiid":"B2094654DA6AA5FC4892","title":"上海张江(集团)有限公司","lon":"121.61167","lat":"31.21234","category":"263","category_name":"公司","address":""},{"poiid":"B2094757D069A5FE4493","title":"青霞酒家(青桐路店)","lon":"121.61733","lat":"31.21833","category":"76","category_name":"上海菜","address":"浦东新区青桐路2号(中芯学校对面)"},{"poiid":"B2094752D165A2F5449C","title":"IFC上海國金中心","lon":"121.609786","lat":"31.216158","category":"500","category_name":"未知分类","address":null},{"poiid":"B2094654DA6AA6F4429D","title":"上海新先锋药业有限公司","lon":"121.61143","lat":"31.21084","category":"263","category_name":"公司","address":"浦东新区张江路92"},{"poiid":"B2094757D16AA0F94393","title":"海上零点美容美发(高斯路店)","lon":"121.60722","lat":"31.21002","category":"148","category_name":"美容美发店","address":"浦东新区高斯路1240-1244号(近张江路)"},{"poiid":"B2094757D168AAFF449A","title":"马氏牛肉面","lon":"121.613286475","lat":"31.2138636779","category":"247","category_name":"餐饮美食","address":"上海丹桂路近香楠路"},{"poiid":"B2094654DA6AA6F4439A","title":"中芯国际集成电路制造(上海)有限公司","lon":"121.60861","lat":"31.21805","category":"263","category_name":"公司","address":"浦东新区张江路18号"},{"poiid":"B2094757D06AA1F84299","title":"资生堂(中国)培训中心","lon":"121.60113697","lat":"31.218220779","category":"500","category_name":"未知分类","address":"上海市浦东新区龙东大道1288号"},{"poiid":"B2094757D16AA3FD439C","title":"文峰(张江二店)","lon":"121.61279997","lat":"31.213608471","category":"500","category_name":"未知分类","address":"上海丹桂路、香楠路口"},{"poiid":"B2094655D26BA1F54592","title":"武夷山包糍店","lon":"121.61351","lat":"31.21695","category":"68","category_name":"快餐厅","address":"浦东新区香楠路199弄旁(近香楠小学)"},{"poiid":"B2094757D16EA3F4499B","title":"延安东路隧道浦东出口","lon":"121.612854775","lat":"31.2134664686","category":"500","category_name":"未知分类","address":"上海陆家嘴"},{"poiid":"B2094654DA6AA5FD429A","title":"上海医药(集团)有限公司","lon":"121.61143","lat":"31.21084","category":"263","category_name":"公司","address":"张江路92"},{"poiid":"B2094757D065ABFC4899","title":"张江有轨电车1路广兰路祖冲之路站","lon":"121.618309631","lat":"31.2099641454","category":"36","category_name":"地铁站","address":"上海浦东新区广兰路祖冲之路交会口"},{"poiid":"B2094751DA6DA1F4439E","title":"南京东路步行街","lon":"121.6131571213111","lat":"31.21102562801074","category":"248","category_name":"生活娱乐","address":"上海市"},{"poiid":"B2094655D36DA1F44798","title":"香楠路丹桂路","lon":"121.61344","lat":"31.21634","category":"38","category_name":"公交车站","address":""},{"poiid":"B2094654DB65A0F54592","title":"全家便利店(中芯店)","lon":"121.6086","lat":"31.21804","category":"117","category_name":"便民商店/便利店","address":"浦东新区张江路18号"},{"poiid":"B2094654DA6AA6F44092","title":"上少浦东软件园","lon":"121.6032","lat":"31.21091","category":"45","category_name":"产业园区","address":"哈雷路"},{"poiid":"B2094751D365A2FF489C","title":"日月光封装测试","lon":"121.603143","lat":"31.214514","category":"263","category_name":"公司","address":"张江高科技园区郭守敬路669号"},{"poiid":"B2094654DA6AA5FE469A","title":"东盛造型","lon":"121.61376","lat":"31.2146","category":"148","category_name":"美容美发店","address":""},{"poiid":"B2094757D069A7FE439E","title":"城市经典二期","lon":"121.6136456","lat":"31.2156727","category":"500","category_name":"未知分类","address":"上海香楠路408弄"},{"poiid":"B2094654DB65A7FF4899","title":"全家便利店(郭守敬店)","lon":"121.60221","lat":"31.21187","category":"117","category_name":"便民商店/便利店","address":"浦东新区郭守敬路669号(郭守敬路哈雷路)"},{"poiid":"B2094757DA65A5FB469E","title":"莫泰168（上海张江店）","lon":"121.615243","lat":"31.205405","category":"216","category_name":"经济型连锁酒店","address":"上海市浦东新区张江路605号(近张江镇江东路)"},{"poiid":"B2094654DB64A3FA4298","title":"佳思多食品料理超市(城市经典北)","lon":"121.61483","lat":"31.21434","category":"118","category_name":"超级市场","address":""},{"poiid":"B2094757D169A3FD4692","title":"健康之家足浴按摩","lon":"121.61223","lat":"31.21","category":"149","category_name":"洗浴推拿场所","address":"浦东新区张江路696号(近紫薇路)"},{"poiid":"B2094655D36DA7FD459F","title":"张江中学","lon":"121.61489","lat":"31.20926","category":"55","category_name":"中学","address":"浦东新区张江镇江东路54号"},{"poiid":"B2094757D169A1F8469F","title":"爱迪生路","lon":"121.61071597","lat":"31.208932562","category":"500","category_name":"未知分类","address":"上海市浦东新区蔡伦路"},{"poiid":"B2094654DB65A0F54398","title":"全家便利店(日月光店)","lon":"121.60232","lat":"31.21569","category":"117","category_name":"便民商店/便利店","address":"浦东新区李时珍路599号(近金科路)"},{"poiid":"B2094654DA6AA6F4419C","title":"中国工商银行上海市张江支行","lon":"121.61593","lat":"31.20486","category":"150","category_name":"银行","address":"浦东新区张江高科技园区科苑路201号(碧波路郭守敬路)"},{"poiid":"B2094750DB6EABFE4893","title":"城市经典花园","lon":"121.615627","lat":"31.214123","category":"47","category_name":"住宅区","address":"上海市浦东新区香楠路399弄"},{"poiid":"B2094654DA6AA5FC4799","title":"惠而多超市香楠店","lon":"121.6138","lat":"31.21614","category":"118","category_name":"超级市场","address":"香楠路166号"},{"poiid":"B2094654DA6AA5FE4692","title":"浦东新区广兰幼儿园","lon":"121.6154","lat":"31.2152","category":"57","category_name":"幼儿园","address":"浦东新区广兰路248弄16号"},{"poiid":"B2094654DA6AA6F44098","title":"上海浦东张江工业气体供应站","lon":"121.60904","lat":"31.21885","category":"45","category_name":"产业园区","address":"张江路"},{"poiid":"B2094757D164A1F54593","title":"避风塘(张江路店)","lon":"121.6122","lat":"31.20931","category":"500","category_name":"未知分类","address":"上海浦东新区张江路1306号  "},{"poiid":"B2094654DA6AA5FD4193","title":"中国芯科技园","lon":"121.59976","lat":"31.21329","category":"45","category_name":"产业园区","address":"上海张江"},{"poiid":"B2094757D064A7FA479A","title":"潘朵拉城市行动咖啡 张江店 Pandora","lon":"121.59851","lat":"31.21045","category":"113","category_name":"冷饮店","address":"浦东新区郭守敬路498号浦东软件园1楼大堂(近金科路)"},{"poiid":"B2094654DA6AA5FD419D","title":"GAPT","lon":"121.6034","lat":"31.21319","category":"263","category_name":"公司","address":""},{"poiid":"B2094655D36DA6FD4798","title":"金科路","lon":"121.60198","lat":"31.20435","category":"38","category_name":"公交车站","address":"上海市浦东新区高科中路1176号(哈雷路口)"},{"poiid":"B2094654DA6AA5FD4192","title":"上海华虹NEC电子有限公司(上少浦东软件园北)","lon":"121.60348","lat":"31.21166","category":"263","category_name":"公司","address":""},{"poiid":"B2094757D664A4FF4693","title":"兴庆红","lon":"121.61369882592","lat":"31.203151794114","category":"84","category_name":"西北菜","address":"浦东新区建中路280号(近高斯路)"},{"poiid":"B2094654DA6AA6F44398","title":"张江派出所","lon":"121.60643","lat":"31.2189","category":"609","category_name":"警察局","address":"浦东新区龙东大道1920号"},{"poiid":"B2094654DB64A3FA449D","title":"香吧岛大龙虾","lon":"121.60992","lat":"31.20524","category":"68","category_name":"快餐厅","address":"浦东新区建中路183号"},{"poiid":"B2094751D56CA6F94499","title":"钱万隆","lon":"121.61791","lat":"31.21051","category":"76","category_name":"上海菜","address":"浦东新区广兰路778号"},{"poiid":"B2094654DA6AA5FC4692","title":"香楠新村","lon":"121.61374","lat":"31.21756","category":"47","category_name":"住宅区","address":"香楠路65弄33"},{"poiid":"B2094757D164A2FB4698","title":"上海集成电路科技馆","lon":"121.61055","lat":"31.20627","category":"179","category_name":"音乐厅","address":"浦东新区张江祖冲之路2288弄展讯中心1号楼(浦东青云路祖冲之路)"},{"poiid":"B2094655D36DA7FB449B","title":"祖冲之路高斯路","lon":"121.6076","lat":"31.20561","category":"38","category_name":"公交车站","address":""},{"poiid":"B2094654DB69A7F4449B","title":"香楠小学","lon":"121.61456","lat":"31.21684","category":"56","category_name":"小学","address":"浦东新区张江香楠路295号"},{"poiid":"B2094654DA6AA6F4429E","title":"威宇科技测试封装有限公司","lon":"121.60221","lat":"31.21187","category":"263","category_name":"公司","address":"浦东新区郭守敬路669号&#8206;"},{"poiid":"B2094655D36CA7F54098","title":"广兰路祖冲之路","lon":"121.61784","lat":"31.21093","category":"38","category_name":"公交车站","address":""},{"poiid":"B2094757D16FABFF499A","title":"张江经典幼儿园","lon":"121.615108","lat":"31.212216","category":"253","category_name":"校园生活","address":"上海香楠路428弄1-7号"},{"poiid":"B2094757D06AA4F4489D","title":"宏力半导体","lon":"121.60586797","lat":"31.206318501","category":"263","category_name":"公司","address":"上海市浦东新区"},{"poiid":"B2094757DB6EA5F8409D","title":"风波庄","lon":"121.6108208680295","lat":"31.20195413547734","category":"247","category_name":"餐饮美食","address":"浦东新区高斯路1268号(近古桐南路)"},{"poiid":"B2094757D068A6FD4393","title":"张江高科","lon":"121.599834735","lat":"31.2187130413","category":"500","category_name":"未知分类","address":"上海科苑路龙阳路"},{"poiid":"B2094654DA6AA5FD469E","title":"上海市张江中学(江东路)","lon":"121.61783","lat":"31.20693","category":"55","category_name":"中学","address":"浦东张江江东路54号"},{"poiid":"B2094654DA6AA6F4449B","title":"东电电子(上海)有限公司","lon":"121.60817","lat":"31.20774","category":"263","category_name":"公司","address":"高斯路555"},{"poiid":"B2094757D66CA0FA459F","title":"打浦路","lon":"121.602044","lat":"31.211987","category":"500","category_name":"未知分类","address":"上海日月光"},{"poiid":"B2094654DA6AA6F4449D","title":"浦东新区养路费征收管理所(祖冲之路)","lon":"121.61167","lat":"31.20667","category":"250","category_name":"公园户外","address":"祖冲之路1530"},{"poiid":"B2094757D165A3FB4493","title":"张江有轨电车1路丹桂路青桐路站","lon":"121.61301397","lat":"31.217552764","category":"500","category_name":"未知分类","address":"上海丹桂路青桐路"},{"poiid":"B2094757D569A2F54398","title":"7天酒店(上海张江店)","lon":"121.61680447","lat":"31.2094496","category":"216","category_name":"经济型连锁酒店","address":"张江镇北街52号"},{"poiid":"B2094757D064A6FF4592","title":"浦东新区征收稽查所","lon":"121.611873505","lat":"31.2077200842","category":"500","category_name":"未知分类","address":"上海祖冲之路1530号"},{"poiid":"B2094757D165A3FF4098","title":"张江建行","lon":"121.61309107","lat":"31.208231046","category":"500","category_name":"未知分类","address":"上海科苑路郭守敬路"},{"poiid":"B2094654DA6AA0FE419C","title":"宝钢高科技园","lon":"121.59823","lat":"31.2116","category":"45","category_name":"产业园区","address":"郭守敬路515号"},{"poiid":"B2094654DB69A7F4449D","title":"陶园","lon":"121.61285","lat":"31.221357","category":"47","category_name":"住宅区","address":"上海市浦东新区龙东大道路2001弄"},{"poiid":"B2094757D165A2F54499","title":"浦东交警张江事故组","lon":"121.606433","lat":"31.218903","category":"500","category_name":"未知分类","address":"上海龙东大道1920号"},{"poiid":"B2094752D66CA2FF459A","title":"秀麦量贩式KTV","lon":"121.609382","lat":"31.204879","category":"170","category_name":"KTV","address":"建中路242弄68号"},{"poiid":"B2094757D66CA7F44999","title":"上海津村制药有限公司","lon":"121.602241175","lat":"31.212331542","category":"263","category_name":"公司","address":"上海郭守敬路276号"},{"poiid":"B2094757D064A1FB429A","title":"威盛VIA中国芯","lon":"121.60042097","lat":"31.213348665","category":"500","category_name":"未知分类","address":"上海浦东新区金科路2537号"},{"poiid":"B2094757DA64A6FE459D","title":"长泰国际广场","lon":"121.608715","lat":"31.206265","category":"252","category_name":"楼宇机构","address":"浦东新区祖冲之路金科路"},{"poiid":"B2094654DA6AA6F44493","title":"张江百货商场","lon":"121.61318","lat":"31.20654","category":"119","category_name":"商场","address":"川北公路3079号"},{"poiid":"B2094654DB6AA1FF409A","title":"展讯通信上海有限公司","lon":"121.61028","lat":"31.20654","category":"263","category_name":"公司","address":"浦东张江高科技园区祖冲之路2288弄展讯中心1号楼"},{"poiid":"B2094757D069A5F44093","title":"真旺餐厅","lon":"121.59939","lat":"31.20863","category":"76","category_name":"上海菜","address":"浦东新区郭守敬路498号浦东软件园14号楼1楼(近金科路)"},{"poiid":"B2094655D36CA0FE489D","title":"金桥路龙东大道","lon":"121.60806","lat":"31.22096","category":"38","category_name":"公交车站","address":""},{"poiid":"B2094654DA6AA6F4409A","title":"张江内核商场","lon":"121.61364","lat":"31.20635","category":"119","category_name":"商场","address":"川北公路6750号"},{"poiid":"B2094654DA6AA5FD429B","title":"张江园区人才公寓租赁服务中心","lon":"121.61213","lat":"31.20755","category":"252","category_name":"楼宇机构","address":"祖冲之路1559"},{"poiid":"B2094654DA6AA6F4469B","title":"永润百货商场","lon":"121.613","lat":"31.20618","category":"119","category_name":"商场","address":"川北公路3051"},{"poiid":"B2094654DA6AA5FC499C","title":"电动自行车专卖","lon":"121.61325","lat":"31.20793","category":"133","category_name":"自行车专卖店","address":""},{"poiid":"B2094757D76FA5FB429B","title":"VIA CAFE","lon":"121.6006","lat":"31.21399","category":"260","category_name":"其他","address":"浦东新区金科路2517号中国芯科技园A栋1楼"},{"poiid":"B2094757D66CA6F8499C","title":"城市经典 四期。高迪","lon":"121.619221975","lat":"31.2138426774","category":"500","category_name":"未知分类","address":"上海市浦东新区广兰路"},{"poiid":"B2094757D569A1FE4092","title":"张江软件园老食堂","lon":"121.59851","lat":"31.21080889","category":"68","category_name":"快餐厅","address":"浦东新区郭守敬路498号浦东软件园1楼西侧(近金科路)"},{"poiid":"B2094655D36CA0FF4298","title":"金科路李时珍路","lon":"121.59919","lat":"31.21427","category":"38","category_name":"公交车站","address":""},{"poiid":"B2094757D568A0F9409E","title":"川鸿川菜馆","lon":"121.6175611","lat":"31.21861194","category":"71","category_name":"四川菜","address":"浦东新区广兰路香楠小区青桐路10号(中芯学校对面)"},{"poiid":"B2094757D168A4FD4899","title":"中华牛肉面","lon":"121.62205","lat":"31.21869","category":"68","category_name":"快餐厅","address":"浦东新区青桐路199弄"},{"poiid":"B2094757D16AABFC4793","title":"集电港天之骄子公寓","lon":"121.611665","lat":"31.206672","category":"500","category_name":"未知分类","address":"上海祖冲之路2305号"},{"poiid":"B2094757D568A1FA459D","title":"汤臣豪庭一期","lon":"121.616355","lat":"31.21997389","category":"47","category_name":"住宅区","address":"上海市浦东新区广兰路50弄"},{"poiid":"B2094757D66DA2F5409B","title":"加油站","lon":"121.607458975","lat":"31.2198768185","category":"500","category_name":"未知分类","address":"上海市浦东新区龙东大道"},{"poiid":"B2094757D66FA2FB429C","title":"垃圾回收站","lon":"121.608977","lat":"31.219345","category":"263","category_name":"公司","address":"上海张江路1616弄"},{"poiid":"B2094757D66DA6F9439A","title":"鼎洁佳汽车美容中心","lon":"121.61065161","lat":"31.206376498","category":"500","category_name":"未知分类","address":"上海祖冲之路1530号"},{"poiid":"B2094757D168A5F94298","title":"张江中学游泳馆","lon":"121.61602067","lat":"31.20917163","category":"253","category_name":"校园生活","address":"浦东新区张江镇田园路88号"},{"poiid":"B2094757D66CABF54998","title":"祖充之路高斯路 公交站","lon":"121.605816","lat":"31.205109","category":"38","category_name":"公交车站","address":"上海没找到 建"},{"poiid":"B2094655D36CA5FE469D","title":"川北路古桐路","lon":"121.61255","lat":"31.20521","category":"38","category_name":"公交车站","address":""},{"poiid":"B2094654DA6AA6F4479A","title":"养和堂张江店","lon":"121.61245","lat":"31.20533","category":"162","category_name":"医院","address":"川北公路3003"},{"poiid":"B2094750DA6EA7FB419B","title":"浦东图书馆","lon":"121.617721","lat":"31.211481","category":"500","category_name":"未知分类","address":null},{"poiid":"B2094654DA6AA5FC469C","title":"快客(广兰路)","lon":"121.6178","lat":"31.21625","category":"117","category_name":"便民商店/便利店","address":""},{"poiid":"B2094655D36CA6F5469A","title":"丹桂路广兰路","lon":"121.61894","lat":"31.21518","category":"38","category_name":"公交车站","address":""},{"poiid":"B2094655D36CA7F44299","title":"郭守敬路金科路(软件园)","lon":"121.59858","lat":"31.21104","category":"38","category_name":"公交车站","address":""},{"poiid":"B2094750DB6EABFE499A","title":"东郊花园","lon":"121.60315","lat":"31.220524","category":"47","category_name":"住宅区","address":"上海市浦东新区紫竹路398号"},{"poiid":"B2094757D06BA0FA489A","title":"人间地狱v2.0","lon":"121.606995","lat":"31.20558","category":"500","category_name":"未知分类","address":null},{"poiid":"B2094757D064A0F44998","title":"中国建设银行(高科路支行)","lon":"121.6134","lat":"31.20548","category":"150","category_name":"银行","address":"上海浦东新区川北公路3042号  "},{"poiid":"B2094654DB69AAF5439F","title":"交江大楼","lon":"121.619659","lat":"31.211054","category":"46","category_name":"楼宇","address":"上海市浦东新区川北公路3042号"},{"poiid":"B2094757D065A0F9439F","title":"人间网","lon":"121.6162033","lat":"31.209308624","category":"500","category_name":"未知分类","address":"上海张江路91号10栋"},{"poiid":"B2094757D16BA2F84293","title":"浦东交警五大队","lon":"121.6082667","lat":"31.221095768","category":"500","category_name":"未知分类","address":"上海龙阳路张江路路口"},{"poiid":"B2094757D568A6FC4898","title":"华城KTV","lon":"121.61234321","lat":"31.20512804","category":"170","category_name":"KTV","address":"中国上海市浦东新区川北公路"},{"poiid":"B2094757D064A1FF409D","title":"创意大厦","lon":"121.619","lat":"31.2136","category":"252","category_name":"楼宇机构","address":"上海祖冲之路1559号"},{"poiid":"B2094654DA6AA6F4499A","title":"中国农业银行张江高科技园区支行","lon":"121.61309","lat":"31.2057","category":"150","category_name":"银行","address":"浦东新区张江路185号"},{"poiid":"B2094757D66EA4FD4899","title":"SDO","lon":"121.60152435","lat":"31.208763122","category":"249","category_name":"购物服务","address":"上海郭守敬路"},{"poiid":"B2094654DA6AA6F44792","title":"快客No.571","lon":"121.61241","lat":"31.20466","category":"117","category_name":"便民商店/便利店","address":""},{"poiid":"B2094757D165ABFE419D","title":"张江有轨电车1路丹桂路张东路站","lon":"121.618444675","lat":"31.2134392679","category":"500","category_name":"未知分类","address":"上海丹桂路张东路"},{"poiid":"B2094654DA6AA6F4439E","title":"上海卓多姿中信化妆品有限公司","lon":"121.60184","lat":"31.21811","category":"263","category_name":"公司","address":"龙东大道1558"},{"poiid":"B2094757D764AAFB4392","title":"台味张记","lon":"121.617137","lat":"31.219081","category":"68","category_name":"快餐厅","address":"浦东新区张江科技园区青桐路199弄18号"},{"poiid":"B2094752D56BA3FB469E","title":"上海惠普","lon":"121.600572","lat":"31.216341","category":"263","category_name":"公司","address":"金科路2727号"},{"poiid":"B2094753D76EA4F84098","title":"上海惠普有限公司","lon":"121.600624","lat":"31.208744","category":"263","category_name":"公司","address":"上海市 上海张江高科园区金科路2727号"},{"poiid":"B2094757D569A7FC469B","title":"良涛专业KTV","lon":"121.611836","lat":"31.204387","category":"170","category_name":"KTV","address":"川北公路2943号"},{"poiid":"B2094757D16AABFC449D","title":"张江创洁大厦","lon":"121.59916418","lat":"31.211424755","category":"252","category_name":"楼宇机构","address":"上海郭守敬路433号"},{"poiid":"B2094757D168A4FE429F","title":"华力微电子","lon":"121.59965797","lat":"31.208587554","category":"500","category_name":"未知分类","address":"上海市浦东新区郭守敬路818号"},{"poiid":"B2094751D56AA3F5459D","title":"碧云国际社区一期","lon":"121.618073","lat":"31.208497","category":"47","category_name":"住宅区","address":null},{"poiid":"B2094654DA6AA5FD4092","title":"张江镇体育中心(张江镇)","lon":"121.61784","lat":"31.20693","category":"224","category_name":"综合体育馆","address":""},{"poiid":"B2094655D26FA5F94093","title":"张家软件园","lon":"121.59796","lat":"31.21035","category":"45","category_name":"产业园区","address":"郭守敬路498号"},{"poiid":"B2094750D36BA7FF4492","title":"上海虹桥火车站","lon":"121.618675","lat":"31.213026","category":"500","category_name":"未知分类","address":null},{"poiid":"B2094654DA6AA6F4439C","title":"上海聚益信息技术有限公司(金科路)","lon":"121.59971","lat":"31.21417","category":"263","category_name":"公司","address":""},{"poiid":"B2094654DA6AA5FE429A","title":"浦东新区张江镇中心小学","lon":"121.61893","lat":"31.21059","category":"56","category_name":"小学","address":"张江镇田园路168"},{"poiid":"B2094654DA6AA5FE479B","title":"小区(青桐路)","lon":"121.61818","lat":"31.21767","category":"47","category_name":"住宅区","address":""},{"poiid":"B2094757D06BA5FD4998","title":"ATA","lon":"121.60556","lat":"31.202875","category":"46","category_name":"楼宇","address":"上海浦东新区博云路36号"},{"poiid":"B2094752D46AA1FC439A","title":"金科加油站","lon":"121.610643","lat":"31.20369","category":"153","category_name":"加油站","address":"浦东新区高科中路1176号(高科中路哈雷路)"},{"poiid":"B2094757D66DA5F54892","title":"977路金桥路龙东大道站","lon":"121.60806657","lat":"31.220963834","category":"500","category_name":"未知分类","address":"上海977路桂家宅站"},{"poiid":"B2094654DB65A0F94893","title":"上海张江信息技术专修学院","lon":"121.59802","lat":"31.21039","category":"52","category_name":"高等院校","address":"浦东新区郭守敬路498"},{"poiid":"B2094757D06BA5FA4393","title":"张江中学羽毛球馆","lon":"121.61750507","lat":"31.206879063","category":"253","category_name":"校园生活","address":"浦东新区张江镇江东路54号(张江路祖冲之路)"},{"poiid":"B2094757D568A6F44899","title":"江东路社区卫生服务站","lon":"121.61722873","lat":"31.20717475","category":"162","category_name":"医院","address":"中国上海市浦东新区江东路"},{"poiid":"B2094655D264A4F9409D","title":"CoffeeForYou","lon":"121.599845054","lat":"31.204646793","category":"65","category_name":"咖啡厅","address":"金科路2966号浙大网新园区北楼1楼近祖冲之路"},{"poiid":"B2094753DB6EA7FD459B","title":"上海国际人才城酒店(原信安左城酒店)","lon":"121.614288","lat":"31.205289","category":"215","category_name":"三星级宾馆","address":"上海浦东新区张江高科技园区科苑路1500号"},{"poiid":"B2094654DA6AA6F4499D","title":"皇和火锅城","lon":"121.6156931012","lat":"31.204648762048","category":"86","category_name":"火锅店","address":"浦东新区建中路92号(张江路口)"},{"poiid":"B2094757D66EAAFF469F","title":"理想能源设备","lon":"121.59895367","lat":"31.213167961","category":"500","category_name":"未知分类","address":"上海居里路1号"},{"poiid":"B2094654DB64A3FA419E","title":"上海浦东路桥建设股份有限公司","lon":"121.61252","lat":"31.20548","category":"263","category_name":"公司","address":"川北公路3011"},{"poiid":"B2094654DB64A3FA419A","title":"德宏酒店公寓","lon":"121.61569","lat":"31.20512","category":"250","category_name":"公园户外","address":"浦东新区张江路625号(张江建中路张江路)"},{"poiid":"B2094655D36DA2F9479F","title":"广兰路吕家浜桥","lon":"121.6184","lat":"31.20897","category":"250","category_name":"公园户外","address":""},{"poiid":"B2094757DA6BA4F94593","title":"张江创业源商业中心","lon":"121.617875","lat":"31.20814","category":"252","category_name":"楼宇机构","address":"胶南市珠海东路288号"},{"poiid":"B2094654DA6AA5FD4792","title":"贝越农贸市场(古桐路)","lon":"121.6125","lat":"31.204","category":"117","category_name":"便民商店/便利店","address":""},{"poiid":"B2094655D36CA1F8459E","title":"龙东大道广兰路","lon":"121.61615","lat":"31.22108","category":"38","category_name":"公交车站","address":""},{"poiid":"B2094757DA6EA4FF409F","title":"广兰路丹桂路站公交站","lon":"121.617450714113","lat":"31.214930224829","category":"251","category_name":"出行住宿","address":"张江有轨电车1路 广兰路丹桂路附近"},{"poiid":"B2094757D66DA0FC4592","title":"上海浦东软件平台有限公司","lon":"121.599549975","lat":"31.2091985688","category":"500","category_name":"未知分类","address":"上海浦东郭守敬路498号浦东软件园14号楼"},{"poiid":"B2094752D46AA2F8489F","title":"中国农业银行张江路分理处","lon":"121.619705","lat":"31.211401","category":"150","category_name":"银行","address":"上海市浦东新区川北公路3030号"},{"poiid":"B2094654DA6AA6F5499E","title":"飘洒烫染造型","lon":"121.61271","lat":"31.20362","category":"148","category_name":"美容美发店","address":""},{"poiid":"B2094757D568A5F54192","title":"张江社区文化活动中心","lon":"121.6181112","lat":"31.20711806","category":"188","category_name":"文化宫","address":"中国上海市浦东新区江东路"},{"poiid":"B2094753D46CA1FF429B","title":"二号线广兰路","lon":"121.602996","lat":"31.204593","category":"500","category_name":"未知分类","address":"上海市 二号线广兰路"},{"poiid":"B2094757D66EABFA4698","title":"张江培训中心","lon":"121.59910097","lat":"31.217067752","category":"253","category_name":"校园生活","address":"上海市浦东新区龙东大道李时珍路"},{"poiid":"B2094757D16FA5FC4492","title":"潘朵拉城市行动 张江","lon":"121.59846397","lat":"31.210008587","category":"500","category_name":"未知分类","address":"上海上海市浦東新区郭守敬路 浦东软件园"},{"poiid":"B2094757D568A6F9479D","title":"Piazza Doro Cafe","lon":"121.59851","lat":"31.21080889","category":"260","category_name":"其他","address":"浦东新区郭守敬路498号浦东软件园内(近金科路)"},{"poiid":"B2094753D36EA3F94993","title":"秀麦量贩KTV(张江商业广场店)","lon":"121.612042","lat":"31.202751","category":"170","category_name":"KTV","address":"建中路242弄68号一楼(张江商业广场内)"},{"poiid":"B2094757D16DABFE4299","title":"杨氏画室哦哈哈！","lon":"121.604524575","lat":"31.2044873586","category":"500","category_name":"未知分类","address":"上海桂林东街150弄42号"},{"poiid":"B2094757D06BA1FD459D","title":"花旗软件十三号楼一楼办公室","lon":"121.59901984","lat":"31.208869241","category":"500","category_name":"未知分类","address":"上海郭守敬路498号"},{"poiid":"B2094654DA6AA6F5409A","title":"浦东新区地方税务局第十五税务所","lon":"121.61505","lat":"31.20421","category":"250","category_name":"公园户外","address":"建中路108"},{"poiid":"B2094654DA6AA6F4439F","title":"上海信源张江有限公司","lon":"121.59946","lat":"31.21749","category":"263","category_name":"公司","address":"龙东大道1288"},{"poiid":"B2094757D165ABFE4292","title":"百家乐酒店","lon":"121.612236","lat":"31.201771","category":"76","category_name":"上海菜","address":"浦东新区建中路294号(近张江新苑后门)"},{"poiid":"B2094757D164A2F5469B","title":"张江软件园","lon":"121.597969","lat":"31.210356","category":"500","category_name":"未知分类","address":"上海郭守敬路498号7号楼"},{"poiid":"B2094757D569A0FD4192","title":"百味林(浦东新区张江镇古桐住宅小区东北)","lon":"121.61476237","lat":"31.20375244","category":"249","category_name":"购物服务","address":"中国上海市浦东新区"},{"poiid":"B2094654DB69AAF9479C","title":"浦东新区国家税务局","lon":"121.61505","lat":"31.20421","category":"250","category_name":"公园户外","address":"浦东新区张江镇建中路108号"},{"poiid":"B2094757D16EA5FF4392","title":"金科路站陶氏化学公司班车","lon":"121.597810992","lat":"31.2110506521","category":"500","category_name":"未知分类","address":"上海金科路祖冲之路路口"},{"poiid":"B2094750D26BA2F54199","title":"亮景路","lon":"121.605827","lat":"31.203313","category":"252","category_name":"楼宇机构","address":null},{"poiid":"B2094655D36DA2F94799","title":"高斯路吕家浜桥","lon":"121.61023","lat":"31.20266","category":"250","category_name":"公园户外","address":""},{"poiid":"B2094757D16DA5F44598","title":"224路华东师大站","lon":"121.61784","lat":"31.206931","category":"500","category_name":"未知分类","address":"上海市华东师范大学"},{"poiid":"B2094757D164A4FC459E","title":"联华超市(张江店)","lon":"121.61006","lat":"31.20214","category":"118","category_name":"超级市场","address":"浦东新区川北公路6729号(川北公路高斯路)"},{"poiid":"B2094757D66CA1FB439C","title":"中芯体育中心","lon":"121.61698597","lat":"31.220181825","category":"500","category_name":"未知分类","address":"上海市青桐路169号"},{"poiid":"B2094757D66EABFC4098","title":"沪江网校","lon":"121.603880575","lat":"31.2033755326","category":"253","category_name":"校园生活","address":"浦东新区亮秀路112号"},{"poiid":"B2094757D66FA0F4489B","title":"浦东消防支队张江中队","lon":"121.603803611","lat":"31.2034691889","category":"500","category_name":"未知分类","address":"上海浦东新区哈雷路650号近祖冲之路"},{"poiid":"B2094654DA6AA7F5489E","title":"上海市信息管线有限公司","lon":"121.59925","lat":"31.20705","category":"263","category_name":"公司","address":"金科路2860"},{"poiid":"B2094757D568A4FC479B","title":"Coffee For You","lon":"121.5999911","lat":"31.20604778","category":"260","category_name":"其他","address":"浦东新区金科路2966号浙大网新园区北楼1楼(高科中路金科路)"},{"poiid":"B2094654DA6AA5FC4992","title":"上海华帝娱乐有限公司","lon":"121.61608","lat":"31.20494","category":"263","category_name":"公司","address":"张江镇建中路6号"},{"poiid":"B2094757D568A5FE429A","title":"哎呀呀(张江店)","lon":"121.61450928","lat":"31.20353895","category":"130","category_name":"礼品饰品店","address":"中国上海市浦东新区建中路"}]