[{"poiid":"B2094757D06FA6FC459D","title":"工艺美术职业学院(嘉定校区)","lon":"121.25334978","lat":"31.408652081","category":"52","category_name":"高等院校","address":"嘉定区嘉行公路851号(昌徐路嘉行公路)"},{"poiid":"B2094757D069A7FF489B","title":"唛巢KTV","lon":"121.254188653","lat":"31.3968521733","category":"170","category_name":"KTV","address":"上海嘉行公路"},{"poiid":"B2094757D069A3FF4698","title":"保利海上五月花","lon":"121.26073455","lat":"31.396139144","category":"47","category_name":"住宅区","address":"上海市嘉定区永靖路899弄"},{"poiid":"B2094750D76CAAFC4899","title":"两季烧烤","lon":"121.258","lat":"31.4053","category":"68","category_name":"快餐厅","address":"嘉定区永靖路827-829号(近胜竹路)"},{"poiid":"B2094750DB6DA4FA419A","title":"捞王猪肚鸡嘉定店","lon":"121.25786","lat":"31.40412","category":"86","category_name":"火锅店","address":"嘉定区永靖路789-791号五月花美食广场内(近胜竹路口)"},{"poiid":"B2094757D16FA1FE409E","title":"君水湾大酒店","lon":"121.250728653","lat":"31.3981792002","category":"72","category_name":"广东菜","address":"嘉定区平城路788号(近柳湖路)"},{"poiid":"B2094654D469A0F9409D","title":"上海市嘉定一中","lon":"121.25447","lat":"31.4064","category":"55","category_name":"中学","address":"嘉定区嘉行公路701号"},{"poiid":"B2094757D16BA0FA4292","title":"保利会所","lon":"121.258311653","lat":"31.4055476144","category":"500","category_name":"未知分类","address":"上海市嘉定区永靖路899弄"},{"poiid":"B2094757D06AA1F8439F","title":"上海工艺美术学校","lon":"121.2505787","lat":"31.407187197","category":"500","category_name":"未知分类","address":"上海树屏路1050号"},{"poiid":"B2094757D06AAAFB4793","title":"裕欣珑","lon":"121.2577429","lat":"31.3998823139","category":"75","category_name":"浙江菜","address":"嘉定区平城路356号(永靖路口)"},{"poiid":"B2094757D064A3FC4092","title":"嘉定区实验小学","lon":"121.2523","lat":"31.39875","category":"56","category_name":"小学","address":"嘉定区平城路625号(平城路棋盘路)"},{"poiid":"B2094654DB69A4F4439E","title":"歌顿咖啡 嘉定店","lon":"121.2563764929","lat":"31.399735759774","category":"65","category_name":"咖啡厅","address":"嘉定区平城路392号(近嘉行公路)"},{"poiid":"B2094655D268A4FA4798","title":"新城枫景","lon":"121.26003","lat":"31.398907","category":"47","category_name":"住宅区","address":"永靖路288弄34幢91-93号"},{"poiid":"B2094757D069ABFD499B","title":"住友嘉馨","lon":"121.254075368","lat":"31.4010832591","category":"500","category_name":"未知分类","address":"上海平城路606弄"},{"poiid":"B2094655D268A5F54299","title":"桃园小区","lon":"121.25153559046","lat":"31.394883787978","category":"47","category_name":"住宅区","address":"城中路213弄"},{"poiid":"B209475DD26BA5FA4399","title":"本素·我家酸菜鱼","lon":"121.258003","lat":"31.404005","category":"247","category_name":"餐饮美食","address":"上海市 上海嘉定区永靖路763-765号"},{"poiid":"B2094654D469A4F4489C","title":"嘉华居","lon":"121.25578","lat":"31.400734","category":"47","category_name":"住宅区","address":"平城路388弄"},{"poiid":"B2094751DB69A1FE4998","title":"木易家港式茶餐厅","lon":"121.2575","lat":"31.40314","category":"68","category_name":"快餐厅","address":"嘉定区胜竹路1780弄保利五月花美食广场34号"},{"poiid":"B2094757D069A5FB409C","title":"七欣天迷宗蟹 嘉定店","lon":"121.25444","lat":"31.39833","category":"86","category_name":"火锅店","address":"嘉定区嘉行公路221号(盘龙河大浴场对面)"},{"poiid":"B2094655D36DA0F4459C","title":"永婧路胜竹路","lon":"121.2582","lat":"31.40388","category":"38","category_name":"公交车站","address":""},{"poiid":"B2094750D768A0FC419B","title":"杨柳邨粗菜馆","lon":"121.255","lat":"31.3986","category":"76","category_name":"上海菜","address":"嘉定区嘉行公路227号(嘉行公路平城路)"},{"poiid":"B2094753DB69ABF5459A","title":"疁城滋味","lon":"121.257774","lat":"31.404008","category":"247","category_name":"餐饮美食","address":"上海市 上海市嘉定区永靖路761号保利五月花美食广场"},{"poiid":"B2094757D16BA0F54193","title":"品海饭店","lon":"121.260511853","lat":"31.407338451","category":"247","category_name":"餐饮美食","address":"上海嘉定区树屏路568号"},{"poiid":"B2094757D165A7FA449A","title":"陈家山荷花公园","lon":"121.24658700853092","lat":"31.398843549040592","category":"196","category_name":"公园","address":"上海嘉定区胜竹路"},{"poiid":"B2094654D469A0F8479E","title":"上海远东学校","lon":"121.26065","lat":"31.40346","category":"55","category_name":"中学","address":"胜竹路1630"},{"poiid":"B2094757D16DA1F54793","title":"张太和(菊园店)","lon":"121.254078953","lat":"31.3981790002","category":"500","category_name":"未知分类","address":"上海嘉定区嘉行公路平城路口"},{"poiid":"B2094757D064A1FE4499","title":"嘉定区教师进修学院","lon":"121.25404818","lat":"31.404514907","category":"260","category_name":"其他","address":"上海嘉定区嘉行公路601号"},{"poiid":"B2094757D068A3F84999","title":"李园二村","lon":"121.25837740036","lat":"31.395148864936","category":"252","category_name":"楼宇机构","address":"博乐路252弄"},{"poiid":"B2094654D469A4F4479F","title":"嘉富小区","lon":"121.25554","lat":"31.395052","category":"47","category_name":"住宅区","address":"棋盘路1001弄1-70号"},{"poiid":"B2094757D064A6FA4798","title":"吴姑娘特色煲(菊园店)","lon":"121.258152","lat":"31.399341","category":"76","category_name":"上海菜","address":"嘉定区永靖路320号(近君紫湘菜)"},{"poiid":"B2094654D469A1FF499A","title":"嘉定颐景园","lon":"121.25810127744","lat":"31.405763055577","category":"47","category_name":"住宅区","address":"棋盘路1385弄22-23号"},{"poiid":"B2094655D26FAAF84299","title":"意大利匹萨店 Pizza It","lon":"121.259531054","lat":"31.399891793","category":"94","category_name":"西餐厅","address":"嘉定区永靖路290号(平城路永靖路)"},{"poiid":"B2094757D665A4FF4699","title":"浦顺768","lon":"121.25665","lat":"31.399872","category":"76","category_name":"上海菜","address":"嘉定区平城路382号(嘉行公路平城路)"},{"poiid":"B2094757D16BA1F84792","title":"嘉定区教育局","lon":"121.254216","lat":"31.404568","category":"253","category_name":"校园生活","address":"上海嘉定区嘉行公路601号"},{"poiid":"B2094757D069A3FA499E","title":"工藝美院原創中心","lon":"121.253326416","lat":"31.40974617","category":"190","category_name":"培训机构","address":"上海嘉定區嘉行公路851號"},{"poiid":"B2094655D26BA1FD4098","title":"平城路永靖路","lon":"121.25914","lat":"31.40005","category":"38","category_name":"公交车站","address":""},{"poiid":"B2094654D469A1FF4099","title":"嘉邦小区","lon":"121.26","lat":"31.4004","category":"47","category_name":"住宅区","address":"嘉行公路41弄5幢16-17"},{"poiid":"B2094757D16AA6F94798","title":"阿玛尼护肤造型中心(嘉定店)","lon":"121.255391553","lat":"31.4007135156","category":"148","category_name":"美容美发店","address":"上海城中路"},{"poiid":"B2094757D16DA3FC4899","title":"唛巢","lon":"121.261235","lat":"31.403264","category":"170","category_name":"KTV","address":"上海市嘉定区嘉行公路201号"},{"poiid":"B2094654D469A4F4499E","title":"中国移动菊园营业厅","lon":"121.25664","lat":"31.3998","category":"151","category_name":"电讯营业厅","address":"嘉定区平城路376号"},{"poiid":"B2094757D568A5FE4092","title":"永琪美容美发(平城路)","lon":"121.25731662","lat":"31.39984701","category":"148","category_name":"美容美发店","address":"平城路362"},{"poiid":"B2094753DB69A7FC409B","title":"我家酸菜鱼","lon":"121.26184","lat":"31.401922","category":"247","category_name":"餐饮美食","address":"上海市 嘉定区永靖路753号"},{"poiid":"B209475CD66DA0FF4399","title":"本素我家酸菜鱼","lon":"121.262481","lat":"31.402011","category":"247","category_name":"餐饮美食","address":"上海市 上海市嘉定区永靖路763号"},{"poiid":"B209475CD16BA7FA409E","title":"本素我家酸菜鱼","lon":"121.262611","lat":"31.403171","category":"247","category_name":"餐饮美食","address":"上海市 永靖路875"},{"poiid":"B2094654D469A4F5419B","title":"快客NO.6567","lon":"121.25725","lat":"31.39953","category":"117","category_name":"便民商店/便利店","address":"徐行镇"},{"poiid":"B2094655D268A4FD4098","title":"住友嘉馨名园(南门)","lon":"121.25312","lat":"31.39941","category":"47","category_name":"住宅区","address":"平城路606弄"},{"poiid":"B2094757D66CA1F5499A","title":"众仁乐园","lon":"121.25672465","lat":"31.400185504","category":"500","category_name":"未知分类","address":"上海嘉定区平城路"},{"poiid":"B2094757D16BA5F9439C","title":"李园二村西片","lon":"121.255624253","lat":"31.4019848416","category":"252","category_name":"楼宇机构","address":"上海李园二村西片"},{"poiid":"B2094655D26FAAF4489D","title":"金湖世纪华联(平城路)","lon":"121.25583","lat":"31.39967","category":"117","category_name":"便民商店/便利店","address":"平城路384"},{"poiid":"B2094757D66EA4F44198","title":"嘉迪乐量贩式KTV","lon":"121.25613265","lat":"31.398412468","category":"170","category_name":"KTV","address":"上海嘉定菊园"},{"poiid":"B2094757D064AAF94598","title":"泰宸雅苑","lon":"121.24931","lat":"31.40332","category":"47","category_name":"住宅区","address":"上海嘉定区胜竹路2100弄"},{"poiid":"B2094654D469A1F9429D","title":"徐行大厦","lon":"121.261","lat":"31.3994","category":"46","category_name":"楼宇","address":"环城路200号"},{"poiid":"B2094757D66AABFD4599","title":"胖子饭店","lon":"121.258448054","lat":"31.396668793","category":"76","category_name":"上海菜","address":"嘉定区永靖路302号(近环城路)"},{"poiid":"B2094757D16FAAFA409A","title":"工艺美院女生宿舍D楼","lon":"121.25588465","lat":"31.409041685","category":"500","category_name":"未知分类","address":null},{"poiid":"B2094757D16DA3FB439A","title":"口口咖啡法式铁板烧","lon":"121.26291","lat":"31.39523","category":"94","category_name":"西餐厅","address":"嘉定区新城路881号-C(近塔城路)"},{"poiid":"B2094757D064AAFC429A","title":"嘉迪乐KTV","lon":"121.25448965","lat":"31.395960418","category":"170","category_name":"KTV","address":"嘉定区嘉行公路226号(近盘龙河浴场)"},{"poiid":"B2094654D469A4F5449F","title":"博特形象会所","lon":"121.25787","lat":"31.39828","category":"148","category_name":"美容美发店","address":"永靖路278"},{"poiid":"B2094654D468ABFA4693","title":"菊园派出所","lon":"121.25334","lat":"31.40262","category":"609","category_name":"警察局","address":"嘉定区胜竹路1980号"},{"poiid":"B2094757D165A1F4419D","title":"表现护肤造型","lon":"121.25618265","lat":"31.399894498","category":"148","category_name":"美容美发店","address":"上海市嘉定区胜竹路"},{"poiid":"B2094757D464A7FB4192","title":"伊诺咖啡 菊园店","lon":"121.24558","lat":"31.40537","category":"65","category_name":"咖啡厅","address":"嘉定区柳湖路757号(近树屏路)"},{"poiid":"B2094757D065A6FE449A","title":"菊园嘉宁坊","lon":"121.255799","lat":"31.398491","category":"500","category_name":"未知分类","address":"上海嘉定区棋盘路998弄"},{"poiid":"B2094654D468ABFA4692","title":"嘉一联合中学","lon":"121.25106","lat":"31.40301","category":"55","category_name":"中学","address":"嘉定区棋盘路1580号"},{"poiid":"B2094655D26BA1FD409C","title":"平城路嘉行公路","lon":"121.25363","lat":"31.39927","category":"38","category_name":"公交车站","address":""},{"poiid":"B2094757D16FAAF94692","title":"盘龙河大浴场","lon":"121.25526","lat":"31.39804","category":"149","category_name":"洗浴推拿场所","address":"上海近郊嘉定区嘉行公路228号  "},{"poiid":"B2094757D16CA7FD489C","title":"怡华佳苑","lon":"121.24948095","lat":"31.402985397","category":"47","category_name":"住宅区","address":"上海柳湖路777弄"},{"poiid":"B2094751D565A4F8439E","title":"韩亭苑自助烤肉","lon":"121.260314","lat":"31.407972","category":"247","category_name":"餐饮美食","address":null},{"poiid":"B2094757D064ABFC459E","title":"菊园车站","lon":"121.25478665","lat":"31.404198586","category":"251","category_name":"出行住宿","address":"上海嘉行公路"},{"poiid":"B2094654D469A1F8449D","title":"沁颜美丽工坊","lon":"121.25373","lat":"31.39943","category":"148","category_name":"美容美发店","address":"嘉定区平城路594号(近嘉行公路)"},{"poiid":"B2094654D469A1F9429E","title":"菊园嘉邦小区(北门)","lon":"121.25353","lat":"31.39637","category":"656","category_name":"大门","address":"棋盘路1111弄1-53号"},{"poiid":"B2094757D66DABF54898","title":"哈利波特","lon":"121.260025","lat":"31.398907","category":"249","category_name":"购物服务","address":"上海永靖路新城枫景门口"},{"poiid":"B2094757D569A3F8489D","title":"英伦玫瑰皇家女士养生会所(柯岩商务楼东南)","lon":"121.25414225","lat":"31.39903619","category":"148","category_name":"美容美发店","address":"嘉行公路225弄22"},{"poiid":"B2094757D065A6F4449F","title":"上海工艺美术职业学院-宿舍A楼307寝室","lon":"121.253348753","lat":"31.4054931486","category":"500","category_name":"未知分类","address":null},{"poiid":"B2094753D66AA1F54498","title":"我家酸菜鱼","lon":"121.25325","lat":"31.397378","category":"247","category_name":"餐饮美食","address":"上海市 永靖路763号"},{"poiid":"B2094654D469A4F54392","title":"春妍芳香理疗美容室","lon":"121.25778","lat":"31.39788","category":"148","category_name":"美容美发店","address":"永靖路258"},{"poiid":"B2094757D16EA4FD409C","title":"浦顺768精菜馆","lon":"121.253937653","lat":"31.396937175","category":"247","category_name":"餐饮美食","address":"上海嘉定区菊园新区平城路384号"},{"poiid":"B2094654D469A4F4489F","title":"上海歌顿餐饮有限公司","lon":"121.25537","lat":"31.39975","category":"263","category_name":"公司","address":"平城路390"},{"poiid":"B2094757D66EA0F9459E","title":"上海工商银行(菊园支行)","lon":"121.254327653","lat":"31.3993952249","category":"150","category_name":"银行","address":"上海嘉定区平城路572-578号"},{"poiid":"B2094655D268A4FA479F","title":"嘉华居(南门)","lon":"121.25563","lat":"31.39963","category":"48","category_name":"楼宇大门","address":"平城路388弄"},{"poiid":"B2094757D164A3F84992","title":"颐景圆","lon":"121.251089653","lat":"31.4008072535","category":"247","category_name":"餐饮美食","address":"上海嘉定菊园"},{"poiid":"B2094655D36CA1F84992","title":"柳湖路树屏路","lon":"121.24673","lat":"31.40382","category":"38","category_name":"公交车站","address":""},{"poiid":"B2094757D569A1FA449A","title":"夏天美发沙龙(菊园店)","lon":"121.25444689","lat":"31.39708306","category":"148","category_name":"美容美发店","address":"嘉行公路195"},{"poiid":"B2094655D36DA1FA419A","title":"北横河桥","lon":"121.25475","lat":"31.40832","category":"250","category_name":"公园户外","address":""},{"poiid":"B2094654D468ABF84493","title":"嘉定区城市交通行政执法大队","lon":"121.25113","lat":"31.4025","category":"250","category_name":"公园户外","address":"棋盘路1560"},{"poiid":"B2094655D268A2F94798","title":"北大街280弄","lon":"121.252","lat":"31.3971","category":"47","category_name":"住宅区","address":"北大街280弄"},{"poiid":"B2094654D468ABF8459A","title":"上海市嘉定区交通运输管理协会","lon":"121.25113","lat":"31.40251","category":"250","category_name":"公园户外","address":"棋盘路1560"},{"poiid":"B2094654DB6AA6F5419A","title":"菊园嘉邦小区","lon":"121.25251","lat":"31.39625","category":"47","category_name":"住宅区","address":""},{"poiid":"B2094757D165ABFB459C","title":"菊园社区餐厅","lon":"121.248730653","lat":"31.4019802773","category":"76","category_name":"上海菜","address":"嘉定区胜竹路2188号(柳湖路口)"},{"poiid":"B2094757D16CA5FA429C","title":"嘉定老街","lon":"121.249986653","lat":"31.4085794113","category":"500","category_name":"未知分类","address":"上海嘉定区"},{"poiid":"B2094655D268A4FA4799","title":"新城枫景(西二门)","lon":"121.25814","lat":"31.39948","category":"656","category_name":"大门","address":""},{"poiid":"B2094655D268A4F94998","title":"嘉富小区(北门)","lon":"121.25569","lat":"31.39648","category":"47","category_name":"住宅区","address":"棋盘路1001弄1-70号"},{"poiid":"B2094654D469A1F8419D","title":"菊园新区社区卫生服务中心","lon":"121.24993","lat":"31.39799","category":"162","category_name":"医院","address":"平城路785"},{"poiid":"B2094655D36CA2FE479B","title":"棋盘路平城路","lon":"121.25118","lat":"31.39797","category":"38","category_name":"公交车站","address":""},{"poiid":"B2094654DB6AA6F54098","title":"上海嘉园经济城","lon":"121.25059","lat":"31.39787","category":"45","category_name":"产业园区","address":"棋盘路1255"},{"poiid":"B2094757D16CA6FB459F","title":"嘉定区菊园幼儿园","lon":"121.255828","lat":"31.396972","category":"500","category_name":"未知分类","address":"嘉定区棋盘路1000号(嘉行公路棋盘路)"},{"poiid":"B2094757D16DA1F44598","title":"七欣天","lon":"121.2544403","lat":"31.398328781","category":"500","category_name":"未知分类","address":"上海青浦区沙棣浜路35号"},{"poiid":"B2094655D268A1F5459C","title":"勇盛公寓","lon":"121.25396","lat":"31.397083","category":"47","category_name":"住宅区","address":"棋盘路1080弄1-4号"},{"poiid":"B2094654D469A1F8469B","title":"中国农业银行菊园分理处","lon":"121.2544","lat":"31.39795","category":"150","category_name":"银行","address":"嘉行公路209"},{"poiid":"B2094757D16AA5FA4198","title":"乡巴佬水果店","lon":"121.25492041","lat":"31.399528721","category":"260","category_name":"其他","address":"上海嘉定区平城路604号"},{"poiid":"B2094757D468ABFD419E","title":"熊记烧烤","lon":"121.25253","lat":"31.39575","category":"68","category_name":"快餐厅","address":"嘉定区环城路600弄菊园嘉邦小区附近(近伊诺咖啡)"},{"poiid":"B2094655D36CA2FE479A","title":"棋盘路嘉行公路","lon":"121.25333","lat":"31.39655","category":"38","category_name":"公交车站","address":""},{"poiid":"B2094752D36CA1F8449E","title":"八字塘酒店","lon":"121.26052","lat":"31.411218","category":"247","category_name":"餐饮美食","address":null},{"poiid":"B2094654D468ABFA4792","title":"上海嘉定农副产品交易中心","lon":"121.24977","lat":"31.40154","category":"117","category_name":"便民商店/便利店","address":""},{"poiid":"B2094757D16FA7FB4992","title":"吉野足疗中心","lon":"121.25391465","lat":"31.397387184","category":"500","category_name":"未知分类","address":"上海市嘉定区嘉行公路"},{"poiid":"B2094757D66EA2F5469E","title":"上海工艺美术职业学院-操场","lon":"121.25208085","lat":"31.408149802","category":"500","category_name":"未知分类","address":"上海市嘉定区树屏路1050号(靠近棋盘路)"},{"poiid":"B2094757D16EA5FE479B","title":"嘉康坊","lon":"121.25252","lat":"31.397438","category":"500","category_name":"未知分类","address":"上海嘉定区棋盘路1110弄"},{"poiid":"B2094757D06BA5FD409C","title":"上海工艺美校(教学楼A)","lon":"121.253325","lat":"31.409747","category":"500","category_name":"未知分类","address":"上海嘉定区嘉行公路851号"},{"poiid":"B2094757D66DA3F44499","title":"广州本田4S嘉定沪宜公路","lon":"121.265250553","lat":"31.4038762803","category":"500","category_name":"未知分类","address":"上海沪宜公路"},{"poiid":"B2094654D469A0F9409C","title":"上海市天灵开关厂有限公司","lon":"121.25496","lat":"31.40948","category":"263","category_name":"公司","address":""},{"poiid":"B2094757D569A2F84299","title":"永成烟酒店","lon":"121.25434109","lat":"31.39672499","category":"117","category_name":"便民商店/便利店","address":"嘉行公路183"},{"poiid":"B2094757D568A7FF429A","title":"上海凯农娱乐有限公司","lon":"121.25505398","lat":"31.39803385","category":"248","category_name":"生活娱乐","address":"嘉行公路226"},{"poiid":"B2094655D268A1F5459D","title":"勇盛公寓(南门)","lon":"121.25382","lat":"31.39672","category":"47","category_name":"住宅区","address":"棋盘路1080弄1-4号"},{"poiid":"B2094757D064A3FA449F","title":"平城路嘉华居","lon":"121.2514547","lat":"31.398843088","category":"500","category_name":"未知分类","address":"上海平城路嘉华居"},{"poiid":"B2094655D268A4FC499C","title":"菊园新区党建广场","lon":"121.25054","lat":"31.39832","category":"201","category_name":"城市广场","address":""},{"poiid":"B2094654D469A4F5449C","title":"新城枫景(西门)","lon":"121.25794","lat":"31.39852","category":"656","category_name":"大门","address":"永靖路288弄19幢53-56号"},{"poiid":"B2094654D469A4F44693","title":"中国农业银行菊园分理处24小时自助银行","lon":"121.25444","lat":"31.39803","category":"152","category_name":"ATM","address":"嘉行公路209"},{"poiid":"B2094654D469A1F9429B","title":"好德No.3019","lon":"121.25282","lat":"31.39635","category":"117","category_name":"便民商店/便利店","address":"棋盘路1139号"},{"poiid":"B2094655D268A4FA479C","title":"嘉宁坊(西门)","lon":"121.25527","lat":"31.39857","category":"656","category_name":"大门","address":""},{"poiid":"B2094654DB6AA6F5409B","title":"上海图书馆讲座播放点","lon":"121.25058","lat":"31.39787","category":"181","category_name":"图书馆","address":"棋盘路1255号"},{"poiid":"B2094654DB6AA6F5419F","title":"伊诺咖啡 徐行大厦店","lon":"121.253956054","lat":"31.393869793","category":"260","category_name":"其他","address":"嘉定区环城路200号徐行大厦(近嘉行大道)"},{"poiid":"B2094757D569A3F5409D","title":"莱欧时尚造型(自新旗舰店)","lon":"121.25274821","lat":"31.39668701","category":"148","category_name":"美容美发店","address":"棋盘路1144"},{"poiid":"B2094757D16EAAFC4492","title":"菊园文化活动中心","lon":"121.254782653","lat":"31.3956004111","category":"500","category_name":"未知分类","address":"上海市嘉定区棋盘路1255号"},{"poiid":"B2094655D268A5FE409A","title":"新城枫景(南门)","lon":"121.26045","lat":"31.39773","category":"656","category_name":"大门","address":""},{"poiid":"B2094655D36CA0F4489D","title":"环城路嘉行公路","lon":"121.25198","lat":"31.39399","category":"38","category_name":"公交车站","address":""},{"poiid":"B2094757D465A7FD409D","title":"张太和爊鸭 金沙路店","lon":"121.253653054","lat":"31.390726793","category":"68","category_name":"快餐厅","address":"嘉定区金沙路480号(近李园一村)"},{"poiid":"B2094654D468ABF8449D","title":"菊园幼儿园(柳湖路)","lon":"121.24706","lat":"31.40285","category":"57","category_name":"幼儿园","address":""},{"poiid":"B2094654D469A0F84199","title":"上海超拔乐器有限公司","lon":"121.26212","lat":"31.41037","category":"263","category_name":"公司","address":""},{"poiid":"B2094757D169A7FA4592","title":"太麻里私房牛肉面(菊园店)","lon":"121.25498865","lat":"31.393713372","category":"68","category_name":"快餐厅","address":"嘉定区嘉行公路225弄13号"},{"poiid":"B2094654D469A4F5499E","title":"永峰新苑","lon":"121.26129","lat":"31.394289","category":"47","category_name":"住宅区","address":"嘉罗公路1081弄"},{"poiid":"B2094757D165AAFC409A","title":"fishyxl's home","lon":"121.25476365","lat":"31.395923417","category":"500","category_name":"未知分类","address":"上海市嘉定区永靖路288弄47号"},{"poiid":"B2094655D26FAAF44198","title":"新城枫景(南二门)","lon":"121.25828","lat":"31.3973","category":"656","category_name":"大门","address":""},{"poiid":"B2094654D469A1F84299","title":"菊园新区文化活动中心","lon":"121.25059","lat":"31.39787","category":"248","category_name":"生活娱乐","address":"棋盘路1255号"},{"poiid":"B2094655D268A5FE4698","title":"天象农家庄","lon":"121.26178","lat":"31.3909","category":"257","category_name":"中餐厅","address":"嘉定区嘉罗公路800弄5号桥东首(近塔城东路)"},{"poiid":"B2094655D36CA0FC439E","title":"菊园新村","lon":"121.25595","lat":"31.393936","category":"38","category_name":"公交车站","address":"平城路160弄"},{"poiid":"B2094655D36CA0FA489E","title":"嘉罗公路新成路","lon":"121.26006","lat":"31.39309","category":"38","category_name":"公交车站","address":""},{"poiid":"B2094757D16CA7F5439D","title":"工艺美院女生宿舍D楼512寝室","lon":"121.24999465","lat":"31.408483409","category":"500","category_name":"未知分类","address":"上海市嘉定区棋盘路树屏路"},{"poiid":"B2094757D16EA2FC4992","title":"上海工艺美校宿舍A楼614","lon":"121.250242653","lat":"31.4082764051","category":"500","category_name":"未知分类","address":null},{"poiid":"B2094654D469ABFC469B","title":"菊园新区","lon":"121.25524","lat":"31.39353","category":"47","category_name":"住宅区","address":"环城路160弄1-61号"},{"poiid":"B2094757D164A3FA409C","title":"上海工艺美校女生宿舍A楼618","lon":"121.250119153","lat":"31.4086553128","category":"500","category_name":"未知分类","address":"上海嘉行公路851号"},{"poiid":"B2094654DB6AA6F54199","title":"上海徐行经济城","lon":"121.25412","lat":"31.39367","category":"45","category_name":"产业园区","address":"环城路200"},{"poiid":"B2094655D268A4FA479B","title":"嘉宁坊(南门)","lon":"121.25598","lat":"31.39701","category":"656","category_name":"大门","address":""},{"poiid":"B2094757D16AA5FE4199","title":"工艺美院女生宿舍A楼617","lon":"121.250039653","lat":"31.4084434085","category":"500","category_name":"未知分类","address":null},{"poiid":"B2094655D36DA0FC4993","title":"新建一路嘉行公路","lon":"121.25481","lat":"31.41349","category":"38","category_name":"公交车站","address":""},{"poiid":"B2094654D469A1FF429B","title":"快客NO.6259","lon":"121.25355","lat":"31.39396","category":"117","category_name":"便民商店/便利店","address":"徐行镇"},{"poiid":"B2094750D26AA3FA459B","title":"北水湾大厦","lon":"121.248641","lat":"31.398479","category":"252","category_name":"楼宇机构","address":"嘉定区平城路811号"},{"poiid":"B2094655D26FABFE4193","title":"颐景园(东门)","lon":"121.25085","lat":"31.40017","category":"656","category_name":"大门","address":""},{"poiid":"B2094654D469A1F8429F","title":"菊园新区社区服务中心","lon":"121.25058","lat":"31.39787","category":"248","category_name":"生活娱乐","address":"棋盘路1255号"},{"poiid":"B2094654D469A1FF429D","title":"嘉定区百货有限公司菊园店","lon":"121.25224","lat":"31.39415","category":"119","category_name":"商场","address":""},{"poiid":"B2094655D26FABFE419D","title":"颐景园(东二门)","lon":"121.25099","lat":"31.39914","category":"656","category_name":"大门","address":""},{"poiid":"B2094655D26FAAF8419E","title":"永峰新苑(南门)","lon":"121.26123","lat":"31.39377","category":"47","category_name":"住宅区","address":"嘉罗路1081弄"},{"poiid":"B2094655D268A5FD4993","title":"菊园新村(南门)","lon":"121.2561","lat":"31.39329","category":"47","category_name":"住宅区","address":"环城路160弄1-61号"},{"poiid":"B2094655D26FABFE4298","title":"嘉邦小区(南三门)","lon":"121.25312","lat":"31.39387","category":"47","category_name":"住宅区","address":""},{"poiid":"B2094654D469A1F94292","title":"嘉定第九税务所","lon":"121.25413","lat":"31.39367","category":"250","category_name":"公园户外","address":"环城路200号3层301、4层401"},{"poiid":"B2094655D268A6FE429B","title":"温宿路31弄小区","lon":"121.25450726548","lat":"31.39355540654","category":"47","category_name":"住宅区","address":"温宿路31弄1-3号"},{"poiid":"B2094757D065A2FE469D","title":"黄金1号台球俱乐部","lon":"121.25410461","lat":"31.393749237","category":"171","category_name":"台球厅","address":"嘉定区环城路200号(嘉行公路口)"},{"poiid":"B2094655D268A4FC499E","title":"嘉康坊(南二门)","lon":"121.25314","lat":"31.39662","category":"656","category_name":"大门","address":"棋盘路1110弄"},{"poiid":"B2094655D268A2F9479E","title":"环城河市民休闲公园","lon":"121.25036","lat":"31.39386","category":"196","category_name":"公园","address":"嘉定区环城路(嘉行公路口)"},{"poiid":"B2094654D469A3FA4398","title":"上海水之园经济城","lon":"121.25094","lat":"31.39398","category":"45","category_name":"产业园区","address":"环城路601号"},{"poiid":"B2094654D469A4FD419F","title":"上海燕子花苑酒店","lon":"121.2636","lat":"31.39274","category":"70","category_name":"综合酒楼","address":"嘉定区新成路899号"},{"poiid":"B209475CD56BA6FE4592","title":"上海雅昌艺术中心","lon":"121.260055","lat":"31.393091","category":"500","category_name":"未知分类","address":"上海市 上海市嘉定区嘉罗公路1022号"},{"poiid":"B2094654D469A1F84998","title":"嘉康坊(西南门)","lon":"121.25214","lat":"31.39686","category":"656","category_name":"大门","address":"棋盘路1150弄"},{"poiid":"B2094757D66DA3FE4493","title":"嘉定区新成路街道劳动保障事务所","lon":"121.263408353","lat":"31.3927763534","category":"46","category_name":"楼宇","address":"上海市嘉定区新成路155号"},{"poiid":"B2094654D469A0F84893","title":"世纪绿苑","lon":"121.25618","lat":"31.41466","category":"47","category_name":"住宅区","address":"徐行镇"},{"poiid":"B2094757D568A7FE4092","title":"可德便利(嘉定环城路)","lon":"121.25811117","lat":"31.39235623","category":"117","category_name":"便民商店/便利店","address":"环城路64"},{"poiid":"B2094655D268A1F5459E","title":"上海车悦汽车服务有限公司环城店","lon":"121.25174","lat":"31.39423","category":"159","category_name":"汽车维修","address":"环城路608号"},{"poiid":"B2094654D469ABFD4792","title":"悦华公寓","lon":"121.25692","lat":"31.390079","category":"47","category_name":"住宅区","address":"东大街118弄"},{"poiid":"B2094654D469A0F8479F","title":"上海汽车股份有限公司上海汽车齿轮一厂","lon":"121.26504","lat":"31.3952","category":"263","category_name":"公司","address":""},{"poiid":"B2094757D66DA2F5479F","title":"棋盘路","lon":"121.248605653","lat":"31.3952821414","category":"500","category_name":"未知分类","address":"上海市嘉定区嘉唐公路"},{"poiid":"B2094654D469A1FF4899","title":"嘉定区农业生产资料有限公司昌桥代购代销店","lon":"121.24819","lat":"31.39665","category":"255","category_name":"专卖店","address":""},{"poiid":"B2094654D469A0FC409A","title":"鸿乐休闲中心","lon":"121.25392","lat":"31.3932","category":"248","category_name":"生活娱乐","address":""},{"poiid":"B2094654D469A3FA4393","title":"李园二村(4号门)","lon":"121.25251","lat":"31.39133","category":"47","category_name":"住宅区","address":""},{"poiid":"B2094654DB6AA6F5449E","title":"李园一村(西门)","lon":"121.25318","lat":"31.39111","category":"47","category_name":"住宅区","address":""},{"poiid":"B2094654D469A7F8489B","title":"嘉定水质净化厂","lon":"121.26776","lat":"31.39607","category":"263","category_name":"公司","address":""},{"poiid":"B2094654D469A1FF429C","title":"菊园嘉邦小区(南门)","lon":"121.25231","lat":"31.39418","category":"656","category_name":"大门","address":"嘉行公路41弄2幢3-6号"},{"poiid":"B2094655D26FABFE4192","title":"菊园嘉邦小区(南二门)","lon":"121.2518","lat":"31.39423","category":"656","category_name":"大门","address":"环城路600弄1-32号"},{"poiid":"B2094757D064A1FA489B","title":"李园一村","lon":"121.25399","lat":"31.390421","category":"500","category_name":"未知分类","address":"交通路4603号"},{"poiid":"B2094752D76CA2FE4498","title":"上海雅昌艺术中心","lon":"121.252556","lat":"31.39086","category":"263","category_name":"公司","address":"上海嘉定嘉罗公路1022号"},{"poiid":"B2094757D169A6FC419A","title":"华勋商务酒店","lon":"121.251511653","lat":"31.3919060729","category":"217","category_name":"旅馆招待所","address":"上海市嘉定环城路"},{"poiid":"B2094654D469A3FA4499","title":"上海正飞家庭装潢有限公司嘉定分公司","lon":"121.2527","lat":"31.39085","category":"263","category_name":"公司","address":"金沙路551"}]