[{"poiid":"B2094757D06FA7FD4392","title":"上海工程技术大学(松江校区)","lon":"121.20435571","lat":"31.05668136","category":"52","category_name":"高等院校","address":"松江区松江龙腾路333号"},{"poiid":"B2094655D26FABFC4699","title":"上海工程技术大学图书馆","lon":"121.20449","lat":"31.05704","category":"181","category_name":"图书馆","address":"松江区龙腾路333号上海工程技术大学内"},{"poiid":"B2094655D26BA2FB449D","title":"松江大学城","lon":"121.21218","lat":"31.04941","category":"38","category_name":"公交车站","address":""},{"poiid":"B2094757D06EAAF8429C","title":"松江大学城二期宿舍","lon":"121.215076","lat":"31.050489","category":"253","category_name":"校园生活","address":"上海松江区松江大学城文汇路300弄"},{"poiid":"B2094757D065A5F5439D","title":"华东政法大学明法楼","lon":"121.19792175","lat":"31.05569025","category":"500","category_name":"未知分类","address":"上海松江大学城"},{"poiid":"B2094757D06FA0F4479A","title":"松江大学城三期寝室","lon":"121.20460969","lat":"31.050815503","category":"253","category_name":"校园生活","address":"上海文汇路800弄"},{"poiid":"B2094757D06FA3FB4499","title":"王小姐的店","lon":"121.20830277","lat":"31.049656643","category":"260","category_name":"其他","address":"松江区松江大学城一期文汇路652弄203室(近龙腾路)"},{"poiid":"B2094757D06FA3FE439F","title":"松江大学城一期学生公寓","lon":"121.208628196","lat":"31.0513171146","category":"253","category_name":"校园生活","address":"松江区文汇路600号(上海对外贸易学院对面)"},{"poiid":"B2094757D069A0F4419D","title":"东华大学图书馆(松江校区)","lon":"121.213105943","lat":"31.0565057824","category":"253","category_name":"校园生活","address":"松江区人民北路2999号(北翠路人民北路)"},{"poiid":"B2094757D06FA3FB4793","title":"东华大学 (松江校区) 第一教学楼","lon":"121.216392517","lat":"31.0574913025","category":"253","category_name":"校园生活","address":"上海松江区人民北路2999号 东华大学内"},{"poiid":"B2094757D06FABFD459F","title":"东华大学(松江校区)","lon":"121.22101","lat":"31.05698","category":"671","category_name":"高校中心点","address":"上海近郊松江区人民北路2999号  "},{"poiid":"B2094655D268A6FD479C","title":"东华大学第二教学楼","lon":"121.2189","lat":"31.0551","category":"52","category_name":"高等院校","address":""},{"poiid":"B2094757D06FA6FF4593","title":"华东政法大学明法楼东楼","lon":"121.200904846","lat":"31.0555477142","category":"253","category_name":"校园生活","address":"上海近龙源路555号"},{"poiid":"B2094757D069A2FC439A","title":"上海工程技术大学C楼","lon":"121.20699779","lat":"31.054935392","category":"500","category_name":"未知分类","address":"上海工程技术大学C楼"},{"poiid":"B2094750D56FA4FD4692","title":"华东政法大学图书馆（松江校区）","lon":"121.197219","lat":"31.055059","category":"252","category_name":"楼宇机构","address":"龙源路555号"},{"poiid":"B2094757D068A7F4459C","title":"RouRou Coffee","lon":"121.208647","lat":"31.049337","category":"260","category_name":"其他","address":"松江区文汇路652弄201室(近龙腾路)"},{"poiid":"B2094757D068A4FA489F","title":"华东政法大学食堂(松江校区)","lon":"121.19753","lat":"31.05492","category":"68","category_name":"快餐厅","address":"松江区华东政法学院松江校区"},{"poiid":"B2094757D66EA7F8429C","title":"阁楼上的猫","lon":"121.205550196","lat":"31.0499700858","category":"260","category_name":"其他","address":"松江区文汇路樱花广场3楼"},{"poiid":"B2094757D068A0F94798","title":"东华大学食堂(松江校区)","lon":"121.21399916","lat":"31.054109358","category":"68","category_name":"快餐厅","address":"松江区松江大学城二期东华大学一食堂"},{"poiid":"B2094757D66CA5F9439A","title":"广富林遗址文化公园","lon":"121.19717419","lat":"31.057697176","category":"196","category_name":"公园","address":"上海近郊松江  "},{"poiid":"B2094757D069A1F5409A","title":"东华大学锦绣会堂","lon":"121.213003096","lat":"31.0536938654","category":"260","category_name":"其他","address":"上海东华大学内(近一食堂)"},{"poiid":"B2094757D069A4FE489D","title":"东华大学体育馆","lon":"121.212041857","lat":"31.0542823987","category":"253","category_name":"校园生活","address":"上海市松江区人民北路2999号东华大学内"},{"poiid":"B2094757D068A7FB4493","title":"上海工程技術大學教學樓E樓","lon":"121.20913696","lat":"31.056999206","category":"253","category_name":"校园生活","address":"上海龍騰路333號"},{"poiid":"B2094757D069A2FA439C","title":"华东政法大学集英楼","lon":"121.20215606","lat":"31.055418014","category":"253","category_name":"校园生活","address":"上海近松江区龙源路555号"},{"poiid":"B2094757D06BA5FE4193","title":"上海工程技术大学实训楼1号楼","lon":"121.20179956","lat":"31.060506296","category":"500","category_name":"未知分类","address":"上海工程技术大学实训楼1号楼"},{"poiid":"B2094655D26FAAFA469D","title":"上海工程技术大学行政楼","lon":"121.20844","lat":"31.05723","category":"52","category_name":"高等院校","address":"腾飞东路"},{"poiid":"B2094655D268A6FD479D","title":"东华大学第一教学楼","lon":"121.21884","lat":"31.0559","category":"52","category_name":"高等院校","address":""},{"poiid":"B2094757D568A7F4429E","title":"松江大学城300弄","lon":"121.2150869","lat":"31.05049806","category":"52","category_name":"高等院校","address":"文汇路300弄"},{"poiid":"B2094757D06BA4FF489F","title":"上海工程技术大学体育馆","lon":"121.202497","lat":"31.054414","category":"220","category_name":"运动场所","address":"上海松江区龙腾路333号工程技术大学内"},{"poiid":"B2094757D068A5FD459F","title":"华东政法大学汇贤楼","lon":"121.20063781","lat":"31.055269241","category":"253","category_name":"校园生活","address":"上海市松江区龙源路555号附近"},{"poiid":"B2094757D068A7F5409F","title":"复旦大学上海视觉艺术学院实训楼","lon":"121.20693206","lat":"31.049365997","category":"500","category_name":"未知分类","address":"上海松江区文翔路2200号"},{"poiid":"B2094757D069A6F44899","title":"上海工程技术大学 教学F楼","lon":"121.206471074","lat":"31.0557901524","category":"253","category_name":"校园生活","address":"上海龙腾路333号"},{"poiid":"B2094757D064AAFB429E","title":"华东政法大学明珠楼","lon":"121.2053139","lat":"31.050214021","category":"181","category_name":"图书馆","address":"上海华东政法大学"},{"poiid":"B2094757D16BA6F9429F","title":"工程大艺术楼","lon":"121.205250196","lat":"31.0538731693","category":"500","category_name":"未知分类","address":"上海市松江区龙源路"},{"poiid":"B2094655D26FAAFA4892","title":"东华大学图文信息大楼","lon":"121.21314","lat":"31.05648","category":"52","category_name":"高等院校","address":""},{"poiid":"B2094654DB6EA0FE459B","title":"山水景苑","lon":"121.2034","lat":"31.061382","category":"47","category_name":"住宅区","address":"龙源路1208弄"},{"poiid":"B2094757D169A5F94692","title":"辰花路草莓基地","lon":"121.205332196","lat":"31.0615893344","category":"500","category_name":"未知分类","address":"上海市松江区龙源路"},{"poiid":"B2094654DB6EA0FE449D","title":"广富林遗址","lon":"121.19608","lat":"31.06449","category":"250","category_name":"公园户外","address":""},{"poiid":"B2094655D268A6FD4098","title":"东华大学信息学院","lon":"121.21128","lat":"31.05686","category":"52","category_name":"高等院校","address":""},{"poiid":"B2094757D46AABF84098","title":"辰山植物园餐厅","lon":"121.21626","lat":"31.06925","category":"68","category_name":"快餐厅","address":"松江区辰花公路3888号辰山植物园1号门大厅2楼"},{"poiid":"B2094655D268A7FD459D","title":"东华大学机械学院","lon":"121.21163","lat":"31.0586","category":"52","category_name":"高等院校","address":""},{"poiid":"B2094655D268A7FD4592","title":"东华大学纺织学院","lon":"121.21131","lat":"31.05742","category":"52","category_name":"高等院校","address":""},{"poiid":"B2094655D268A7FD459F","title":"东华大学环境学院","lon":"121.21081","lat":"31.05837","category":"52","category_name":"高等院校","address":""},{"poiid":"B2094655D268A7FD459C","title":"东华大学化学化工与生物工程学院","lon":"121.21073","lat":"31.05758","category":"52","category_name":"高等院校","address":""},{"poiid":"B2094757D068A6FF459B","title":"樱花广场","lon":"121.209078","lat":"31.049391","category":"119","category_name":"商场","address":"松江区松江大学城文汇路718号(近1期)"},{"poiid":"B2094757D56DA5F84792","title":"MINGS","lon":"121.207947","lat":"31.049933","category":"260","category_name":"其他","address":"松江区文汇路656弄104号(近罗森超市)"},{"poiid":"B2094757D065A0F44693","title":"上海工程技术大学教学楼E楼","lon":"121.209454","lat":"31.056982","category":"253","category_name":"校园生活","address":"上海松江区龙腾路333号教学楼E楼"},{"poiid":"B2094655D268A7FD459E","title":"东华大学北门(镜月湖西北)","lon":"121.21218","lat":"31.05959","category":"52","category_name":"高等院校","address":""},{"poiid":"B2094750DA6CA0FB4592","title":"东华大学工程训练中心","lon":"121.209945","lat":"31.059949","category":"253","category_name":"校园生活","address":"上海松江区人民北路2999号东华大学松江校区"},{"poiid":"B2094757D56DA5FB4992","title":"上海工程技术大学","lon":"121.20855331420898","lat":"31.057933920678824","category":"252","category_name":"楼宇机构","address":"上海 上海市 上海工程技术大学艺术楼"},{"poiid":"B2094654DB64A0FC439A","title":"上海工程技术大学(腾飞北路)","lon":"121.20436","lat":"31.05667","category":"52","category_name":"高等院校","address":"松江区龙腾路333"},{"poiid":"B2094655D268A6FD409D","title":"镜月湖","lon":"121.21609","lat":"31.05591","category":"250","category_name":"公园户外","address":""},{"poiid":"B2094654DB6EA3FA4293","title":"上海工程技术大学(东门)","lon":"121.20913","lat":"31.05699","category":"52","category_name":"高等院校","address":"松江区龙腾路333"},{"poiid":"B2094753D66CA5FB429E","title":"布丁酒店(上海松江大学城欢乐谷店)","lon":"121.203786","lat":"31.06043","category":"216","category_name":"经济型连锁酒店","address":"龙源路1208弄148号"},{"poiid":"B2094757D06AABFE449E","title":"上海工程技术大学 教学A楼","lon":"121.201325","lat":"31.060008","category":"253","category_name":"校园生活","address":"上海龙腾路333号"},{"poiid":"B2094752DA6EA2FF4399","title":"东华大学第二报告厅","lon":"121.20857","lat":"31.058597","category":"500","category_name":"未知分类","address":"上海市 东华大学图文信息中心"},{"poiid":"B2094655D36CA5F8429B","title":"辰花公路龙源路","lon":"121.20241","lat":"31.06944","category":"38","category_name":"公交车站","address":""},{"poiid":"B2094654DB64A0FC4192","title":"翔仔好味馆","lon":"121.20716","lat":"31.0496","category":"68","category_name":"快餐厅","address":"松江区文汇路686号(近MZONE)"},{"poiid":"B2094655D268A6FD4099","title":"东华大学理学院","lon":"121.21104","lat":"31.0567","category":"671","category_name":"高校中心点","address":""},{"poiid":"B2094752D564A0FC4292","title":"松江大学城地铁站","lon":"121.214551","lat":"31.057985","category":"36","category_name":"地铁站","address":"松江大学城地铁站"},{"poiid":"B2094655D268A6FD409E","title":"东华大学计算机人文外语学院","lon":"121.21124","lat":"31.05588","category":"52","category_name":"高等院校","address":""},{"poiid":"B2094757D068ABF8429C","title":"COFFEE PLEASE_211","lon":"121.2081509","lat":"31.0494087","category":"65","category_name":"咖啡厅","address":"松江区文汇路652弄211号(近昂立教育)"},{"poiid":"B2094757D06AA0F94793","title":"东华大学材料学院","lon":"121.217734269","lat":"31.0576560476","category":"500","category_name":"未知分类","address":"上海人民北路2999号"},{"poiid":"B2094757D16EA4FB409B","title":"松江20路","lon":"121.21322702","lat":"31.069161629","category":"500","category_name":"未知分类","address":"上海松江新城地铁站"},{"poiid":"B2094757D168ABF94392","title":"上海工程技术大学图文信息中心二报","lon":"121.2044568","lat":"31.056795399","category":"500","category_name":"未知分类","address":"上海文汇路"},{"poiid":"B2094757DA6FA2F8439C","title":"上海工程技术大学教学楼D楼","lon":"121.2040052","lat":"31.0573242","category":"253","category_name":"校园生活","address":"上海市松江区文汇路800弄"},{"poiid":"B2094750DA6EABFE489F","title":"上海工程技术大学教学楼A楼","lon":"121.207946","lat":"31.053899","category":"500","category_name":"未知分类","address":null},{"poiid":"B2094655D268A6FD4092","title":"上海生乐教育连锁餐厅东华餐厅","lon":"121.21504","lat":"31.05782","category":"257","category_name":"中餐厅","address":""},{"poiid":"B2094757D66DAAF5469A","title":"东华大学综合实验楼","lon":"121.215733","lat":"31.057157","category":"500","category_name":"未知分类","address":"上海松江区人民北路2999号东华大学松江校区"},{"poiid":"B2094757D06BA5FD409A","title":"东北一家人","lon":"121.20223","lat":"31.04942","category":"82","category_name":"东北菜","address":"松江区文汇路818号2楼(近三期公寓)"},{"poiid":"B2094757D165A4F94199","title":"上海工程技术大学教学楼J楼","lon":"121.209201","lat":"31.0570866","category":"500","category_name":"未知分类","address":"上海龙腾路333号"},{"poiid":"B2094757D569A2FB469A","title":"易捷便利店","lon":"121.20095676","lat":"31.06822266","category":"117","category_name":"便民商店/便利店","address":"中国上海市松江区"},{"poiid":"B2094655D36CA1F84093","title":"龙腾路","lon":"121.20948","lat":"31.05574","category":"38","category_name":"公交车站","address":""},{"poiid":"B2094655D36CA1FF4893","title":"龙源路广富林路","lon":"121.20092","lat":"31.05811","category":"38","category_name":"公交车站","address":""},{"poiid":"B2094757D068A1F54992","title":"Coffee Track(咖啡轨迹)","lon":"121.20586115","lat":"31.0495663827","category":"65","category_name":"咖啡厅","address":"松江区文汇路166弄30号(近上外)"},{"poiid":"B2094757D165A4FC4399","title":"上海工程技术大学图书馆第五阅览室","lon":"121.20674119","lat":"31.055415202","category":"181","category_name":"图书馆","address":"上海市松江区腾飞北路"},{"poiid":"B2094750DB65A6FD439E","title":"Mini Park","lon":"121.208183","lat":"31.049587","category":"67","category_name":"甜品店","address":"松江区文汇路652弄207号(近龙腾路)"},{"poiid":"B2094751D26FA0FB499C","title":"徐家汇","lon":"121.203697","lat":"31.056823","category":"500","category_name":"未知分类","address":"地铁站"},{"poiid":"B2094751D46BA3F9459A","title":"上海对外经贸大学","lon":"121.2055277","lat":"31.0499415","category":"671","category_name":"高校中心点","address":null},{"poiid":"B2094757D065A5FB499A","title":"复旦大学上海视觉艺术学院 设计学院","lon":"121.2193238","lat":"31.06640945","category":"500","category_name":"未知分类","address":"上海松江区文翔路2200号"},{"poiid":"B2094757D064A1FE449D","title":"华东政法大学富田体育馆","lon":"121.21102905","lat":"31.049386978","category":"500","category_name":"未知分类","address":"上海松江大学城"},{"poiid":"B2094757D16CA4FC4492","title":"牛仔快客","lon":"121.207058196","lat":"31.0516511217","category":"94","category_name":"西餐厅","address":"松江区文汇路632号松江大学城一期"},{"poiid":"B2094757D168A1F54198","title":"工技大师生活动中心","lon":"121.20451716","lat":"31.0516677968","category":"249","category_name":"购物服务","address":"上海龙腾路"},{"poiid":"B2094757D069A6F94498","title":"东华大学二食堂","lon":"121.22100067","lat":"31.056999206","category":"68","category_name":"快餐厅","address":"松江区人民北路2999号东华大学内(近实验楼)"},{"poiid":"B2094753D76BA1FE449B","title":"东华大学第一报告厅","lon":"121.213439","lat":"31.056501","category":"500","category_name":"未知分类","address":"上海市 松江区广富林路"},{"poiid":"B2094757D16BA4FE4993","title":"东华大学材料学院国家重点实验室","lon":"121.216396","lat":"31.057492","category":"500","category_name":"未知分类","address":"上海松江区人民北路2999号材料学院A区"},{"poiid":"B2094655D36CA7F5419A","title":"广富林路人民北路","lon":"121.22019","lat":"31.05982","category":"38","category_name":"公交车站","address":""},{"poiid":"B2094757D168A2F5439B","title":"Wayhome书房","lon":"121.20845819","lat":"31.049754081","category":"249","category_name":"购物服务","address":null},{"poiid":"B2094757D16BA4F9439A","title":"东华大学财务处","lon":"121.214457174","lat":"31.0574863569","category":"253","category_name":"校园生活","address":"上海松江大学城人民北路2999号行政楼财务处"},{"poiid":"B2094757D66DA6FC469F","title":"东华大学教务处","lon":"121.21356119","lat":"31.057023236","category":"500","category_name":"未知分类","address":"上海市松江区腾飞北路"},{"poiid":"B2094757D66EA7FD4098","title":"Enovos Coffee","lon":"121.198757296","lat":"31.068253277","category":"500","category_name":"未知分类","address":"上海松江大学城三期工商银行楼上"},{"poiid":"B2094655D265A0F5499B","title":"华政第一食堂","lon":"121.20064","lat":"31.05527","category":"257","category_name":"中餐厅","address":"龙源路555号华东政法大学内"},{"poiid":"B2094757D46AA0FC469D","title":"百碗香排骨米饭","lon":"121.204483","lat":"31.054666","category":"68","category_name":"快餐厅","address":"松江区文汇路1000弄松江大学城四期(近华兴饭团)"},{"poiid":"B2094750D26EA4FE4392","title":"德克士 文汇路店","lon":"121.205041","lat":"31.049611","category":"68","category_name":"快餐厅","address":"松江区文汇路746号大学城三期(工商银行)"},{"poiid":"B2094752D76DA7F4449A","title":"四号学院楼(东华大学,松江校区)","lon":"121.216","lat":"31.0568","category":"253","category_name":"校园生活","address":"上海松江区人民北路2999号东华大学松江校区"},{"poiid":"B2094752D76DA0F4489B","title":"二号学院楼(东华大学,松江校区)","lon":"121.216","lat":"31.0568","category":"253","category_name":"校园生活","address":"上海松江区人民北路2999号东华大学松江校区"},{"poiid":"B2094757D16FA0FD4693","title":"华政一食堂","lon":"121.197728","lat":"31.055719","category":"247","category_name":"餐饮美食","address":"上海华东政法大学松江校区"},{"poiid":"B2094757D16BA0F8419D","title":"成都小吃大学城店","lon":"121.208528996","lat":"31.0548799908","category":"500","category_name":"未知分类","address":"上海松江区文汇路派出所旁"},{"poiid":"B2094655D268A6FD409C","title":"东华大学网球场","lon":"121.21217","lat":"31.05338","category":"226","category_name":"网球场","address":""},{"poiid":"B2094750DA6FA4F5479B","title":"上海工程技术大学教学楼c楼","lon":"121.207252","lat":"31.05467","category":"253","category_name":"校园生活","address":null},{"poiid":"B2094750DB64A7FD459E","title":"minipark","lon":"121.208465","lat":"31.049436","category":"65","category_name":"咖啡厅","address":"上海市松江区文汇路652弄207号"},{"poiid":"B2094655D268A6FD409F","title":"东华大学篮球场","lon":"121.21126","lat":"31.05388","category":"229","category_name":"篮球场馆","address":""},{"poiid":"B2094655D268A4FE4393","title":"上海工程技术大学(西一门)","lon":"121.20114","lat":"31.05544","category":"52","category_name":"高等院校","address":""},{"poiid":"B2094750DA69A0F8449E","title":"上海工程技术大学艺术楼","lon":"121.204544","lat":"31.053665","category":"500","category_name":"未知分类","address":null},{"poiid":"B2094757D16BA4F44899","title":"华政三百人报告厅","lon":"121.198997196","lat":"31.0563292218","category":"500","category_name":"未知分类","address":"上海华东政法大学明镜楼"},{"poiid":"B2094757D16BA2F5449D","title":"Shibaken Coffee","lon":"121.2104097","lat":"31.0529187","category":"65","category_name":"咖啡厅","address":"上海市松江区沈砖公路6000号C1栋4楼"},{"poiid":"B2094757D16EAAF44093","title":"东华大学松江校区纺织学院楼","lon":"121.219927","lat":"31.059901","category":"253","category_name":"校园生活","address":"上海松江区人民北路2999号（近广富林路）"},{"poiid":"B2094757D169ABFB4999","title":"东华大学一食堂兰笋厅","lon":"121.213411708","lat":"31.0543387834","category":"500","category_name":"未知分类","address":"上海松江区人民北路2999号东华大学一食堂三楼"},{"poiid":"B2094751D46AA7FC439E","title":"寝室床上","lon":"121.20574","lat":"31.052628","category":"253","category_name":"校园生活","address":null},{"poiid":"B2094751D56BA4F9439E","title":"东华大学一号学院楼","lon":"121.2154004","lat":"31.055344","category":"253","category_name":"校园生活","address":"上海松江区人民北路2999号东华大学松江校区"},{"poiid":"B2094757D16BABF9499B","title":"华政松江校区体育场","lon":"121.200567","lat":"31.055305","category":"500","category_name":"未知分类","address":"上海华政松江校区龙源路广富林路"},{"poiid":"B2094655D268A6FD4799","title":"东华大学学生公寓(北门)","lon":"121.21303","lat":"31.05252","category":"47","category_name":"住宅区","address":""},{"poiid":"B2094757D568A7FE469C","title":"大业领地","lon":"121.19519421706","lat":"31.058753803848","category":"47","category_name":"住宅区","address":"松江区工业区鼎源路广富林路路口"},{"poiid":"B209475CD164A0F84592","title":"东华大学大学生活动中心","lon":"121.214004","lat":"31.054298","category":"500","category_name":"未知分类","address":"上海市 上海市松江区人民北路2999号"},{"poiid":"B2094752DB6EA6F9429A","title":"一滋芒I CHI MANGO","lon":"121.204545","lat":"31.051673","category":"500","category_name":"未知分类","address":"松江区文汇路松江大学城樱花广场702-1号"},{"poiid":"B2094757D16BA6FD4998","title":"松江24路","lon":"121.220482","lat":"31.059919","category":"500","category_name":"未知分类","address":"上海松江客运总站至广富林路"},{"poiid":"B2094757D16CA7FB4692","title":"东华大学第一食堂(松江校区)","lon":"121.20163319","lat":"31.055214198","category":"500","category_name":"未知分类","address":"上海东华大学(松江校区)第一食堂"},{"poiid":"B2094655D268A2FF489E","title":"东华大学体育场(西门)","lon":"121.21107","lat":"31.0512","category":"224","category_name":"综合体育馆","address":"龙腾路388号"},{"poiid":"B2094757D06BA7FB4399","title":"东华大学大学生活动中心","lon":"121.21180696","lat":"31.052199927","category":"260","category_name":"其他","address":"上海东华大学内"},{"poiid":"B2094757D06AABFD469D","title":"松江大学城三期公寓好学缘餐厅","lon":"121.203343","lat":"31.050486","category":"68","category_name":"快餐厅","address":"上海文汇路800弄"},{"poiid":"B2094757D66CABFA4099","title":"0068香辣主题餐厅","lon":"121.206711596","lat":"31.0496125781","category":"71","category_name":"四川菜","address":"松江区文汇路樱花广场702号(近视觉艺术学院)"},{"poiid":"B2094752D468A5FF429B","title":"床上","lon":"121.2153","lat":"31.053169","category":"500","category_name":"未知分类","address":null},{"poiid":"B2094654DB64A0FC429B","title":"重庆鸡公煲(文汇路)","lon":"121.20835","lat":"31.04959","category":"71","category_name":"四川菜","address":"松江区环城路515号玩库广场附近"},{"poiid":"B2094654DB64A0FC429E","title":"学生公寓","lon":"121.21508","lat":"31.05049","category":"47","category_name":"住宅区","address":"文汇路300弄"},{"poiid":"B2094750D565A2F94898","title":"华东政法大学明珠楼","lon":"121.197242","lat":"31.055311","category":"500","category_name":"未知分类","address":null},{"poiid":"B2094757D66DAAFE4299","title":"iTEA","lon":"121.21524","lat":"31.04866","category":"68","category_name":"快餐厅","address":"松江区松江大学城二期344号(近东方眼镜城)"},{"poiid":"B2094757D16DA4F84198","title":"华东政法大学一食堂二楼","lon":"121.200638","lat":"31.055269","category":"500","category_name":"未知分类","address":"上海松江大学城华东政法大学"},{"poiid":"B2094757D66CA3F94993","title":"东华大学瑜珈房","lon":"121.200633","lat":"31.055269","category":"500","category_name":"未知分类","address":"上海松江校区"},{"poiid":"B2094757D664A4FC409D","title":"宜宾燃面","lon":"121.21617","lat":"31.04938","category":"68","category_name":"快餐厅","address":"松江区文汇路242弄206大学城二期荣翔美食内(外贸对面)"},{"poiid":"B2094655D26FAAFA4692","title":"上海工程技术大学(西二门)","lon":"121.20113","lat":"31.0514","category":"52","category_name":"高等院校","address":""},{"poiid":"B2094750D76EA5F5439F","title":"J&E料理","lon":"121.213","lat":"31.0498","category":"96","category_name":"韩国料理","address":"松江区文汇路338弄松江大学城二期208室"},{"poiid":"B2094655D26FAAFA499A","title":"上海大学生体育场(西门)","lon":"121.21107","lat":"31.0512","category":"224","category_name":"综合体育馆","address":"龙腾路388号"},{"poiid":"B2094757D66CABF8489D","title":"东华一教1354","lon":"121.218140196","lat":"31.056010215","category":"500","category_name":"未知分类","address":"上海东华大学(松江校区)第一教学楼"},{"poiid":"B2094655D264A5FA489B","title":"华兴饭团","lon":"121.20677","lat":"31.04982","category":"68","category_name":"快餐厅","address":"松江区文汇路600号翰莘美食城内(上海对外贸易学院对面)"},{"poiid":"B2094757DB69A2FC4592","title":"上海对外贸易学院","lon":"121.2025537","lat":"31.0524311","category":"500","category_name":"未知分类","address":"600弄35号楼"},{"poiid":"B2094757D568A5FE439D","title":"大吉龙韩国料理","lon":"121.2081042","lat":"31.04958556","category":"96","category_name":"韩国料理","address":"松江区文汇路大学城一期文汇路656弄101室"},{"poiid":"B2094757D168A7FF449A","title":"松江大学城肉肉的咖啡店","lon":"121.208348","lat":"31.049595","category":"65","category_name":"咖啡厅","address":"上海松江大学城一期"},{"poiid":"B2094750DB64A2F4419C","title":"上海工程技术大学A楼","lon":"121.212112","lat":"31.052427","category":"500","category_name":"未知分类","address":null},{"poiid":"B2094757D16FA7FE459B","title":"华东政法大学明法楼西楼E401","lon":"121.196696596","lat":"31.0571425392","category":"500","category_name":"未知分类","address":"上海松江大学城华东政法大学"},{"poiid":"B2094757D568A4FE4198","title":"松江大学城300弄10号楼","lon":"121.2150869","lat":"31.05049806","category":"52","category_name":"高等院校","address":"文汇路300弄"},{"poiid":"B2094757D165A4FF409D","title":"华东政法大学明法楼东楼E301","lon":"121.197283596","lat":"31.0570991383","category":"500","category_name":"未知分类","address":"上海松江大学城"},{"poiid":"B2094757D065A0FE4198","title":"东华大学(松江校区)17号公寓楼","lon":"121.21601578","lat":"31.051242493","category":"500","category_name":"未知分类","address":"上海松江区文汇路300弄17号楼"},{"poiid":"B2094757D66DA0FE4298","title":"暮色酒吧","lon":"121.210344196","lat":"31.051150111","category":"172","category_name":"酒吧","address":"上海市松江区文汇路启源广场"},{"poiid":"B2094757D06AA5FC449A","title":"复旦大学上海视觉艺术学院一楼食堂","lon":"121.206932068","lat":"31.0493659973","category":"68","category_name":"快餐厅","address":"上海松江区文翔路2200号"},{"poiid":"B2094757D568A0FF439D","title":"松江大学城300弄23号楼","lon":"121.2150869","lat":"31.05049806","category":"52","category_name":"高等院校","address":"文汇路300弄"},{"poiid":"B2094757D568A0F8429E","title":"松江大学城300弄17号楼","lon":"121.2150869","lat":"31.05049806","category":"52","category_name":"高等院校","address":"文汇路300弄"},{"poiid":"B2094757D568A0F8429D","title":"松江大学城300弄3号楼","lon":"121.2150869","lat":"31.05049806","category":"52","category_name":"高等院校","address":"文汇路300弄"},{"poiid":"B2094757D568A0F84293","title":"松江大学城300弄9号楼","lon":"121.2150869","lat":"31.05049806","category":"52","category_name":"高等院校","address":"文汇路300弄"},{"poiid":"B2094757D568A0F8439B","title":"松江大学城300弄18号楼","lon":"121.2150869","lat":"31.05049806","category":"52","category_name":"高等院校","address":"文汇路300弄"},{"poiid":"B2094757D568A6FF4993","title":"松江大学城300弄14号楼","lon":"121.2150869","lat":"31.05049806","category":"52","category_name":"高等院校","address":"文汇路300弄"},{"poiid":"B2094757D16AA5FF4892","title":"巴比馒头（松江大学城一期店）","lon":"121.20795447","lat":"31.050334237","category":"247","category_name":"餐饮美食","address":"上海市松江区文汇路699号上海视觉对面"},{"poiid":"B2094751DA68AAF5469C","title":"11号咖啡馆","lon":"121.208784","lat":"31.049869","category":"65","category_name":"咖啡厅","address":"上海市 文汇路652弄202室"},{"poiid":"B2094752D56EA3F9479B","title":"非常饮","lon":"121.207931","lat":"31.049593","category":"247","category_name":"餐饮美食","address":"上海市 文汇路656弄"},{"poiid":"B2094757D164AAF9429E","title":"华东政法大学五期宿舍5号楼","lon":"121.19633572","lat":"31.057042634","category":"253","category_name":"校园生活","address":"上海市松江区广富林路3455弄5号"},{"poiid":"B2094757D16DA3FB489C","title":"华东政法大学明法楼东楼A302","lon":"121.19694519","lat":"31.055978214","category":"500","category_name":"未知分类","address":"上海华东政法大学松江校区"},{"poiid":"B209475CD76CA2F5489A","title":"泰晤士小镇","lon":"121.200988","lat":"31.051397","category":"500","category_name":"未知分类","address":"上海市 泰晤士小镇"},{"poiid":"B2094757D569A0FC409C","title":"松江大学城300弄8号楼","lon":"121.2150869","lat":"31.05049806","category":"52","category_name":"高等院校","address":"文汇路300弄"},{"poiid":"B2094750D768A0F94693","title":"RouRouCoffee","lon":"121.208","lat":"31.0494","category":"269","category_name":"烧烤","address":"文汇路652弄201室(近龙腾路)"},{"poiid":"B2094655D26FAAFA469C","title":"学生公寓南一门(上海视觉艺术学院东北)","lon":"121.20918","lat":"31.04987","category":"47","category_name":"住宅区","address":"文汇路600弄"},{"poiid":"B2094757D569A2F4449C","title":"松江大学城300弄13号楼","lon":"121.2150869","lat":"31.05049806","category":"52","category_name":"高等院校","address":"文汇路300弄"},{"poiid":"B2094757D16DA3FB4298","title":"松江大学城一期学生公寓11#","lon":"121.21006075","lat":"31.051174625","category":"500","category_name":"未知分类","address":"上海松江区文汇路600弄"},{"poiid":"B2094750DB6AA7FB499B","title":"上海工程技术大学教学楼F楼","lon":"121.204864","lat":"31.050785","category":"500","category_name":"未知分类","address":null},{"poiid":"B2094654DB64A6FF479A","title":"中国移动营业厅(文汇路)","lon":"121.20691","lat":"31.04958","category":"151","category_name":"电讯营业厅","address":"松江区大学城文汇路698号2层"},{"poiid":"B2094757D065A1F94098","title":"迪信通(七宝店)","lon":"121.206463196","lat":"31.0510641092","category":"138","category_name":"家电电子卖场","address":"上海闵行区七莘路3088号"},{"poiid":"B2094654DB64A0FC4193","title":"罗森","lon":"121.20754","lat":"31.04957","category":"117","category_name":"便民商店/便利店","address":"松江区文汇路672号"},{"poiid":"B2094654DB6EA3F94398","title":"可的好便利NO.10621","lon":"121.20911","lat":"31.0496","category":"117","category_name":"便民商店/便利店","address":"文汇路622"},{"poiid":"B2094757D168A5FA4499","title":"松江大学城一期宿舍1#","lon":"121.210101196","lat":"31.0502490917","category":"500","category_name":"未知分类","address":"上海市松江区文汇路600弄1号"},{"poiid":"B2094757D569A6FF409E","title":"松江大学城300弄42号楼","lon":"121.2150869","lat":"31.05049806","category":"52","category_name":"高等院校","address":"文汇路300弄"},{"poiid":"B2094757D568A0F8419E","title":"松江大学城300弄41号楼","lon":"121.2150869","lat":"31.05049806","category":"52","category_name":"高等院校","address":"文汇路300弄"},{"poiid":"B2094655D268A6FC4893","title":"学生公寓南二门(上海视觉艺术学院北)","lon":"121.20675","lat":"31.04979","category":"47","category_name":"住宅区","address":"文汇路600弄"},{"poiid":"B2094757D76BAAFC459F","title":"Friends茶餐厅","lon":"121.207462","lat":"31.049329","category":"68","category_name":"快餐厅","address":"松江区文汇路二期小瀚辛内(龙腾路文汇路)"},{"poiid":"B2094757D66BA7FE439B","title":"独家记忆咖啡酒吧","lon":"121.21058","lat":"31.049255","category":"172","category_name":"酒吧","address":"松江区文汇路800弄松江大学城三期"},{"poiid":"B2094757D064A6F94293","title":"松江大学城一期学生公寓 13号楼","lon":"121.209771096","lat":"31.0509957077","category":"500","category_name":"未知分类","address":"上海松江大学城一期学生公寓 13号楼"},{"poiid":"B2094750DB68A6F8439D","title":"上海市松江区东华大学","lon":"121.216491","lat":"31.051448","category":"253","category_name":"校园生活","address":"文汇路300弄"},{"poiid":"B2094757D16DA6F54992","title":"松江大学城三期学生公寓17号楼","lon":"121.20289119","lat":"31.051335115","category":"500","category_name":"未知分类","address":"上海市松江区文汇路800弄"},{"poiid":"B2094655D268A3FE439E","title":"学生公寓(西门)","lon":"121.20113","lat":"31.05134","category":"47","category_name":"住宅区","address":""},{"poiid":"B2094655D26FA6FE459F","title":"中国电信动感地带松江大学城店","lon":"121.20645","lat":"31.04939","category":"151","category_name":"电讯营业厅","address":"松江区大学城文汇路698号"},{"poiid":"B2094655D26FABFB4692","title":"学生公寓南三门(文汇路)","lon":"121.2131","lat":"31.0498","category":"47","category_name":"住宅区","address":""},{"poiid":"B2094750D565AAFB4093","title":"松江大学城","lon":"121.205749","lat":"31.049961","category":"500","category_name":"未知分类","address":"文汇路四期宿舍1000弄32号楼"},{"poiid":"B209475CD76CA1FC4192","title":"上海市泰晤士小镇","lon":"121.200996","lat":"31.051399","category":"500","category_name":"未知分类","address":"上海市 上海市泰晤士小镇"},{"poiid":"B2094757D169A7FD4392","title":"松江大学城三期学生公寓14号楼6007室","lon":"121.20373319","lat":"31.05111811","category":"500","category_name":"未知分类","address":"上海市松江区龙源路"},{"poiid":"B2094654DB6EA3F94092","title":"新东方学校","lon":"121.2074","lat":"31.04958","category":"190","category_name":"培训机构","address":"文汇路676"},{"poiid":"B2094654DB6EA3F94399","title":"大学城派出所","lon":"121.21022","lat":"31.04971","category":"609","category_name":"警察局","address":"松江区文汇路560"},{"poiid":"B2094757D068A6FB4693","title":"三期六号楼3层影帝集中营","lon":"121.204908196","lat":"31.050917106","category":"500","category_name":"未知分类","address":"上海松江区文汇路800弄6号3004"},{"poiid":"B2094757D16DA1F94192","title":"三期20号楼6013室","lon":"121.204807096","lat":"31.0509474067","category":"252","category_name":"楼宇机构","address":null},{"poiid":"B2094757D06AA4FB429F","title":"上海新东方学校(松江大学城校区)","lon":"121.21499091","lat":"31.05064415","category":"260","category_name":"其他","address":"松江区文汇路656弄2楼"},{"poiid":"B2094757D069A0FE4293","title":"松江大学城三期学生公寓13号楼","lon":"121.215089","lat":"31.0505","category":"500","category_name":"未知分类","address":"上海近郊松江大学城文汇路800弄"},{"poiid":"B2094757D66CA4FB449E","title":"松江大学城客运中心","lon":"121.211031","lat":"31.049387","category":"500","category_name":"未知分类","address":"上海文汇路"},{"poiid":"B2094757D065AAFB4799","title":"囧二白干蜗居地","lon":"121.20416719","lat":"31.050573098","category":"217","category_name":"旅馆招待所","address":"上海市松江区龙源路"},{"poiid":"B2094655D268A7FD4598","title":"东华大学(东门)","lon":"121.22084","lat":"31.05713","category":"656","category_name":"大门","address":"人民北路2999"},{"poiid":"B2094757D169A3FB4699","title":"三期25号楼7008室","lon":"121.20182619","lat":"31.051304114","category":"252","category_name":"楼宇机构","address":null},{"poiid":"B2094757D16BA7FD4899","title":"完美摄影","lon":"121.208151","lat":"31.049409","category":"500","category_name":"未知分类","address":"松江区大学城文汇路652弄204号(大学城派出所西侧)"},{"poiid":"B2094757D169A6F84199","title":"松江大学城四期学生创业中心","lon":"121.2110309","lat":"31.0493865","category":"500","category_name":"未知分类","address":"上海文汇路西面到底"},{"poiid":"B2094757D16EA3FB4992","title":"全家(松江大学城店)","lon":"121.206026","lat":"31.049601","category":"500","category_name":"未知分类","address":"上海松江区文汇路樱花广场"},{"poiid":"B2094757D064A6F44399","title":"松江大学城三期学生公寓25号楼","lon":"121.212099","lat":"31.049384","category":"500","category_name":"未知分类","address":"上海文汇路800弄"},{"poiid":"B2094654DB6EA3F9429A","title":"馨缘旅馆3号店","lon":"121.20835","lat":"31.04959","category":"217","category_name":"旅馆招待所","address":"文汇路652弄"},{"poiid":"B2094757D064A4F5409B","title":"罗森(松江大学城店)","lon":"121.207543","lat":"31.049575","category":"249","category_name":"购物服务","address":"上海文汇路672号"},{"poiid":"B2094757D568AAFD409D","title":"日康行食品","lon":"121.20791992","lat":"31.04958143","category":"249","category_name":"购物服务","address":"文汇路660"},{"poiid":"B2094655D264A5FD419F","title":"动感地带品牌店松江大学城店","lon":"121.20646","lat":"31.0494","category":"248","category_name":"生活娱乐","address":"松江区松江大学城文汇路698号2楼"},{"poiid":"B2094757D164A0F8499A","title":"松江大学城 柏韵琴行","lon":"121.20574715","lat":"31.049539383","category":"260","category_name":"其他","address":"上海樱花广场2楼"}]