[{"poiid":"B2094757D06FA1FA4798","title":"藏珑泰极(湖南路店)","lon":"121.43899","lat":"31.20803","category":"99","category_name":"泰国／越南菜品餐厅","address":"徐汇区湖南路285号(近武康路)"},{"poiid":"B2094654DB6AA7FC489E","title":"夏朵花园","lon":"121.43787029084206","lat":"31.21163133636796","category":"47","category_name":"住宅区","address":"徐汇区复兴西路268号(近华山路)"},{"poiid":"B2094757D068A7FA4398","title":"武康路","lon":"121.439185","lat":"31.207438","category":"184","category_name":"美术馆","address":"上海都说了是武康路嘛"},{"poiid":"B2094753D76FAAFA449C","title":"上海滩国泰旗舰店","lon":"121.466011","lat":"31.216125","category":"249","category_name":"购物服务","address":"淮海中路868号"},{"poiid":"B209475CD564A7F8439E","title":"上海滩中信泰富店","lon":"121.45602","lat":"31.22851","category":"119","category_name":"商场","address":"\"南京西路1168号中信泰富广场，店铺号221.\r\n\""},{"poiid":"B2094654DB65A1FF489E","title":"丁香夏朵花园","lon":"121.43792","lat":"31.21134","category":"94","category_name":"西餐厅","address":"徐汇区华山路855号近复兴西路近丁香花园"},{"poiid":"B2094757D06FA3FB4893","title":"花马天堂云南餐厅(高邮路店)","lon":"121.43851","lat":"31.20998","category":"260","category_name":"其他","address":"徐汇区高邮路38号(近复兴西路)"},{"poiid":"B2094757D068AAFE489F","title":"复兴西路","lon":"121.443012","lat":"31.208405","category":"46","category_name":"楼宇","address":"上海永福路"},{"poiid":"B2094757D06FA5FE4798","title":"薇婷故事","lon":"121.43753","lat":"31.20909","category":"260","category_name":"其他","address":"徐汇区高邮路50弄5号(近复兴西路)查看地图"},{"poiid":"B2094757D069A2F94398","title":"Petite Jasmine 小茉莉西餐厅","lon":"121.440465586","lat":"31.2090540169","category":"94","category_name":"西餐厅","address":"徐汇区武康路214号(近湖南路)"},{"poiid":"B2094757D16EA6FE499A","title":"聚膳源","lon":"121.437081586","lat":"31.2093992236","category":"76","category_name":"上海菜","address":"徐汇区复兴西路258号(近华山路)"},{"poiid":"B2094757D06FA7FB419B","title":"Coffee Tree(武康路店)","lon":"121.43923","lat":"31.20593","category":"260","category_name":"其他","address":"徐汇区武康路376号武康庭内(近泰安路)"},{"poiid":"B2094750D269A1FB439A","title":"Azul Tapad Lounge","lon":"121.439964","lat":"31.207233","category":"500","category_name":"未知分类","address":"378 Wukang lu, Shanghai"},{"poiid":"B2094757DA69A3FB4199","title":"上海交响乐团","lon":"121.44194","lat":"31.2083","category":"646","category_name":"文化体育类公司","address":"徐汇区湖南路105号(近武康路)"},{"poiid":"B2094654DA6DA3FF4293","title":"申通信息广场","lon":"121.441","lat":"31.2077","category":"46","category_name":"楼宇","address":"格林SOHO位于和平十三纬路云集街10号甲(东北炊具城西侧)"},{"poiid":"B2094757D16CA0F94492","title":"巴金故居","lon":"121.440725466","lat":"31.209418044","category":"607","category_name":"一般景点","address":"徐汇区武康路113号"},{"poiid":"B2094752D26EA1F9439B","title":"椰香天堂","lon":"121.439186","lat":"31.206525","category":"247","category_name":"餐饮美食","address":"武康路378号"},{"poiid":"B2094757D169ABF54599","title":"泰安路兴国路","lon":"121.43685808","lat":"31.205923289","category":"46","category_name":"楼宇","address":"上海泰安路兴国路"},{"poiid":"B2094757D068A1FB499F","title":"圆苑酒家(兴国路店)","lon":"121.43766","lat":"31.20577","category":"76","category_name":"上海菜","address":"徐汇区兴国路201号(近泰安路)"},{"poiid":"B2094752D46AA7FB489C","title":"FARINE","lon":"121.439154","lat":"31.206338","category":"247","category_name":"餐饮美食","address":"武康路378号1楼"},{"poiid":"B2094757D46EABF84198","title":"麦坊威士忌酒吧","lon":"121.44067562392524","lat":"31.208291232965074","category":"94","category_name":"西餐厅","address":"上海市徐汇区湖南路123号(近武康路)"},{"poiid":"B2094757D06FA2F4419A","title":"Y 瑜伽生活馆(复兴店)","lon":"121.43848","lat":"31.2107","category":"148","category_name":"美容美发店","address":"徐汇区复兴西路299号(近华山路)"},{"poiid":"B2094757D069A1FC409B","title":"兴国宾馆8号楼宴会厅","lon":"121.43587","lat":"31.20916","category":"217","category_name":"旅馆招待所","address":"上海徐汇区兴国路78号兴国宾馆内(华山路口)  "},{"poiid":"B2094757DB69ABF8469C","title":"宜家家居IKEA","lon":"121.4408459263085","lat":"31.20728964266857","category":"249","category_name":"购物服务","address":"漕溪路126号"},{"poiid":"B2094757D06BA2FF419D","title":"Le Petit Saleya","lon":"121.43431","lat":"31.20494","category":"94","category_name":"西餐厅","address":"徐汇区泰安路139号(近华山路)"},{"poiid":"B2094654DB69A7FE4699","title":"南鹰饭店","lon":"121.44057","lat":"31.2059","category":"215","category_name":"三星级宾馆","address":"徐汇区淮海中路1728号(近宛平路)"},{"poiid":"B2094757D464A7FD4699","title":"MARDI GRAS","lon":"121.436810054","lat":"31.205342793","category":"94","category_name":"西餐厅","address":"徐汇区兴国路372弄1号(近泰安路)"},{"poiid":"B2094654D564A5F5419F","title":"夏朵小铺","lon":"121.43821","lat":"31.21105","category":"131","category_name":"珠宝首饰工艺品","address":"华山路855号"},{"poiid":"B2094757D66BA3FC499E","title":"西岸吧屋 la concession francaise","lon":"121.43850023389","lat":"31.208135215395","category":"94","category_name":"西餐厅","address":"徐汇区湖南路287号(近高邮路)"},{"poiid":"B2094655D26FA5FB4598","title":"缇咖园","lon":"121.436985054","lat":"31.205757793","category":"94","category_name":"西餐厅","address":"徐汇区泰安路50号(兴国路口)"},{"poiid":"B2094757DB6EA6FE479E","title":"上海庞瑅酒店宝丽会馆","lon":"121.438633","lat":"31.208344","category":"213","category_name":"五星级宾馆","address":"徐汇区湖南路285号(近武康路)"},{"poiid":"B2094757D16FA3F8429C","title":"Lapis Thai","lon":"121.438614366","lat":"31.2080662776","category":"500","category_name":"未知分类","address":"上海湖南路265号"},{"poiid":"B2094751D56CA7F8479F","title":"Ginger Cafe(兴国路店)","lon":"121.43604","lat":"31.2089","category":"247","category_name":"餐饮美食","address":"徐汇区兴国路91号(近湖南路预计10月初开业)"},{"poiid":"B2094757D064A7FC459E","title":"Wedding Story","lon":"121.437617","lat":"31.209661","category":"500","category_name":"未知分类","address":"上海徐汇区高邮路50弄5号"},{"poiid":"B209475CD764A1FA4199","title":"椰香天堂 武康路店 Coconut Paradise","lon":"121.4390602","lat":"31.2064416","category":"99","category_name":"泰国／越南菜品餐厅","address":"武康路378号近泰安路"},{"poiid":"B2094752D468A1F5469A","title":"Pistacchio","lon":"121.439237","lat":"31.206668","category":"247","category_name":"餐饮美食","address":"武康路378号"},{"poiid":"B2094751D368A1FC409B","title":"Daga Cafe","lon":"121.4376","lat":"31.206","category":"247","category_name":"餐饮美食","address":"徐汇区泰安路36号(近兴国路)"},{"poiid":"B2094757D068A7FB4892","title":"东北四季饺子王(徐汇店)","lon":"121.439977085","lat":"31.2051445931","category":"82","category_name":"东北菜","address":"徐汇区淮海中路1791号(近宛平路)"},{"poiid":"B2094655D264A7FA4598","title":"致真会馆","lon":"121.44039","lat":"31.2065","category":"208","category_name":"休闲场所","address":"淮海中路1726临"},{"poiid":"B2094757D069A3FC4198","title":"湖南路兴国路口街心花园","lon":"121.4367","lat":"31.20798","category":"196","category_name":"公园","address":"徐汇区湖南路(兴国路口)"},{"poiid":"B2094757D56CA2FF419B","title":"Misael酒吧","lon":"121.440953","lat":"31.210136","category":"260","category_name":"其他","address":"徐汇区武康路103号(近复兴西路)"},{"poiid":"B2094750D768ABF54699","title":"狠牛碳烤酒肴","lon":"121.439","lat":"31.2068","category":"269","category_name":"烧烤","address":"徐汇区武康路378号1楼5室武康庭内(近泰安路)"},{"poiid":"B209475CD369ABF5479C","title":"鮨一","lon":"121.4378593","lat":"31.2097192","category":"95","category_name":"日本料理","address":"高邮路50弄5号近湖南路"},{"poiid":"B2094655D26FA3FF4999","title":"武康亭","lon":"121.43926","lat":"31.20648","category":"46","category_name":"楼宇","address":""},{"poiid":"B2094757D065A4FB459E","title":"MaltFun","lon":"121.44066258","lat":"31.208202","category":"500","category_name":"未知分类","address":"上海MaltFun 湖南路123號，近武康路"},{"poiid":"B2094757D568A0F8459F","title":"兴国花园(南门)","lon":"121.438293","lat":"31.207242","category":"47","category_name":"住宅区","address":"武康路280弄"},{"poiid":"B2094654DA6DABF8439E","title":"亿方砂锅粥淮海店","lon":"121.43995","lat":"31.20506","category":"257","category_name":"中餐厅","address":"徐汇区淮海中路1793号(宛平路口)"},{"poiid":"B2094750D268A5F9459D","title":"徐汇老房子艺术中心","lon":"121.438842","lat":"31.207448","category":"252","category_name":"楼宇机构","address":"武康路393号"},{"poiid":"B2094654D564A5F4499F","title":"兴国苑","lon":"121.43791","lat":"31.208754","category":"47","category_name":"住宅区","address":"湖南路308弄1-6号"},{"poiid":"B209475CD26CA4FA4592","title":"雍福会","lon":"121.439369","lat":"31.207649","category":"247","category_name":"餐饮美食","address":"上海市 上海市永福路200号"},{"poiid":"B2094752D66AA4FD4493","title":"franck bistrot","lon":"121.43906","lat":"31.20644","category":"247","category_name":"餐饮美食","address":"武康路376号武康庭内(近湖南路)"},{"poiid":"B2094757DA69A1FC4599","title":"JZ_School","lon":"121.43956286059","lat":"31.207519203292","category":"54","category_name":"职业技术学校","address":"武康路280弄12号"},{"poiid":"B2094655D265AAF8419E","title":"318A会所","lon":"121.43793","lat":"31.20856","category":"208","category_name":"休闲场所","address":"湖南路318号A"},{"poiid":"B2094757D06AA2FC4899","title":"蝶专业按摩(吴兴路店)","lon":"121.44052498","lat":"31.208682179","category":"149","category_name":"洗浴推拿场所","address":"上海徐汇区吴兴路29号(近淮海西路)"},{"poiid":"B2094753D164A0FC4999","title":"老吉士酒家","lon":"121.43891","lat":"31.206868","category":"247","category_name":"餐饮美食","address":"上海市 天平路41号"},{"poiid":"B2094751D46FA6FF4693","title":"Sushi ichi","lon":"121.43785","lat":"31.20971","category":"95","category_name":"日本料理","address":"徐汇区高邮路50弄5号(近湖南路)"},{"poiid":"B2094751D269A1F5429C","title":"salad room","lon":"121.43753","lat":"31.209371","category":"94","category_name":"西餐厅","address":"徐汇区高邮路59号"},{"poiid":"B2094654DB65A4FB4499","title":"湖南别墅","lon":"121.44009","lat":"31.208654","category":"47","category_name":"住宅区","address":"湖南路262号"},{"poiid":"B2094655D268A2FA499A","title":"世界小学","lon":"121.43986","lat":"31.20774","category":"56","category_name":"小学","address":"武康路280弄2"},{"poiid":"B2094757D66CA4FE4493","title":"湖南路555会所","lon":"121.438384386","lat":"31.2089299145","category":"500","category_name":"未知分类","address":"上海湖南路555号"},{"poiid":"B2094757D069A2FA489C","title":"高邮路14号","lon":"121.43900758","lat":"31.207241981","category":"500","category_name":"未知分类","address":"上海市徐汇区"},{"poiid":"B2094757D16AA1F9499F","title":"兴国宾馆大堂吧","lon":"121.43593","lat":"31.20924","category":"65","category_name":"咖啡厅","address":"上海徐汇区兴国路78号兴国宾馆(华山路口)  "},{"poiid":"B2094655D265A4FB4599","title":"上海市徐汇区金秋艺术团","lon":"121.43759","lat":"31.20833","category":"189","category_name":"文艺团体","address":"湖南路301号"},{"poiid":"B2094750DA6DABFF4398","title":"Boxing cat brewery.","lon":"121.441062","lat":"31.2091","category":"247","category_name":"餐饮美食","address":"West fixing rd,yongfu rd."},{"poiid":"B2094654DB65A1F8429C","title":"优比","lon":"121.43783","lat":"31.20857","category":"263","category_name":"公司","address":"湖南路328"},{"poiid":"B2094757D464A0F4469B","title":"金格咖啡 复兴西路店 Ginger Cafe","lon":"121.43730620329","lat":"31.211288813686","category":"65","category_name":"咖啡厅","address":"复兴西路299弄1号近华山路"},{"poiid":"B2094757DB69ABF84593","title":"宜家IKEA","lon":"121.4408459263085","lat":"31.20728964266857","category":"249","category_name":"购物服务","address":"漕溪路126号"},{"poiid":"B2094654D564A5F44798","title":"汇成武康公寓","lon":"121.43819","lat":"31.20681","category":"47","category_name":"住宅区","address":"武康路280弄1-6号"},{"poiid":"B209475CD36AA1F54192","title":"Farine","lon":"121.4390602","lat":"31.2064416","category":"67","category_name":"甜品店","address":"武康路378号1楼近泰安路"},{"poiid":"B2094750D76FA2FD4198","title":"LePetitFranck","lon":"121.439","lat":"31.2064","category":"269","category_name":"烧烤","address":"武康路376号武康庭内(近湖南路)"},{"poiid":"B209475CD66AABFC489A","title":"马勒别墅","lon":"121.436508","lat":"31.209257","category":"47","category_name":"住宅区","address":"上海市 上海陕西南路30号"},{"poiid":"B2094655D265A1F9489B","title":"开普敦公寓","lon":"121.44016","lat":"31.20801","category":"47","category_name":"住宅区","address":"武康路240-242、246号"},{"poiid":"B2094752D76EABFA489E","title":"Kagen Teppanyaki","lon":"121.439582","lat":"31.206685","category":"247","category_name":"餐饮美食","address":"桃江路28号"},{"poiid":"B2094757D06BA0FC4299","title":"1930","lon":"121.43889408","lat":"31.206957075","category":"500","category_name":"未知分类","address":"上海徐汇区泰安路24号"},{"poiid":"B2094757D16AABFA419C","title":"KaiBa","lon":"121.439879586","lat":"31.2080809979","category":"500","category_name":"未知分类","address":"上海市建国中路169号202室"},{"poiid":"B2094654D564A4FE4299","title":"上海保加医疗美容门诊部","lon":"121.4365","lat":"31.20906","category":"162","category_name":"医院","address":"兴国路89弄"},{"poiid":"B2094751D469A5FD4792","title":"上海图书馆报告厅","lon":"121.437729","lat":"31.209528","category":"500","category_name":"未知分类","address":null},{"poiid":"B2094757D16EA7FB429F","title":"麥坊","lon":"121.44057758","lat":"31.208118998","category":"500","category_name":"未知分类","address":"上海市徐汇区湖南路123号"},{"poiid":"B2094757D06BABF94598","title":"心碎乌托邦","lon":"121.44054708","lat":"31.207995329","category":"247","category_name":"餐饮美食","address":null},{"poiid":"B2094654D564A6FF4599","title":"时代大厦","lon":"121.436","lat":"31.2107","category":"46","category_name":"楼宇","address":"番禺路390号"},{"poiid":"B2094757D66CA3FC459B","title":"喜洋洋精致月子会所","lon":"121.439865586","lat":"31.2056299499","category":"500","category_name":"未知分类","address":"上海市宛平路9号庆余宾馆6楼"},{"poiid":"B2094655D265A2FE489F","title":"芝梅苑住宅","lon":"121.43622","lat":"31.20784","category":"47","category_name":"住宅区","address":"芝梅苑住宅位于长宁兴国路244弄59号"},{"poiid":"B2094757D46FA3FF459D","title":"子衿面馆","lon":"121.44144","lat":"31.2064","category":"68","category_name":"快餐厅","address":"徐汇区淮海中路1720-2号(近中国移动)"},{"poiid":"B2094654D564A5F44992","title":"上海华甸园大酒店","lon":"121.43682","lat":"31.20988","category":"250","category_name":"公园户外","address":"高邮路68号"},{"poiid":"B2094654D564A4FD4393","title":"鸿丰香缇花园","lon":"121.4357833","lat":"31.20849609","category":"47","category_name":"住宅区","address":"鸿丰香缇花园位于长宁湖南路555号(兴国宾馆旁)"},{"poiid":"B2094654DB6BA7F54698","title":"丹枫苑","lon":"121.43606","lat":"31.20746","category":"47","category_name":"住宅区","address":"丹枫苑位于长宁兴国路288号"},{"poiid":"B2094757D66EAAFE4793","title":"Leo gallery 獅語藝廊","lon":"121.43911158","lat":"31.206836973","category":"500","category_name":"未知分类","address":"上海武康路376號(武康庭內)"},{"poiid":"B2094654D564A5F4499C","title":"上海徐房(集团)有限公司","lon":"121.43705","lat":"31.20867","category":"263","category_name":"公司","address":"徐汇区湖南路396号（200031）(高邮路)"},{"poiid":"B2094757D16AA2F5479E","title":"Ferguson Lane","lon":"121.43972","lat":"31.20616","category":"500","category_name":"未知分类","address":"上海徐汇区武康路374号(湖南路口)  "},{"poiid":"B2094654DB6AA7FB4592","title":"利东南鹰","lon":"121.44067","lat":"31.20596","category":"76","category_name":"上海菜","address":"徐汇区淮海中路1728号(近吴兴路)"},{"poiid":"B2094654D564A6FE469D","title":"正力公寓","lon":"121.439","lat":"31.2105","category":"47","category_name":"住宅区","address":"上海市长宁区华山路1520弄55号"},{"poiid":"B2094757D568ABFA4799","title":"世界花园别墅(东二门)","lon":"121.436737","lat":"31.206714","category":"47","category_name":"住宅区","address":"兴国路324"},{"poiid":"B2094757D66CA6F44199","title":"Globus Wine","lon":"121.43915958","lat":"31.206843973","category":"500","category_name":"未知分类","address":"上海市长宁区湖南路"},{"poiid":"B2094654D564A5F44393","title":"黄兴故居","lon":"121.43909","lat":"31.20576","category":"47","category_name":"住宅区","address":"徐汇区武康路393号(近淮海中路)"},{"poiid":"B2094757D06FAAFE439A","title":"喜客咖啡(武康店)","lon":"121.43839","lat":"31.20458","category":"260","category_name":"其他","address":"徐汇区武康路420号(近兴国路)"},{"poiid":"B2094654DB65A4F9409E","title":"嘉豪苑","lon":"121.43602","lat":"31.207851","category":"47","category_name":"住宅区","address":"兴国路228号"},{"poiid":"B209475CD76DA7F94992","title":"静安嘉里中心","lon":"121.440437","lat":"31.210382","category":"500","category_name":"未知分类","address":"上海市 安义路常德路"},{"poiid":"B2094757D665AAFF4592","title":"阁乐葡 武康路店 Globus","lon":"121.440168054","lat":"31.208010793","category":"260","category_name":"其他","address":"徐汇区武康路376号武康庭内(近湖南路)"},{"poiid":"B2094757D169A7F5429D","title":"Air Paris","lon":"121.43913358","lat":"31.206867974","category":"500","category_name":"未知分类","address":"Unit 208 Ferguson Lane, 376 Wukang Road"},{"poiid":"B2094757D16AA1FF4198","title":"上海理工大学图书馆","lon":"121.438182","lat":"31.210916","category":"181","category_name":"图书馆","address":"上海徐汇区复兴中路1195号"},{"poiid":"B2094757D16DA1F84498","title":"武康路280弄","lon":"121.437438","lat":"31.206797","category":"252","category_name":"楼宇机构","address":"上海武康路280弄"},{"poiid":"B2094753DB6DA2FD4692","title":"上海徐家汇八万人体育场和颐酒店","lon":"121.437362","lat":"31.209762","category":"500","category_name":"未知分类","address":"上海市 上海市徐汇区龙华西路515号"},{"poiid":"B2094757D66BA3FA4992","title":"瓢 Sushi HISAGO","lon":"121.4374535","lat":"31.2052439","category":"95","category_name":"日本料理","address":"徐汇区兴国路372弄1号(近泰安路)"},{"poiid":"B2094655D264A0F4439F","title":"兴国鸣园","lon":"121.43588","lat":"31.20726","category":"47","category_name":"住宅区","address":"上海市长宁区兴国路路244弄"},{"poiid":"B2094750D36BAAF8419D","title":"上海夏朵餐饮官方微博","lon":"121.43759","lat":"31.21134","category":"94","category_name":"西餐厅","address":"华山路855号夏朵西餐厅丁香店"},{"poiid":"B2094751DA64A3F5479B","title":"顾村公园","lon":"121.438392","lat":"31.210284","category":"196","category_name":"公园","address":null},{"poiid":"B2094654DB6BA7F5439F","title":"喜士多便利连锁","lon":"121.43746","lat":"31.20557","category":"117","category_name":"便民商店/便利店","address":"泰安路27弄5号"},{"poiid":"B2094654DB65A1FF489A","title":"致真酒家(淮海中路)","lon":"121.44057","lat":"31.2059","category":"257","category_name":"中餐厅","address":"淮海中路1720号7号楼"},{"poiid":"B2094757D06AABF4479B","title":"LP Cafe","lon":"121.43905639","lat":"31.209747314","category":"500","category_name":"未知分类","address":"上海市华山路1100弄16号(靠近兴国路口，斜对面是兴国宾馆)"},{"poiid":"B2094757D568A0FD4892","title":"MATSUOKA(武康路店)","lon":"121.4390639","lat":"31.20651611","category":"255","category_name":"专卖店","address":"武康路378号房地宾馆1层"},{"poiid":"B2094654D564A4FD449B","title":"汤臣怡园","lon":"121.43521","lat":"31.207821","category":"47","category_name":"住宅区","address":"上海市闵行区莲花南路1288弄"},{"poiid":"B2094757D16DA4FA419C","title":"汇益花园","lon":"121.43662","lat":"31.210651","category":"47","category_name":"住宅区","address":"上海华山路905弄"},{"poiid":"B2094757D165A3F4409C","title":"南鹰瑞阁国际酒店","lon":"121.440793161","lat":"31.2058312789","category":"217","category_name":"旅馆招待所","address":"上海淮海中路1728号"},{"poiid":"B2094757D568A6FD419D","title":"武康路旅游咨询中心","lon":"121.43917345","lat":"31.20592367","category":"248","category_name":"生活娱乐","address":"武康路393甲"},{"poiid":"B2094752DA6BA1FC499A","title":"徐家汇","lon":"121.43614","lat":"31.206363","category":"500","category_name":"未知分类","address":"上海市 徐家汇"},{"poiid":"B2094757D568A5F4439E","title":"U.Life Design","lon":"121.43990858","lat":"31.20722629","category":"248","category_name":"生活娱乐","address":"武康路290"},{"poiid":"B2094757D169A0F94793","title":"湖南别墅国宾馆保安房","lon":"121.44036523","lat":"31.208537697","category":"217","category_name":"旅馆招待所","address":"上海市徐汇区武康路216弄2号"},{"poiid":"B2094757D569A7FD4099","title":"Jason & Eva flower shop","lon":"121.4405256","lat":"31.20974167","category":"117","category_name":"便民商店/便利店","address":"武康路202号"},{"poiid":"B2094654DB65A3FD489E","title":"嘉贝尔口腔中心","lon":"121.44087","lat":"31.20656","category":"162","category_name":"医院","address":"徐汇区淮海中路1720号众联别墅G座(近宛平路)"},{"poiid":"B2094655D26FA3F94593","title":"淮新大楼","lon":"121.436","lat":"31.2068","category":"47","category_name":"住宅区","address":"番禺路617弄1号"},{"poiid":"B2094757D065A1F4449C","title":"福苑大厦","lon":"121.438","lat":"31.2105","category":"252","category_name":"楼宇机构","address":"浦东区崂山东路410号"},{"poiid":"B2094654DB65A4F54098","title":"兴盛公寓","lon":"121.43925","lat":"31.210552","category":"47","category_name":"住宅区","address":"高邮路1-3号"},{"poiid":"B2094655D36CA0F5419C","title":"淮海中路高安路","lon":"121.44105","lat":"31.20592","category":"38","category_name":"公交车站","address":"上海市徐汇区五原路"},{"poiid":"B2094757D168A0FE449A","title":"臭铭铭家","lon":"121.44068758","lat":"31.207962995","category":"500","category_name":"未知分类","address":"上海市湖南路121号4楼"},{"poiid":"B209475DD36AA3FB4899","title":"UTAU","lon":"121.437469","lat":"31.205795","category":"500","category_name":"未知分类","address":"上海市 泰安路兴国路36号"},{"poiid":"B2094655D265A2FB4993","title":"淮海新公馆","lon":"121.43569902636","lat":"31.206565439849","category":"47","category_name":"住宅区","address":"淮海新公馆(现房)位于长宁区淮海西路280号"},{"poiid":"B2094654D564A5F4439F","title":"上海汽车工业(集团)总公司","lon":"121.43873","lat":"31.20575","category":"263","category_name":"公司","address":"武康路390号"},{"poiid":"B2094757D168A4FC479A","title":"上海市质量协会","lon":"121.436691586","lat":"31.2057039514","category":"500","category_name":"未知分类","address":"上海泰安路74号"},{"poiid":"B2094757D065A6F5409F","title":"菟紙老窩","lon":"121.43615158","lat":"31.207218981","category":"500","category_name":"未知分类","address":null},{"poiid":"B2094757D16CA3F84093","title":"皮卡皮卡&gt;&lt;皮卡丘!!","lon":"121.440989","lat":"31.208246","category":"500","category_name":"未知分类","address":null},{"poiid":"B2094655D26FA4F94899","title":"众联别墅(南门)","lon":"121.44085","lat":"31.20626","category":"47","category_name":"住宅区","address":"淮海中路1720"},{"poiid":"B2094655D36CA3FE4192","title":"武康路280弄小区(东门)","lon":"121.4398","lat":"31.20755","category":"656","category_name":"大门","address":"湖南路"},{"poiid":"B2094654D564A5F44092","title":"中国移动淮海中路营业厅","lon":"121.44123","lat":"31.20627","category":"151","category_name":"电讯营业厅","address":"淮海中路1720-3"},{"poiid":"B2094655D265AAFF459C","title":"上海市徐汇中学北校区","lon":"121.43949","lat":"31.20522","category":"55","category_name":"中学","address":"淮海中路1788"},{"poiid":"B2094757D16CA4FF489C","title":"移动营业厅淮海中路店","lon":"121.4408493","lat":"31.206260681","category":"500","category_name":"未知分类","address":"上海淮海中路1720号"},{"poiid":"B2094655D26CA4FA4093","title":"永福路五小区20弄（南门）","lon":"121.44193","lat":"31.20854","category":"47","category_name":"住宅区","address":"湖南路20弄"},{"poiid":"B2094654D564A5F4439E","title":"上海汽车工业销售有限公司(武康路)","lon":"121.43873","lat":"31.20575","category":"263","category_name":"公司","address":"武康路390"},{"poiid":"B2094654D564A5F5409E","title":"湖南社区党员服务中心","lon":"121.43894","lat":"31.21037","category":"248","category_name":"生活娱乐","address":"高邮路7"},{"poiid":"B2094751D364A6F5499C","title":"衡山路12号","lon":"121.4415730301044","lat":"31.20719976771203","category":"500","category_name":"未知分类","address":""},{"poiid":"B2094655D268A1FC499A","title":"Ci5","lon":"121.43991","lat":"31.20503","category":"172","category_name":"酒吧","address":"徐汇区淮海中路1797号(近宛平路)"},{"poiid":"B2094655D264A5FC479C","title":"湖南天平工商所","lon":"121.44015","lat":"31.21071","category":"250","category_name":"公园户外","address":"复兴西路201弄5-12号"},{"poiid":"B2094757D66EA4F54699","title":"Wills江苏路","lon":"121.440929","lat":"31.209929","category":"500","category_name":"未知分类","address":"上海东诸安浜路店105号"},{"poiid":"B2094655D26FA5FE459E","title":"博雅珊艺术中心","lon":"121.43832","lat":"31.21082","category":"252","category_name":"楼宇机构","address":"徐汇区复兴西路299弄3号楼(近华山路)"},{"poiid":"B2094757D06BA0FC4292","title":"KK's home","lon":"121.43779966","lat":"31.20575364","category":"500","category_name":"未知分类","address":"上海KK's home"},{"poiid":"B2094654DB65A4F5419D","title":"嘉慧园(武康路)","lon":"121.44107","lat":"31.21053","category":"47","category_name":"住宅区","address":"湖南路"},{"poiid":"B2094757D569A1F44999","title":"Jason","lon":"121.4405256","lat":"31.20974167","category":"249","category_name":"购物服务","address":"武康路202号"},{"poiid":"B2094654D564A5F5409F","title":"湖南社区文化活动分中心","lon":"121.43895","lat":"31.21037","category":"248","category_name":"生活娱乐","address":"高邮路7"},{"poiid":"B2094757D16BA2FC469F","title":"sandy妈家","lon":"121.437706","lat":"31.205709","category":"500","category_name":"未知分类","address":"上海泰安路"},{"poiid":"B2094757D66EA4F54598","title":"喜士多","lon":"121.43741358","lat":"31.205488947","category":"500","category_name":"未知分类","address":"徐汇区泰安路27弄5号(泰安路兴国路)"},{"poiid":"B2094757D568ABFD479A","title":"Jason & Eva","lon":"121.4389969","lat":"31.21071805","category":"255","category_name":"专卖店","address":"复兴西路271-2"},{"poiid":"B2094757D06BA3F94993","title":"96路","lon":"121.438186942","lat":"31.2111564521","category":"500","category_name":"未知分类","address":"上海公交车"},{"poiid":"B2094757D16EA2FA4998","title":"尊萃508公馆","lon":"121.43772","lat":"31.21125","category":"252","category_name":"楼宇机构","address":"上海卢湾区华山路1749号  "},{"poiid":"B2094655D264A5FC4098","title":"武康路280弄小区(西门)","lon":"121.4369","lat":"31.20688","category":"656","category_name":"大门","address":""},{"poiid":"B2094655D264A5F44293","title":"贺绿汀旧居","lon":"121.43614","lat":"31.20554","category":"250","category_name":"公园户外","address":"徐汇区泰安路76弄亦村4号(近兴国路)"},{"poiid":"B2094654D564A5F5439F","title":"逸兴堂","lon":"121.44194","lat":"31.2083","category":"123","category_name":"家具建材市场","address":"徐汇区湖南路105号(近上海交响乐团)"},{"poiid":"B2094654D564A5F4469A","title":"小小家具","lon":"121.43774","lat":"31.20514","category":"123","category_name":"家具建材市场","address":"兴国路229弄1号"},{"poiid":"B2094757D06BA4FB479B","title":"温馨小憩","lon":"121.439501","lat":"31.210961","category":"148","category_name":"美容美发店","address":"上海高邮路、复兴西路"},{"poiid":"B2094757D164A3FB4693","title":"湖南街道社区事物受理服务中心","lon":"121.439613","lat":"31.205123","category":"500","category_name":"未知分类","address":"上海淮海中路1788号甲"},{"poiid":"B2094757D568AAFF4692","title":"钧天琴韵古琴馆","lon":"121.43979194","lat":"31.20500543","category":"190","category_name":"培训机构","address":"淮海中路1801"},{"poiid":"B2094654D564A5F54092","title":"上海安保设备开发工程有限公司经营部","lon":"121.44062","lat":"31.21049","category":"255","category_name":"专卖店","address":"复兴西路197号"},{"poiid":"B209475CD66FA0FF4992","title":"Barolo Wine House","lon":"121.436683","lat":"31.211139","category":"500","category_name":"未知分类","address":"上海市 华山路905弄2号"},{"poiid":"B2094757D06BABF9479B","title":"IPLUSO","lon":"121.44068","lat":"31.20933","category":"260","category_name":"其他","address":"徐汇区武康路202号(近复兴西路)"},{"poiid":"B2094757D465A3FE489A","title":"KNIGHT咖啡酒吧 ()","lon":"121.440476","lat":"31.205721","category":"260","category_name":"其他","address":"徐汇区淮海中路1728号南鹰饭店大堂(近宛平路)"},{"poiid":"B2094655D264A0F8439B","title":"裸奔","lon":"121.43843","lat":"31.21109","category":"248","category_name":"生活娱乐","address":"复兴西路293号"},{"poiid":"B2094654D564A5F54393","title":"一步设计","lon":"121.4417","lat":"31.2081","category":"248","category_name":"生活娱乐","address":"湖南路105号3号楼202-205室"},{"poiid":"B2094757D16BA4F4409D","title":"百华","lon":"121.43815409","lat":"31.20516377","category":"249","category_name":"购物服务","address":"徐汇区泰安路29号(兴国路武康路间)"},{"poiid":"B2094757D56CA1FE479C","title":"福炉 fullhouse","lon":"121.44499","lat":"31.20297","category":"260","category_name":"其他","address":"徐汇区衡山路298号(近高安路)"},{"poiid":"B2094654D564A5F4419F","title":"上海东方宣传教育服务中心","lon":"121.43915","lat":"31.20515","category":"252","category_name":"楼宇机构","address":"淮海中路1800号2层"},{"poiid":"B2094757D165A0FB409D","title":"上海市預防腐敗局","lon":"121.439261786","lat":"31.2048578349","category":"500","category_name":"未知分类","address":"上海市徐匯區宛平路7號"},{"poiid":"B2094757D16AAAF9439E","title":"茂龄别墅11号","lon":"121.441263186","lat":"31.2062050612","category":"252","category_name":"楼宇机构","address":"上海建国西路619弄"},{"poiid":"B2094655D26BAAFE469A","title":"兴国鸣园(北门)","lon":"121.43587","lat":"31.2075","category":"656","category_name":"大门","address":"兴国路244弄59号"},{"poiid":"B2094655D264A7F54792","title":"汤臣怡园(西二门)","lon":"121.43509","lat":"31.20769","category":"48","category_name":"楼宇大门","address":""},{"poiid":"B2094655D26BA5FA4298","title":"兴国鸣园(北二门)","lon":"121.43528","lat":"31.20736","category":"656","category_name":"大门","address":"兴国路244弄59号"}]