[{"poiid":"B2094654DA69AAFB4799","title":"裕景大饭店","lon":"121.52018","lat":"31.2409","category":"213","category_name":"五星级宾馆","address":"上海市浦东新区浦东大道535号(近东方路)"},{"poiid":"B2094654DA69A7FB489A","title":"渣打银行大厦","lon":"121.516","lat":"31.2415","category":"46","category_name":"楼宇","address":"浦东区金融贸易区D3-5"},{"poiid":"B2094655D26FA5F9439B","title":"上海证券大厦","lon":"121.517707","lat":"31.241749","category":"46","category_name":"楼宇","address":"浦东新区浦东南路528号"},{"poiid":"B209475CD564A7F84392","title":"上海滩浦东香格里拉店","lon":"121.50058","lat":"31.23634","category":"119","category_name":"商场","address":"浦东富成路33号香格里拉酒店内大堂层"},{"poiid":"B2094655D36DA6FE429A","title":"浦东大道","lon":"121.51984","lat":"31.24032","category":"38","category_name":"公交车站","address":""},{"poiid":"B2094655D26AA0F9409A","title":"地铁浦东大道站","lon":"121.51984","lat":"31.24032","category":"36","category_name":"地铁站","address":""},{"poiid":"B2094757D06FA7F44199","title":"光头烧烤吧(南泉北路店)","lon":"121.51594","lat":"31.23765","category":"68","category_name":"快餐厅","address":"浦东新区南泉北路47号(近东方医院)"},{"poiid":"B2094757D068A6F8419F","title":"华检医疗体检中心","lon":"121.521036652","lat":"31.2400068656","category":"902","category_name":"楼宇机构","address":"浦东新区浦东大道545号裕景坊2楼(东方路口)"},{"poiid":"B2094757D068A1FA489C","title":"其昌栈渡口","lon":"121.51963307","lat":"31.242515608","category":"500","category_name":"未知分类","address":"上海东方路滨江大道"},{"poiid":"B2094757D06FA2FF4099","title":"中国保险大厦","lon":"121.516","lat":"31.2421","category":"46","category_name":"楼宇","address":"浦东临港新城主城区申港大道200号"},{"poiid":"B2094757D069A7F4429B","title":"浦东新舞台","lon":"121.51503","lat":"31.23892","category":"179","category_name":"音乐厅","address":"浦东新区浦东大道143号(南泉北路浦东大道)"},{"poiid":"B2094757D16CABFF429D","title":"雅典皇宫","lon":"121.51895673","lat":"31.242752567","category":"500","category_name":"未知分类","address":"上海浦东新区东方路8号(近浦东大道)  "},{"poiid":"B2094757D064AAF5409A","title":"浦东陆家嘴图书馆","lon":"121.518913","lat":"31.241753","category":"181","category_name":"图书馆","address":"上海浦东新区东方路38号"},{"poiid":"B2094757DB69A3F44599","title":"富淳饭店 保利店","lon":"121.5189019","lat":"31.242405","category":"72","category_name":"广东菜","address":"浦东新区东方路18号保利广场E座G楼"},{"poiid":"B2094655D36DA2FB459B","title":"大连路隧道","lon":"121.51973","lat":"31.2428","category":"250","category_name":"公园户外","address":"上海市杨浦区大连路-浦东新区东方路"},{"poiid":"B2094757D06AA3FC409B","title":"浦东大道钱仓路","lon":"121.520092738","lat":"31.2396905017","category":"500","category_name":"未知分类","address":"上海浦东大道"},{"poiid":"B2094750D66CABFB4693","title":"Mio Ita","lon":"121.517906","lat":"31.243383","category":"94","category_name":"西餐厅","address":"浦东新区东方路18号保利大厦E栋2楼"},{"poiid":"B2094757D068A3F94192","title":"东北四季饺子王(浦东大道店)","lon":"121.51492","lat":"31.23906","category":"82","category_name":"东北菜","address":"上海浦东新区浦东大道143号甲(即墨路口)"},{"poiid":"B2094757D06EAAFF4993","title":"浦电路地铁站(四号线)","lon":"121.519854","lat":"31.240301","category":"36","category_name":"地铁站","address":"上海轨道交通 四号线 轨交浦东大道站 轻轨 4"},{"poiid":"B2094757D068A5F44392","title":"裕景咖啡厅","lon":"121.52051","lat":"31.2408","category":"268","category_name":"自助","address":"浦东新区浦东大道535号裕景大饭店3楼(近东方路)"},{"poiid":"B2094757D469A5F9409A","title":"松临日本料理 保利广场店","lon":"121.5189019","lat":"31.242405","category":"95","category_name":"日本料理","address":"浦东新区东方路18号保利广场E座2楼(近地铁四号线浦东大道站)"},{"poiid":"B2094753D76DA4F8439D","title":"上海电影博物馆","lon":"121.520019","lat":"31.240804","category":"500","category_name":"未知分类","address":"上海市 上海电影制片厂漕溪北路595号"},{"poiid":"B2094757D068A5F8459B","title":"月亮生煎大王","lon":"121.51692","lat":"31.23806","category":"68","category_name":"快餐厅","address":"浦东新区崂山路80号101室(近浦东大道)"},{"poiid":"B2094753D76BA0FF4898","title":"伊秀手握寿司","lon":"121.520011","lat":"31.240814","category":"247","category_name":"餐饮美食","address":"上海市 上海市第一食品商店"},{"poiid":"B2094654DA69A7FD4099","title":"崂山一村(北门)","lon":"121.51883","lat":"31.23996","category":"47","category_name":"住宅区","address":""},{"poiid":"B2094655D264ABF94793","title":"富橙投资","lon":"121.51634","lat":"31.23925","category":"46","category_name":"楼宇","address":"浦东区浦东大道288号"},{"poiid":"B2094654DA69A0FC499F","title":"荣成大厦","lon":"121.51813","lat":"31.24095","category":"47","category_name":"住宅区","address":"荣成路85弄1-2号"},{"poiid":"B2094654DA69A7FD479B","title":"东昌中学东校","lon":"121.51871","lat":"31.23801","category":"55","category_name":"中学","address":"崂山路200"},{"poiid":"B2094654DA69A0FD4792","title":"半岛鱼翅潮州酒楼","lon":"121.51827247863","lat":"31.24055145864","category":"72","category_name":"广东菜","address":"浦东新区浦东大道281号2楼(浦东大道荣成路)"},{"poiid":"B2094655D26BA2F54693","title":"浦东大道荣成路","lon":"121.51865","lat":"31.24033","category":"38","category_name":"公交车站","address":""},{"poiid":"B2094757D06AA7F8429A","title":"德兴面馆(浦东店)","lon":"121.5153","lat":"31.2387","category":"68","category_name":"快餐厅","address":"浦东新区南泉北路1号(浦东大道口)"},{"poiid":"B2094654DA69A0FD4793","title":"东海宾馆","lon":"121.51625","lat":"31.23986","category":"215","category_name":"三星级宾馆","address":"浦东新区浦东大道281号(近东方路)"},{"poiid":"B2094757D16DA7FD4192","title":"荣成小区","lon":"121.51881","lat":"31.240702","category":"47","category_name":"住宅区","address":"上海浦东新区浦东大道501弄"},{"poiid":"B2094757D164A2F9429C","title":"光头烧烤","lon":"121.51228","lat":"31.24018","category":"68","category_name":"快餐厅","address":"浦东新区崂山路47号(东昌电影院)"},{"poiid":"B2094757D165A5FF499A","title":"钱仓站","lon":"121.517709738","lat":"31.2403415156","category":"500","category_name":"未知分类","address":"上海市浦东大道钱仓站"},{"poiid":"B2094654DA69A7FD4098","title":"崂山一村","lon":"121.51876","lat":"31.239693","category":"47","category_name":"住宅区","address":"崂山一村"},{"poiid":"B2094654DA69A7FD4093","title":"志发彩铝塑钢门窗","lon":"121.51807","lat":"31.23986","category":"123","category_name":"家具建材市场","address":"崂山一村4-2"},{"poiid":"B2094654DA69A0FD4592","title":"好德便利NO.418","lon":"121.51889","lat":"31.24047","category":"117","category_name":"便民商店/便利店","address":"浦东大道"},{"poiid":"B2094654DA69A7FC4598","title":"崂山新村","lon":"121.51923","lat":"31.238258","category":"47","category_name":"住宅区","address":"栖霞路190弄"},{"poiid":"B2094655D265A6F8499A","title":"有家便当","lon":"121.51714","lat":"31.24006","category":"68","category_name":"快餐厅","address":"浦东新区浦东大道307号(浦东大道荣成路)"},{"poiid":"B2094654DA69A7FD419D","title":"崂六小区","lon":"121.5174","lat":"31.239016","category":"47","category_name":"住宅区","address":"浦东大道290弄1-29号"},{"poiid":"B2094757D16BA7FE4793","title":"黄浦江边","lon":"121.51653933","lat":"31.239108522","category":"500","category_name":"未知分类","address":"上海钱仓站"},{"poiid":"B2094654DB6BAAFE429E","title":"红辣椒 浦东店","lon":"121.51873393805","lat":"31.240492205441","category":"257","category_name":"中餐厅","address":"浦东大道279号东海宾馆底层近东方路"},{"poiid":"B2094757D16CA6F44992","title":"昌邑小区","lon":"121.51673","lat":"31.240412","category":"47","category_name":"住宅区","address":"上海市浦东新区浦东大道荣城路"},{"poiid":"B2094757D66FA1F94699","title":"赣江村","lon":"121.520063738","lat":"31.2410805314","category":"260","category_name":"其他","address":"浦东新区东方路41号(近昌邑路)"},{"poiid":"B2094654DA69A0FC499D","title":"荣城花苑","lon":"121.51794","lat":"31.242142","category":"47","category_name":"住宅区","address":"荣城路9弄"},{"poiid":"B2094654DA69A0FC499C","title":"荣成大厦(西门)","lon":"121.51765","lat":"31.24108","category":"47","category_name":"住宅区","address":"荣成路85弄1-2号"},{"poiid":"B2094757D068A1FC429F","title":"东昌电影院","lon":"121.516061","lat":"31.237536","category":"178","category_name":"电影院","address":"南泉北路150"},{"poiid":"B2094654DA69A7FC439A","title":"京世国际发型美容连锁机构","lon":"121.519","lat":"31.237","category":"148","category_name":"美容美发店","address":"崂山东路"},{"poiid":"B2094655D26AA0F8469C","title":"订餐小秘书","lon":"121.52054","lat":"31.2393","category":"247","category_name":"餐饮美食","address":"浦东新区东方路135号2楼"},{"poiid":"B2094757D06FA0FD4899","title":"裕景国际广场A座","lon":"121.51995862","lat":"31.240610617","category":"252","category_name":"楼宇机构","address":"上海东方路69号"},{"poiid":"B2094654DB64A3FF4192","title":"COSTA COFFEE(裕景大饭店东)","lon":"121.52033","lat":"31.24088","category":"65","category_name":"咖啡厅","address":""},{"poiid":"B2094654DA69A7FE459A","title":"崂山五村","lon":"121.51745","lat":"31.23745","category":"47","category_name":"住宅区","address":"崂山五村502-562号"},{"poiid":"B2094757D068A1FC479B","title":"85路浦东大道钱仓路站","lon":"121.52097925","lat":"31.240430077","category":"38","category_name":"公交车站","address":"上海市浦东新区浦东大道近钱仓路东侧"},{"poiid":"B2094654DA69A6FD439B","title":"东昌大楼","lon":"121.52","lat":"31.2386","category":"46","category_name":"楼宇","address":"上海东昌路600号"},{"poiid":"B2094757D065A2FD479B","title":"老姚烧烤","lon":"121.51579","lat":"31.23748","category":"68","category_name":"快餐厅","address":"浦东新区南泉北路51号(近招远路)"},{"poiid":"B2094757D06BA4FE459D","title":"招商银行上海浦东大道支行","lon":"121.52022773","lat":"31.240670522","category":"500","category_name":"未知分类","address":"浦东新区浦东大道535号裕景大饭店内(近东方路)"},{"poiid":"B2094655D26DA6F44192","title":"裕景宴会厅","lon":"121.52017","lat":"31.24091","category":"88","category_name":"海鲜酒楼","address":"东方路69号5层"},{"poiid":"B2094655D36CA6FB489E","title":"东方路栖霞路","lon":"121.52062","lat":"31.23821","category":"38","category_name":"公交车站","address":""},{"poiid":"B2094757D66DABFB479E","title":"名盛串城","lon":"121.515641738","lat":"31.2376644585","category":"96","category_name":"韩国料理","address":"浦东新区南泉北路53号(近浦东大道)"},{"poiid":"B209475CD16CABFE429E","title":"赣江村 浦东大道店","lon":"121.5161577","lat":"31.2398318","category":"650","category_name":"江西菜","address":"浦东新区浦东大道279号"},{"poiid":"B2094753D46CA2F8479B","title":"家有好面","lon":"121.520004","lat":"31.240808","category":"247","category_name":"餐饮美食","address":"上海市 南京路第一食品城3楼"},{"poiid":"B2094753D768A0F84298","title":"浦东嘉里城","lon":"121.520004","lat":"31.240812","category":"500","category_name":"未知分类","address":"上海市 芳甸路1155号"},{"poiid":"B2094757D16EA6FF4093","title":"浦东大道290弄20号","lon":"121.518877138","lat":"31.240592721","category":"500","category_name":"未知分类","address":null},{"poiid":"B2094757D569A3FA429B","title":"Lobby Lounge(裕景店)","lon":"121.52017877","lat":"31.24090603","category":"65","category_name":"咖啡厅","address":"浦东大道535号裕景大饭店"},{"poiid":"B2094757D464A7FD4298","title":"御庭","lon":"121.519856064","lat":"31.242143345783","category":"72","category_name":"广东菜","address":"浦东新区浦东大道535号裕景大饭店5楼(近东方路)"},{"poiid":"B2094753D46BA4FC4698","title":"上海市第一食品商店","lon":"121.520027","lat":"31.240823","category":"500","category_name":"未知分类","address":"上海市 上海市浦东区"},{"poiid":"B2094753D76DA4FF4498","title":"上海电影博物馆","lon":"121.520011","lat":"31.240814","category":"500","category_name":"未知分类","address":"上海市 上海电影厂漕溪北路595号"},{"poiid":"B2094753DB6BAAFC429B","title":"Mr. Pancake House","lon":"121.519371","lat":"31.240739","category":"500","category_name":"未知分类","address":"上海市 长宁区汇川路168号玫瑰坊1层"},{"poiid":"B2094757D06AA4F84999","title":"上行线(浦东大道店)","lon":"121.51992382","lat":"31.2404106","category":"125","category_name":"书店","address":"上海浦东新区地铁四号线浦东大道站"},{"poiid":"B2094655D26AA0FF429D","title":"陆家嘴图书馆东方路店","lon":"121.51887","lat":"31.24191","category":"247","category_name":"餐饮美食","address":"浦东新区东方路38号"},{"poiid":"B2094757D768AAFE4593","title":"仟村馄饨 南泉北路店","lon":"121.515156054","lat":"31.239196793","category":"68","category_name":"快餐厅","address":"浦东新区南泉北路41号(近招远路)"},{"poiid":"B2094654DA69A0FC4992","title":"荣城花苑(南门)","lon":"121.51731","lat":"31.24166","category":"47","category_name":"住宅区","address":"荣城路9弄"},{"poiid":"B2094757D169A0FE4092","title":"浦东文化馆","lon":"121.515529738","lat":"31.2397765036","category":"500","category_name":"未知分类","address":"上海浦东大道143号"},{"poiid":"B2094757D464A7F94193","title":"豪碗福","lon":"121.519856064","lat":"31.242143345783","category":"68","category_name":"快餐厅","address":"浦东新区浦东大道535号裕景大饭店大堂(近东方路)"},{"poiid":"B2094654DA69AAFE409E","title":"上海交通职业技术学院","lon":"121.52048","lat":"31.23942","category":"671","category_name":"高校中心点","address":"浦东大道2598号"},{"poiid":"B2094757D064A0FE479B","title":"上海动物园肉食区域","lon":"121.516931271","lat":"31.2391533236","category":"500","category_name":"未知分类","address":"上海动物园"},{"poiid":"B2094757D569A1F5429F","title":"浦东第一图书馆","lon":"121.518875","lat":"31.24191806","category":"181","category_name":"图书馆","address":"东方路38号"},{"poiid":"B2094655D26DA0FD429E","title":"海东大楼","lon":"121.52059","lat":"31.23931","category":"46","category_name":"楼宇","address":"东方路135"},{"poiid":"B2094654DB64A7F5459D","title":"要得湖南湘菜馆","lon":"121.51452","lat":"31.23933","category":"77","category_name":"湖南菜","address":"浦东新区浦东大道143号乙(即墨路口)"},{"poiid":"B2094757D664ABF8459A","title":"大汤面馆","lon":"121.520932054","lat":"31.238510793","category":"68","category_name":"快餐厅","address":"浦东新区东方路182号(近大连路隧道出口)"},{"poiid":"B2094757D66BA6F8409E","title":"小四川鱼庄","lon":"121.5204","lat":"31.23341","category":"71","category_name":"四川菜","address":"浦东新区崂山东路310号(近乳山路)"},{"poiid":"B2094655D26DA1FF409E","title":"万丰川菜 钱仓路店","lon":"121.52089118957","lat":"31.239646098132","category":"71","category_name":"四川菜","address":"钱仓路326号近浦东大道"},{"poiid":"B2094654DA69AAFE4099","title":"上海第二工业大学成继教院","lon":"121.52049","lat":"31.23942","category":"52","category_name":"高等院校","address":"浦东新区东方路121号"},{"poiid":"B2094654DA69AAFB479E","title":"裕景坊","lon":"121.5209","lat":"31.2409","category":"46","category_name":"楼宇","address":"浦东大道555号"},{"poiid":"B2094654DB64A3FF419D","title":"喜士多便利连锁(裕景国际北)","lon":"121.52001","lat":"31.24148","category":"117","category_name":"便民商店/便利店","address":""},{"poiid":"B2094757D16BA5FB439C","title":"招远二村","lon":"121.516076438","lat":"31.2414186386","category":"47","category_name":"住宅区","address":"上海陆家嘴招远路即墨路"},{"poiid":"B2094757D465A0F4489A","title":"溢香小苑湘菜馆","lon":"121.518042054","lat":"31.237157793","category":"77","category_name":"湖南菜","address":"浦东新区栖霞路99号(近崂山路)"},{"poiid":"B2094655D26AA5FB4593","title":"昌邑小学","lon":"121.51561","lat":"31.23899","category":"56","category_name":"小学","address":"浦东新区崂山东路10号(崂山路浦东大道)"},{"poiid":"B2094655D264A0FC449B","title":"浙商银行上海陆家嘴支行","lon":"121.51628","lat":"31.23934","category":"150","category_name":"银行","address":"浦东新区浦东大道288号1楼(近人民银行)"},{"poiid":"B2094757D568A4FE499F","title":"猫记冷饮批发","lon":"121.517903","lat":"31.237831","category":"113","category_name":"冷饮店","address":"浦东新区崂山路253号(近栖霞路)"},{"poiid":"B2094757D16DA7FC479B","title":"上海港教育培训中心","lon":"121.521341863","lat":"31.2393383809","category":"253","category_name":"校园生活","address":"上海钱仓路400号"},{"poiid":"B2094757D16EABFF469F","title":"滨江名园","lon":"121.5207901","lat":"31.240438461","category":"47","category_name":"住宅区","address":"上海裕景大饭店后面"},{"poiid":"B2094752D66CA3F94398","title":"上海市浦东新区陆家嘴","lon":"121.519124","lat":"31.241793","category":"500","category_name":"未知分类","address":null},{"poiid":"B2094757D169A6F4439F","title":"上海交通大学锦绣华检(浦东分院)","lon":"121.52079373","lat":"31.241544541","category":"500","category_name":"未知分类","address":"上海浦东大道545号裙楼二楼"},{"poiid":"B2094654DB64A3FE4699","title":"上海立信会计学院成教院东方路教学点","lon":"121.5205","lat":"31.23942","category":"53","category_name":"成人教育","address":"东方路121"},{"poiid":"B2094654DA69AAFB4092","title":"好德No.423","lon":"121.52094","lat":"31.23974","category":"117","category_name":"便民商店/便利店","address":"钱仓路344"},{"poiid":"B2094655D26BABF9449A","title":"上海英豪教育学院","lon":"121.51633","lat":"31.23926","category":"190","category_name":"培训机构","address":"浦东大道288号富橙投资"},{"poiid":"B2094757D165A4FB489F","title":"C-Store 喜士多 (裕景店)","lon":"121.5205201","lat":"31.2405356","category":"117","category_name":"便民商店/便利店","address":"上海市浦东新区浦东大道545号"},{"poiid":"B2094654DA69A7F8459B","title":"上海电视大学黄经贸分校","lon":"121.51627","lat":"31.23714","category":"52","category_name":"高等院校","address":"南泉北路168-170"},{"poiid":"B2094757D064A4FC4798","title":"裕景国际东楼","lon":"121.520285","lat":"31.240932","category":"252","category_name":"楼宇机构","address":"上海浦东大道555号"},{"poiid":"B2094757D66AA0F8499D","title":"腾格里乡村酒家 陆家嘴店","lon":"121.51971082221","lat":"31.242546742313","category":"84","category_name":"西北菜","address":"东方路43号近昌邑路"},{"poiid":"B2094757D16DA3FE4092","title":"仟村馄饨","lon":"121.51579573","lat":"31.238097467","category":"247","category_name":"餐饮美食","address":"上海市浦东新区浦东南路"},{"poiid":"B2094655D265A3FD469C","title":"佐登妮丝美容SPA生活馆陆家嘴店","lon":"121.52014","lat":"31.24148","category":"148","category_name":"美容美发店","address":""},{"poiid":"B2094654DA69A7FD4198","title":"钻石王老五征婚网","lon":"121.51634","lat":"31.23936","category":"263","category_name":"公司","address":"浦东大道288"},{"poiid":"B2094757D66BA4FF449E","title":"巴蜀川菜馆","lon":"121.518747054","lat":"31.236747793","category":"71","category_name":"四川菜","address":"浦东新区崂山路218号(近栖霞路)"},{"poiid":"B2094757D46BA4F8499F","title":"河南拉面 崂山路店","lon":"121.518826","lat":"31.236869","category":"68","category_name":"快餐厅","address":"浦东新区崂山路253号(近栖霞路)"},{"poiid":"B2094750D76CA0F8409C","title":"钱仓路烧烤摊","lon":"121.521","lat":"31.2394","category":"68","category_name":"快餐厅","address":"浦东新区钱仓路393号(近浦东大道)"},{"poiid":"B2094654DA69A7FB4092","title":"三和辣欢天川菜馆","lon":"121.51757","lat":"31.23647","category":"71","category_name":"四川菜","address":"浦东新区栖霞路82号(崂山路南泉北路间)"},{"poiid":"B2094654DA69AAFD479E","title":"上海浦东新区安全生产协会","lon":"121.52059","lat":"31.23931","category":"250","category_name":"公园户外","address":"东方路135号海东大楼901"},{"poiid":"B2094757D66CA6F9499C","title":"砂锅麻辣烫","lon":"121.519568738","lat":"31.237543456","category":"247","category_name":"餐饮美食","address":"上海市浦东新区浦东大道"},{"poiid":"B2094655D264ABF9489A","title":"钻石婚恋婚典机构","lon":"121.51634","lat":"31.23926","category":"248","category_name":"生活娱乐","address":"浦东大道288号富橙投资"},{"poiid":"B2094757D16FABFF499E","title":"立信","lon":"121.520492","lat":"31.239424","category":"500","category_name":"未知分类","address":"上海东方路121号"},{"poiid":"B2094654DA69A7FD439C","title":"养和堂药业连锁中西药房NO.052","lon":"121.51602","lat":"31.23815","category":"162","category_name":"医院","address":"崂山路50"},{"poiid":"B2094757D464AAFC4699","title":"栖霞路重庆麻辣烫","lon":"121.520334054","lat":"31.237554793","category":"87","category_name":"特色／地方风味餐厅","address":"浦东新区栖霞路(近浦东南路)"},{"poiid":"B2094757D065A7FC4499","title":"东北一家人","lon":"121.52049","lat":"31.24176","category":"247","category_name":"餐饮美食","address":"上海浦东新区东方路40号(近昌邑路)  "},{"poiid":"B2094757D66CA7FF4898","title":"电脑前","lon":"121.519226","lat":"31.238256","category":"500","category_name":"未知分类","address":"南京就电脑前喽～"},{"poiid":"B2094757DA65A3F54293","title":"上海海神诺富特大酒店","lon":"121.5201236130666","lat":"31.24162355106969","category":"251","category_name":"出行住宿","address":"浦东大道728号"},{"poiid":"B2094654DA69A0FD419D","title":"俊雅网吧","lon":"121.51897","lat":"31.24201","category":"176","category_name":"网吧","address":""},{"poiid":"B2094655D26DA4F5469A","title":"E-吧","lon":"121.52017","lat":"31.24091","category":"260","category_name":"其他","address":"浦东新区浦东大道535号裕景大饭店4楼(近东方路)"},{"poiid":"B2094654DB64A3FF419A","title":"西安电子科技大学网络教育学院上海学习中心","lon":"121.521","lat":"31.23886","category":"54","category_name":"职业技术学校","address":"钱仓路400"},{"poiid":"B2094750D56EA0F8459D","title":"椰岛造型","lon":"121.521484","lat":"31.240741","category":"148","category_name":"美容美发店","address":"浦东新区浦东大道580号"},{"poiid":"B2094654DA69A7F9419C","title":"新华书店(南泉北路)","lon":"121.51525","lat":"31.23876","category":"125","category_name":"书店","address":"南泉北路7"},{"poiid":"B2094757D164AAF84299","title":"面道","lon":"121.515697738","lat":"31.238063467","category":"247","category_name":"餐饮美食","address":"上海南泉北路35号"},{"poiid":"B2094654DA69A7FD439D","title":"名剪城专业发型设计","lon":"121.51602","lat":"31.23812","category":"148","category_name":"美容美发店","address":"上海市浦东新区崂山路54号"},{"poiid":"B2094750D665ABF8449E","title":"恋尾鱼奶茶鸡排铺","lon":"121.515","lat":"31.2391","category":"68","category_name":"快餐厅","address":"浦东新区浦东大道140弄3号楼101室(近南泉北路)"},{"poiid":"B2094655D268A7FC4692","title":"家家乐(南泉北路)","lon":"121.5155","lat":"31.23825","category":"118","category_name":"超级市场","address":"浦东新区南泉路(近蓝村路)"},{"poiid":"B2094654DA69A7FC459B","title":"崂山新村(南门)","lon":"121.51943","lat":"31.23742","category":"47","category_name":"住宅区","address":""},{"poiid":"B2094757DA6BA3FD459F","title":"21世纪中心大厦","lon":"121.515055","lat":"31.239151","category":"252","category_name":"楼宇机构","address":"东城区东华门大街26号"},{"poiid":"B2094757D16FA3FD4693","title":"电信信息园区班车福山路站","lon":"121.516504508","lat":"31.2382092902","category":"500","category_name":"未知分类","address":"上海福山路380号"},{"poiid":"B2094757D06FA6F5469D","title":"探戈帮TangoBang","lon":"121.52063","lat":"31.24063","category":"221","category_name":"健身中心","address":"上海浦东大道545号,裕景坊1楼"},{"poiid":"B2094654DB6AA2FB479C","title":"大华食品店","lon":"121.521","lat":"31.23863","category":"247","category_name":"餐饮美食","address":"钱仓路402号"},{"poiid":"B2094757D168A5FF4692","title":"俺村","lon":"121.51660973","lat":"31.238160469","category":"500","category_name":"未知分类","address":"上海浦东新区即墨路"},{"poiid":"B2094654DA69A7F8499E","title":"星火日夜崂山店","lon":"121.5166","lat":"31.23764","category":"117","category_name":"便民商店/便利店","address":"崂山路143"},{"poiid":"B2094655D26DA1F5419C","title":"上海博思文化传播有限公司","lon":"121.52059","lat":"31.23931","category":"252","category_name":"楼宇机构","address":"东方路135号海东大楼1105"},{"poiid":"B2094753DA6BA1FA4299","title":"easybox陆家嘴","lon":"121.511536","lat":"31.239903","category":"248","category_name":"生活娱乐","address":"上海浦东大道3号瑞苑公寓2372"},{"poiid":"B2094757D66DA0F9429B","title":"胖胖星","lon":"121.516580738","lat":"31.2382084701","category":"500","category_name":"未知分类","address":"上海胖胖星胖胖街"},{"poiid":"B2094655D26EA4F84793","title":"吉米Express餐厅","lon":"121.52074","lat":"31.24184","category":"98","category_name":"意式菜品餐厅","address":"浦东新区昌邑路543号(东方路口)"},{"poiid":"B2094655D268A2FE4899","title":"COYOTES","lon":"121.52059","lat":"31.24186","category":"172","category_name":"酒吧","address":"昌邑路541"},{"poiid":"B2094757D16EABF9429A","title":"订餐小秘书","lon":"121.520875","lat":"31.240291","category":"500","category_name":"未知分类","address":"上海东方路117号"},{"poiid":"B2094655D26DA7FB499B","title":"家家乐(栖霞路)","lon":"121.51918","lat":"31.23731","category":"118","category_name":"超级市场","address":"栖霞路117临"},{"poiid":"B2094757D66CA7F84093","title":"辛湘汇嘉华中心店","lon":"121.520973738","lat":"31.2405885209","category":"500","category_name":"未知分类","address":"上海淮海中路"},{"poiid":"B2094654DA69A7FE459C","title":"246深度造型","lon":"121.51723","lat":"31.23658","category":"148","category_name":"美容美发店","address":"浦东新区栖霞路85号(地铁2号线东昌路站2号出口)"},{"poiid":"B2094757D06FA3FC4098","title":"昌邑路","lon":"121.519513","lat":"31.2416478","category":"260","category_name":"其他","address":"上海消防队红绿灯"},{"poiid":"B2094655D265A1FE4899","title":"可的超市(崂栖店)","lon":"121.51893","lat":"31.23698","category":"117","category_name":"便民商店/便利店","address":"栖霞路100号"},{"poiid":"B2094654DA69A0F54998","title":"梅园茶室","lon":"121.52048","lat":"31.23753","category":"66","category_name":"茶艺馆","address":""},{"poiid":"B2094654DA69A7FB419B","title":"崂山三、四村(北门)","lon":"121.51763","lat":"31.23648","category":"47","category_name":"住宅区","address":"梅园新村"},{"poiid":"B2094757D16EA2FB4999","title":"美诗美芙 浦东店","lon":"121.518914","lat":"31.243195","category":"500","category_name":"未知分类","address":"上海良丰大厦22F"},{"poiid":"B2094757D66EA4FB439B","title":"迪亚天天(崂山路)","lon":"121.515945738","lat":"31.2417600458","category":"249","category_name":"购物服务","address":"浦东新区崂山东路153号"},{"poiid":"B2094654DA69A7FB4192","title":"名角女士生活馆(崂山三村)","lon":"121.51851","lat":"31.23676","category":"148","category_name":"美容美发店","address":"崂山三村37"},{"poiid":"B2094654DB64A3FE469B","title":"浦东新区外商投资企业服务有限公司","lon":"121.52059","lat":"31.23931","category":"263","category_name":"公司","address":"东方路135号海东大楼910"},{"poiid":"B2094654DA69A7FD469A","title":"崂六小区(南门)","lon":"121.51744","lat":"31.23846","category":"656","category_name":"大门","address":""},{"poiid":"B2094655D268A4FB4398","title":"梅园三村(西门)","lon":"121.52141","lat":"31.23882","category":"47","category_name":"住宅区","address":""},{"poiid":"B2094757D16BA1FE439B","title":"陆家嘴司法所","lon":"121.517449","lat":"31.23745","category":"500","category_name":"未知分类","address":"上海崂山五村555号"},{"poiid":"B2094654DA69A7FD4192","title":"崂六小区(北门)","lon":"121.5164","lat":"31.23937","category":"656","category_name":"大门","address":"浦东大道290弄1-29号"},{"poiid":"B2094654DA69A7F84598","title":"浦江职业技术培训学校","lon":"121.51627","lat":"31.23714","category":"54","category_name":"职业技术学校","address":"南泉北路168-170"},{"poiid":"B2094757D06BA5F54998","title":"HOT SALSA舞蹈俱乐部(浦东大道店)","lon":"121.52098","lat":"31.2406","category":"500","category_name":"未知分类","address":"上海浦东新区浦东大道545号裕景大饭店裕景坊1楼(东方路口)  "},{"poiid":"B2094654DA69A0FC4892","title":"新狂剪专业烫染社(昌邑路)","lon":"121.51453","lat":"31.24061","category":"148","category_name":"美容美发店","address":"浦东新区昌邑路90号(东方路即墨路间)"},{"poiid":"B2094655D268A1FA459E","title":"迈逊拍卖公司","lon":"121.51508","lat":"31.23959","category":"249","category_name":"购物服务","address":"浦东大道143号"},{"poiid":"B2094655D26DA1FE4698","title":"上海立信会计学院成教院浦东学区","lon":"121.52101","lat":"31.23887","category":"253","category_name":"校园生活","address":"钱仓路400"},{"poiid":"B2094654DA69A7F9409B","title":"崂山东路综合市场","lon":"121.51558","lat":"31.23807","category":"123","category_name":"家具建材市场","address":"南泉北路45"},{"poiid":"B2094757D16BA3F54893","title":"概念紫尚造型","lon":"121.515866138","lat":"31.242003451","category":"500","category_name":"未知分类","address":"上海浦东陆家嘴南泉北路39号"},{"poiid":"B2094654DA69A7F84892","title":"东昌台球城","lon":"121.51593","lat":"31.23744","category":"171","category_name":"台球厅","address":"南泉北路150-7"},{"poiid":"B2094757D66DA1F9459C","title":"崂山路","lon":"121.51929073","lat":"31.237540455","category":"500","category_name":"未知分类","address":"上海市崂山新村71号105室"},{"poiid":"B2094757D66DA4FE4598","title":"全家便利(崂山店)","lon":"121.51535773","lat":"31.238185469","category":"249","category_name":"购物服务","address":"上海崂山路56号"},{"poiid":"B2094655D26DABFE459F","title":"西安电子科技大学网络教育学院上海学习中心(东门)","lon":"121.52117","lat":"31.23888","category":"253","category_name":"校园生活","address":"钱仓路400"},{"poiid":"B2094654DB64A5F84898","title":"浦东新区陆家嘴社区文化中心","lon":"121.5205","lat":"31.23755","category":"188","category_name":"文化宫","address":"栖霞路120"},{"poiid":"B209475CD76EA0F84093","title":"东方薇婷","lon":"121.520011","lat":"31.242712","category":"500","category_name":"未知分类","address":"上海市 东方路昌邑路"},{"poiid":"B2094654DA69A0F5499C","title":"浦东新区陆家嘴社区科普协会","lon":"121.52041","lat":"31.23745","category":"250","category_name":"公园户外","address":"栖霞路120号梅园社区文化中心"},{"poiid":"B2094654DA69AAFB469A","title":"金凤咖啡屋","lon":"121.52044","lat":"31.24184","category":"260","category_name":"其他","address":"浦东新区昌邑路537号(近东方路)"},{"poiid":"B2094654DB69A6FA449D","title":"联邦快递(各金考浦东大道店)","lon":"121.51501","lat":"31.23953","category":"248","category_name":"生活娱乐","address":"浦东新区浦东大道143号"},{"poiid":"B2094654DA69A0F5499F","title":"浦东新区陆家嘴社区文青年中心","lon":"121.5204","lat":"31.23746","category":"188","category_name":"文化宫","address":"栖霞路120号"},{"poiid":"B2094654DA69A7F84893","title":"围城网吧NO.0604","lon":"121.51595","lat":"31.23747","category":"176","category_name":"网吧","address":"浦东新区崂山东路150号(南泉北路招远路)"},{"poiid":"B2094757D16FABFA4092","title":"扬州经典足浴","lon":"121.520811738","lat":"31.2380534668","category":"148","category_name":"美容美发店","address":"上海浦东新区栖霞路"},{"poiid":"B2094750DA6FA6FE4298","title":"上海保利广场","lon":"121.521598","lat":"31.240272","category":"627","category_name":"一般地点标志","address":"东方路18号"},{"poiid":"B2094654DA69AAFB459E","title":"上海凯莉斯咖啡屋","lon":"121.52097","lat":"31.24183","category":"260","category_name":"其他","address":"浦东新区昌邑路549号(东方路口)"},{"poiid":"B2094757D66FA7FF4698","title":"上海电视大学黄经贸分校","lon":"121.515983738","lat":"31.2371574477","category":"500","category_name":"未知分类","address":"浦东新区南泉北路168号(近栖霞路)"},{"poiid":"B2094654DA69A7F8499B","title":"凯凯棋牌室","lon":"121.51625","lat":"31.23758","category":"175","category_name":"棋牌室","address":"南泉北路150-4"},{"poiid":"B2094757D069A1F5499C","title":"京世美容美发连锁机构(崂山店)","lon":"121.51897","lat":"31.23657","category":"260","category_name":"其他","address":"上海浦东新区栖霞路104-106号(近崂山路)"},{"poiid":"B2094655D26DA0FD4998","title":"崂六小区(西门)","lon":"121.51586","lat":"31.23842","category":"656","category_name":"大门","address":""},{"poiid":"B2094654DA69A0F5499D","title":"浦东新区陆家嘴社区长城家园","lon":"121.5204","lat":"31.23745","category":"248","category_name":"生活娱乐","address":"栖霞路120号梅园社区文化中心"},{"poiid":"B2094655D26EA2F4469D","title":"良丰大厦(西南门)","lon":"121.51868","lat":"31.2431","category":"48","category_name":"楼宇大门","address":"东方路8号"},{"poiid":"B2094654DA69AAFB479A","title":"滨江茗园(西门)","lon":"121.51995","lat":"31.24236","category":"656","category_name":"大门","address":""},{"poiid":"B2094655D26DA4F54793","title":"梅园一街坊(西门)","lon":"121.52135","lat":"31.23924","category":"656","category_name":"大门","address":""},{"poiid":"B2094654DA69A7FE469A","title":"崂山五村(南门)","lon":"121.5176","lat":"31.23672","category":"656","category_name":"大门","address":"梅园新村"},{"poiid":"B2094654DB6BAAF8429F","title":"崂山二村(北二门)","lon":"121.5192","lat":"31.23697","category":"656","category_name":"大门","address":""},{"poiid":"B2094654DA69A7FC4092","title":"崂山二村(北门)","lon":"121.52024","lat":"31.23719","category":"656","category_name":"大门","address":""}]