[{"poiid":"B2094654DA6FA7FD459E","title":"上海海洋水族馆","lon":"121.50194","lat":"31.24064","category":"199","category_name":"水族馆","address":"上海市浦东新区陆家嘴环路1388号"},{"poiid":"B2094654DA6FA7FC449A","title":"东方明珠广播电视塔","lon":"121.49967","lat":"31.23988","category":"240","category_name":"国家级景点","address":"浦东浦东新区世纪大道1号"},{"poiid":"B2094654DB64A5FE4098","title":"上海东方明珠塔","lon":"121.49958","lat":"31.23952","category":"247","category_name":"餐饮美食","address":"浦东新区浦东世纪大道1号(近二号线陆家嘴站)"},{"poiid":"B209475CD564A7F84392","title":"上海滩浦东香格里拉店","lon":"121.50058","lat":"31.23634","category":"119","category_name":"商场","address":"浦东富成路33号香格里拉酒店内大堂层"},{"poiid":"B2094655D36DA6FE409E","title":"陆家嘴","lon":"121.50163","lat":"31.23807","category":"38","category_name":"公交车站","address":"时代金融中心"},{"poiid":"B2094757D06FA3FE429D","title":"鹿港小镇 陆家嘴店 Bellagio Cuisine","lon":"121.503279","lat":"31.241373","category":"91","category_name":"台湾菜","address":"浦东新区陆家嘴环路1318号星展银行大厦B1楼06室(东园路陆家嘴环路)"},{"poiid":"B2094757D06FA5FB4493","title":"东方明珠旋转餐厅","lon":"121.50184","lat":"31.23831","category":"268","category_name":"自助","address":"浦东新区世纪大道1号东方明珠电视塔(近二号线陆家嘴站)"},{"poiid":"B2094757D06EABF5499C","title":"上海新天哈瓦那酒店","lon":"121.50419627","lat":"31.2422169954","category":"260","category_name":"其他","address":"浦东新区陆家嘴环路1288号(近东方明珠)"},{"poiid":"B2094757D06FA3FC4392","title":"中银大厦","lon":"121.502753258","lat":"31.2385470983","category":"46","category_name":"楼宇","address":"上海浦东新区银城中路200号"},{"poiid":"B2094757D06EAAF9469F","title":"星展银行大厦","lon":"121.504057228","lat":"31.2418020945","category":"46","category_name":"楼宇","address":"浦东新区陆家嘴环路1318号B109"},{"poiid":"B2094757D06FA2FC4593","title":"hoF(陆家嘴店)","lon":"121.503866724","lat":"31.2410764887","category":"260","category_name":"其他","address":"浦东新区陆家嘴环路1318号星展银行大厦下沉式广场8号商铺(近东园路)"},{"poiid":"B2094654DA6FA7FD439C","title":"汇亚大厦","lon":"121.50415","lat":"31.24097","category":"46","category_name":"楼宇","address":"重庆北部新区金渝大道89号(北部新区管委会对面)"},{"poiid":"B2094655D26BA1F4419B","title":"陆家嘴地铁站","lon":"121.50161","lat":"31.23788","category":"36","category_name":"地铁站","address":"上海轨道交通 二号线 轨交陆家嘴站"},{"poiid":"B2094753D66DA6FD409B","title":"上海凯宾斯基大酒店","lon":"121.504465341568","lat":"31.2420219309263","category":"213","category_name":"五星级宾馆","address":"陆家嘴环路1288号"},{"poiid":"B2094757D064ABF5479C","title":"Tavola Italian Dining","lon":"121.502135738","lat":"31.2423945594","category":"500","category_name":"未知分类","address":"上海浦东新区滨江大道2500号"},{"poiid":"B2094757D068AAF9489B","title":"海逸海鲜(滨江大道店)","lon":"121.5021791","lat":"31.242800436","category":"72","category_name":"广东菜","address":"浦东新区滨江大道2450号(近星展银行大厦停车场)"},{"poiid":"B2094655D26DAAF8459A","title":"The Kitchen Salvatore Cuomo","lon":"121.49733","lat":"31.24084","category":"94","category_name":"西餐厅","address":"浦东新区陆家嘴西路2967号D座(近丰和路滨江大道海鸥舫)"},{"poiid":"B2094655D26CA4F44393","title":"东方明珠(东南门)","lon":"121.50051","lat":"31.23885","category":"680","category_name":"楼宇机构","address":"世纪大道1"},{"poiid":"B2094750D26FA3FE4698","title":"上海大自然野生昆虫馆","lon":"121.497772","lat":"31.240335","category":"627","category_name":"一般地点标志","address":"上海市浦东新区丰和路1号"},{"poiid":"B2094750D26AA6FB489F","title":"北外滩滨江绿地","lon":"121.499412","lat":"31.243846","category":"248","category_name":"生活娱乐","address":"东大名路新建路"},{"poiid":"B2094757D06FA5FD499E","title":"星巴克Starbucks(东方浮庭店)","lon":"121.501809489","lat":"31.2383870977","category":"260","category_name":"其他","address":"浦东新区世纪大道55号东方浮庭2楼(近陆家嘴东路)"},{"poiid":"B2094655D26FABFB4093","title":"中国平安金融大厦","lon":"121.50234","lat":"31.23947","category":"46","category_name":"楼宇","address":""},{"poiid":"B2094757D068A1F8459D","title":"La Verbena","lon":"121.49765","lat":"31.24109","category":"94","category_name":"西餐厅","address":"浦东新区陆家嘴西路2967号北滨江E座(近国际会议中心)"},{"poiid":"B2094750D165A1FA4193","title":"小杨生煎","lon":"121.501","lat":"31.2401","category":"68","category_name":"快餐厅","address":"浦东新区陆家嘴环路1396号陆家嘴景庭1楼(海洋水族馆旁)"},{"poiid":"B2094757D06FA6F9479A","title":"交银金融大厦","lon":"121.50331115","lat":"31.238565444","category":"46","category_name":"楼宇","address":"碧云东壹栋位于浦东金藏路51号(浙桥路口)"},{"poiid":"B2094757D068A0F84099","title":"老上海餐厅(老上海捌号)","lon":"121.500544738","lat":"31.2385504774","category":"500","category_name":"未知分类","address":"上海浦东新区世纪大道1号东方明珠8号门国际新闻中心1楼(近二号线陆家嘴站)"},{"poiid":"B2094757D168AAF44793","title":"Tavola","lon":"121.50140267","lat":"31.242693473","category":"94","category_name":"西餐厅","address":"浦东新区滨江大道2500号(近星展银行)"},{"poiid":"B2094757D06FA7FB409A","title":"东方既白(小陆家嘴店)","lon":"121.50165713","lat":"31.238781115","category":"68","category_name":"快餐厅","address":"浦东新区世纪大道55号东方浮庭1楼(近东方明珠)"},{"poiid":"B2094757D065A0FD459A","title":"星巴克 STARBICKS (汇亚大厦店)","lon":"121.503237538","lat":"31.2409458285","category":"65","category_name":"咖啡厅","address":"浦东新区陆家嘴环路1233号汇亚大厦1楼大厅(近海族馆)"},{"poiid":"B2094757D16FA6FA459F","title":"陸家嘴","lon":"121.502214738","lat":"31.2382874718","category":"500","category_name":"未知分类","address":"上海市浦东新区丰和路"},{"poiid":"B2094757D06FA7FA459A","title":"宝寿司(陆家嘴店)","lon":"121.503959724","lat":"31.2409894884","category":"95","category_name":"日本料理","address":"浦东新区陆家嘴环路1318号星展银行大厦B1楼5号铺(近东园路)"},{"poiid":"B2094757D168A5F9409F","title":"Sunflour 星展银行店","lon":"121.50335","lat":"31.241352","category":"94","category_name":"西餐厅","address":"浦东新区陆家嘴环路1318号星展银行大厦美食广场(近东方明珠)"},{"poiid":"B2094757D068A5FD4798","title":"SCENA","lon":"121.49932544","lat":"31.238503496","category":"94","category_name":"西餐厅","address":"浦东新区世纪大道8号上海国金中心52楼丽思卡尔顿酒店(东泰路世纪大道)"},{"poiid":"B2094757D06BA7FA4398","title":"海鸥坊","lon":"121.498747738","lat":"31.2394844973","category":"500","category_name":"未知分类","address":"上海市浦东新区滨江大道"},{"poiid":"B2094752D66FA2F4479A","title":"蒗葶泰式酒吧餐厅","lon":"121.498146","lat":"31.241444","category":"256","category_name":"外国餐厅","address":"上海市 滨江大道2600号"},{"poiid":"B2094654DB6BA4F5499C","title":"禾绿回转寿司(明珠店)","lon":"121.50121","lat":"31.23975","category":"95","category_name":"日本料理","address":"上海浦东新区陆家嘴环路1406-1414号2楼(近海洋水族馆)"},{"poiid":"B2094757D069AAFF4192","title":"COSTA COFFEE (星展店)","lon":"121.50335442","lat":"31.241647043","category":"65","category_name":"咖啡厅","address":"浦东新区陆家嘴环路1318号星展银行大厦B104号商铺(近海洋水族馆)"},{"poiid":"B2094655D26AA0FA469F","title":"地铁陆家嘴站","lon":"121.50163","lat":"31.23807","category":"36","category_name":"地铁站","address":""},{"poiid":"B2094654DB6BA4F5499E","title":"味千拉面","lon":"121.5011","lat":"31.23962","category":"95","category_name":"日本料理","address":"陆家嘴环路1416号"},{"poiid":"B2094757D66DA3F84099","title":"麦当劳(东方浮庭店)","lon":"121.50247573","lat":"31.24010151","category":"68","category_name":"快餐厅","address":"浦东新区世纪大道55号世纪浮庭世纪天桥2楼(近陆家嘴环路)"},{"poiid":"B2094757D068A1FA439D","title":"伊藤家(明珠店)","lon":"121.50153","lat":"31.23946","category":"95","category_name":"日本料理","address":"浦东新区陆家嘴环路1402号(近海洋水族馆)"},{"poiid":"B2094757D16BABFB489A","title":"上海海洋水族馆(极地馆区)","lon":"121.501246","lat":"31.239975","category":"249","category_name":"购物服务","address":"上海市浦东新区陆家嘴环路1388号"},{"poiid":"B2094757D069A7FE499D","title":"伊藤家(汇亚店)","lon":"121.504283","lat":"31.241407","category":"95","category_name":"日本料理","address":"浦东新区陆家嘴环路1233号汇亚大厦M楼(近海族馆)"},{"poiid":"B2094757D068A3FE4998","title":"火车头","lon":"121.50325071","lat":"31.241650306","category":"99","category_name":"泰国／越南菜品餐厅","address":"浦东新区陆家嘴环路1318号星展银行大厦B1楼02号(东园路陆家嘴环路)"},{"poiid":"B2094654DB6AA2FC4898","title":"沃歌斯 汇亚店 Wagas","lon":"121.504424054","lat":"31.241192793","category":"94","category_name":"西餐厅","address":"浦东新区陆家嘴环路1233号汇亚大厦1楼(近海族馆)"},{"poiid":"B2094757D06FA5F9419A","title":"可颂坊(陆家嘴店)","lon":"121.501476","lat":"31.238862","category":"112","category_name":"糕饼店","address":"浦东新区世纪大道55号(近陆家嘴地铁站2出口)"},{"poiid":"B2094654DB64AAFD439A","title":"上海城市历史发展陈列馆","lon":"121.49958","lat":"31.23951","category":"182","category_name":"博物馆","address":"浦东新区浦东世纪大道1号东方明珠零米大厅内(丰和路明珠塔路)"},{"poiid":"B2094757D068A4F4449E","title":"干锅居(陆家嘴店)","lon":"121.50114938","lat":"31.239771358","category":"83","category_name":"云贵菜","address":"浦东新区陆家嘴环路1406-1414号2楼(近海洋水族馆)"},{"poiid":"B2094757D16FA3FE429D","title":"上海现代服务业联合会","lon":"121.49942873","lat":"31.242220555","category":"500","category_name":"未知分类","address":"上海市滨江大道2525弄5号A幢"},{"poiid":"B2094757D16AA0FB419D","title":"交通银行总行（交银金融大厦）","lon":"121.503625","lat":"31.238935","category":"150","category_name":"银行","address":"浦东新区银城中路188号交银金融大厦(近东园路)"},{"poiid":"B2094655D26DA2FE469E","title":"中欧陆家嘴国际金融研究院","lon":"121.50205","lat":"31.24154","category":"191","category_name":"科研机构","address":""},{"poiid":"B2094757D06AA6FA4192","title":"泰东路渡口","lon":"121.50572636","lat":"31.2436887252","category":"34","category_name":"港口码头","address":"上海浦东新区滨江大道"},{"poiid":"B2094757D069A1FE419A","title":"烹大师涮涮锅(陆家嘴店)","lon":"121.50086","lat":"31.23849","category":"86","category_name":"火锅店","address":"浦东新区陆家嘴环路1398号(近东方明珠)"},{"poiid":"B2094752D264A7FB4798","title":"isola上海国金中心IFC","lon":"121.501307","lat":"31.23788","category":"247","category_name":"餐饮美食","address":"上海国金中心"},{"poiid":"B2094757D06AA7FA459D","title":"三菱东京日联银行","lon":"121.504083","lat":"31.240775","category":"46","category_name":"楼宇","address":"上海汇亚大厦21楼"},{"poiid":"B2094757D065ABF4499A","title":"东方明珠观光走廊","lon":"121.4993702","lat":"31.239805224","category":"500","category_name":"未知分类","address":"上海陆家嘴"},{"poiid":"B209475DD56DA2FB4698","title":"泰亭泰国时尚餐厅","lon":"121.503379","lat":"31.239639","category":"247","category_name":"餐饮美食","address":"上海市 陆家嘴滨江大道2600号(近东园路)"},{"poiid":"B2094757D468ABFD4692","title":"壹萃NCE","lon":"121.50335","lat":"31.241352","category":"72","category_name":"广东菜","address":"浦东新区陆家嘴环路1318号星展银行大厦B103-01单元(近正大广场)"},{"poiid":"B2094751DA65A0F8419A","title":"东方明珠塔267m旋转餐厅","lon":"121.500593","lat":"31.241033","category":"247","category_name":"餐饮美食","address":null},{"poiid":"B2094753D66BA3F4489E","title":"纯意堂","lon":"121.500587","lat":"31.239398","category":"500","category_name":"未知分类","address":"上海市 上海市滨江大道2650号"},{"poiid":"B2094757DB69A6F84493","title":"hoF bar&brasserie","lon":"121.497146","lat":"31.241518","category":"247","category_name":"餐饮美食","address":"陆家嘴环路1318号"},{"poiid":"B2094757D065A0FE4492","title":"乔治咖喱屋","lon":"121.504274738","lat":"31.2413885379","category":"68","category_name":"快餐厅","address":"浦东新区陆家嘴环路1318号星展银行大厦B1楼3铺(汇亚大厦对面)"},{"poiid":"B2094757D064A7FE4193","title":"蘭•俏江南","lon":"121.50144302","lat":"31.237995465","category":"500","category_name":"未知分类","address":"上海世紀大道8號4樓"},{"poiid":"B2094757D065A4FD4293","title":"寶萊納餐廳","lon":"121.501686096","lat":"31.2423820496","category":"500","category_name":"未知分类","address":"中国上海市浦東新區濱江大道2967号"},{"poiid":"B2094654DA6FA7FD409D","title":"中国银行上海市分行","lon":"121.50331","lat":"31.23856","category":"150","category_name":"银行","address":"银城中路200号中银大厦8、18-21、29、46-48层"},{"poiid":"B2094654DB6BA4F54899","title":"东方明珠演艺剧场","lon":"121.49967","lat":"31.23988","category":"180","category_name":"剧场","address":"浦东新区浦东世纪大道1号东方明珠塔8号门(近二号线陆家嘴站)"},{"poiid":"B2094655D26BA1F4419A","title":"陆家嘴环路百步街(海洋水族馆)","lon":"121.50191","lat":"31.24017","category":"38","category_name":"公交车站","address":""},{"poiid":"B2094654DA6FA7FD4492","title":"东方明珠演艺剧场(东南门)","lon":"121.50099","lat":"31.2394","category":"180","category_name":"剧场","address":""},{"poiid":"B2094753D36EA2FD4299","title":"滨江3号","lon":"121.500732","lat":"31.24251","category":"47","category_name":"住宅区","address":"滨江大道2550号"},{"poiid":"B2094757D16DA5FC4198","title":"新建路隧道浦东入口","lon":"121.502019238","lat":"31.241861448","category":"500","category_name":"未知分类","address":"上海陆家嘴环路东城路口"},{"poiid":"B209475CD06BA3F8469E","title":"蒗葶泰式酒吧餐厅 滨江大道店","lon":"121.49945","lat":"31.24193","category":"99","category_name":"泰国／越南菜品餐厅","address":"陆家嘴滨江大道2600号(近东园路)"},{"poiid":"B209475CD169A0FB419C","title":"浦东新区滨江大道","lon":"121.501388","lat":"31.243095","category":"500","category_name":"未知分类","address":"上海市 浦东新区滨江大道"},{"poiid":"B2094757D465A5FF499B","title":"香啡缤 汇亚大厦店 Coffee Bean&Tea Leaf","lon":"121.504424054","lat":"31.241192793","category":"247","category_name":"餐饮美食","address":"陆家嘴环路1233号汇亚大厦1楼近东园路"},{"poiid":"B2094751D56DA3F8459B","title":"Red Passion","lon":"121.50439","lat":"31.24204","category":"247","category_name":"餐饮美食","address":"浦东新区浦东新区陆家嘴环路1288号新天哈瓦那大酒店30楼(近东方明珠)"},{"poiid":"B2094655D36CA6FA449C","title":"东园路陆家嘴环路","lon":"121.50331","lat":"31.24052","category":"38","category_name":"公交车站","address":""},{"poiid":"B2094757D06BA0FC4493","title":"清云居护理中心","lon":"121.50149208","lat":"31.242765474","category":"500","category_name":"未知分类","address":"浦东新区银城中路68号时代金融中心4楼(近陆家嘴环路)"},{"poiid":"B2094750D66AA0FB469A","title":"上海昆虫馆","lon":"121.501121","lat":"31.243379","category":"500","category_name":"未知分类","address":"陆家嘴丰和路1号"},{"poiid":"B2094752D06AA4FE439F","title":"东方明珠","lon":"121.501007","lat":"31.242494","category":"250","category_name":"公园户外","address":"黄浦江外滩"},{"poiid":"B2094757D568AAFA459A","title":"明珠公园(东门)","lon":"121.501831","lat":"31.241407","category":"680","category_name":"楼宇机构","address":"中国上海市浦东新区东园路"},{"poiid":"B2094757D06BAAFA489E","title":"欧米亚咖啡餐厅","lon":"121.501632","lat":"31.238073","category":"65","category_name":"咖啡厅","address":"上海陆家嘴"},{"poiid":"B2094757D66BA1FC469A","title":"哈瓦那浦江自助餐厅 Gran Melia Hotel","lon":"121.502079154","lat":"31.239879593","category":"268","category_name":"自助","address":"陆家嘴环路1288号近上海海洋水族馆"},{"poiid":"B2094757D66BABF94698","title":"哈瓦那意大利餐厅 Acqua","lon":"121.502070054","lat":"31.239887293","category":"76","category_name":"上海菜","address":"陆家嘴环路1288号近上海海洋水族馆"},{"poiid":"B2094757D165A5F9499C","title":"陆家嘴海底世界","lon":"121.502314738","lat":"31.2408035255","category":"500","category_name":"未知分类","address":"上海市"},{"poiid":"B209475CD764A2FA499A","title":"小杨生煎 东方明珠店","lon":"121.501","lat":"31.2401","category":"68","category_name":"快餐厅","address":"陆家嘴环路1406-1408号"},{"poiid":"B2094751DA6BA2F4439A","title":"Grand Hyatt Shanghai","lon":"121.5029","lat":"31.24099","category":"500","category_name":"未知分类","address":null},{"poiid":"B2094750DA6EA1FF4793","title":"金茂九重天酒吧","lon":"121.498138","lat":"31.240051","category":"248","category_name":"生活娱乐","address":"浦东新区世纪大道88号"},{"poiid":"B2094752DB6FAAF8489B","title":"蜀记麻辣香锅","lon":"121.499585","lat":"31.240628","category":"247","category_name":"餐饮美食","address":"上海市 正大广场B2食代馆"},{"poiid":"B209475CD16CA6F8409B","title":"hoF Wine Bar & Brasserie 陆家嘴店 HOF","lon":"121.50342","lat":"31.24202","category":"172","category_name":"酒吧","address":"陆家嘴环路1318号星展银行大厦下沉式广场8号商铺(近东园路)"},{"poiid":"B2094750DB6CA5F8429A","title":"上海摩休敦纳韩国年糕料理店","lon":"121.499038","lat":"31.241668","category":"247","category_name":"餐饮美食","address":null},{"poiid":"B2094654DA6FA7FD459B","title":"陆家嘴·景庭","lon":"121.50129","lat":"31.23968","category":"116","category_name":"特色商业街","address":""},{"poiid":"B2094757D065A3F5479A","title":"上海国际新闻中心","lon":"121.50058","lat":"31.238877","category":"500","category_name":"未知分类","address":"上海浦东新区世纪大道1号8号门"},{"poiid":"B2094757D06AA6FB489B","title":"7-ELEVEN(景庭店)","lon":"121.501425","lat":"31.240125","category":"117","category_name":"便民商店/便利店","address":"浦东新区陆家嘴环路1396号(近东方明珠/上海海洋水族馆)"},{"poiid":"B2094757D16DA5F5469C","title":"DIESEL (国金中心店)","lon":"121.50080905","lat":"31.24400486","category":"500","category_name":"未知分类","address":"浦东新区世纪大道8号国金中心商场B1楼(近东泰路)"},{"poiid":"B2094757D16FA5FF4393","title":"真锅咖啡厅(陆家嘴店)","lon":"121.50144","lat":"31.23936","category":"65","category_name":"咖啡厅","address":"浦东新区陆家嘴环路1396号陆家嘴景庭2楼(近东方明珠)"},{"poiid":"B2094753D66BA2FA489C","title":"星美电影院","lon":"121.502426","lat":"31.239356","category":"178","category_name":"电影院","address":"上海市 正大广场"},{"poiid":"B2094757D16DA4F8449E","title":"陆家嘴环路丰和路","lon":"121.50081198","lat":"31.238603398","category":"38","category_name":"公交车站","address":"上海陆家嘴环路丰和路"},{"poiid":"B2094752D36DA1FD439B","title":"上海地铁二号线（陆家嘴站）","lon":"121.50137761383053","lat":"31.238475760747324","category":"36","category_name":"地铁站","address":"浦东新区世纪大道近陆家嘴环路"},{"poiid":"B2094655D26FABFF429E","title":"招商银行上海大厦","lon":"121.50601","lat":"31.24282","category":"46","category_name":"楼宇","address":"浦东南路26临"},{"poiid":"B2094655D26EA6FA4092","title":"银行家俱乐部 Bankers Club","lon":"121.50386799125","lat":"31.238089387232","category":"247","category_name":"餐饮美食","address":"浦东新区中银大厦6楼"},{"poiid":"B2094757D169AAFD489B","title":"普华永道永道培训中心","lon":"121.50277262","lat":"31.2405621","category":"253","category_name":"校园生活","address":"上海普华永道培训中心"},{"poiid":"B2094655D36CA6FA449D","title":"东园路银城中路","lon":"121.50375","lat":"31.23998","category":"38","category_name":"公交车站","address":""},{"poiid":"B2094757D069A2FD4492","title":"全家便利(星展大厦店)","lon":"121.504068","lat":"31.240765","category":"117","category_name":"便民商店/便利店","address":"上海浦东新区陆家嘴环路1318号星展银行大厦1楼"},{"poiid":"B2094655D26BA1F4469E","title":"星辰银行","lon":"121.50335","lat":"31.24218","category":"150","category_name":"银行","address":""},{"poiid":"B2094757D66CA5F8419D","title":"泰同栈渡口","lon":"121.505786388","lat":"31.2438970109","category":"34","category_name":"港口码头","address":"上海市浦东新区浦东南路1号"},{"poiid":"B2094750DA68AAF5409F","title":"平安銀行上海分行","lon":"121.501167","lat":"31.239202","category":"150","category_name":"银行","address":"浦东新区陆家嘴环路1333号"},{"poiid":"B2094752D76FA1FE439E","title":"卢湾区泰康路","lon":"121.505527","lat":"31.242306","category":"116","category_name":"特色商业街","address":"上海市 田子坊248弄23号-9"},{"poiid":"B2094753DA6BA6FD4392","title":"凯宾斯基大酒店","lon":"121.504531","lat":"31.242616","category":"500","category_name":"未知分类","address":"上海市 陆家嘴环路1288号"},{"poiid":"B2094655D26FAAF8489D","title":"港务大厦","lon":"121.504","lat":"31.2459","category":"46","category_name":"楼宇","address":"丰和路1号"},{"poiid":"B2094654DB6BA4F5499A","title":"日本三菱东京日联银行股份有限公司上海分行","lon":"121.50415","lat":"31.24097","category":"150","category_name":"银行","address":"陆家嘴环路1233号汇亚大厦2303"},{"poiid":"B2094654DA6FA7FD439F","title":"新加坡星展银行上海分行","lon":"121.50415","lat":"31.24097","category":"150","category_name":"银行","address":"陆家嘴环路1233号汇亚大厦103、2906、28F-29F"},{"poiid":"B2094655D265A7FF439A","title":"艺术茶楼","lon":"121.49863","lat":"31.24032","category":"66","category_name":"茶艺馆","address":"丰和路1号粥天粥地大酒店"},{"poiid":"B2094750D36FA0FF439D","title":"星展银行","lon":"121.500732","lat":"31.239715","category":"150","category_name":"银行","address":null},{"poiid":"B2094750DB69A1FB459D","title":"上海半岛酒店","lon":"121.497169","lat":"31.241409","category":"500","category_name":"未知分类","address":"中山东一路32号"},{"poiid":"B2094752D36EA2FA4298","title":"中国平安陆家嘴金融大厦","lon":"121.498453","lat":"31.241606","category":"252","category_name":"楼宇机构","address":"陆家嘴环路1333号"},{"poiid":"B2094757D16AA3FE459D","title":"Albero","lon":"121.504721998","lat":"31.2418465477","category":"500","category_name":"未知分类","address":"上海新天哈瓦酒店2樓"},{"poiid":"B2094757D16CAAFB439D","title":"美国银行","lon":"121.50415039","lat":"31.240966796","category":"150","category_name":"银行","address":"浦东新区陆家嘴环路1233号汇亚大厦17楼"},{"poiid":"B2094654DA6FA7FD419A","title":"中国太平洋保险(集团)股份有限公司","lon":"121.50402","lat":"31.23916","category":"219","category_name":"其他","address":"银城中路188交银金融大厦"},{"poiid":"B2094655D26FAAF84892","title":"港务大厦西楼","lon":"121.4979","lat":"31.24032","category":"46","category_name":"楼宇","address":""},{"poiid":"B209475CD265ABF5479C","title":"老上海8号餐厅  Old Shanghai NO8 Restaurant","lon":"121.499655054","lat":"31.239509793","category":"76","category_name":"上海菜","address":"世纪大道1号东方明珠8号门国际新闻中心1楼近陆家嘴环路"},{"poiid":"B209475DD368A7F4469E","title":"纯意堂","lon":"121.498672","lat":"31.241283","category":"500","category_name":"未知分类","address":"上海市 浦东新区滨江大道2650号"},{"poiid":"B2094757D16DA1FC4993","title":"泛亚班拿","lon":"121.50376855","lat":"31.240673922","category":"500","category_name":"未知分类","address":"上海陆家嘴环路1233号5楼6楼"},{"poiid":"B2094654DB6AA3FB499B","title":"世纪金盆大酒店","lon":"121.49847","lat":"31.24032","category":"88","category_name":"海鲜酒楼","address":"丰和路1"},{"poiid":"B2094757D76CA3F8419B","title":"哈瓦那酒吧","lon":"121.50455","lat":"31.24202","category":"260","category_name":"其他","address":"浦东新区陆家嘴环路1288号新天哈瓦那大酒店2楼(近海族馆)"},{"poiid":"B2094757D66EA5F8459A","title":"雲南美食園","lon":"121.500679038","lat":"31.2378972635","category":"86","category_name":"火锅店","address":"上海正大廣場"},{"poiid":"B2094757D16AA2FC4599","title":"Patisserie by Citysuper","lon":"121.49982153","lat":"31.239386195","category":"118","category_name":"超级市场","address":"上海世纪大道8号国金中心LG2 Citysuper"},{"poiid":"B2094752D76EA6FB439F","title":"陆家嘴 招商局大厦","lon":"121.503587","lat":"31.240332","category":"252","category_name":"楼宇机构","address":"上海市浦东新区陆家嘴东路161号招商局大厦"},{"poiid":"B2094757D16EA0F84993","title":"国金中心汇丰银行大楼23楼会议室层","lon":"121.50123443","lat":"31.238291871","category":"500","category_name":"未知分类","address":"世纪大道8号上海国金中心汇丰银行大楼23楼"},{"poiid":"B2094753D56FABF94893","title":"花隐怀石料理","lon":"121.500999","lat":"31.238805","category":"247","category_name":"餐饮美食","address":"上海市 肇嘉浜路1111号美罗城8楼"},{"poiid":"B209475CD569A3FB4193","title":"拉蒂娜(Latina)陆家嘴店","lon":"121.50351","lat":"31.238233","category":"256","category_name":"外国餐厅","address":"上海市 上海市陆家嘴环路165号2楼"},{"poiid":"B2094752DA69A4FF459A","title":"上海环球金融中心100F","lon":"121.501784","lat":"31.23861","category":"500","category_name":"未知分类","address":"上海市 上海陆家嘴z4-1号"},{"poiid":"B2094655D26CABFD469E","title":"星展银行(中国)上海分行","lon":"121.50415","lat":"31.24096","category":"150","category_name":"银行","address":"陆家嘴环路1233号汇亚大厦2803、2805-2808、2903-2905、2907-2908"},{"poiid":"B2094654DA6FA7FD439E","title":"路透社上海记者站","lon":"121.50415","lat":"31.24097","category":"252","category_name":"楼宇机构","address":"陆家嘴环路1233号汇亚大厦3004"},{"poiid":"B2094757D16FA0FC4593","title":"金贸大厦56楼意庐Cucina","lon":"121.5048173","lat":"31.24449427","category":"500","category_name":"未知分类","address":"上海世纪大道88号"},{"poiid":"B2094757D66DA7FA409E","title":"哈根達斯 Haagen-Dazs","lon":"121.50565338","lat":"31.243934631","category":"263","category_name":"公司","address":"中国上海市浦東新區濱江大道1号"},{"poiid":"B2094654DA69A1F5489F","title":"黄金大厦","lon":"121.50547","lat":"31.24047","category":"46","category_name":"楼宇","address":"银城中路150临"},{"poiid":"B2094757D169A1F54899","title":"McCafé(国金中心店)","lon":"121.500628139","lat":"31.2383289039","category":"65","category_name":"咖啡厅","address":"上海国金中心B1"},{"poiid":"B2094752D26AA0FD439B","title":"陆家嘴中融碧玉蓝天大厦","lon":"121.502538","lat":"31.244339","category":"627","category_name":"一般地点标志","address":"银城中路8号"},{"poiid":"B2094655D26DA7F84899","title":"汇亚大厦(北二门)","lon":"121.50378","lat":"31.24092","category":"656","category_name":"大门","address":"陆家嘴环路1233"},{"poiid":"B2094753DB68A1F8459E","title":"丽兹卡尔顿酒店Flair Bar","lon":"121.500961","lat":"31.238937","category":"500","category_name":"未知分类","address":"上海市 陆家嘴国金中心"},{"poiid":"B2094757D169A3F94599","title":"东方明珠营销中心","lon":"121.50100333","lat":"31.239298493","category":"500","category_name":"未知分类","address":"上海世纪大道1号东方明珠8号门"},{"poiid":"B2094654DA6FA7FD4392","title":"荷兰银行","lon":"121.50415","lat":"31.24096","category":"150","category_name":"银行","address":"陆家嘴环路1233"},{"poiid":"B2094757DA6EAAF4419B","title":"东方明珠电视塔外广场-零米广场","lon":"121.498913999998","lat":"31.2391449999998","category":"250","category_name":"公园户外","address":"浦东新区世纪大道1号"},{"poiid":"B2094655D26BA1F4409F","title":"陆家嘴环路丰和路(东方明珠2号门)","lon":"121.49998","lat":"31.23851","category":"38","category_name":"公交车站","address":""},{"poiid":"B2094655D26BA7F54599","title":"东方明珠新闻中心","lon":"121.50084","lat":"31.23941","category":"252","category_name":"楼宇机构","address":""},{"poiid":"B2094757DB69A0FD409C","title":"菲比酒吧","lon":"121.499958","lat":"31.239824","category":"248","category_name":"生活娱乐","address":"衡山路10号"},{"poiid":"B2094752D665A0FA429E","title":"古意","lon":"121.499593","lat":"31.238625","category":"247","category_name":"餐饮美食","address":"国金商场LG1"},{"poiid":"B2094753D66AA5F4429C","title":"苏荷国际青年旅社（外滩店）","lon":"121.498199","lat":"31.244382","category":"500","category_name":"未知分类","address":"上海市 上海市虹口区大名路239号"},{"poiid":"B2094757D16AA7FE459C","title":"宜芝多(静安寺)","lon":"121.498605538","lat":"31.2444066023","category":"500","category_name":"未知分类","address":"上海静安寺"},{"poiid":"B2094654DA6FA7FD4199","title":"Deutsche Bank AG Shanghai Branch","lon":"121.50415","lat":"31.24096","category":"263","category_name":"公司","address":"陆家嘴环路1233号汇亚大厦3305-3308"},{"poiid":"B2094655D26BA7F84492","title":"沪光电影院","lon":"121.500894","lat":"31.238213","category":"178","category_name":"电影院","address":"延安东路725号"},{"poiid":"B2094757D06BA6F8409D","title":"Sanrio特别珍藏展&quot;草莓之日&quot;HelloKitty主题馆","lon":"121.502040638","lat":"31.2384411751","category":"182","category_name":"博物馆","address":"上海市浦东新区陆家嘴西路168号正大广场3楼"},{"poiid":"B2094757D16AABF44593","title":"罗森(上海银行大厦店)","lon":"121.504209","lat":"31.239541","category":"117","category_name":"便民商店/便利店","address":"浦东新区银城中路168号上海银行大厦B1楼(近东园路)"},{"poiid":"B2094654DA6FA7FD419E","title":"达索析统(上海)信息技术有限公司","lon":"121.50415","lat":"31.24097","category":"263","category_name":"公司","address":"陆家嘴环路1233号汇亚大厦806-808"},{"poiid":"B2094655D26DA7F8469E","title":"上海沃歌斯餐厅有限公司","lon":"121.50415","lat":"31.24097","category":"263","category_name":"公司","address":"陆家嘴环路1233号汇亚大厦102"},{"poiid":"B2094654DA6FA7FD439D","title":"中国国际金融有限公司","lon":"121.50415","lat":"31.24097","category":"263","category_name":"公司","address":"银城中路200号中银大厦2802"},{"poiid":"B2094654DB6BA4F54892","title":"上海香啡缤餐饮有限公司","lon":"121.50415","lat":"31.24096","category":"263","category_name":"公司","address":"陆家嘴环路1233号汇亚大厦1楼近东园路"},{"poiid":"B2094654DA6FA7FD429C","title":"星辰亚洲融资有限公司上海代表处","lon":"121.50415","lat":"31.24096","category":"263","category_name":"公司","address":"陆家嘴环路1233号汇亚大厦2804B"},{"poiid":"B2094757D16EA4FB489D","title":"爱茜茜里(正大店)","lon":"121.50192","lat":"31.23782","category":"247","category_name":"餐饮美食","address":"上海浦东新区陆家嘴西路168号正大广场3楼(近东方明珠)  "},{"poiid":"B2094757D66EA7F4469E","title":"795终点站","lon":"121.501930838","lat":"31.2379298642","category":"38","category_name":"公交车站","address":"上海陆家嘴公交枢纽"},{"poiid":"B2094655D265AAFC4592","title":"第一食品商店东方明珠店","lon":"121.49905","lat":"31.23927","category":"117","category_name":"便民商店/便利店","address":"浦东新区世纪大道1号东方明珠电视塔零米大厅(近二号线陆家嘴站)"},{"poiid":"B2094757D16DA3FD4992","title":"sky 94","lon":"121.499641418","lat":"31.2388286591","category":"260","category_name":"其他","address":"浦东新区世纪大道100号环球金融中心观光厅94楼(近东泰路)"},{"poiid":"B2094757D06BA1FB439A","title":"上海市杨浦区大连路1190-1号全家便利","lon":"121.50366584","lat":"31.245027063","category":"500","category_name":"未知分类","address":"上海市杨浦区大连路1190-1号"},{"poiid":"B2094655D26BA3FA419E","title":"凯尔齿科","lon":"121.50331","lat":"31.23856","category":"162","category_name":"医院","address":"浦东新区银城中路200号中银大厦306室(东园路银城中路)"},{"poiid":"B209475CD76DA0F4459B","title":"The Peninsula","lon":"121.497138","lat":"31.241388","category":"500","category_name":"未知分类","address":"上海市 上海外滩半岛酒店"},{"poiid":"B2094757D169A5F9409C","title":"公交85","lon":"121.505909738","lat":"31.2412695354","category":"500","category_name":"未知分类","address":"上海陆家嘴----长岛路"},{"poiid":"B2094753D269A4FD419F","title":"上海国际会议中心","lon":"121.500717","lat":"31.238569","category":"500","category_name":"未知分类","address":"上海市 上海浦东新区陆家嘴"},{"poiid":"B2094655D26FA4FD4999","title":"东方明珠(二号门)","lon":"121.49975","lat":"31.2389","category":"680","category_name":"楼宇机构","address":""},{"poiid":"B2094752DA69A5FA449D","title":"上海环球金融中心100层","lon":"121.501792","lat":"31.238614","category":"500","category_name":"未知分类","address":"上海市 上海市陆家嘴z4-1号"},{"poiid":"B2094757D66CA4F84698","title":"高乐雅咖啡","lon":"121.50324","lat":"31.24039","category":"260","category_name":"其他","address":"浦东新区银城中路68号时代金融大厦(近陆家嘴环路)"},{"poiid":"B2094757D66DA7FC4193","title":"Citi tower","lon":"121.499603","lat":"31.239509","category":"260","category_name":"其他","address":"浦东新区世纪大道1号东方明珠电视塔零米大厅(近地铁2号线陆家嘴站)"},{"poiid":"B2094752D36BABFB4299","title":"国泰君安食堂","lon":"121.50421","lat":"31.23954","category":"76","category_name":"上海菜","address":"浦东新区银城中路168号上海银行大厦B1楼(近东园路)"},{"poiid":"B2094655D26BAAFE459A","title":"浦东新区因公出国(境)人员安全防范宣教中心","lon":"121.49846","lat":"31.24035","category":"190","category_name":"培训机构","address":"港务大厦东楼3层"},{"poiid":"B2094752D16EA3F8459A","title":"上海国金中心ifc1美厨汇","lon":"121.50067","lat":"31.238021","category":"247","category_name":"餐饮美食","address":null},{"poiid":"B2094654DB6BA4F54999","title":"东方明珠国际旅行社","lon":"121.50092","lat":"31.23933","category":"248","category_name":"生活娱乐","address":"黄浦区九江路584号6楼"},{"poiid":"B2094757D16AA6FA4893","title":"浦发银行控江支行","lon":"121.498998238","lat":"31.2394799972","category":"150","category_name":"银行","address":"上海杨浦区控江路1669号"},{"poiid":"B2094655D26DA1F54099","title":"日本东京三菱日联银行","lon":"121.50469","lat":"31.2398","category":"150","category_name":"银行","address":"银城中路168号上海银行大厦20层"},{"poiid":"B2094752D46CA1F4419C","title":"金茂大厦拉图餐厅","lon":"121.503595","lat":"31.238644","category":"500","category_name":"未知分类","address":null},{"poiid":"B2094654DA6FA7FC499F","title":"上海新世界进修学校","lon":"121.50331","lat":"31.23856","category":"53","category_name":"成人教育","address":"银城中路200号中银大厦3501"},{"poiid":"B2094654DB65A6FB499A","title":"东亚银行(中国)上海分行","lon":"121.50331","lat":"31.23856","category":"150","category_name":"银行","address":"银城中路200号中银大厦1-2、37-38层"},{"poiid":"B2094757D06AABF8469B","title":"上行线(陆家嘴店)","lon":"121.50164188","lat":"31.238098941","category":"125","category_name":"书店","address":"上海浦东新区地铁二号线陆家嘴站"},{"poiid":"B2094655D26DAAFA459B","title":"汇亚大厦(北一门)","lon":"121.50429","lat":"31.24141","category":"656","category_name":"大门","address":""},{"poiid":"B2094757D16AA6F44399","title":"交通银行","lon":"121.504264","lat":"31.239142","category":"150","category_name":"银行","address":"上海钦江路333号42号楼"},{"poiid":"B2094757D16FA3FA469A","title":"火车票代售点(陆家嘴店)","lon":"121.50152671","lat":"31.239369495","category":"260","category_name":"其他","address":"浦东新区陆家嘴环路1396号(东城路陆家嘴环路)"},{"poiid":"B2094757D66EA0FB429A","title":"上海五角场汽车销售服务有限公司(上海大众4S)","lon":"121.501275738","lat":"31.2383204725","category":"500","category_name":"未知分类","address":"杨浦区上海市杨浦区国和路800号"},{"poiid":"B2094751D469A5F54193","title":"浦江游轮","lon":"121.497939","lat":"31.240663","category":"251","category_name":"出行住宿","address":"黄浦江"},{"poiid":"B2094654DA6FA7FC489F","title":"中国人保资产管理有限公司","lon":"121.50331","lat":"31.23856","category":"263","category_name":"公司","address":"银城中路200号中银大厦10层"},{"poiid":"B2094654DA6FA7FC489A","title":"欧姆龙贸易(上海)有限公司","lon":"121.50331","lat":"31.23856","category":"263","category_name":"公司","address":"银城中路200号中银大厦2209"},{"poiid":"B2094757D56EA5F5409D","title":"陆家嘴站3号口(地铁2号线)","lon":"121.502965","lat":"31.2382","category":"251","category_name":"出行住宿","address":"梅园新村"},{"poiid":"B2094654DA6FA7FD4593","title":"上海东方明珠数字广播电视研究发展中心","lon":"121.49905","lat":"31.23927","category":"191","category_name":"科研机构","address":"世纪大道1"},{"poiid":"B2094654DA6FA7FC4892","title":"上海浦东伊藤家餐饮有限公司","lon":"121.50331","lat":"31.23856","category":"263","category_name":"公司","address":"银城中路200号中银大厦3层"},{"poiid":"B2094654DA6FA7FC4799","title":"荷兰托克有限公司上海代表处","lon":"121.50331","lat":"31.23856","category":"263","category_name":"公司","address":"银城中路200号中银大厦2604"},{"poiid":"B2094654DA6FA7FC4793","title":"三井化学(上海)有限公司","lon":"121.50331","lat":"31.23856","category":"263","category_name":"公司","address":"银城中路200号中银大厦2308"},{"poiid":"B2094757D568A4FE409B","title":"张小宝豆制品专卖丰和路店","lon":"121.49929","lat":"31.23862611","category":"249","category_name":"购物服务","address":"丰和路156号"},{"poiid":"B2094757D66DA0FB4898","title":"balmain","lon":"121.501152738","lat":"31.2379424645","category":"500","category_name":"未知分类","address":"上海IFC2楼"},{"poiid":"B2094757D568A4F9499C","title":"Cookies(浦东店)","lon":"121.4995189","lat":"31.23842611","category":"249","category_name":"购物服务","address":"浦东新区丰和路168号(近正大广场)"},{"poiid":"B2094654DA69A1F5469E","title":"国华人寿股份有限公司","lon":"121.5047","lat":"31.2398","category":"219","category_name":"其他","address":"银城中路168号上海银行大厦23层"},{"poiid":"B2094655D26DA7F8449D","title":"中银大厦(北门)","lon":"121.50378","lat":"31.23857","category":"656","category_name":"大门","address":"银城中路200"},{"poiid":"B2094757D66DA3FA4899","title":"机场大道66号","lon":"121.49827","lat":"31.240244","category":"260","category_name":"其他","address":"上海东航综合大楼"},{"poiid":"B2094757DA69A3F4469A","title":"诺亚财富","lon":"121.50331","lat":"31.23856","category":"638","category_name":"金融服务类公司","address":"上海市杨浦区秦皇岛路32号东码头园区C栋"},{"poiid":"B2094757D66CA7FD4398","title":"草莓之日-sanrio特别珍藏版","lon":"121.500809638","lat":"31.2378969635","category":"249","category_name":"购物服务","address":null},{"poiid":"B2094655D26DABF9489D","title":"中银大厦(北二门)","lon":"121.50311","lat":"31.23899","category":"656","category_name":"大门","address":""}]