[{"poiid":"B2094757D06EABF54592","title":"行知路地铁站","lon":"121.421869","lat":"31.284585","category":"36","category_name":"地铁站","address":"上海轨道交通 七号线 轨交行知路站 7"},{"poiid":"B2094654D465A7FF439D","title":"九百购物中心","lon":"121.42142","lat":"31.28039","category":"119","category_name":"商场","address":"宝山区华灵路1051-1067号(新沪路口)"},{"poiid":"B2094757DA6EA4F5429E","title":"808Kpub（华灵店）","lon":"121.421585000002","lat":"31.2801280000001","category":"248","category_name":"生活娱乐","address":"华灵路1090号3楼"},{"poiid":"B2094757D06FA7FD429D","title":"上海大饭堂","lon":"121.42330169","lat":"31.276973724","category":"76","category_name":"上海菜","address":"宝山区华灵路685号(近大华三路)"},{"poiid":"B2094757D06FA4FE479F","title":"大华路行知路","lon":"121.41680145","lat":"31.28322792","category":"500","category_name":"未知分类","address":"上海大华路"},{"poiid":"B2094757D06FA7F44492","title":"买卖提红玫瑰烤涮龙虾馆(大华店)","lon":"121.42348","lat":"31.27862","category":"68","category_name":"快餐厅","address":"宝山区华灵路845号(新沪路口)"},{"poiid":"B2094757D66BA4FF4199","title":"肯德基 大华店 KFC","lon":"121.42147377743","lat":"31.279639567314","category":"68","category_name":"快餐厅","address":"宝山区华灵路1051号(近九百购物中心)"},{"poiid":"B2094757D06FA3FD4198","title":"大润发(华灵店)","lon":"121.42163","lat":"31.27986","category":"118","category_name":"超级市场","address":"宝山区华灵路1051-1067号(新沪路口)"},{"poiid":"B2094654DB6AABF44298","title":"文华苑","lon":"121.4175","lat":"31.27762","category":"47","category_name":"住宅区","address":"大华路文华苑901弄"},{"poiid":"B2094654D465A7FE439B","title":"大华铂金华府","lon":"121.421","lat":"31.2803","category":"47","category_name":"住宅区","address":"宝山区大华二路201号(大华路口)"},{"poiid":"B2094757D06FAAFA419B","title":"阿拉宁波菜 (沪太店)","lon":"121.422485352","lat":"31.2841529846","category":"75","category_name":"浙江菜","address":"宝山区沪太路1555号(近行知路)"},{"poiid":"B2094750D26FA0F9469E","title":"大华婚礼中心","lon":"121.421559","lat":"31.279701","category":"247","category_name":"餐饮美食","address":"华灵路1088号4楼"},{"poiid":"B2094655D26AAAFB489A","title":"桐春金农庄","lon":"121.42136","lat":"31.28013","category":"87","category_name":"特色／地方风味餐厅","address":"宝山区华灵路908号(九百购物中心对面)"},{"poiid":"B2094757D569A2FC439F","title":"大华文华苑","lon":"121.420585","lat":"31.27765611","category":"47","category_name":"住宅区","address":"上海市宝山区新沪路1099弄"},{"poiid":"B2094655D26FA1FA4593","title":"文华苑北门(华灵路)","lon":"121.4183","lat":"31.27927","category":"47","category_name":"住宅区","address":"华灵路1180弄1-65号"},{"poiid":"B2094654D465A7FF409F","title":"绍兴饭店 大华店","lon":"121.42000800399","lat":"31.279306218168","category":"75","category_name":"浙江菜","address":"宝山区华灵路1088号(近新沪路)"},{"poiid":"B2094757D068AAF94898","title":"家园春小吃","lon":"121.41557","lat":"31.27945","category":"76","category_name":"上海菜","address":"宝山区华灵路1311号(近大华路)"},{"poiid":"B209475DD06DA6F94599","title":"很久以前只是家串店","lon":"121.418777","lat":"31.27577","category":"247","category_name":"餐饮美食","address":"上海市 大华三路81号"},{"poiid":"B2094655D36CA7FE4192","title":"沪太路余庆桥","lon":"121.42348","lat":"31.28192","category":"38","category_name":"公交车站","address":""},{"poiid":"B2094757D069A6F4439C","title":"苏宁电器(大华店)","lon":"121.420915","lat":"31.279468","category":"138","category_name":"家电电子卖场","address":"上海宝山区华灵路1090号"},{"poiid":"B2094757D464A5F9439F","title":"大唐人家面馆 华灵路店","lon":"121.422361054","lat":"31.279434793","category":"247","category_name":"餐饮美食","address":"宝山区华灵路845号(近联华超市)"},{"poiid":"B2094654D465A7F94392","title":"复星花园","lon":"121.41967","lat":"31.285856","category":"47","category_name":"住宅区","address":"上海市宝山区行知路50弄"},{"poiid":"B2094757D069A1F44199","title":"泰煌鸡(华灵店)","lon":"121.42322","lat":"31.27839","category":"68","category_name":"快餐厅","address":"宝山区华灵路841号(近新沪路)"},{"poiid":"B2094654DB6AABF44292","title":"苏宁电器(华灵路店)","lon":"121.42092","lat":"31.27947","category":"138","category_name":"家电电子卖场","address":"上海市宝山区华灵路1090号"},{"poiid":"B2094654D465A7FF4499","title":"大场镇华欣苑","lon":"121.41926","lat":"31.28127","category":"47","category_name":"住宅区","address":"华灵西路1225弄"},{"poiid":"B2094654D465A7FC4598","title":"华龙特色牛肉面馆","lon":"121.42292","lat":"31.27742","category":"257","category_name":"中餐厅","address":""},{"poiid":"B2094655D26AA7FC469A","title":"如家快捷酒店沪太路店","lon":"121.42498","lat":"31.27913","category":"247","category_name":"餐饮美食","address":"上海市闸北区沪太路1250号(近晋城路)"},{"poiid":"B2094757D06BA6FE4793","title":"老绍兴三黄鸡酒家(行知路店)","lon":"121.42112","lat":"31.28424","category":"76","category_name":"上海菜","address":"宝山区行知路42号(近沪太路)"},{"poiid":"B2094757D069A6F4429E","title":"全家便利(新沪路店)","lon":"121.42191","lat":"31.2807","category":"117","category_name":"便民商店/便利店","address":"上海宝山区新沪路1130号(近九百购物中心)  "},{"poiid":"B2094654D465A7FC479A","title":"永琪美容美发(华灵路)","lon":"121.42208","lat":"31.27927","category":"148","category_name":"美容美发店","address":"宝山区华灵路908号(新沪路口)"},{"poiid":"B209475DD065A6F5449A","title":"韩国街","lon":"121.422225","lat":"31.279064","category":"500","category_name":"未知分类","address":"上海市 上海市闵行区虹泉路"},{"poiid":"B2094757D16AA4FE4998","title":"万荣小区篮球场","lon":"121.42102695","lat":"31.280336257","category":"220","category_name":"运动场所","address":"上海市灵石路737弄"},{"poiid":"B2094757D16EA6F54592","title":"小蝌蚪音乐幼儿园","lon":"121.41907985","lat":"31.279939049","category":"57","category_name":"幼儿园","address":"宝山区华灵路811号"},{"poiid":"B2094654D465A7FF4498","title":"新华书店(新沪路)","lon":"121.4219","lat":"31.28096","category":"125","category_name":"书店","address":"宝山区新沪路1139-1289号"},{"poiid":"B2094655D265AAF9419C","title":"多普达苏宁大华店","lon":"121.42117","lat":"31.2794","category":"138","category_name":"家电电子卖场","address":"华灵路1090号"},{"poiid":"B2094654D465A7FF449E","title":"大场镇华欣苑(边门)","lon":"121.4221","lat":"31.28149","category":"47","category_name":"住宅区","address":"华灵路1225弄"},{"poiid":"B2094654D465A7FF4392","title":"交通银行上海分行大华支行","lon":"121.4218","lat":"31.28069","category":"150","category_name":"银行","address":"宝山区新沪路1139号(近华灵路)"},{"poiid":"B2094757D169A1FF4598","title":"coco都可茶饮(九百店)","lon":"121.42124095","lat":"31.2799512501","category":"500","category_name":"未知分类","address":"上海市宝山区大华路"},{"poiid":"B2094757D065A1FA489D","title":"行知路251弄","lon":"121.41813349","lat":"31.2814276983","category":"47","category_name":"住宅区","address":"上海宝山区行知路251弄"},{"poiid":"B2094757D568AAFA4799","title":"大华公园","lon":"121.4228819","lat":"31.27721389","category":"196","category_name":"公园","address":"大华公园位于宝山上海宝山华灵路698号"},{"poiid":"B2094654D465A7FF409C","title":"中国农业银行宝山区大华支行","lon":"121.42126","lat":"31.27932","category":"150","category_name":"银行","address":"宝山区华灵路1088号(华灵路新沪路)"},{"poiid":"B2094654D465A7F9459B","title":"行知实验中学","lon":"121.41858","lat":"31.28473","category":"55","category_name":"中学","address":"宝山区行知路180号"},{"poiid":"B2094654DB6AABF4429C","title":"文华苑(东一门)","lon":"121.42059","lat":"31.27765","category":"47","category_name":"住宅区","address":"新沪路1099弄1-70号"},{"poiid":"B2094655D26AA6FC4399","title":"永乐生活电器沪太路店","lon":"121.42293","lat":"31.28206","category":"247","category_name":"餐饮美食","address":"宝山区沪太路15981608号(近新沪路)"},{"poiid":"B2094753D768A1FC499D","title":"CGV星星国际电影城大华店","lon":"121.421752","lat":"31.280109","category":"500","category_name":"未知分类","address":"上海市 地 址：上海市宝山区大华路348号大华虎城·嘉年华3楼"},{"poiid":"B2094655D26FA0FE409A","title":"永乐生活电器连锁卖场沪太路店","lon":"121.42281","lat":"31.28201","category":"138","category_name":"家电电子卖场","address":"沪太路1598识别"},{"poiid":"B2094654DB6AABF4439C","title":"国美电器(新沪路店)","lon":"121.42217","lat":"31.28293","category":"138","category_name":"家电电子卖场","address":"宝山区沪太路1618号九百家居1楼(近新沪路)"},{"poiid":"B2094757D16BA7FE4892","title":"米乐多","lon":"121.422158","lat":"31.279728","category":"257","category_name":"中餐厅","address":"宝山区华灵路847号(近新沪路)"},{"poiid":"B2094654D465A7FC4298","title":"永乐生活电器(新沪路)","lon":"121.42262","lat":"31.28194","category":"138","category_name":"家电电子卖场","address":""},{"poiid":"B2094757D068A5F8449B","title":"远景佳苑2期","lon":"121.41934518","lat":"31.280725929","category":"252","category_name":"楼宇机构","address":"上海行知路381弄"},{"poiid":"B2094757D06EABF54592","title":"行知路地铁站","lon":"121.421869","lat":"31.284585","category":"36","category_name":"地铁站","address":"上海轨道交通 七号线 轨交行知路站 7"},{"poiid":"B2094654D465A7FF439D","title":"九百购物中心","lon":"121.42142","lat":"31.28039","category":"119","category_name":"商场","address":"宝山区华灵路1051-1067号(新沪路口)"},{"poiid":"B2094757DA6EA4F5429E","title":"808Kpub（华灵店）","lon":"121.421585000002","lat":"31.2801280000001","category":"248","category_name":"生活娱乐","address":"华灵路1090号3楼"},{"poiid":"B2094757D06FA7FD429D","title":"上海大饭堂","lon":"121.42330169","lat":"31.276973724","category":"76","category_name":"上海菜","address":"宝山区华灵路685号(近大华三路)"},{"poiid":"B2094757D06FA4FE479F","title":"大华路行知路","lon":"121.41680145","lat":"31.28322792","category":"500","category_name":"未知分类","address":"上海大华路"},{"poiid":"B2094757D06FA7F44492","title":"买卖提红玫瑰烤涮龙虾馆(大华店)","lon":"121.42348","lat":"31.27862","category":"68","category_name":"快餐厅","address":"宝山区华灵路845号(新沪路口)"},{"poiid":"B2094757D66BA4FF4199","title":"肯德基 大华店 KFC","lon":"121.42147377743","lat":"31.279639567314","category":"68","category_name":"快餐厅","address":"宝山区华灵路1051号(近九百购物中心)"},{"poiid":"B2094757D06FA3FD4198","title":"大润发(华灵店)","lon":"121.42163","lat":"31.27986","category":"118","category_name":"超级市场","address":"宝山区华灵路1051-1067号(新沪路口)"},{"poiid":"B2094654DB6AABF44298","title":"文华苑","lon":"121.4175","lat":"31.27762","category":"47","category_name":"住宅区","address":"大华路文华苑901弄"},{"poiid":"B2094654D465A7FE439B","title":"大华铂金华府","lon":"121.421","lat":"31.2803","category":"47","category_name":"住宅区","address":"宝山区大华二路201号(大华路口)"},{"poiid":"B2094757D06FAAFA419B","title":"阿拉宁波菜 (沪太店)","lon":"121.422485352","lat":"31.2841529846","category":"75","category_name":"浙江菜","address":"宝山区沪太路1555号(近行知路)"},{"poiid":"B2094750D26FA0F9469E","title":"大华婚礼中心","lon":"121.421559","lat":"31.279701","category":"247","category_name":"餐饮美食","address":"华灵路1088号4楼"},{"poiid":"B2094655D26AAAFB489A","title":"桐春金农庄","lon":"121.42136","lat":"31.28013","category":"87","category_name":"特色／地方风味餐厅","address":"宝山区华灵路908号(九百购物中心对面)"},{"poiid":"B2094757D569A2FC439F","title":"大华文华苑","lon":"121.420585","lat":"31.27765611","category":"47","category_name":"住宅区","address":"上海市宝山区新沪路1099弄"},{"poiid":"B2094655D26FA1FA4593","title":"文华苑北门(华灵路)","lon":"121.4183","lat":"31.27927","category":"47","category_name":"住宅区","address":"华灵路1180弄1-65号"},{"poiid":"B2094654D465A7FF409F","title":"绍兴饭店 大华店","lon":"121.42000800399","lat":"31.279306218168","category":"75","category_name":"浙江菜","address":"宝山区华灵路1088号(近新沪路)"},{"poiid":"B2094757D068AAF94898","title":"家园春小吃","lon":"121.41557","lat":"31.27945","category":"76","category_name":"上海菜","address":"宝山区华灵路1311号(近大华路)"},{"poiid":"B209475DD06DA6F94599","title":"很久以前只是家串店","lon":"121.418777","lat":"31.27577","category":"247","category_name":"餐饮美食","address":"上海市 大华三路81号"},{"poiid":"B2094655D36CA7FE4192","title":"沪太路余庆桥","lon":"121.42348","lat":"31.28192","category":"38","category_name":"公交车站","address":""},{"poiid":"B2094757D069A6F4439C","title":"苏宁电器(大华店)","lon":"121.420915","lat":"31.279468","category":"138","category_name":"家电电子卖场","address":"上海宝山区华灵路1090号"},{"poiid":"B2094757D464A5F9439F","title":"大唐人家面馆 华灵路店","lon":"121.422361054","lat":"31.279434793","category":"247","category_name":"餐饮美食","address":"宝山区华灵路845号(近联华超市)"},{"poiid":"B2094654D465A7F94392","title":"复星花园","lon":"121.41967","lat":"31.285856","category":"47","category_name":"住宅区","address":"上海市宝山区行知路50弄"},{"poiid":"B2094757D069A1F44199","title":"泰煌鸡(华灵店)","lon":"121.42322","lat":"31.27839","category":"68","category_name":"快餐厅","address":"宝山区华灵路841号(近新沪路)"},{"poiid":"B2094654DB6AABF44292","title":"苏宁电器(华灵路店)","lon":"121.42092","lat":"31.27947","category":"138","category_name":"家电电子卖场","address":"上海市宝山区华灵路1090号"},{"poiid":"B2094654D465A7FF4499","title":"大场镇华欣苑","lon":"121.41926","lat":"31.28127","category":"47","category_name":"住宅区","address":"华灵西路1225弄"},{"poiid":"B2094654D465A7FC4598","title":"华龙特色牛肉面馆","lon":"121.42292","lat":"31.27742","category":"257","category_name":"中餐厅","address":""},{"poiid":"B2094655D26AA7FC469A","title":"如家快捷酒店沪太路店","lon":"121.42498","lat":"31.27913","category":"247","category_name":"餐饮美食","address":"上海市闸北区沪太路1250号(近晋城路)"},{"poiid":"B2094757D06BA6FE4793","title":"老绍兴三黄鸡酒家(行知路店)","lon":"121.42112","lat":"31.28424","category":"76","category_name":"上海菜","address":"宝山区行知路42号(近沪太路)"},{"poiid":"B2094757D069A6F4429E","title":"全家便利(新沪路店)","lon":"121.42191","lat":"31.2807","category":"117","category_name":"便民商店/便利店","address":"上海宝山区新沪路1130号(近九百购物中心)  "},{"poiid":"B2094654D465A7FC479A","title":"永琪美容美发(华灵路)","lon":"121.42208","lat":"31.27927","category":"148","category_name":"美容美发店","address":"宝山区华灵路908号(新沪路口)"},{"poiid":"B209475DD065A6F5449A","title":"韩国街","lon":"121.422225","lat":"31.279064","category":"500","category_name":"未知分类","address":"上海市 上海市闵行区虹泉路"},{"poiid":"B2094757D16AA4FE4998","title":"万荣小区篮球场","lon":"121.42102695","lat":"31.280336257","category":"220","category_name":"运动场所","address":"上海市灵石路737弄"},{"poiid":"B2094757D16EA6F54592","title":"小蝌蚪音乐幼儿园","lon":"121.41907985","lat":"31.279939049","category":"57","category_name":"幼儿园","address":"宝山区华灵路811号"},{"poiid":"B2094654D465A7FF4498","title":"新华书店(新沪路)","lon":"121.4219","lat":"31.28096","category":"125","category_name":"书店","address":"宝山区新沪路1139-1289号"},{"poiid":"B2094655D265AAF9419C","title":"多普达苏宁大华店","lon":"121.42117","lat":"31.2794","category":"138","category_name":"家电电子卖场","address":"华灵路1090号"},{"poiid":"B2094654D465A7FF449E","title":"大场镇华欣苑(边门)","lon":"121.4221","lat":"31.28149","category":"47","category_name":"住宅区","address":"华灵路1225弄"},{"poiid":"B2094654D465A7FF4392","title":"交通银行上海分行大华支行","lon":"121.4218","lat":"31.28069","category":"150","category_name":"银行","address":"宝山区新沪路1139号(近华灵路)"},{"poiid":"B2094757D169A1FF4598","title":"coco都可茶饮(九百店)","lon":"121.42124095","lat":"31.2799512501","category":"500","category_name":"未知分类","address":"上海市宝山区大华路"},{"poiid":"B2094757D065A1FA489D","title":"行知路251弄","lon":"121.41813349","lat":"31.2814276983","category":"47","category_name":"住宅区","address":"上海宝山区行知路251弄"},{"poiid":"B2094757D568AAFA4799","title":"大华公园","lon":"121.4228819","lat":"31.27721389","category":"196","category_name":"公园","address":"大华公园位于宝山上海宝山华灵路698号"},{"poiid":"B2094654D465A7FF409C","title":"中国农业银行宝山区大华支行","lon":"121.42126","lat":"31.27932","category":"150","category_name":"银行","address":"宝山区华灵路1088号(华灵路新沪路)"},{"poiid":"B2094654D465A7F9459B","title":"行知实验中学","lon":"121.41858","lat":"31.28473","category":"55","category_name":"中学","address":"宝山区行知路180号"},{"poiid":"B2094654DB6AABF4429C","title":"文华苑(东一门)","lon":"121.42059","lat":"31.27765","category":"47","category_name":"住宅区","address":"新沪路1099弄1-70号"},{"poiid":"B2094655D26AA6FC4399","title":"永乐生活电器沪太路店","lon":"121.42293","lat":"31.28206","category":"247","category_name":"餐饮美食","address":"宝山区沪太路15981608号(近新沪路)"},{"poiid":"B2094753D768A1FC499D","title":"CGV星星国际电影城大华店","lon":"121.421752","lat":"31.280109","category":"500","category_name":"未知分类","address":"上海市 地 址：上海市宝山区大华路348号大华虎城·嘉年华3楼"},{"poiid":"B2094655D26FA0FE409A","title":"永乐生活电器连锁卖场沪太路店","lon":"121.42281","lat":"31.28201","category":"138","category_name":"家电电子卖场","address":"沪太路1598识别"},{"poiid":"B2094654DB6AABF4439C","title":"国美电器(新沪路店)","lon":"121.42217","lat":"31.28293","category":"138","category_name":"家电电子卖场","address":"宝山区沪太路1618号九百家居1楼(近新沪路)"},{"poiid":"B2094757D16BA7FE4892","title":"米乐多","lon":"121.422158","lat":"31.279728","category":"257","category_name":"中餐厅","address":"宝山区华灵路847号(近新沪路)"},{"poiid":"B2094654D465A7FC4298","title":"永乐生活电器(新沪路)","lon":"121.42262","lat":"31.28194","category":"138","category_name":"家电电子卖场","address":""},{"poiid":"B2094757D068A5F8449B","title":"远景佳苑2期","lon":"121.41934518","lat":"31.280725929","category":"252","category_name":"楼宇机构","address":"上海行知路381弄"},{"poiid":"B2094757D06EABF54592","title":"行知路地铁站","lon":"121.421869","lat":"31.284585","category":"36","category_name":"地铁站","address":"上海轨道交通 七号线 轨交行知路站 7"},{"poiid":"B2094654D465A7FF439D","title":"九百购物中心","lon":"121.42142","lat":"31.28039","category":"119","category_name":"商场","address":"宝山区华灵路1051-1067号(新沪路口)"},{"poiid":"B2094757DA6EA4F5429E","title":"808Kpub（华灵店）","lon":"121.421585000002","lat":"31.2801280000001","category":"248","category_name":"生活娱乐","address":"华灵路1090号3楼"},{"poiid":"B2094757D06FA7FD429D","title":"上海大饭堂","lon":"121.42330169","lat":"31.276973724","category":"76","category_name":"上海菜","address":"宝山区华灵路685号(近大华三路)"},{"poiid":"B2094757D06FA4FE479F","title":"大华路行知路","lon":"121.41680145","lat":"31.28322792","category":"500","category_name":"未知分类","address":"上海大华路"},{"poiid":"B2094757D06FA7F44492","title":"买卖提红玫瑰烤涮龙虾馆(大华店)","lon":"121.42348","lat":"31.27862","category":"68","category_name":"快餐厅","address":"宝山区华灵路845号(新沪路口)"},{"poiid":"B2094757D66BA4FF4199","title":"肯德基 大华店 KFC","lon":"121.42147377743","lat":"31.279639567314","category":"68","category_name":"快餐厅","address":"宝山区华灵路1051号(近九百购物中心)"},{"poiid":"B2094757D06FA3FD4198","title":"大润发(华灵店)","lon":"121.42163","lat":"31.27986","category":"118","category_name":"超级市场","address":"宝山区华灵路1051-1067号(新沪路口)"},{"poiid":"B2094654DB6AABF44298","title":"文华苑","lon":"121.4175","lat":"31.27762","category":"47","category_name":"住宅区","address":"大华路文华苑901弄"},{"poiid":"B2094654D465A7FE439B","title":"大华铂金华府","lon":"121.421","lat":"31.2803","category":"47","category_name":"住宅区","address":"宝山区大华二路201号(大华路口)"},{"poiid":"B2094757D06FAAFA419B","title":"阿拉宁波菜 (沪太店)","lon":"121.422485352","lat":"31.2841529846","category":"75","category_name":"浙江菜","address":"宝山区沪太路1555号(近行知路)"},{"poiid":"B2094750D26FA0F9469E","title":"大华婚礼中心","lon":"121.421559","lat":"31.279701","category":"247","category_name":"餐饮美食","address":"华灵路1088号4楼"},{"poiid":"B2094655D26AAAFB489A","title":"桐春金农庄","lon":"121.42136","lat":"31.28013","category":"87","category_name":"特色／地方风味餐厅","address":"宝山区华灵路908号(九百购物中心对面)"},{"poiid":"B2094757D569A2FC439F","title":"大华文华苑","lon":"121.420585","lat":"31.27765611","category":"47","category_name":"住宅区","address":"上海市宝山区新沪路1099弄"},{"poiid":"B2094655D26FA1FA4593","title":"文华苑北门(华灵路)","lon":"121.4183","lat":"31.27927","category":"47","category_name":"住宅区","address":"华灵路1180弄1-65号"},{"poiid":"B2094654D465A7FF409F","title":"绍兴饭店 大华店","lon":"121.42000800399","lat":"31.279306218168","category":"75","category_name":"浙江菜","address":"宝山区华灵路1088号(近新沪路)"},{"poiid":"B2094757D068AAF94898","title":"家园春小吃","lon":"121.41557","lat":"31.27945","category":"76","category_name":"上海菜","address":"宝山区华灵路1311号(近大华路)"},{"poiid":"B209475DD06DA6F94599","title":"很久以前只是家串店","lon":"121.418777","lat":"31.27577","category":"247","category_name":"餐饮美食","address":"上海市 大华三路81号"},{"poiid":"B2094655D36CA7FE4192","title":"沪太路余庆桥","lon":"121.42348","lat":"31.28192","category":"38","category_name":"公交车站","address":""},{"poiid":"B2094757D069A6F4439C","title":"苏宁电器(大华店)","lon":"121.420915","lat":"31.279468","category":"138","category_name":"家电电子卖场","address":"上海宝山区华灵路1090号"},{"poiid":"B2094757D464A5F9439F","title":"大唐人家面馆 华灵路店","lon":"121.422361054","lat":"31.279434793","category":"247","category_name":"餐饮美食","address":"宝山区华灵路845号(近联华超市)"},{"poiid":"B2094654D465A7F94392","title":"复星花园","lon":"121.41967","lat":"31.285856","category":"47","category_name":"住宅区","address":"上海市宝山区行知路50弄"},{"poiid":"B2094757D069A1F44199","title":"泰煌鸡(华灵店)","lon":"121.42322","lat":"31.27839","category":"68","category_name":"快餐厅","address":"宝山区华灵路841号(近新沪路)"},{"poiid":"B2094654DB6AABF44292","title":"苏宁电器(华灵路店)","lon":"121.42092","lat":"31.27947","category":"138","category_name":"家电电子卖场","address":"上海市宝山区华灵路1090号"},{"poiid":"B2094654D465A7FF4499","title":"大场镇华欣苑","lon":"121.41926","lat":"31.28127","category":"47","category_name":"住宅区","address":"华灵西路1225弄"},{"poiid":"B2094654D465A7FC4598","title":"华龙特色牛肉面馆","lon":"121.42292","lat":"31.27742","category":"257","category_name":"中餐厅","address":""},{"poiid":"B2094655D26AA7FC469A","title":"如家快捷酒店沪太路店","lon":"121.42498","lat":"31.27913","category":"247","category_name":"餐饮美食","address":"上海市闸北区沪太路1250号(近晋城路)"},{"poiid":"B2094757D06BA6FE4793","title":"老绍兴三黄鸡酒家(行知路店)","lon":"121.42112","lat":"31.28424","category":"76","category_name":"上海菜","address":"宝山区行知路42号(近沪太路)"},{"poiid":"B2094757D069A6F4429E","title":"全家便利(新沪路店)","lon":"121.42191","lat":"31.2807","category":"117","category_name":"便民商店/便利店","address":"上海宝山区新沪路1130号(近九百购物中心)  "},{"poiid":"B2094654D465A7FC479A","title":"永琪美容美发(华灵路)","lon":"121.42208","lat":"31.27927","category":"148","category_name":"美容美发店","address":"宝山区华灵路908号(新沪路口)"},{"poiid":"B209475DD065A6F5449A","title":"韩国街","lon":"121.422225","lat":"31.279064","category":"500","category_name":"未知分类","address":"上海市 上海市闵行区虹泉路"},{"poiid":"B2094757D16AA4FE4998","title":"万荣小区篮球场","lon":"121.42102695","lat":"31.280336257","category":"220","category_name":"运动场所","address":"上海市灵石路737弄"},{"poiid":"B2094757D16EA6F54592","title":"小蝌蚪音乐幼儿园","lon":"121.41907985","lat":"31.279939049","category":"57","category_name":"幼儿园","address":"宝山区华灵路811号"},{"poiid":"B2094654D465A7FF4498","title":"新华书店(新沪路)","lon":"121.4219","lat":"31.28096","category":"125","category_name":"书店","address":"宝山区新沪路1139-1289号"},{"poiid":"B2094655D265AAF9419C","title":"多普达苏宁大华店","lon":"121.42117","lat":"31.2794","category":"138","category_name":"家电电子卖场","address":"华灵路1090号"},{"poiid":"B2094654D465A7FF449E","title":"大场镇华欣苑(边门)","lon":"121.4221","lat":"31.28149","category":"47","category_name":"住宅区","address":"华灵路1225弄"},{"poiid":"B2094654D465A7FF4392","title":"交通银行上海分行大华支行","lon":"121.4218","lat":"31.28069","category":"150","category_name":"银行","address":"宝山区新沪路1139号(近华灵路)"},{"poiid":"B2094757D169A1FF4598","title":"coco都可茶饮(九百店)","lon":"121.42124095","lat":"31.2799512501","category":"500","category_name":"未知分类","address":"上海市宝山区大华路"},{"poiid":"B2094757D065A1FA489D","title":"行知路251弄","lon":"121.41813349","lat":"31.2814276983","category":"47","category_name":"住宅区","address":"上海宝山区行知路251弄"},{"poiid":"B2094757D568AAFA4799","title":"大华公园","lon":"121.4228819","lat":"31.27721389","category":"196","category_name":"公园","address":"大华公园位于宝山上海宝山华灵路698号"},{"poiid":"B2094654D465A7FF409C","title":"中国农业银行宝山区大华支行","lon":"121.42126","lat":"31.27932","category":"150","category_name":"银行","address":"宝山区华灵路1088号(华灵路新沪路)"},{"poiid":"B2094654D465A7F9459B","title":"行知实验中学","lon":"121.41858","lat":"31.28473","category":"55","category_name":"中学","address":"宝山区行知路180号"},{"poiid":"B2094654DB6AABF4429C","title":"文华苑(东一门)","lon":"121.42059","lat":"31.27765","category":"47","category_name":"住宅区","address":"新沪路1099弄1-70号"},{"poiid":"B2094655D26AA6FC4399","title":"永乐生活电器沪太路店","lon":"121.42293","lat":"31.28206","category":"247","category_name":"餐饮美食","address":"宝山区沪太路15981608号(近新沪路)"},{"poiid":"B2094753D768A1FC499D","title":"CGV星星国际电影城大华店","lon":"121.421752","lat":"31.280109","category":"500","category_name":"未知分类","address":"上海市 地 址：上海市宝山区大华路348号大华虎城·嘉年华3楼"},{"poiid":"B2094655D26FA0FE409A","title":"永乐生活电器连锁卖场沪太路店","lon":"121.42281","lat":"31.28201","category":"138","category_name":"家电电子卖场","address":"沪太路1598识别"},{"poiid":"B2094654DB6AABF4439C","title":"国美电器(新沪路店)","lon":"121.42217","lat":"31.28293","category":"138","category_name":"家电电子卖场","address":"宝山区沪太路1618号九百家居1楼(近新沪路)"},{"poiid":"B2094757D16BA7FE4892","title":"米乐多","lon":"121.422158","lat":"31.279728","category":"257","category_name":"中餐厅","address":"宝山区华灵路847号(近新沪路)"},{"poiid":"B2094654D465A7FC4298","title":"永乐生活电器(新沪路)","lon":"121.42262","lat":"31.28194","category":"138","category_name":"家电电子卖场","address":""},{"poiid":"B2094757D068A5F8449B","title":"远景佳苑2期","lon":"121.41934518","lat":"31.280725929","category":"252","category_name":"楼宇机构","address":"上海行知路381弄"},{"poiid":"B2094757D06EABF54592","title":"行知路地铁站","lon":"121.421869","lat":"31.284585","category":"36","category_name":"地铁站","address":"上海轨道交通 七号线 轨交行知路站 7"},{"poiid":"B2094654D465A7FF439D","title":"九百购物中心","lon":"121.42142","lat":"31.28039","category":"119","category_name":"商场","address":"宝山区华灵路1051-1067号(新沪路口)"},{"poiid":"B2094757DA6EA4F5429E","title":"808Kpub（华灵店）","lon":"121.421585000002","lat":"31.2801280000001","category":"248","category_name":"生活娱乐","address":"华灵路1090号3楼"},{"poiid":"B2094757D06FA7FD429D","title":"上海大饭堂","lon":"121.42330169","lat":"31.276973724","category":"76","category_name":"上海菜","address":"宝山区华灵路685号(近大华三路)"},{"poiid":"B2094757D06FA4FE479F","title":"大华路行知路","lon":"121.41680145","lat":"31.28322792","category":"500","category_name":"未知分类","address":"上海大华路"},{"poiid":"B2094757D06FA7F44492","title":"买卖提红玫瑰烤涮龙虾馆(大华店)","lon":"121.42348","lat":"31.27862","category":"68","category_name":"快餐厅","address":"宝山区华灵路845号(新沪路口)"},{"poiid":"B2094757D66BA4FF4199","title":"肯德基 大华店 KFC","lon":"121.42147377743","lat":"31.279639567314","category":"68","category_name":"快餐厅","address":"宝山区华灵路1051号(近九百购物中心)"},{"poiid":"B2094757D06FA3FD4198","title":"大润发(华灵店)","lon":"121.42163","lat":"31.27986","category":"118","category_name":"超级市场","address":"宝山区华灵路1051-1067号(新沪路口)"},{"poiid":"B2094654DB6AABF44298","title":"文华苑","lon":"121.4175","lat":"31.27762","category":"47","category_name":"住宅区","address":"大华路文华苑901弄"},{"poiid":"B2094654D465A7FE439B","title":"大华铂金华府","lon":"121.421","lat":"31.2803","category":"47","category_name":"住宅区","address":"宝山区大华二路201号(大华路口)"},{"poiid":"B2094757D06FAAFA419B","title":"阿拉宁波菜 (沪太店)","lon":"121.422485352","lat":"31.2841529846","category":"75","category_name":"浙江菜","address":"宝山区沪太路1555号(近行知路)"},{"poiid":"B2094750D26FA0F9469E","title":"大华婚礼中心","lon":"121.421559","lat":"31.279701","category":"247","category_name":"餐饮美食","address":"华灵路1088号4楼"},{"poiid":"B2094655D26AAAFB489A","title":"桐春金农庄","lon":"121.42136","lat":"31.28013","category":"87","category_name":"特色／地方风味餐厅","address":"宝山区华灵路908号(九百购物中心对面)"},{"poiid":"B2094757D569A2FC439F","title":"大华文华苑","lon":"121.420585","lat":"31.27765611","category":"47","category_name":"住宅区","address":"上海市宝山区新沪路1099弄"},{"poiid":"B2094655D26FA1FA4593","title":"文华苑北门(华灵路)","lon":"121.4183","lat":"31.27927","category":"47","category_name":"住宅区","address":"华灵路1180弄1-65号"},{"poiid":"B2094654D465A7FF409F","title":"绍兴饭店 大华店","lon":"121.42000800399","lat":"31.279306218168","category":"75","category_name":"浙江菜","address":"宝山区华灵路1088号(近新沪路)"},{"poiid":"B2094757D068AAF94898","title":"家园春小吃","lon":"121.41557","lat":"31.27945","category":"76","category_name":"上海菜","address":"宝山区华灵路1311号(近大华路)"},{"poiid":"B209475DD06DA6F94599","title":"很久以前只是家串店","lon":"121.418777","lat":"31.27577","category":"247","category_name":"餐饮美食","address":"上海市 大华三路81号"},{"poiid":"B2094655D36CA7FE4192","title":"沪太路余庆桥","lon":"121.42348","lat":"31.28192","category":"38","category_name":"公交车站","address":""},{"poiid":"B2094757D069A6F4439C","title":"苏宁电器(大华店)","lon":"121.420915","lat":"31.279468","category":"138","category_name":"家电电子卖场","address":"上海宝山区华灵路1090号"},{"poiid":"B2094757D464A5F9439F","title":"大唐人家面馆 华灵路店","lon":"121.422361054","lat":"31.279434793","category":"247","category_name":"餐饮美食","address":"宝山区华灵路845号(近联华超市)"},{"poiid":"B2094654D465A7F94392","title":"复星花园","lon":"121.41967","lat":"31.285856","category":"47","category_name":"住宅区","address":"上海市宝山区行知路50弄"},{"poiid":"B2094757D069A1F44199","title":"泰煌鸡(华灵店)","lon":"121.42322","lat":"31.27839","category":"68","category_name":"快餐厅","address":"宝山区华灵路841号(近新沪路)"},{"poiid":"B2094654DB6AABF44292","title":"苏宁电器(华灵路店)","lon":"121.42092","lat":"31.27947","category":"138","category_name":"家电电子卖场","address":"上海市宝山区华灵路1090号"},{"poiid":"B2094654D465A7FF4499","title":"大场镇华欣苑","lon":"121.41926","lat":"31.28127","category":"47","category_name":"住宅区","address":"华灵西路1225弄"},{"poiid":"B2094654D465A7FC4598","title":"华龙特色牛肉面馆","lon":"121.42292","lat":"31.27742","category":"257","category_name":"中餐厅","address":""},{"poiid":"B2094655D26AA7FC469A","title":"如家快捷酒店沪太路店","lon":"121.42498","lat":"31.27913","category":"247","category_name":"餐饮美食","address":"上海市闸北区沪太路1250号(近晋城路)"},{"poiid":"B2094757D06BA6FE4793","title":"老绍兴三黄鸡酒家(行知路店)","lon":"121.42112","lat":"31.28424","category":"76","category_name":"上海菜","address":"宝山区行知路42号(近沪太路)"},{"poiid":"B2094757D069A6F4429E","title":"全家便利(新沪路店)","lon":"121.42191","lat":"31.2807","category":"117","category_name":"便民商店/便利店","address":"上海宝山区新沪路1130号(近九百购物中心)  "},{"poiid":"B2094654D465A7FC479A","title":"永琪美容美发(华灵路)","lon":"121.42208","lat":"31.27927","category":"148","category_name":"美容美发店","address":"宝山区华灵路908号(新沪路口)"},{"poiid":"B209475DD065A6F5449A","title":"韩国街","lon":"121.422225","lat":"31.279064","category":"500","category_name":"未知分类","address":"上海市 上海市闵行区虹泉路"},{"poiid":"B2094757D16AA4FE4998","title":"万荣小区篮球场","lon":"121.42102695","lat":"31.280336257","category":"220","category_name":"运动场所","address":"上海市灵石路737弄"},{"poiid":"B2094757D16EA6F54592","title":"小蝌蚪音乐幼儿园","lon":"121.41907985","lat":"31.279939049","category":"57","category_name":"幼儿园","address":"宝山区华灵路811号"},{"poiid":"B2094654D465A7FF4498","title":"新华书店(新沪路)","lon":"121.4219","lat":"31.28096","category":"125","category_name":"书店","address":"宝山区新沪路1139-1289号"},{"poiid":"B2094655D265AAF9419C","title":"多普达苏宁大华店","lon":"121.42117","lat":"31.2794","category":"138","category_name":"家电电子卖场","address":"华灵路1090号"},{"poiid":"B2094654D465A7FF449E","title":"大场镇华欣苑(边门)","lon":"121.4221","lat":"31.28149","category":"47","category_name":"住宅区","address":"华灵路1225弄"},{"poiid":"B2094654D465A7FF4392","title":"交通银行上海分行大华支行","lon":"121.4218","lat":"31.28069","category":"150","category_name":"银行","address":"宝山区新沪路1139号(近华灵路)"},{"poiid":"B2094757D169A1FF4598","title":"coco都可茶饮(九百店)","lon":"121.42124095","lat":"31.2799512501","category":"500","category_name":"未知分类","address":"上海市宝山区大华路"},{"poiid":"B2094757D065A1FA489D","title":"行知路251弄","lon":"121.41813349","lat":"31.2814276983","category":"47","category_name":"住宅区","address":"上海宝山区行知路251弄"},{"poiid":"B2094757D568AAFA4799","title":"大华公园","lon":"121.4228819","lat":"31.27721389","category":"196","category_name":"公园","address":"大华公园位于宝山上海宝山华灵路698号"},{"poiid":"B2094654D465A7FF409C","title":"中国农业银行宝山区大华支行","lon":"121.42126","lat":"31.27932","category":"150","category_name":"银行","address":"宝山区华灵路1088号(华灵路新沪路)"},{"poiid":"B2094654D465A7F9459B","title":"行知实验中学","lon":"121.41858","lat":"31.28473","category":"55","category_name":"中学","address":"宝山区行知路180号"},{"poiid":"B2094654DB6AABF4429C","title":"文华苑(东一门)","lon":"121.42059","lat":"31.27765","category":"47","category_name":"住宅区","address":"新沪路1099弄1-70号"},{"poiid":"B2094655D26AA6FC4399","title":"永乐生活电器沪太路店","lon":"121.42293","lat":"31.28206","category":"247","category_name":"餐饮美食","address":"宝山区沪太路15981608号(近新沪路)"},{"poiid":"B2094753D768A1FC499D","title":"CGV星星国际电影城大华店","lon":"121.421752","lat":"31.280109","category":"500","category_name":"未知分类","address":"上海市 地 址：上海市宝山区大华路348号大华虎城·嘉年华3楼"},{"poiid":"B2094655D26FA0FE409A","title":"永乐生活电器连锁卖场沪太路店","lon":"121.42281","lat":"31.28201","category":"138","category_name":"家电电子卖场","address":"沪太路1598识别"},{"poiid":"B2094654DB6AABF4439C","title":"国美电器(新沪路店)","lon":"121.42217","lat":"31.28293","category":"138","category_name":"家电电子卖场","address":"宝山区沪太路1618号九百家居1楼(近新沪路)"},{"poiid":"B2094757D16BA7FE4892","title":"米乐多","lon":"121.422158","lat":"31.279728","category":"257","category_name":"中餐厅","address":"宝山区华灵路847号(近新沪路)"},{"poiid":"B2094654D465A7FC4298","title":"永乐生活电器(新沪路)","lon":"121.42262","lat":"31.28194","category":"138","category_name":"家电电子卖场","address":""},{"poiid":"B2094757D068A5F8449B","title":"远景佳苑2期","lon":"121.41934518","lat":"31.280725929","category":"252","category_name":"楼宇机构","address":"上海行知路381弄"}]