[{"poiid":"B2094757D66FA6FA479F","title":"穹六人间","lon":"121.45227","lat":"31.205613","category":"260","category_name":"其他","address":"徐汇区岳阳路150号(近永嘉路)"},{"poiid":"B2094757D66EA5FA419F","title":"FOUNT BAR","lon":"121.451112586","lat":"31.2060839588","category":"260","category_name":"其他","address":"徐汇区永嘉路570号永嘉庭5号楼1楼511号(近岳阳路)"},{"poiid":"B2094757D06FA1F94893","title":"the roof","lon":"121.45089155","lat":"31.205618961","category":"172","category_name":"酒吧","address":"徐汇区永嘉路570号永嘉庭5号楼4楼(近岳阳路)"},{"poiid":"B2094753D76FAAFA449C","title":"上海滩国泰旗舰店","lon":"121.466011","lat":"31.216125","category":"249","category_name":"购物服务","address":"淮海中路868号"},{"poiid":"B209475CD564A7F84292","title":"上海滩新天地店","lon":"121.47463","lat":"31.22164","category":"119","category_name":"商场","address":"\"太仓路181弄新天地北里15号\r\n\""},{"poiid":"B209475CD564A7F8439E","title":"上海滩中信泰富店","lon":"121.45602","lat":"31.22851","category":"119","category_name":"商场","address":"\"南京西路1168号中信泰富广场，店铺号221.\r\n\""},{"poiid":"B2094757D568AAF94199","title":"Shari","lon":"121.44823703","lat":"31.20476101","category":"95","category_name":"日本料理","address":"徐汇区永嘉路630号(近乌鲁木齐南路)"},{"poiid":"B2094757D06FA0FB429C","title":"苏浙汇(华泰大厦店)","lon":"121.450408","lat":"31.202926","category":"76","category_name":"上海菜","address":"徐汇区肇嘉浜路388号华泰大厦1-2楼(近襄阳南路)"},{"poiid":"B2094757D068ABF5409B","title":"Brown Stone","lon":"121.45122991","lat":"31.206031697","category":"172","category_name":"酒吧","address":"上海永嘉路57０号"},{"poiid":"B2094757D06AA3FA479B","title":"H2","lon":"121.449141","lat":"31.204116","category":"94","category_name":"西餐厅","address":"徐汇区乌鲁木齐南路145号(近永嘉路)"},{"poiid":"B2094757D06FA6FE4998","title":"南伶酒家","lon":"121.45245","lat":"31.20485","category":"74","category_name":"江苏菜","address":"徐汇区岳阳路168号(近永嘉路)"},{"poiid":"B2094655D265A2FA4098","title":"永嘉庭","lon":"121.45142","lat":"31.20608","category":"46","category_name":"楼宇","address":"永嘉路570"},{"poiid":"B2094757D06FA5F44792","title":"Voce Cafe","lon":"121.45129679","lat":"31.206693725","category":"260","category_name":"其他","address":"上海徐汇区永嘉路566号(近岳阳路)"},{"poiid":"B2094757D66BA1FC489A","title":"御席公馆","lon":"121.450101","lat":"31.202679","category":"97","category_name":"法式菜品餐厅","address":"徐汇区建国西路568号(近建国西路)"},{"poiid":"B2094757D068A0F8499F","title":"印度小厨(永嘉店)","lon":"121.45119","lat":"31.20528","category":"102","category_name":"印度风味","address":"徐汇区永嘉路570号永嘉庭1号楼4楼(近岳阳路)"},{"poiid":"B2094750DA68A4F44298","title":"vita bistro bar","lon":"121.450485","lat":"31.205255","category":"247","category_name":"餐饮美食","address":"徐汇区永嘉路557号花园内(近乌鲁木齐南路)"},{"poiid":"B2094757D06FA5F94093","title":"建科大厦","lon":"121.452","lat":"31.2018","category":"46","category_name":"楼宇","address":"上海徐汇区宛平南路75号"},{"poiid":"B2094750D665A2FE4299","title":"比萨马上诺(永嘉庭)","lon":"121.451","lat":"31.2057","category":"94","category_name":"西餐厅","address":"徐汇区永嘉路570号111单元(近岳阳路)"},{"poiid":"B2094654DA6DA6FC459A","title":"坤阳国际商务广场","lon":"121.452","lat":"31.2047","category":"46","category_name":"楼宇","address":"卫清西路139_149号等"},{"poiid":"B2094757D66EA6F5409F","title":"永嘉路","lon":"121.45019258","lat":"31.205445946","category":"500","category_name":"未知分类","address":"上海市徐汇区淮海中路"},{"poiid":"B2094757D16EA3FB4999","title":"Dione Hair &amp; Make up salon","lon":"121.45089235","lat":"31.205527972","category":"500","category_name":"未知分类","address":"上海永嘉路570号"},{"poiid":"B2094757D065A3FF4092","title":"Brownstone","lon":"121.451477","lat":"31.205856","category":"260","category_name":"其他","address":"徐汇区永嘉路570号永嘉庭311单元(近岳阳路)"},{"poiid":"B2094750D66EA5FA409B","title":"建国328小馆","lon":"121.44886","lat":"31.204284","category":"76","category_name":"上海菜","address":"徐汇区建国西路328号(近襄阳南路)"},{"poiid":"B2094654DB6BA5FA4799","title":"欧江大厦","lon":"121.453","lat":"31.2052","category":"46","category_name":"楼宇","address":"徐汇区肇嘉浜路768号"},{"poiid":"B2094757D065A3F9489F","title":"地铁1号线 常熟路站","lon":"121.451627586","lat":"31.2051945414","category":"500","category_name":"未知分类","address":"上海常熟路"},{"poiid":"B2094655D36DA0F4409D","title":"永嘉路岳阳路","lon":"121.45166","lat":"31.20582","category":"38","category_name":"公交车站","address":""},{"poiid":"B2094757D66CA7FE469E","title":"永嘉别墅","lon":"121.45004958","lat":"31.20516194","category":"47","category_name":"住宅区","address":"徐汇区永嘉路(近乌鲁木齐南路)查看地图"},{"poiid":"B2094757D06AA5F9419C","title":"公安部第三研究所","lon":"121.45197862","lat":"31.206925644","category":"500","category_name":"未知分类","address":"上海市徐汇区岳阳路76号"},{"poiid":"B2094654DA6DA7F5479B","title":"锦都大厦","lon":"121.452","lat":"31.2059","category":"46","category_name":"楼宇","address":"闸北区江场西路38号(近共和新路)"},{"poiid":"B2094757D46FA0F44098","title":"Mature","lon":"121.45147","lat":"31.20585","category":"95","category_name":"日本料理","address":"徐汇区永嘉路570号永嘉庭1号楼2楼(近岳阳路)"},{"poiid":"B2094654DA6DA4FB499B","title":"宜家百货","lon":"121.45066","lat":"31.2055","category":"117","category_name":"便民商店/便利店","address":""},{"poiid":"B2094654DA6DA4F5419B","title":"懿园","lon":"121.45071","lat":"31.203472","category":"47","category_name":"住宅区","address":"建国西路506弄1-57号"},{"poiid":"B2094757D06FAAF84898","title":"永嘉庭创意园区","lon":"121.451179","lat":"31.205706","category":"260","category_name":"其他","address":"上海永嘉路570号"},{"poiid":"B2094757D468A4FF4293","title":"绝口老弄堂爆鱼","lon":"121.44996","lat":"31.20511","category":"68","category_name":"快餐厅","address":"徐汇区永嘉路573弄4号(近乌鲁木齐南路)"},{"poiid":"B2094654DA6DA7F54099","title":"怡甸大厦","lon":"121.453118","lat":"31.204807","category":"46","category_name":"楼宇","address":"上海市静安区南京西路555号"},{"poiid":"B2094750D26CA3FC489E","title":"寿司奈良本 永嘉路店","lon":"121.450485","lat":"31.205222","category":"95","category_name":"日本料理","address":"永嘉路557号近岳阳路"},{"poiid":"B2094750D665AAFC4192","title":"上海往事","lon":"121.449","lat":"31.2046","category":"76","category_name":"上海菜","address":"徐汇区永嘉路628号(近乌鲁木齐路)"},{"poiid":"B209475CD16CA3FD419B","title":"VITA Bistro & Bar","lon":"121.45048","lat":"31.20522","category":"65","category_name":"咖啡厅","address":"永嘉路557号花园内(近乌鲁木齐南路)"},{"poiid":"B2094757D465A4F8439B","title":"Salley Garden","lon":"121.452781","lat":"31.206169","category":"260","category_name":"其他","address":"徐汇区永嘉路480号(近岳阳路)"},{"poiid":"B2094757D068A5FC4399","title":"倾城宝贝儿童摄影","lon":"121.452685","lat":"31.206144","category":"500","category_name":"未知分类","address":"卢湾区瑞金二路24号甲(淮海中路口)"},{"poiid":"B2094757DA69A3F9429C","title":"Dione_Hair丽玺儿造型","lon":"121.45147","lat":"31.20585","category":"148","category_name":"美容美发店","address":"永嘉路570号永嘉庭1号楼3楼（近岳阳路）"},{"poiid":"B2094655D26BA0F5439D","title":"岳阳花苑","lon":"121.451","lat":"31.205034","category":"47","category_name":"住宅区","address":"岳阳路170弄5-6"},{"poiid":"B2094750D268A6FE429F","title":"人间穹六 People Six","lon":"121.452213054","lat":"31.205317793","category":"257","category_name":"中餐厅","address":"岳阳路150号近永嘉路西南角"},{"poiid":"B2094753D56AA3F44492","title":"外滩18号","lon":"121.450614","lat":"31.205938","category":"500","category_name":"未知分类","address":"上海市 南京东路外滩18号"},{"poiid":"B209475CDA6EABFA409A","title":"fount胡歌家的餐厅","lon":"121.450866","lat":"31.205974","category":"500","category_name":"未知分类","address":"上海市 上海市徐汇区永嘉路570永嘉庭fount胡歌家的餐厅"},{"poiid":"B2094654DA6DA4FB499A","title":"宜家饮食店","lon":"121.45073","lat":"31.20553","category":"257","category_name":"中餐厅","address":""},{"poiid":"B2094655D36CA3F84992","title":"岳阳花苑(北门)","lon":"121.45102","lat":"31.20525","category":"47","category_name":"住宅区","address":"岳阳路170弄5-6"},{"poiid":"B2094757D065A7FF4293","title":"高安公馆","lon":"121.44793176","lat":"31.205789923","category":"500","category_name":"未知分类","address":"徐汇区衡山路237号(近永嘉路)"},{"poiid":"B2094655D26FA5FE4999","title":"永嘉新村","lon":"121.45029","lat":"31.205946","category":"47","category_name":"住宅区","address":"永嘉路580弄1-110号"},{"poiid":"B2094654DA6DA4FB4498","title":"MAO","lon":"121.4519","lat":"31.20749","category":"172","category_name":"酒吧","address":"岳阳路46号近永嘉路"},{"poiid":"B2094757D66FA6FA479F","title":"穹六人间","lon":"121.45227","lat":"31.205613","category":"260","category_name":"其他","address":"徐汇区岳阳路150号(近永嘉路)"},{"poiid":"B2094757D66EA5FA419F","title":"FOUNT BAR","lon":"121.451112586","lat":"31.2060839588","category":"260","category_name":"其他","address":"徐汇区永嘉路570号永嘉庭5号楼1楼511号(近岳阳路)"},{"poiid":"B2094757D06FA1F94893","title":"the roof","lon":"121.45089155","lat":"31.205618961","category":"172","category_name":"酒吧","address":"徐汇区永嘉路570号永嘉庭5号楼4楼(近岳阳路)"},{"poiid":"B2094753D76FAAFA449C","title":"上海滩国泰旗舰店","lon":"121.466011","lat":"31.216125","category":"249","category_name":"购物服务","address":"淮海中路868号"},{"poiid":"B209475CD564A7F84292","title":"上海滩新天地店","lon":"121.47463","lat":"31.22164","category":"119","category_name":"商场","address":"\"太仓路181弄新天地北里15号\r\n\""},{"poiid":"B209475CD564A7F8439E","title":"上海滩中信泰富店","lon":"121.45602","lat":"31.22851","category":"119","category_name":"商场","address":"\"南京西路1168号中信泰富广场，店铺号221.\r\n\""},{"poiid":"B2094757D568AAF94199","title":"Shari","lon":"121.44823703","lat":"31.20476101","category":"95","category_name":"日本料理","address":"徐汇区永嘉路630号(近乌鲁木齐南路)"},{"poiid":"B2094757D06FA0FB429C","title":"苏浙汇(华泰大厦店)","lon":"121.450408","lat":"31.202926","category":"76","category_name":"上海菜","address":"徐汇区肇嘉浜路388号华泰大厦1-2楼(近襄阳南路)"},{"poiid":"B2094757D068ABF5409B","title":"Brown Stone","lon":"121.45122991","lat":"31.206031697","category":"172","category_name":"酒吧","address":"上海永嘉路57０号"},{"poiid":"B2094757D06AA3FA479B","title":"H2","lon":"121.449141","lat":"31.204116","category":"94","category_name":"西餐厅","address":"徐汇区乌鲁木齐南路145号(近永嘉路)"},{"poiid":"B2094757D06FA6FE4998","title":"南伶酒家","lon":"121.45245","lat":"31.20485","category":"74","category_name":"江苏菜","address":"徐汇区岳阳路168号(近永嘉路)"},{"poiid":"B2094655D265A2FA4098","title":"永嘉庭","lon":"121.45142","lat":"31.20608","category":"46","category_name":"楼宇","address":"永嘉路570"},{"poiid":"B2094757D06FA5F44792","title":"Voce Cafe","lon":"121.45129679","lat":"31.206693725","category":"260","category_name":"其他","address":"上海徐汇区永嘉路566号(近岳阳路)"},{"poiid":"B2094757D66BA1FC489A","title":"御席公馆","lon":"121.450101","lat":"31.202679","category":"97","category_name":"法式菜品餐厅","address":"徐汇区建国西路568号(近建国西路)"},{"poiid":"B2094757D068A0F8499F","title":"印度小厨(永嘉店)","lon":"121.45119","lat":"31.20528","category":"102","category_name":"印度风味","address":"徐汇区永嘉路570号永嘉庭1号楼4楼(近岳阳路)"},{"poiid":"B2094750DA68A4F44298","title":"vita bistro bar","lon":"121.450485","lat":"31.205255","category":"247","category_name":"餐饮美食","address":"徐汇区永嘉路557号花园内(近乌鲁木齐南路)"},{"poiid":"B2094757D06FA5F94093","title":"建科大厦","lon":"121.452","lat":"31.2018","category":"46","category_name":"楼宇","address":"上海徐汇区宛平南路75号"},{"poiid":"B2094750D665A2FE4299","title":"比萨马上诺(永嘉庭)","lon":"121.451","lat":"31.2057","category":"94","category_name":"西餐厅","address":"徐汇区永嘉路570号111单元(近岳阳路)"},{"poiid":"B2094654DA6DA6FC459A","title":"坤阳国际商务广场","lon":"121.452","lat":"31.2047","category":"46","category_name":"楼宇","address":"卫清西路139_149号等"},{"poiid":"B2094757D66EA6F5409F","title":"永嘉路","lon":"121.45019258","lat":"31.205445946","category":"500","category_name":"未知分类","address":"上海市徐汇区淮海中路"},{"poiid":"B2094757D16EA3FB4999","title":"Dione Hair &amp; Make up salon","lon":"121.45089235","lat":"31.205527972","category":"500","category_name":"未知分类","address":"上海永嘉路570号"},{"poiid":"B2094757D065A3FF4092","title":"Brownstone","lon":"121.451477","lat":"31.205856","category":"260","category_name":"其他","address":"徐汇区永嘉路570号永嘉庭311单元(近岳阳路)"},{"poiid":"B2094750D66EA5FA409B","title":"建国328小馆","lon":"121.44886","lat":"31.204284","category":"76","category_name":"上海菜","address":"徐汇区建国西路328号(近襄阳南路)"},{"poiid":"B2094654DB6BA5FA4799","title":"欧江大厦","lon":"121.453","lat":"31.2052","category":"46","category_name":"楼宇","address":"徐汇区肇嘉浜路768号"},{"poiid":"B2094757D065A3F9489F","title":"地铁1号线 常熟路站","lon":"121.451627586","lat":"31.2051945414","category":"500","category_name":"未知分类","address":"上海常熟路"},{"poiid":"B2094655D36DA0F4409D","title":"永嘉路岳阳路","lon":"121.45166","lat":"31.20582","category":"38","category_name":"公交车站","address":""},{"poiid":"B2094757D66CA7FE469E","title":"永嘉别墅","lon":"121.45004958","lat":"31.20516194","category":"47","category_name":"住宅区","address":"徐汇区永嘉路(近乌鲁木齐南路)查看地图"},{"poiid":"B2094757D06AA5F9419C","title":"公安部第三研究所","lon":"121.45197862","lat":"31.206925644","category":"500","category_name":"未知分类","address":"上海市徐汇区岳阳路76号"},{"poiid":"B2094654DA6DA7F5479B","title":"锦都大厦","lon":"121.452","lat":"31.2059","category":"46","category_name":"楼宇","address":"闸北区江场西路38号(近共和新路)"},{"poiid":"B2094757D46FA0F44098","title":"Mature","lon":"121.45147","lat":"31.20585","category":"95","category_name":"日本料理","address":"徐汇区永嘉路570号永嘉庭1号楼2楼(近岳阳路)"},{"poiid":"B2094654DA6DA4FB499B","title":"宜家百货","lon":"121.45066","lat":"31.2055","category":"117","category_name":"便民商店/便利店","address":""},{"poiid":"B2094654DA6DA4F5419B","title":"懿园","lon":"121.45071","lat":"31.203472","category":"47","category_name":"住宅区","address":"建国西路506弄1-57号"},{"poiid":"B2094757D06FAAF84898","title":"永嘉庭创意园区","lon":"121.451179","lat":"31.205706","category":"260","category_name":"其他","address":"上海永嘉路570号"},{"poiid":"B2094757D468A4FF4293","title":"绝口老弄堂爆鱼","lon":"121.44996","lat":"31.20511","category":"68","category_name":"快餐厅","address":"徐汇区永嘉路573弄4号(近乌鲁木齐南路)"},{"poiid":"B2094654DA6DA7F54099","title":"怡甸大厦","lon":"121.453118","lat":"31.204807","category":"46","category_name":"楼宇","address":"上海市静安区南京西路555号"},{"poiid":"B2094750D26CA3FC489E","title":"寿司奈良本 永嘉路店","lon":"121.450485","lat":"31.205222","category":"95","category_name":"日本料理","address":"永嘉路557号近岳阳路"},{"poiid":"B2094750D665AAFC4192","title":"上海往事","lon":"121.449","lat":"31.2046","category":"76","category_name":"上海菜","address":"徐汇区永嘉路628号(近乌鲁木齐路)"},{"poiid":"B209475CD16CA3FD419B","title":"VITA Bistro & Bar","lon":"121.45048","lat":"31.20522","category":"65","category_name":"咖啡厅","address":"永嘉路557号花园内(近乌鲁木齐南路)"},{"poiid":"B2094757D465A4F8439B","title":"Salley Garden","lon":"121.452781","lat":"31.206169","category":"260","category_name":"其他","address":"徐汇区永嘉路480号(近岳阳路)"},{"poiid":"B2094757D068A5FC4399","title":"倾城宝贝儿童摄影","lon":"121.452685","lat":"31.206144","category":"500","category_name":"未知分类","address":"卢湾区瑞金二路24号甲(淮海中路口)"},{"poiid":"B2094757DA69A3F9429C","title":"Dione_Hair丽玺儿造型","lon":"121.45147","lat":"31.20585","category":"148","category_name":"美容美发店","address":"永嘉路570号永嘉庭1号楼3楼（近岳阳路）"},{"poiid":"B2094655D26BA0F5439D","title":"岳阳花苑","lon":"121.451","lat":"31.205034","category":"47","category_name":"住宅区","address":"岳阳路170弄5-6"},{"poiid":"B2094750D268A6FE429F","title":"人间穹六 People Six","lon":"121.452213054","lat":"31.205317793","category":"257","category_name":"中餐厅","address":"岳阳路150号近永嘉路西南角"},{"poiid":"B2094753D56AA3F44492","title":"外滩18号","lon":"121.450614","lat":"31.205938","category":"500","category_name":"未知分类","address":"上海市 南京东路外滩18号"},{"poiid":"B209475CDA6EABFA409A","title":"fount胡歌家的餐厅","lon":"121.450866","lat":"31.205974","category":"500","category_name":"未知分类","address":"上海市 上海市徐汇区永嘉路570永嘉庭fount胡歌家的餐厅"},{"poiid":"B2094654DA6DA4FB499A","title":"宜家饮食店","lon":"121.45073","lat":"31.20553","category":"257","category_name":"中餐厅","address":""},{"poiid":"B2094655D36CA3F84992","title":"岳阳花苑(北门)","lon":"121.45102","lat":"31.20525","category":"47","category_name":"住宅区","address":"岳阳路170弄5-6"},{"poiid":"B2094757D065A7FF4293","title":"高安公馆","lon":"121.44793176","lat":"31.205789923","category":"500","category_name":"未知分类","address":"徐汇区衡山路237号(近永嘉路)"},{"poiid":"B2094655D26FA5FE4999","title":"永嘉新村","lon":"121.45029","lat":"31.205946","category":"47","category_name":"住宅区","address":"永嘉路580弄1-110号"},{"poiid":"B2094654DA6DA4FB4498","title":"MAO","lon":"121.4519","lat":"31.20749","category":"172","category_name":"酒吧","address":"岳阳路46号近永嘉路"},{"poiid":"B2094757D66FA6FA479F","title":"穹六人间","lon":"121.45227","lat":"31.205613","category":"260","category_name":"其他","address":"徐汇区岳阳路150号(近永嘉路)"},{"poiid":"B2094757D66EA5FA419F","title":"FOUNT BAR","lon":"121.451112586","lat":"31.2060839588","category":"260","category_name":"其他","address":"徐汇区永嘉路570号永嘉庭5号楼1楼511号(近岳阳路)"},{"poiid":"B2094757D06FA1F94893","title":"the roof","lon":"121.45089155","lat":"31.205618961","category":"172","category_name":"酒吧","address":"徐汇区永嘉路570号永嘉庭5号楼4楼(近岳阳路)"},{"poiid":"B2094753D76FAAFA449C","title":"上海滩国泰旗舰店","lon":"121.466011","lat":"31.216125","category":"249","category_name":"购物服务","address":"淮海中路868号"},{"poiid":"B209475CD564A7F84292","title":"上海滩新天地店","lon":"121.47463","lat":"31.22164","category":"119","category_name":"商场","address":"\"太仓路181弄新天地北里15号\r\n\""},{"poiid":"B209475CD564A7F8439E","title":"上海滩中信泰富店","lon":"121.45602","lat":"31.22851","category":"119","category_name":"商场","address":"\"南京西路1168号中信泰富广场，店铺号221.\r\n\""},{"poiid":"B2094757D568AAF94199","title":"Shari","lon":"121.44823703","lat":"31.20476101","category":"95","category_name":"日本料理","address":"徐汇区永嘉路630号(近乌鲁木齐南路)"},{"poiid":"B2094757D06FA0FB429C","title":"苏浙汇(华泰大厦店)","lon":"121.450408","lat":"31.202926","category":"76","category_name":"上海菜","address":"徐汇区肇嘉浜路388号华泰大厦1-2楼(近襄阳南路)"},{"poiid":"B2094757D068ABF5409B","title":"Brown Stone","lon":"121.45122991","lat":"31.206031697","category":"172","category_name":"酒吧","address":"上海永嘉路57０号"},{"poiid":"B2094757D06AA3FA479B","title":"H2","lon":"121.449141","lat":"31.204116","category":"94","category_name":"西餐厅","address":"徐汇区乌鲁木齐南路145号(近永嘉路)"},{"poiid":"B2094757D06FA6FE4998","title":"南伶酒家","lon":"121.45245","lat":"31.20485","category":"74","category_name":"江苏菜","address":"徐汇区岳阳路168号(近永嘉路)"},{"poiid":"B2094655D265A2FA4098","title":"永嘉庭","lon":"121.45142","lat":"31.20608","category":"46","category_name":"楼宇","address":"永嘉路570"},{"poiid":"B2094757D06FA5F44792","title":"Voce Cafe","lon":"121.45129679","lat":"31.206693725","category":"260","category_name":"其他","address":"上海徐汇区永嘉路566号(近岳阳路)"},{"poiid":"B2094757D66BA1FC489A","title":"御席公馆","lon":"121.450101","lat":"31.202679","category":"97","category_name":"法式菜品餐厅","address":"徐汇区建国西路568号(近建国西路)"},{"poiid":"B2094757D068A0F8499F","title":"印度小厨(永嘉店)","lon":"121.45119","lat":"31.20528","category":"102","category_name":"印度风味","address":"徐汇区永嘉路570号永嘉庭1号楼4楼(近岳阳路)"},{"poiid":"B2094750DA68A4F44298","title":"vita bistro bar","lon":"121.450485","lat":"31.205255","category":"247","category_name":"餐饮美食","address":"徐汇区永嘉路557号花园内(近乌鲁木齐南路)"},{"poiid":"B2094757D06FA5F94093","title":"建科大厦","lon":"121.452","lat":"31.2018","category":"46","category_name":"楼宇","address":"上海徐汇区宛平南路75号"},{"poiid":"B2094750D665A2FE4299","title":"比萨马上诺(永嘉庭)","lon":"121.451","lat":"31.2057","category":"94","category_name":"西餐厅","address":"徐汇区永嘉路570号111单元(近岳阳路)"},{"poiid":"B2094654DA6DA6FC459A","title":"坤阳国际商务广场","lon":"121.452","lat":"31.2047","category":"46","category_name":"楼宇","address":"卫清西路139_149号等"},{"poiid":"B2094757D66EA6F5409F","title":"永嘉路","lon":"121.45019258","lat":"31.205445946","category":"500","category_name":"未知分类","address":"上海市徐汇区淮海中路"},{"poiid":"B2094757D16EA3FB4999","title":"Dione Hair &amp; Make up salon","lon":"121.45089235","lat":"31.205527972","category":"500","category_name":"未知分类","address":"上海永嘉路570号"},{"poiid":"B2094757D065A3FF4092","title":"Brownstone","lon":"121.451477","lat":"31.205856","category":"260","category_name":"其他","address":"徐汇区永嘉路570号永嘉庭311单元(近岳阳路)"},{"poiid":"B2094750D66EA5FA409B","title":"建国328小馆","lon":"121.44886","lat":"31.204284","category":"76","category_name":"上海菜","address":"徐汇区建国西路328号(近襄阳南路)"},{"poiid":"B2094654DB6BA5FA4799","title":"欧江大厦","lon":"121.453","lat":"31.2052","category":"46","category_name":"楼宇","address":"徐汇区肇嘉浜路768号"},{"poiid":"B2094757D065A3F9489F","title":"地铁1号线 常熟路站","lon":"121.451627586","lat":"31.2051945414","category":"500","category_name":"未知分类","address":"上海常熟路"},{"poiid":"B2094655D36DA0F4409D","title":"永嘉路岳阳路","lon":"121.45166","lat":"31.20582","category":"38","category_name":"公交车站","address":""},{"poiid":"B2094757D66CA7FE469E","title":"永嘉别墅","lon":"121.45004958","lat":"31.20516194","category":"47","category_name":"住宅区","address":"徐汇区永嘉路(近乌鲁木齐南路)查看地图"},{"poiid":"B2094757D06AA5F9419C","title":"公安部第三研究所","lon":"121.45197862","lat":"31.206925644","category":"500","category_name":"未知分类","address":"上海市徐汇区岳阳路76号"},{"poiid":"B2094654DA6DA7F5479B","title":"锦都大厦","lon":"121.452","lat":"31.2059","category":"46","category_name":"楼宇","address":"闸北区江场西路38号(近共和新路)"},{"poiid":"B2094757D46FA0F44098","title":"Mature","lon":"121.45147","lat":"31.20585","category":"95","category_name":"日本料理","address":"徐汇区永嘉路570号永嘉庭1号楼2楼(近岳阳路)"},{"poiid":"B2094654DA6DA4FB499B","title":"宜家百货","lon":"121.45066","lat":"31.2055","category":"117","category_name":"便民商店/便利店","address":""},{"poiid":"B2094654DA6DA4F5419B","title":"懿园","lon":"121.45071","lat":"31.203472","category":"47","category_name":"住宅区","address":"建国西路506弄1-57号"},{"poiid":"B2094757D06FAAF84898","title":"永嘉庭创意园区","lon":"121.451179","lat":"31.205706","category":"260","category_name":"其他","address":"上海永嘉路570号"},{"poiid":"B2094757D468A4FF4293","title":"绝口老弄堂爆鱼","lon":"121.44996","lat":"31.20511","category":"68","category_name":"快餐厅","address":"徐汇区永嘉路573弄4号(近乌鲁木齐南路)"},{"poiid":"B2094654DA6DA7F54099","title":"怡甸大厦","lon":"121.453118","lat":"31.204807","category":"46","category_name":"楼宇","address":"上海市静安区南京西路555号"},{"poiid":"B2094750D26CA3FC489E","title":"寿司奈良本 永嘉路店","lon":"121.450485","lat":"31.205222","category":"95","category_name":"日本料理","address":"永嘉路557号近岳阳路"},{"poiid":"B2094750D665AAFC4192","title":"上海往事","lon":"121.449","lat":"31.2046","category":"76","category_name":"上海菜","address":"徐汇区永嘉路628号(近乌鲁木齐路)"},{"poiid":"B209475CD16CA3FD419B","title":"VITA Bistro & Bar","lon":"121.45048","lat":"31.20522","category":"65","category_name":"咖啡厅","address":"永嘉路557号花园内(近乌鲁木齐南路)"},{"poiid":"B2094757D465A4F8439B","title":"Salley Garden","lon":"121.452781","lat":"31.206169","category":"260","category_name":"其他","address":"徐汇区永嘉路480号(近岳阳路)"},{"poiid":"B2094757D068A5FC4399","title":"倾城宝贝儿童摄影","lon":"121.452685","lat":"31.206144","category":"500","category_name":"未知分类","address":"卢湾区瑞金二路24号甲(淮海中路口)"},{"poiid":"B2094757DA69A3F9429C","title":"Dione_Hair丽玺儿造型","lon":"121.45147","lat":"31.20585","category":"148","category_name":"美容美发店","address":"永嘉路570号永嘉庭1号楼3楼（近岳阳路）"},{"poiid":"B2094655D26BA0F5439D","title":"岳阳花苑","lon":"121.451","lat":"31.205034","category":"47","category_name":"住宅区","address":"岳阳路170弄5-6"},{"poiid":"B2094750D268A6FE429F","title":"人间穹六 People Six","lon":"121.452213054","lat":"31.205317793","category":"257","category_name":"中餐厅","address":"岳阳路150号近永嘉路西南角"},{"poiid":"B2094753D56AA3F44492","title":"外滩18号","lon":"121.450614","lat":"31.205938","category":"500","category_name":"未知分类","address":"上海市 南京东路外滩18号"},{"poiid":"B209475CDA6EABFA409A","title":"fount胡歌家的餐厅","lon":"121.450866","lat":"31.205974","category":"500","category_name":"未知分类","address":"上海市 上海市徐汇区永嘉路570永嘉庭fount胡歌家的餐厅"},{"poiid":"B2094654DA6DA4FB499A","title":"宜家饮食店","lon":"121.45073","lat":"31.20553","category":"257","category_name":"中餐厅","address":""},{"poiid":"B2094655D36CA3F84992","title":"岳阳花苑(北门)","lon":"121.45102","lat":"31.20525","category":"47","category_name":"住宅区","address":"岳阳路170弄5-6"},{"poiid":"B2094757D065A7FF4293","title":"高安公馆","lon":"121.44793176","lat":"31.205789923","category":"500","category_name":"未知分类","address":"徐汇区衡山路237号(近永嘉路)"},{"poiid":"B2094655D26FA5FE4999","title":"永嘉新村","lon":"121.45029","lat":"31.205946","category":"47","category_name":"住宅区","address":"永嘉路580弄1-110号"},{"poiid":"B2094654DA6DA4FB4498","title":"MAO","lon":"121.4519","lat":"31.20749","category":"172","category_name":"酒吧","address":"岳阳路46号近永嘉路"},{"poiid":"B2094757D66FA6FA479F","title":"穹六人间","lon":"121.45227","lat":"31.205613","category":"260","category_name":"其他","address":"徐汇区岳阳路150号(近永嘉路)"},{"poiid":"B2094757D66EA5FA419F","title":"FOUNT BAR","lon":"121.451112586","lat":"31.2060839588","category":"260","category_name":"其他","address":"徐汇区永嘉路570号永嘉庭5号楼1楼511号(近岳阳路)"},{"poiid":"B2094757D06FA1F94893","title":"the roof","lon":"121.45089155","lat":"31.205618961","category":"172","category_name":"酒吧","address":"徐汇区永嘉路570号永嘉庭5号楼4楼(近岳阳路)"},{"poiid":"B2094753D76FAAFA449C","title":"上海滩国泰旗舰店","lon":"121.466011","lat":"31.216125","category":"249","category_name":"购物服务","address":"淮海中路868号"},{"poiid":"B209475CD564A7F84292","title":"上海滩新天地店","lon":"121.47463","lat":"31.22164","category":"119","category_name":"商场","address":"\"太仓路181弄新天地北里15号\r\n\""},{"poiid":"B209475CD564A7F8439E","title":"上海滩中信泰富店","lon":"121.45602","lat":"31.22851","category":"119","category_name":"商场","address":"\"南京西路1168号中信泰富广场，店铺号221.\r\n\""},{"poiid":"B2094757D568AAF94199","title":"Shari","lon":"121.44823703","lat":"31.20476101","category":"95","category_name":"日本料理","address":"徐汇区永嘉路630号(近乌鲁木齐南路)"},{"poiid":"B2094757D06FA0FB429C","title":"苏浙汇(华泰大厦店)","lon":"121.450408","lat":"31.202926","category":"76","category_name":"上海菜","address":"徐汇区肇嘉浜路388号华泰大厦1-2楼(近襄阳南路)"},{"poiid":"B2094757D068ABF5409B","title":"Brown Stone","lon":"121.45122991","lat":"31.206031697","category":"172","category_name":"酒吧","address":"上海永嘉路57０号"},{"poiid":"B2094757D06AA3FA479B","title":"H2","lon":"121.449141","lat":"31.204116","category":"94","category_name":"西餐厅","address":"徐汇区乌鲁木齐南路145号(近永嘉路)"},{"poiid":"B2094757D06FA6FE4998","title":"南伶酒家","lon":"121.45245","lat":"31.20485","category":"74","category_name":"江苏菜","address":"徐汇区岳阳路168号(近永嘉路)"},{"poiid":"B2094655D265A2FA4098","title":"永嘉庭","lon":"121.45142","lat":"31.20608","category":"46","category_name":"楼宇","address":"永嘉路570"},{"poiid":"B2094757D06FA5F44792","title":"Voce Cafe","lon":"121.45129679","lat":"31.206693725","category":"260","category_name":"其他","address":"上海徐汇区永嘉路566号(近岳阳路)"},{"poiid":"B2094757D66BA1FC489A","title":"御席公馆","lon":"121.450101","lat":"31.202679","category":"97","category_name":"法式菜品餐厅","address":"徐汇区建国西路568号(近建国西路)"},{"poiid":"B2094757D068A0F8499F","title":"印度小厨(永嘉店)","lon":"121.45119","lat":"31.20528","category":"102","category_name":"印度风味","address":"徐汇区永嘉路570号永嘉庭1号楼4楼(近岳阳路)"},{"poiid":"B2094750DA68A4F44298","title":"vita bistro bar","lon":"121.450485","lat":"31.205255","category":"247","category_name":"餐饮美食","address":"徐汇区永嘉路557号花园内(近乌鲁木齐南路)"},{"poiid":"B2094757D06FA5F94093","title":"建科大厦","lon":"121.452","lat":"31.2018","category":"46","category_name":"楼宇","address":"上海徐汇区宛平南路75号"},{"poiid":"B2094750D665A2FE4299","title":"比萨马上诺(永嘉庭)","lon":"121.451","lat":"31.2057","category":"94","category_name":"西餐厅","address":"徐汇区永嘉路570号111单元(近岳阳路)"},{"poiid":"B2094654DA6DA6FC459A","title":"坤阳国际商务广场","lon":"121.452","lat":"31.2047","category":"46","category_name":"楼宇","address":"卫清西路139_149号等"},{"poiid":"B2094757D66EA6F5409F","title":"永嘉路","lon":"121.45019258","lat":"31.205445946","category":"500","category_name":"未知分类","address":"上海市徐汇区淮海中路"},{"poiid":"B2094757D16EA3FB4999","title":"Dione Hair &amp; Make up salon","lon":"121.45089235","lat":"31.205527972","category":"500","category_name":"未知分类","address":"上海永嘉路570号"},{"poiid":"B2094757D065A3FF4092","title":"Brownstone","lon":"121.451477","lat":"31.205856","category":"260","category_name":"其他","address":"徐汇区永嘉路570号永嘉庭311单元(近岳阳路)"},{"poiid":"B2094750D66EA5FA409B","title":"建国328小馆","lon":"121.44886","lat":"31.204284","category":"76","category_name":"上海菜","address":"徐汇区建国西路328号(近襄阳南路)"},{"poiid":"B2094654DB6BA5FA4799","title":"欧江大厦","lon":"121.453","lat":"31.2052","category":"46","category_name":"楼宇","address":"徐汇区肇嘉浜路768号"},{"poiid":"B2094757D065A3F9489F","title":"地铁1号线 常熟路站","lon":"121.451627586","lat":"31.2051945414","category":"500","category_name":"未知分类","address":"上海常熟路"},{"poiid":"B2094655D36DA0F4409D","title":"永嘉路岳阳路","lon":"121.45166","lat":"31.20582","category":"38","category_name":"公交车站","address":""},{"poiid":"B2094757D66CA7FE469E","title":"永嘉别墅","lon":"121.45004958","lat":"31.20516194","category":"47","category_name":"住宅区","address":"徐汇区永嘉路(近乌鲁木齐南路)查看地图"},{"poiid":"B2094757D06AA5F9419C","title":"公安部第三研究所","lon":"121.45197862","lat":"31.206925644","category":"500","category_name":"未知分类","address":"上海市徐汇区岳阳路76号"},{"poiid":"B2094654DA6DA7F5479B","title":"锦都大厦","lon":"121.452","lat":"31.2059","category":"46","category_name":"楼宇","address":"闸北区江场西路38号(近共和新路)"},{"poiid":"B2094757D46FA0F44098","title":"Mature","lon":"121.45147","lat":"31.20585","category":"95","category_name":"日本料理","address":"徐汇区永嘉路570号永嘉庭1号楼2楼(近岳阳路)"},{"poiid":"B2094654DA6DA4FB499B","title":"宜家百货","lon":"121.45066","lat":"31.2055","category":"117","category_name":"便民商店/便利店","address":""},{"poiid":"B2094654DA6DA4F5419B","title":"懿园","lon":"121.45071","lat":"31.203472","category":"47","category_name":"住宅区","address":"建国西路506弄1-57号"},{"poiid":"B2094757D06FAAF84898","title":"永嘉庭创意园区","lon":"121.451179","lat":"31.205706","category":"260","category_name":"其他","address":"上海永嘉路570号"},{"poiid":"B2094757D468A4FF4293","title":"绝口老弄堂爆鱼","lon":"121.44996","lat":"31.20511","category":"68","category_name":"快餐厅","address":"徐汇区永嘉路573弄4号(近乌鲁木齐南路)"},{"poiid":"B2094654DA6DA7F54099","title":"怡甸大厦","lon":"121.453118","lat":"31.204807","category":"46","category_name":"楼宇","address":"上海市静安区南京西路555号"},{"poiid":"B2094750D26CA3FC489E","title":"寿司奈良本 永嘉路店","lon":"121.450485","lat":"31.205222","category":"95","category_name":"日本料理","address":"永嘉路557号近岳阳路"},{"poiid":"B2094750D665AAFC4192","title":"上海往事","lon":"121.449","lat":"31.2046","category":"76","category_name":"上海菜","address":"徐汇区永嘉路628号(近乌鲁木齐路)"},{"poiid":"B209475CD16CA3FD419B","title":"VITA Bistro & Bar","lon":"121.45048","lat":"31.20522","category":"65","category_name":"咖啡厅","address":"永嘉路557号花园内(近乌鲁木齐南路)"},{"poiid":"B2094757D465A4F8439B","title":"Salley Garden","lon":"121.452781","lat":"31.206169","category":"260","category_name":"其他","address":"徐汇区永嘉路480号(近岳阳路)"},{"poiid":"B2094757D068A5FC4399","title":"倾城宝贝儿童摄影","lon":"121.452685","lat":"31.206144","category":"500","category_name":"未知分类","address":"卢湾区瑞金二路24号甲(淮海中路口)"},{"poiid":"B2094757DA69A3F9429C","title":"Dione_Hair丽玺儿造型","lon":"121.45147","lat":"31.20585","category":"148","category_name":"美容美发店","address":"永嘉路570号永嘉庭1号楼3楼（近岳阳路）"},{"poiid":"B2094655D26BA0F5439D","title":"岳阳花苑","lon":"121.451","lat":"31.205034","category":"47","category_name":"住宅区","address":"岳阳路170弄5-6"},{"poiid":"B2094750D268A6FE429F","title":"人间穹六 People Six","lon":"121.452213054","lat":"31.205317793","category":"257","category_name":"中餐厅","address":"岳阳路150号近永嘉路西南角"},{"poiid":"B2094753D56AA3F44492","title":"外滩18号","lon":"121.450614","lat":"31.205938","category":"500","category_name":"未知分类","address":"上海市 南京东路外滩18号"},{"poiid":"B209475CDA6EABFA409A","title":"fount胡歌家的餐厅","lon":"121.450866","lat":"31.205974","category":"500","category_name":"未知分类","address":"上海市 上海市徐汇区永嘉路570永嘉庭fount胡歌家的餐厅"},{"poiid":"B2094654DA6DA4FB499A","title":"宜家饮食店","lon":"121.45073","lat":"31.20553","category":"257","category_name":"中餐厅","address":""},{"poiid":"B2094655D36CA3F84992","title":"岳阳花苑(北门)","lon":"121.45102","lat":"31.20525","category":"47","category_name":"住宅区","address":"岳阳路170弄5-6"},{"poiid":"B2094757D065A7FF4293","title":"高安公馆","lon":"121.44793176","lat":"31.205789923","category":"500","category_name":"未知分类","address":"徐汇区衡山路237号(近永嘉路)"},{"poiid":"B2094655D26FA5FE4999","title":"永嘉新村","lon":"121.45029","lat":"31.205946","category":"47","category_name":"住宅区","address":"永嘉路580弄1-110号"},{"poiid":"B2094654DA6DA4FB4498","title":"MAO","lon":"121.4519","lat":"31.20749","category":"172","category_name":"酒吧","address":"岳阳路46号近永嘉路"}]