[{"poiid":"B2094750D76CA3FC4492","title":"金钱豹(杨树浦路店)","lon":"121.557","lat":"31.2714","category":"87","category_name":"特色／地方风味餐厅","address":"杨树浦路2866号(近内江路6月开业)"},{"poiid":"B2094757D06FA2FA429B","title":"上海国际时尚中心","lon":"121.55726862","lat":"31.270837313","category":"260","category_name":"其他","address":"杨浦区杨树浦路2866号(近内江路)"},{"poiid":"B2094654D56FA7F44298","title":"上海市杨浦区中心医院","lon":"121.55075","lat":"31.27167","category":"162","category_name":"医院","address":"杨浦区腾越路450号(海州路腾越路)"},{"poiid":"B2094752D36BA0F8479F","title":"星巴克(杨树浦路店)","lon":"121.557357","lat":"31.271385","category":"247","category_name":"餐饮美食","address":"杨浦区杨树浦路2866号(近内江路)"},{"poiid":"B2094757D06FA5F4479B","title":"白洋淀足球场","lon":"121.5528030307579","lat":"31.28180025940597","category":"220","category_name":"运动场所","address":"杨浦区周家嘴路4214弄22号(靠近爱国路)"},{"poiid":"B2094757D06FA5FD439C","title":"定海路","lon":"121.553181","lat":"31.27667","category":"500","category_name":"未知分类","address":"上海定海路"},{"poiid":"B2094757D06FA5FB4598","title":"中轩丽苑","lon":"121.55443399","lat":"31.278625913","category":"47","category_name":"住宅区","address":"上海平凉路2625弄"},{"poiid":"B2094757D06BA5FE4799","title":"定海桥轮渡站","lon":"121.56264308","lat":"31.272182024","category":"500","category_name":"未知分类","address":"上海共青路4号"},{"poiid":"B2094757D068A2F44398","title":"白洋淀羽毛球馆","lon":"121.5524","lat":"31.28138","category":"220","category_name":"运动场所","address":"杨浦区周家嘴路4214弄22号白洋淀足球场内(近内江路)"},{"poiid":"B2094750DB6DA0F5409A","title":"米瑟 MIXER","lon":"121.557283","lat":"31.271839","category":"67","category_name":"甜品店","address":"杨浦区杨树浦路2866号国际时尚中心(近内江路)"},{"poiid":"B2094757D068A6FD4998","title":"益民小区","lon":"121.55239","lat":"31.277092","category":"47","category_name":"住宅区","address":"上海平凉路2545弄"},{"poiid":"B2094757D068A4FE4692","title":"平凉路第四小学","lon":"121.557","lat":"31.27798","category":"56","category_name":"小学","address":"杨浦区平凉路2767弄5号(近军工路)"},{"poiid":"B2094757D06AA5FD459A","title":"杨浦区中心医院急诊室","lon":"121.549722203","lat":"31.2726692692","category":"902","category_name":"楼宇机构","address":null},{"poiid":"B2094750D56AA0FC479C","title":"东外滩1号","lon":"121.554301","lat":"31.273948","category":"47","category_name":"住宅区","address":"杨浦区内江路16弄(近杨树浦路)"},{"poiid":"B2094757D068A2FB4098","title":"25路平凉路军工路站","lon":"121.557719756","lat":"31.2785505256","category":"38","category_name":"公交车站","address":"上海杨浦区平凉路军工路"},{"poiid":"B2094654DB6BA2F84393","title":"上海市杨浦区中心医院门诊","lon":"121.54994","lat":"31.27151","category":"162","category_name":"医院","address":"腾越路450号"},{"poiid":"B2094757D064A2F84999","title":"杨浦区委党校","lon":"121.55581399","lat":"31.277936695","category":"253","category_name":"校园生活","address":"上海杨浦区平凉路2691号"},{"poiid":"B2094655D26BA1FC489C","title":"平凉路定海路","lon":"121.55397","lat":"31.27721","category":"38","category_name":"公交车站","address":""},{"poiid":"B2094654D568A3FE4798","title":"定海社区卫生服务中心","lon":"121.55294","lat":"31.27844","category":"162","category_name":"医院","address":"爱国路77号"},{"poiid":"B2094757D168A4F9449C","title":"村夫烤鱼 重庆鸡公煲","lon":"121.5535023","lat":"31.276778955","category":"71","category_name":"四川菜","address":"杨浦区平凉路2539号(近爱国路)"},{"poiid":"B2094757D06FA6F8469E","title":"安居花苑","lon":"121.54992","lat":"31.27841","category":"47","category_name":"住宅区","address":"上海市杨浦区内江路168号(长阳路内江路口)"},{"poiid":"B2094751DA65A4F5479E","title":"星巴克","lon":"121.556102","lat":"31.274213","category":"247","category_name":"餐饮美食","address":"杨树浦路店"},{"poiid":"B2094751DA6AAAF54099","title":"星巴克时尚中心店","lon":"121.558759","lat":"31.271","category":"247","category_name":"餐饮美食","address":null},{"poiid":"B2094757D16BA2FE4098","title":"上海航天802研究所","lon":"121.55847533","lat":"31.276697411","category":"500","category_name":"未知分类","address":"上海市杨浦区黎平路218号"},{"poiid":"B2094757D069A6F94293","title":"平凉小区","lon":"121.55817","lat":"31.277742","category":"47","category_name":"住宅区","address":"上海市杨浦区平凉路2828弄"},{"poiid":"B2094757D065A3FE4398","title":"建设新苑","lon":"121.55087","lat":"31.278669","category":"47","category_name":"住宅区","address":"上海市杨浦区爱国路301弄"},{"poiid":"B2094655D36DA0F9429A","title":"杨树浦路内江路","lon":"121.55652","lat":"31.2711","category":"38","category_name":"公交车站","address":""},{"poiid":"B2094654D568A3FF4592","title":"凯迪牛奶棚(平凉路)","lon":"121.55531","lat":"31.27763","category":"112","category_name":"糕饼店","address":""},{"poiid":"B2094750DB6DA1FC4293","title":"杨浦 奥特莱斯","lon":"121.55368","lat":"31.272339","category":"249","category_name":"购物服务","address":"杨树浦路"},{"poiid":"B2094654D568A3FF4593","title":"白洋淀新村","lon":"121.55521","lat":"31.278118","category":"47","category_name":"住宅区","address":"平凉路2677"},{"poiid":"B2094654D568A3F8439F","title":"上海延吉经济园区航天新亚都市工业园","lon":"121.55636","lat":"31.2774","category":"45","category_name":"产业园区","address":"平凉路2716"},{"poiid":"B2094757D66FA2FF4598","title":"馨园家常菜","lon":"121.5529","lat":"31.27632","category":"76","category_name":"上海菜","address":"杨浦区平凉路2537号(近爱国路)"},{"poiid":"B2094654D568A3F84699","title":"上海延吉经济园区航天新亚都市工业园(北门)","lon":"121.55593","lat":"31.27749","category":"45","category_name":"产业园区","address":"平凉路2716"},{"poiid":"B2094654D568A3F8489C","title":"四一八杂货店","lon":"121.55781","lat":"31.27577","category":"117","category_name":"便民商店/便利店","address":"定海港路418"},{"poiid":"B2094757D16DABF94099","title":"定海桥","lon":"121.56081333","lat":"31.271165283","category":"500","category_name":"未知分类","address":"上海杨浦区定海路"},{"poiid":"B2094757D66CA1FD449B","title":"来香缘酒家","lon":"121.555331","lat":"31.27735","category":"247","category_name":"餐饮美食","address":"上海杨浦区平凉路2684号"},{"poiid":"B2094757D66DAAFF479E","title":"华源大药房(平凉路店)","lon":"121.55616","lat":"31.27748","category":"162","category_name":"医院","address":"上海杨浦区平凉路2707号(近通北路)  "},{"poiid":"B2094757D168A5F4479C","title":"定海路烧烤摊","lon":"121.553839103","lat":"31.2772445648","category":"247","category_name":"餐饮美食","address":"上海平凉路定海路"},{"poiid":"B2094655D264A1FF4592","title":"中轩丽苑二期","lon":"121.55572","lat":"31.27803","category":"47","category_name":"住宅区","address":"上海市杨浦区平凉路2691号"},{"poiid":"B2094655D26CA6FC459F","title":"好德No.728","lon":"121.5568","lat":"31.27799","category":"117","category_name":"便民商店/便利店","address":"平凉路2761"},{"poiid":"B2094654DB6BA2F4419F","title":"光明便利No.204","lon":"121.55495","lat":"31.27752","category":"117","category_name":"便民商店/便利店","address":"平凉路2663"},{"poiid":"B2094654D568A3FF449A","title":"快客No.6956","lon":"121.5567","lat":"31.27796","category":"117","category_name":"便民商店/便利店","address":"平凉路2753"},{"poiid":"B2094655D264A1F84899","title":"湘府飨菜","lon":"121.55502","lat":"31.27742","category":"77","category_name":"湖南菜","address":"杨浦区平凉路340号(临青路平凉路)"},{"poiid":"B2094655D26DABFE479C","title":"定海路170弄小区","lon":"121.55779","lat":"31.27389","category":"47","category_name":"住宅区","address":"定海路170弄"},{"poiid":"B2094654D568A3FF4192","title":"樟树缘公寓","lon":"121.55685","lat":"31.281164","category":"47","category_name":"住宅区","address":"上海市杨浦区军工路89号"},{"poiid":"B2094757D16CA0F44193","title":"东外滩一号","lon":"121.5498301","lat":"31.271440443","category":"500","category_name":"未知分类","address":"上海市杨浦区内江路(近杨树浦路)"},{"poiid":"B2094757D16CA2FE4793","title":"黎平路杨树浦路","lon":"121.55920333","lat":"31.275318379","category":"500","category_name":"未知分类","address":"上海黎平路杨树浦路"},{"poiid":"B2094655D26EA7FC409B","title":"定海路街道定港居委会图书室","lon":"121.55864","lat":"31.27608","category":"181","category_name":"图书馆","address":"定海港路445"},{"poiid":"B2094655D26BA1FC4898","title":"平凉路贵阳路","lon":"121.5497","lat":"31.27382","category":"38","category_name":"公交车站","address":""},{"poiid":"B2094654D568A3F84899","title":"黎平路幼儿园","lon":"121.55844","lat":"31.27749","category":"57","category_name":"幼儿园","address":"杨浦区平凉路2828弄4号"},{"poiid":"B2094750D76CA3FC4492","title":"金钱豹(杨树浦路店)","lon":"121.557","lat":"31.2714","category":"87","category_name":"特色／地方风味餐厅","address":"杨树浦路2866号(近内江路6月开业)"},{"poiid":"B2094757D06FA2FA429B","title":"上海国际时尚中心","lon":"121.55726862","lat":"31.270837313","category":"260","category_name":"其他","address":"杨浦区杨树浦路2866号(近内江路)"},{"poiid":"B2094654D56FA7F44298","title":"上海市杨浦区中心医院","lon":"121.55075","lat":"31.27167","category":"162","category_name":"医院","address":"杨浦区腾越路450号(海州路腾越路)"},{"poiid":"B2094752D36BA0F8479F","title":"星巴克(杨树浦路店)","lon":"121.557357","lat":"31.271385","category":"247","category_name":"餐饮美食","address":"杨浦区杨树浦路2866号(近内江路)"},{"poiid":"B2094757D06FA5F4479B","title":"白洋淀足球场","lon":"121.5528030307579","lat":"31.28180025940597","category":"220","category_name":"运动场所","address":"杨浦区周家嘴路4214弄22号(靠近爱国路)"},{"poiid":"B2094757D06FA5FD439C","title":"定海路","lon":"121.553181","lat":"31.27667","category":"500","category_name":"未知分类","address":"上海定海路"},{"poiid":"B2094757D06FA5FB4598","title":"中轩丽苑","lon":"121.55443399","lat":"31.278625913","category":"47","category_name":"住宅区","address":"上海平凉路2625弄"},{"poiid":"B2094757D06BA5FE4799","title":"定海桥轮渡站","lon":"121.56264308","lat":"31.272182024","category":"500","category_name":"未知分类","address":"上海共青路4号"},{"poiid":"B2094757D068A2F44398","title":"白洋淀羽毛球馆","lon":"121.5524","lat":"31.28138","category":"220","category_name":"运动场所","address":"杨浦区周家嘴路4214弄22号白洋淀足球场内(近内江路)"},{"poiid":"B2094750DB6DA0F5409A","title":"米瑟 MIXER","lon":"121.557283","lat":"31.271839","category":"67","category_name":"甜品店","address":"杨浦区杨树浦路2866号国际时尚中心(近内江路)"},{"poiid":"B2094757D068A6FD4998","title":"益民小区","lon":"121.55239","lat":"31.277092","category":"47","category_name":"住宅区","address":"上海平凉路2545弄"},{"poiid":"B2094757D068A4FE4692","title":"平凉路第四小学","lon":"121.557","lat":"31.27798","category":"56","category_name":"小学","address":"杨浦区平凉路2767弄5号(近军工路)"},{"poiid":"B2094757D06AA5FD459A","title":"杨浦区中心医院急诊室","lon":"121.549722203","lat":"31.2726692692","category":"902","category_name":"楼宇机构","address":null},{"poiid":"B2094750D56AA0FC479C","title":"东外滩1号","lon":"121.554301","lat":"31.273948","category":"47","category_name":"住宅区","address":"杨浦区内江路16弄(近杨树浦路)"},{"poiid":"B2094757D068A2FB4098","title":"25路平凉路军工路站","lon":"121.557719756","lat":"31.2785505256","category":"38","category_name":"公交车站","address":"上海杨浦区平凉路军工路"},{"poiid":"B2094654DB6BA2F84393","title":"上海市杨浦区中心医院门诊","lon":"121.54994","lat":"31.27151","category":"162","category_name":"医院","address":"腾越路450号"},{"poiid":"B2094757D064A2F84999","title":"杨浦区委党校","lon":"121.55581399","lat":"31.277936695","category":"253","category_name":"校园生活","address":"上海杨浦区平凉路2691号"},{"poiid":"B2094655D26BA1FC489C","title":"平凉路定海路","lon":"121.55397","lat":"31.27721","category":"38","category_name":"公交车站","address":""},{"poiid":"B2094654D568A3FE4798","title":"定海社区卫生服务中心","lon":"121.55294","lat":"31.27844","category":"162","category_name":"医院","address":"爱国路77号"},{"poiid":"B2094757D168A4F9449C","title":"村夫烤鱼 重庆鸡公煲","lon":"121.5535023","lat":"31.276778955","category":"71","category_name":"四川菜","address":"杨浦区平凉路2539号(近爱国路)"},{"poiid":"B2094757D06FA6F8469E","title":"安居花苑","lon":"121.54992","lat":"31.27841","category":"47","category_name":"住宅区","address":"上海市杨浦区内江路168号(长阳路内江路口)"},{"poiid":"B2094751DA65A4F5479E","title":"星巴克","lon":"121.556102","lat":"31.274213","category":"247","category_name":"餐饮美食","address":"杨树浦路店"},{"poiid":"B2094751DA6AAAF54099","title":"星巴克时尚中心店","lon":"121.558759","lat":"31.271","category":"247","category_name":"餐饮美食","address":null},{"poiid":"B2094757D16BA2FE4098","title":"上海航天802研究所","lon":"121.55847533","lat":"31.276697411","category":"500","category_name":"未知分类","address":"上海市杨浦区黎平路218号"},{"poiid":"B2094757D069A6F94293","title":"平凉小区","lon":"121.55817","lat":"31.277742","category":"47","category_name":"住宅区","address":"上海市杨浦区平凉路2828弄"},{"poiid":"B2094757D065A3FE4398","title":"建设新苑","lon":"121.55087","lat":"31.278669","category":"47","category_name":"住宅区","address":"上海市杨浦区爱国路301弄"},{"poiid":"B2094655D36DA0F9429A","title":"杨树浦路内江路","lon":"121.55652","lat":"31.2711","category":"38","category_name":"公交车站","address":""},{"poiid":"B2094654D568A3FF4592","title":"凯迪牛奶棚(平凉路)","lon":"121.55531","lat":"31.27763","category":"112","category_name":"糕饼店","address":""},{"poiid":"B2094750DB6DA1FC4293","title":"杨浦 奥特莱斯","lon":"121.55368","lat":"31.272339","category":"249","category_name":"购物服务","address":"杨树浦路"},{"poiid":"B2094654D568A3FF4593","title":"白洋淀新村","lon":"121.55521","lat":"31.278118","category":"47","category_name":"住宅区","address":"平凉路2677"},{"poiid":"B2094654D568A3F8439F","title":"上海延吉经济园区航天新亚都市工业园","lon":"121.55636","lat":"31.2774","category":"45","category_name":"产业园区","address":"平凉路2716"},{"poiid":"B2094757D66FA2FF4598","title":"馨园家常菜","lon":"121.5529","lat":"31.27632","category":"76","category_name":"上海菜","address":"杨浦区平凉路2537号(近爱国路)"},{"poiid":"B2094654D568A3F84699","title":"上海延吉经济园区航天新亚都市工业园(北门)","lon":"121.55593","lat":"31.27749","category":"45","category_name":"产业园区","address":"平凉路2716"},{"poiid":"B2094654D568A3F8489C","title":"四一八杂货店","lon":"121.55781","lat":"31.27577","category":"117","category_name":"便民商店/便利店","address":"定海港路418"},{"poiid":"B2094757D16DABF94099","title":"定海桥","lon":"121.56081333","lat":"31.271165283","category":"500","category_name":"未知分类","address":"上海杨浦区定海路"},{"poiid":"B2094757D66CA1FD449B","title":"来香缘酒家","lon":"121.555331","lat":"31.27735","category":"247","category_name":"餐饮美食","address":"上海杨浦区平凉路2684号"},{"poiid":"B2094757D66DAAFF479E","title":"华源大药房(平凉路店)","lon":"121.55616","lat":"31.27748","category":"162","category_name":"医院","address":"上海杨浦区平凉路2707号(近通北路)  "},{"poiid":"B2094757D168A5F4479C","title":"定海路烧烤摊","lon":"121.553839103","lat":"31.2772445648","category":"247","category_name":"餐饮美食","address":"上海平凉路定海路"},{"poiid":"B2094655D264A1FF4592","title":"中轩丽苑二期","lon":"121.55572","lat":"31.27803","category":"47","category_name":"住宅区","address":"上海市杨浦区平凉路2691号"},{"poiid":"B2094655D26CA6FC459F","title":"好德No.728","lon":"121.5568","lat":"31.27799","category":"117","category_name":"便民商店/便利店","address":"平凉路2761"},{"poiid":"B2094654DB6BA2F4419F","title":"光明便利No.204","lon":"121.55495","lat":"31.27752","category":"117","category_name":"便民商店/便利店","address":"平凉路2663"},{"poiid":"B2094654D568A3FF449A","title":"快客No.6956","lon":"121.5567","lat":"31.27796","category":"117","category_name":"便民商店/便利店","address":"平凉路2753"},{"poiid":"B2094655D264A1F84899","title":"湘府飨菜","lon":"121.55502","lat":"31.27742","category":"77","category_name":"湖南菜","address":"杨浦区平凉路340号(临青路平凉路)"},{"poiid":"B2094655D26DABFE479C","title":"定海路170弄小区","lon":"121.55779","lat":"31.27389","category":"47","category_name":"住宅区","address":"定海路170弄"},{"poiid":"B2094654D568A3FF4192","title":"樟树缘公寓","lon":"121.55685","lat":"31.281164","category":"47","category_name":"住宅区","address":"上海市杨浦区军工路89号"},{"poiid":"B2094757D16CA0F44193","title":"东外滩一号","lon":"121.5498301","lat":"31.271440443","category":"500","category_name":"未知分类","address":"上海市杨浦区内江路(近杨树浦路)"},{"poiid":"B2094757D16CA2FE4793","title":"黎平路杨树浦路","lon":"121.55920333","lat":"31.275318379","category":"500","category_name":"未知分类","address":"上海黎平路杨树浦路"},{"poiid":"B2094655D26EA7FC409B","title":"定海路街道定港居委会图书室","lon":"121.55864","lat":"31.27608","category":"181","category_name":"图书馆","address":"定海港路445"},{"poiid":"B2094655D26BA1FC4898","title":"平凉路贵阳路","lon":"121.5497","lat":"31.27382","category":"38","category_name":"公交车站","address":""},{"poiid":"B2094654D568A3F84899","title":"黎平路幼儿园","lon":"121.55844","lat":"31.27749","category":"57","category_name":"幼儿园","address":"杨浦区平凉路2828弄4号"},{"poiid":"B2094750D76CA3FC4492","title":"金钱豹(杨树浦路店)","lon":"121.557","lat":"31.2714","category":"87","category_name":"特色／地方风味餐厅","address":"杨树浦路2866号(近内江路6月开业)"},{"poiid":"B2094757D06FA2FA429B","title":"上海国际时尚中心","lon":"121.55726862","lat":"31.270837313","category":"260","category_name":"其他","address":"杨浦区杨树浦路2866号(近内江路)"},{"poiid":"B2094654D56FA7F44298","title":"上海市杨浦区中心医院","lon":"121.55075","lat":"31.27167","category":"162","category_name":"医院","address":"杨浦区腾越路450号(海州路腾越路)"},{"poiid":"B2094752D36BA0F8479F","title":"星巴克(杨树浦路店)","lon":"121.557357","lat":"31.271385","category":"247","category_name":"餐饮美食","address":"杨浦区杨树浦路2866号(近内江路)"},{"poiid":"B2094757D06FA5F4479B","title":"白洋淀足球场","lon":"121.5528030307579","lat":"31.28180025940597","category":"220","category_name":"运动场所","address":"杨浦区周家嘴路4214弄22号(靠近爱国路)"},{"poiid":"B2094757D06FA5FD439C","title":"定海路","lon":"121.553181","lat":"31.27667","category":"500","category_name":"未知分类","address":"上海定海路"},{"poiid":"B2094757D06FA5FB4598","title":"中轩丽苑","lon":"121.55443399","lat":"31.278625913","category":"47","category_name":"住宅区","address":"上海平凉路2625弄"},{"poiid":"B2094757D06BA5FE4799","title":"定海桥轮渡站","lon":"121.56264308","lat":"31.272182024","category":"500","category_name":"未知分类","address":"上海共青路4号"},{"poiid":"B2094757D068A2F44398","title":"白洋淀羽毛球馆","lon":"121.5524","lat":"31.28138","category":"220","category_name":"运动场所","address":"杨浦区周家嘴路4214弄22号白洋淀足球场内(近内江路)"},{"poiid":"B2094750DB6DA0F5409A","title":"米瑟 MIXER","lon":"121.557283","lat":"31.271839","category":"67","category_name":"甜品店","address":"杨浦区杨树浦路2866号国际时尚中心(近内江路)"},{"poiid":"B2094757D068A6FD4998","title":"益民小区","lon":"121.55239","lat":"31.277092","category":"47","category_name":"住宅区","address":"上海平凉路2545弄"},{"poiid":"B2094757D068A4FE4692","title":"平凉路第四小学","lon":"121.557","lat":"31.27798","category":"56","category_name":"小学","address":"杨浦区平凉路2767弄5号(近军工路)"},{"poiid":"B2094757D06AA5FD459A","title":"杨浦区中心医院急诊室","lon":"121.549722203","lat":"31.2726692692","category":"902","category_name":"楼宇机构","address":null},{"poiid":"B2094750D56AA0FC479C","title":"东外滩1号","lon":"121.554301","lat":"31.273948","category":"47","category_name":"住宅区","address":"杨浦区内江路16弄(近杨树浦路)"},{"poiid":"B2094757D068A2FB4098","title":"25路平凉路军工路站","lon":"121.557719756","lat":"31.2785505256","category":"38","category_name":"公交车站","address":"上海杨浦区平凉路军工路"},{"poiid":"B2094654DB6BA2F84393","title":"上海市杨浦区中心医院门诊","lon":"121.54994","lat":"31.27151","category":"162","category_name":"医院","address":"腾越路450号"},{"poiid":"B2094757D064A2F84999","title":"杨浦区委党校","lon":"121.55581399","lat":"31.277936695","category":"253","category_name":"校园生活","address":"上海杨浦区平凉路2691号"},{"poiid":"B2094655D26BA1FC489C","title":"平凉路定海路","lon":"121.55397","lat":"31.27721","category":"38","category_name":"公交车站","address":""},{"poiid":"B2094654D568A3FE4798","title":"定海社区卫生服务中心","lon":"121.55294","lat":"31.27844","category":"162","category_name":"医院","address":"爱国路77号"},{"poiid":"B2094757D168A4F9449C","title":"村夫烤鱼 重庆鸡公煲","lon":"121.5535023","lat":"31.276778955","category":"71","category_name":"四川菜","address":"杨浦区平凉路2539号(近爱国路)"},{"poiid":"B2094757D06FA6F8469E","title":"安居花苑","lon":"121.54992","lat":"31.27841","category":"47","category_name":"住宅区","address":"上海市杨浦区内江路168号(长阳路内江路口)"},{"poiid":"B2094751DA65A4F5479E","title":"星巴克","lon":"121.556102","lat":"31.274213","category":"247","category_name":"餐饮美食","address":"杨树浦路店"},{"poiid":"B2094751DA6AAAF54099","title":"星巴克时尚中心店","lon":"121.558759","lat":"31.271","category":"247","category_name":"餐饮美食","address":null},{"poiid":"B2094757D16BA2FE4098","title":"上海航天802研究所","lon":"121.55847533","lat":"31.276697411","category":"500","category_name":"未知分类","address":"上海市杨浦区黎平路218号"},{"poiid":"B2094757D069A6F94293","title":"平凉小区","lon":"121.55817","lat":"31.277742","category":"47","category_name":"住宅区","address":"上海市杨浦区平凉路2828弄"},{"poiid":"B2094757D065A3FE4398","title":"建设新苑","lon":"121.55087","lat":"31.278669","category":"47","category_name":"住宅区","address":"上海市杨浦区爱国路301弄"},{"poiid":"B2094655D36DA0F9429A","title":"杨树浦路内江路","lon":"121.55652","lat":"31.2711","category":"38","category_name":"公交车站","address":""},{"poiid":"B2094654D568A3FF4592","title":"凯迪牛奶棚(平凉路)","lon":"121.55531","lat":"31.27763","category":"112","category_name":"糕饼店","address":""},{"poiid":"B2094750DB6DA1FC4293","title":"杨浦 奥特莱斯","lon":"121.55368","lat":"31.272339","category":"249","category_name":"购物服务","address":"杨树浦路"},{"poiid":"B2094654D568A3FF4593","title":"白洋淀新村","lon":"121.55521","lat":"31.278118","category":"47","category_name":"住宅区","address":"平凉路2677"},{"poiid":"B2094654D568A3F8439F","title":"上海延吉经济园区航天新亚都市工业园","lon":"121.55636","lat":"31.2774","category":"45","category_name":"产业园区","address":"平凉路2716"},{"poiid":"B2094757D66FA2FF4598","title":"馨园家常菜","lon":"121.5529","lat":"31.27632","category":"76","category_name":"上海菜","address":"杨浦区平凉路2537号(近爱国路)"},{"poiid":"B2094654D568A3F84699","title":"上海延吉经济园区航天新亚都市工业园(北门)","lon":"121.55593","lat":"31.27749","category":"45","category_name":"产业园区","address":"平凉路2716"},{"poiid":"B2094654D568A3F8489C","title":"四一八杂货店","lon":"121.55781","lat":"31.27577","category":"117","category_name":"便民商店/便利店","address":"定海港路418"},{"poiid":"B2094757D16DABF94099","title":"定海桥","lon":"121.56081333","lat":"31.271165283","category":"500","category_name":"未知分类","address":"上海杨浦区定海路"},{"poiid":"B2094757D66CA1FD449B","title":"来香缘酒家","lon":"121.555331","lat":"31.27735","category":"247","category_name":"餐饮美食","address":"上海杨浦区平凉路2684号"},{"poiid":"B2094757D66DAAFF479E","title":"华源大药房(平凉路店)","lon":"121.55616","lat":"31.27748","category":"162","category_name":"医院","address":"上海杨浦区平凉路2707号(近通北路)  "},{"poiid":"B2094757D168A5F4479C","title":"定海路烧烤摊","lon":"121.553839103","lat":"31.2772445648","category":"247","category_name":"餐饮美食","address":"上海平凉路定海路"},{"poiid":"B2094655D264A1FF4592","title":"中轩丽苑二期","lon":"121.55572","lat":"31.27803","category":"47","category_name":"住宅区","address":"上海市杨浦区平凉路2691号"},{"poiid":"B2094655D26CA6FC459F","title":"好德No.728","lon":"121.5568","lat":"31.27799","category":"117","category_name":"便民商店/便利店","address":"平凉路2761"},{"poiid":"B2094654DB6BA2F4419F","title":"光明便利No.204","lon":"121.55495","lat":"31.27752","category":"117","category_name":"便民商店/便利店","address":"平凉路2663"},{"poiid":"B2094654D568A3FF449A","title":"快客No.6956","lon":"121.5567","lat":"31.27796","category":"117","category_name":"便民商店/便利店","address":"平凉路2753"},{"poiid":"B2094655D264A1F84899","title":"湘府飨菜","lon":"121.55502","lat":"31.27742","category":"77","category_name":"湖南菜","address":"杨浦区平凉路340号(临青路平凉路)"},{"poiid":"B2094655D26DABFE479C","title":"定海路170弄小区","lon":"121.55779","lat":"31.27389","category":"47","category_name":"住宅区","address":"定海路170弄"},{"poiid":"B2094654D568A3FF4192","title":"樟树缘公寓","lon":"121.55685","lat":"31.281164","category":"47","category_name":"住宅区","address":"上海市杨浦区军工路89号"},{"poiid":"B2094757D16CA0F44193","title":"东外滩一号","lon":"121.5498301","lat":"31.271440443","category":"500","category_name":"未知分类","address":"上海市杨浦区内江路(近杨树浦路)"},{"poiid":"B2094757D16CA2FE4793","title":"黎平路杨树浦路","lon":"121.55920333","lat":"31.275318379","category":"500","category_name":"未知分类","address":"上海黎平路杨树浦路"},{"poiid":"B2094655D26EA7FC409B","title":"定海路街道定港居委会图书室","lon":"121.55864","lat":"31.27608","category":"181","category_name":"图书馆","address":"定海港路445"},{"poiid":"B2094655D26BA1FC4898","title":"平凉路贵阳路","lon":"121.5497","lat":"31.27382","category":"38","category_name":"公交车站","address":""},{"poiid":"B2094654D568A3F84899","title":"黎平路幼儿园","lon":"121.55844","lat":"31.27749","category":"57","category_name":"幼儿园","address":"杨浦区平凉路2828弄4号"},{"poiid":"B2094750D76CA3FC4492","title":"金钱豹(杨树浦路店)","lon":"121.557","lat":"31.2714","category":"87","category_name":"特色／地方风味餐厅","address":"杨树浦路2866号(近内江路6月开业)"},{"poiid":"B2094757D06FA2FA429B","title":"上海国际时尚中心","lon":"121.55726862","lat":"31.270837313","category":"260","category_name":"其他","address":"杨浦区杨树浦路2866号(近内江路)"},{"poiid":"B2094654D56FA7F44298","title":"上海市杨浦区中心医院","lon":"121.55075","lat":"31.27167","category":"162","category_name":"医院","address":"杨浦区腾越路450号(海州路腾越路)"},{"poiid":"B2094752D36BA0F8479F","title":"星巴克(杨树浦路店)","lon":"121.557357","lat":"31.271385","category":"247","category_name":"餐饮美食","address":"杨浦区杨树浦路2866号(近内江路)"},{"poiid":"B2094757D06FA5F4479B","title":"白洋淀足球场","lon":"121.5528030307579","lat":"31.28180025940597","category":"220","category_name":"运动场所","address":"杨浦区周家嘴路4214弄22号(靠近爱国路)"},{"poiid":"B2094757D06FA5FD439C","title":"定海路","lon":"121.553181","lat":"31.27667","category":"500","category_name":"未知分类","address":"上海定海路"},{"poiid":"B2094757D06FA5FB4598","title":"中轩丽苑","lon":"121.55443399","lat":"31.278625913","category":"47","category_name":"住宅区","address":"上海平凉路2625弄"},{"poiid":"B2094757D06BA5FE4799","title":"定海桥轮渡站","lon":"121.56264308","lat":"31.272182024","category":"500","category_name":"未知分类","address":"上海共青路4号"},{"poiid":"B2094757D068A2F44398","title":"白洋淀羽毛球馆","lon":"121.5524","lat":"31.28138","category":"220","category_name":"运动场所","address":"杨浦区周家嘴路4214弄22号白洋淀足球场内(近内江路)"},{"poiid":"B2094750DB6DA0F5409A","title":"米瑟 MIXER","lon":"121.557283","lat":"31.271839","category":"67","category_name":"甜品店","address":"杨浦区杨树浦路2866号国际时尚中心(近内江路)"},{"poiid":"B2094757D068A6FD4998","title":"益民小区","lon":"121.55239","lat":"31.277092","category":"47","category_name":"住宅区","address":"上海平凉路2545弄"},{"poiid":"B2094757D068A4FE4692","title":"平凉路第四小学","lon":"121.557","lat":"31.27798","category":"56","category_name":"小学","address":"杨浦区平凉路2767弄5号(近军工路)"},{"poiid":"B2094757D06AA5FD459A","title":"杨浦区中心医院急诊室","lon":"121.549722203","lat":"31.2726692692","category":"902","category_name":"楼宇机构","address":null},{"poiid":"B2094750D56AA0FC479C","title":"东外滩1号","lon":"121.554301","lat":"31.273948","category":"47","category_name":"住宅区","address":"杨浦区内江路16弄(近杨树浦路)"},{"poiid":"B2094757D068A2FB4098","title":"25路平凉路军工路站","lon":"121.557719756","lat":"31.2785505256","category":"38","category_name":"公交车站","address":"上海杨浦区平凉路军工路"},{"poiid":"B2094654DB6BA2F84393","title":"上海市杨浦区中心医院门诊","lon":"121.54994","lat":"31.27151","category":"162","category_name":"医院","address":"腾越路450号"},{"poiid":"B2094757D064A2F84999","title":"杨浦区委党校","lon":"121.55581399","lat":"31.277936695","category":"253","category_name":"校园生活","address":"上海杨浦区平凉路2691号"},{"poiid":"B2094655D26BA1FC489C","title":"平凉路定海路","lon":"121.55397","lat":"31.27721","category":"38","category_name":"公交车站","address":""},{"poiid":"B2094654D568A3FE4798","title":"定海社区卫生服务中心","lon":"121.55294","lat":"31.27844","category":"162","category_name":"医院","address":"爱国路77号"},{"poiid":"B2094757D168A4F9449C","title":"村夫烤鱼 重庆鸡公煲","lon":"121.5535023","lat":"31.276778955","category":"71","category_name":"四川菜","address":"杨浦区平凉路2539号(近爱国路)"},{"poiid":"B2094757D06FA6F8469E","title":"安居花苑","lon":"121.54992","lat":"31.27841","category":"47","category_name":"住宅区","address":"上海市杨浦区内江路168号(长阳路内江路口)"},{"poiid":"B2094751DA65A4F5479E","title":"星巴克","lon":"121.556102","lat":"31.274213","category":"247","category_name":"餐饮美食","address":"杨树浦路店"},{"poiid":"B2094751DA6AAAF54099","title":"星巴克时尚中心店","lon":"121.558759","lat":"31.271","category":"247","category_name":"餐饮美食","address":null},{"poiid":"B2094757D16BA2FE4098","title":"上海航天802研究所","lon":"121.55847533","lat":"31.276697411","category":"500","category_name":"未知分类","address":"上海市杨浦区黎平路218号"},{"poiid":"B2094757D069A6F94293","title":"平凉小区","lon":"121.55817","lat":"31.277742","category":"47","category_name":"住宅区","address":"上海市杨浦区平凉路2828弄"},{"poiid":"B2094757D065A3FE4398","title":"建设新苑","lon":"121.55087","lat":"31.278669","category":"47","category_name":"住宅区","address":"上海市杨浦区爱国路301弄"},{"poiid":"B2094655D36DA0F9429A","title":"杨树浦路内江路","lon":"121.55652","lat":"31.2711","category":"38","category_name":"公交车站","address":""},{"poiid":"B2094654D568A3FF4592","title":"凯迪牛奶棚(平凉路)","lon":"121.55531","lat":"31.27763","category":"112","category_name":"糕饼店","address":""},{"poiid":"B2094750DB6DA1FC4293","title":"杨浦 奥特莱斯","lon":"121.55368","lat":"31.272339","category":"249","category_name":"购物服务","address":"杨树浦路"},{"poiid":"B2094654D568A3FF4593","title":"白洋淀新村","lon":"121.55521","lat":"31.278118","category":"47","category_name":"住宅区","address":"平凉路2677"},{"poiid":"B2094654D568A3F8439F","title":"上海延吉经济园区航天新亚都市工业园","lon":"121.55636","lat":"31.2774","category":"45","category_name":"产业园区","address":"平凉路2716"},{"poiid":"B2094757D66FA2FF4598","title":"馨园家常菜","lon":"121.5529","lat":"31.27632","category":"76","category_name":"上海菜","address":"杨浦区平凉路2537号(近爱国路)"},{"poiid":"B2094654D568A3F84699","title":"上海延吉经济园区航天新亚都市工业园(北门)","lon":"121.55593","lat":"31.27749","category":"45","category_name":"产业园区","address":"平凉路2716"},{"poiid":"B2094654D568A3F8489C","title":"四一八杂货店","lon":"121.55781","lat":"31.27577","category":"117","category_name":"便民商店/便利店","address":"定海港路418"},{"poiid":"B2094757D16DABF94099","title":"定海桥","lon":"121.56081333","lat":"31.271165283","category":"500","category_name":"未知分类","address":"上海杨浦区定海路"},{"poiid":"B2094757D66CA1FD449B","title":"来香缘酒家","lon":"121.555331","lat":"31.27735","category":"247","category_name":"餐饮美食","address":"上海杨浦区平凉路2684号"},{"poiid":"B2094757D66DAAFF479E","title":"华源大药房(平凉路店)","lon":"121.55616","lat":"31.27748","category":"162","category_name":"医院","address":"上海杨浦区平凉路2707号(近通北路)  "},{"poiid":"B2094757D168A5F4479C","title":"定海路烧烤摊","lon":"121.553839103","lat":"31.2772445648","category":"247","category_name":"餐饮美食","address":"上海平凉路定海路"},{"poiid":"B2094655D264A1FF4592","title":"中轩丽苑二期","lon":"121.55572","lat":"31.27803","category":"47","category_name":"住宅区","address":"上海市杨浦区平凉路2691号"},{"poiid":"B2094655D26CA6FC459F","title":"好德No.728","lon":"121.5568","lat":"31.27799","category":"117","category_name":"便民商店/便利店","address":"平凉路2761"},{"poiid":"B2094654DB6BA2F4419F","title":"光明便利No.204","lon":"121.55495","lat":"31.27752","category":"117","category_name":"便民商店/便利店","address":"平凉路2663"},{"poiid":"B2094654D568A3FF449A","title":"快客No.6956","lon":"121.5567","lat":"31.27796","category":"117","category_name":"便民商店/便利店","address":"平凉路2753"},{"poiid":"B2094655D264A1F84899","title":"湘府飨菜","lon":"121.55502","lat":"31.27742","category":"77","category_name":"湖南菜","address":"杨浦区平凉路340号(临青路平凉路)"},{"poiid":"B2094655D26DABFE479C","title":"定海路170弄小区","lon":"121.55779","lat":"31.27389","category":"47","category_name":"住宅区","address":"定海路170弄"},{"poiid":"B2094654D568A3FF4192","title":"樟树缘公寓","lon":"121.55685","lat":"31.281164","category":"47","category_name":"住宅区","address":"上海市杨浦区军工路89号"},{"poiid":"B2094757D16CA0F44193","title":"东外滩一号","lon":"121.5498301","lat":"31.271440443","category":"500","category_name":"未知分类","address":"上海市杨浦区内江路(近杨树浦路)"},{"poiid":"B2094757D16CA2FE4793","title":"黎平路杨树浦路","lon":"121.55920333","lat":"31.275318379","category":"500","category_name":"未知分类","address":"上海黎平路杨树浦路"},{"poiid":"B2094655D26EA7FC409B","title":"定海路街道定港居委会图书室","lon":"121.55864","lat":"31.27608","category":"181","category_name":"图书馆","address":"定海港路445"},{"poiid":"B2094655D26BA1FC4898","title":"平凉路贵阳路","lon":"121.5497","lat":"31.27382","category":"38","category_name":"公交车站","address":""},{"poiid":"B2094654D568A3F84899","title":"黎平路幼儿园","lon":"121.55844","lat":"31.27749","category":"57","category_name":"幼儿园","address":"杨浦区平凉路2828弄4号"}]