[{"poiid":"B2094655D36CA6FA4198","title":"都市路银都路","lon":"121.39567","lat":"31.09373","category":"38","category_name":"公交车站","address":"上海ShanghaiMinhangDushi,Rd"},{"poiid":"B2094757D068A1FF439D","title":"柏林春天","lon":"121.39527","lat":"31.10091","category":"500","category_name":"未知分类","address":"上海市闵行区都市路春申路"},{"poiid":"B2094757D069AAFB499A","title":"奥塞花园","lon":"121.39630686356","lat":"31.103186829537","category":"47","category_name":"住宅区","address":"上海普洱路88弄"},{"poiid":"B2094757D068A4F44893","title":"莘城苑","lon":"121.393653","lat":"31.106697","category":"47","category_name":"住宅区","address":"上海市浦东新区上南路3345号"},{"poiid":"B2094654DB6CABFF4293","title":"上海市莘格中学","lon":"121.3973","lat":"31.0998","category":"55","category_name":"中学","address":"腾冲路168"},{"poiid":"B2094655D36CA6FA429B","title":"都市路春申路","lon":"121.39171","lat":"31.10171","category":"38","category_name":"公交车站","address":""},{"poiid":"B2094757D069A5FE439A","title":"恒隆大酒店(春申店)","lon":"121.3996","lat":"31.10565","category":"76","category_name":"上海菜","address":"闵行区春申路2828号(近洱海路)"},{"poiid":"B2094757D06AA2F4469F","title":"莘城学校","lon":"121.39005211","lat":"31.100028758","category":"253","category_name":"校园生活","address":"闵行区普洱路158号"},{"poiid":"B2094654DB6CABFF429D","title":"都市苑","lon":"121.39739","lat":"31.100796","category":"47","category_name":"住宅区","address":"上海市闵行区腾冲路180弄"},{"poiid":"B2094757D16BA0FD4092","title":"华丽家园","lon":"121.39364885","lat":"31.102200406","category":"47","category_name":"住宅区","address":"上海春申路3455号"},{"poiid":"B2094757D16EA3FB439C","title":"解放日报大厦","lon":"121.399031857","lat":"31.1016403948","category":"252","category_name":"楼宇机构","address":"上海都市路4588号"},{"poiid":"B2094750D46AA7FE499C","title":"徐家汇","lon":"121.39447","lat":"31.100862","category":"247","category_name":"餐饮美食","address":null},{"poiid":"B2094757D568AAFC4199","title":"春申复地城二期","lon":"121.3948128","lat":"31.10072083","category":"47","category_name":"住宅区","address":"上海市闵行区都市路4580弄"},{"poiid":"B2094655D268A1FA499C","title":"好宴世家 都市路店","lon":"121.3939951505","lat":"31.097372718732","category":"76","category_name":"上海菜","address":"闵行区都市路4420号(近腾冲路)"},{"poiid":"B2094654DB6CAAF9429A","title":"春申玫瑰苑(南门)","lon":"121.39797","lat":"31.10689","category":"656","category_name":"大门","address":"洱海路99弄"},{"poiid":"B2094655D26EA2F4499A","title":"都市苑(西门)","lon":"121.39627","lat":"31.10079","category":"47","category_name":"住宅区","address":"腾冲路180弄"},{"poiid":"B2094757D065A1F54193","title":"金铭新水岸","lon":"121.395024","lat":"31.098693","category":"500","category_name":"未知分类","address":"上海腾冲路50弄"},{"poiid":"B2094757D064A0F9419D","title":"松闵线","lon":"121.39580535","lat":"31.101249694","category":"38","category_name":"公交车站","address":"上海松江大学城-闵行"},{"poiid":"B2094757D165A4FE419D","title":"依霖幼儿园","lon":"121.395899857","lat":"31.1018603992","category":"57","category_name":"幼儿园","address":"闵行区腾冲路259号柏林春天居住小区(近都市路)"},{"poiid":"B2094750DA65A3FB419F","title":"丸龟制面","lon":"121.393058","lat":"31.105533","category":"247","category_name":"餐饮美食","address":null},{"poiid":"B2094654DB6CABFF439B","title":"好德NO.031","lon":"121.39569","lat":"31.09968","category":"117","category_name":"便民商店/便利店","address":"腾冲路114号"},{"poiid":"B2094757D66DA3FC429E","title":"上海交通警察总队车管所二分所","lon":"121.39542485","lat":"31.100828378","category":"500","category_name":"未知分类","address":"上海市闵行区莘东路"},{"poiid":"B2094654DB6CABF84198","title":"柏林春天(北门)","lon":"121.39553","lat":"31.10129","category":"47","category_name":"住宅区","address":"腾冲路255"},{"poiid":"B2094757D465A1F8419E","title":"汤不辣老鸭汤 都市路店","lon":"121.393317054","lat":"31.099295793","category":"71","category_name":"四川菜","address":"闵行区都市路4428号(近金铭大厦)"},{"poiid":"B2094655D26AA6F5429A","title":"牛奶棚 都市路店","lon":"121.391641054","lat":"31.101202793","category":"67","category_name":"甜品店","address":"闵行区都市路4606号(近春申路)"},{"poiid":"B2094655D269AAFA4592","title":"魔锅坊麻辣香锅 都市路店","lon":"121.391747054","lat":"31.101721793","category":"71","category_name":"四川菜","address":"闵行区都市路4664号(近春申路)"},{"poiid":"B2094655D268A5FC469C","title":"小东北(都市路)","lon":"121.39321","lat":"31.0978","category":"82","category_name":"东北菜","address":"闵行区都市路4461号(春申路与银都路之间)"},{"poiid":"B2094654DB6CABFF4393","title":"名角女士生活馆No.4468","lon":"121.39515","lat":"31.09951","category":"148","category_name":"美容美发店","address":"腾冲路90"},{"poiid":"B2094757D568A7FD499B","title":"郁金香教育会所","lon":"121.39591064","lat":"31.1008705","category":"190","category_name":"培训机构","address":"闵行区腾冲路195号(近都市路)"},{"poiid":"B2094757D069AAF8409F","title":"五云德小笼","lon":"121.401154","lat":"31.105544","category":"68","category_name":"快餐厅","address":"闵行区畹町路万科假日广场117号104室(近春申路)"},{"poiid":"B2094655D26AA3F94099","title":"味煊烧烤","lon":"121.391887054","lat":"31.101793793","category":"68","category_name":"快餐厅","address":"闵行区都市路4664号(近春申路)"},{"poiid":"B2094655D26BA0FE419C","title":"春申复地城一期","lon":"121.3953","lat":"31.10363","category":"47","category_name":"住宅区","address":"上海市闵行区春申路3355弄"},{"poiid":"B2094757D568A7FD4799","title":"欧蒂芙","lon":"121.39516303","lat":"31.09951118","category":"148","category_name":"美容美发店","address":"腾冲路90"},{"poiid":"B2094655D268A5F5409A","title":"春申复地城","lon":"121.3934","lat":"31.10022","category":"47","category_name":"住宅区","address":"腾冲路258"},{"poiid":"B2094654DB6CABF8439C","title":"金铭大厦","lon":"121.39402","lat":"31.0979","category":"46","category_name":"楼宇","address":"都市路4418"},{"poiid":"B2094654DB6CABFE4592","title":"春申城华丽家园","lon":"121.39366","lat":"31.10214","category":"47","category_name":"住宅区","address":"春申路3455弄"},{"poiid":"B2094654DB65A4FD4099","title":"快客No.6616","lon":"121.39401","lat":"31.09912","category":"117","category_name":"便民商店/便利店","address":"腾冲路36-38"},{"poiid":"B2094655D265A0FE4099","title":"春申大厦","lon":"121.397763","lat":"31.107486","category":"46","category_name":"楼宇","address":"上海市闵行区春申路3555号"},{"poiid":"B2094757D569A2FB489C","title":"四季庭苑花草连锁超市腾冲路店","lon":"121.3939131","lat":"31.09955194","category":"120","category_name":"小商品市场","address":"腾冲路35号"},{"poiid":"B2094757D66DA0FD4092","title":"阿宝小厨","lon":"121.398803711","lat":"31.1019821167","category":"247","category_name":"餐饮美食","address":"上海春申路"},{"poiid":"B2094654DB6CABFE499D","title":"好德NO.857","lon":"121.3933","lat":"31.10127","category":"117","category_name":"便民商店/便利店","address":"腾冲路372-374"},{"poiid":"B2094757D568AAFD4592","title":"重庆鸡公煲都市路店","lon":"121.3931961","lat":"31.097845","category":"71","category_name":"四川菜","address":"闵行区都市路"},{"poiid":"B2094757D66DA2FA449D","title":"田园菜场","lon":"121.39673285","lat":"31.102081403","category":"249","category_name":"购物服务","address":"上海银都路"},{"poiid":"B2094757D069A5FB4299","title":"巴黎贝甜(莘庄仲盛店)","lon":"121.39353","lat":"31.09755","category":"247","category_name":"餐饮美食","address":"上海闵行区都市路5001号仲盛世界商城B1楼(近莘庄地铁站南广场)"},{"poiid":"B2094654DB64A1FF4498","title":"尊皇造型","lon":"121.39406","lat":"31.0996","category":"148","category_name":"美容美发店","address":"腾冲路43号"},{"poiid":"B2094757D569A3FF429B","title":"丽婴房(金铭新水岸都市苑西北)","lon":"121.39472439","lat":"31.09936117","category":"255","category_name":"专卖店","address":"中国上海市闵行区腾冲路"},{"poiid":"B2094654DB6CABFE479F","title":"伊时代形象设计","lon":"121.39218","lat":"31.10145","category":"148","category_name":"美容美发店","address":"都市路4664号"},{"poiid":"B2094654DB6CABFE4593","title":"春申城华丽家园(边门)","lon":"121.39422","lat":"31.10321","category":"47","category_name":"住宅区","address":"春申路3455弄"},{"poiid":"B2094757D568A7F9499D","title":"南威文具","lon":"121.39450575","lat":"31.10162055","category":"139","category_name":"文化用品店","address":"腾冲路302"},{"poiid":"B2094751DA6CA7FA409E","title":"加贺屋","lon":"121.39241","lat":"31.1013","category":"95","category_name":"日本料理","address":"闵行区都市路4654号2楼(近春申路)"},{"poiid":"B2094655D36CA6FA4198","title":"都市路银都路","lon":"121.39567","lat":"31.09373","category":"38","category_name":"公交车站","address":"上海ShanghaiMinhangDushi,Rd"},{"poiid":"B2094757D068A1FF439D","title":"柏林春天","lon":"121.39527","lat":"31.10091","category":"500","category_name":"未知分类","address":"上海市闵行区都市路春申路"},{"poiid":"B2094757D069AAFB499A","title":"奥塞花园","lon":"121.39630686356","lat":"31.103186829537","category":"47","category_name":"住宅区","address":"上海普洱路88弄"},{"poiid":"B2094757D068A4F44893","title":"莘城苑","lon":"121.393653","lat":"31.106697","category":"47","category_name":"住宅区","address":"上海市浦东新区上南路3345号"},{"poiid":"B2094654DB6CABFF4293","title":"上海市莘格中学","lon":"121.3973","lat":"31.0998","category":"55","category_name":"中学","address":"腾冲路168"},{"poiid":"B2094655D36CA6FA429B","title":"都市路春申路","lon":"121.39171","lat":"31.10171","category":"38","category_name":"公交车站","address":""},{"poiid":"B2094757D069A5FE439A","title":"恒隆大酒店(春申店)","lon":"121.3996","lat":"31.10565","category":"76","category_name":"上海菜","address":"闵行区春申路2828号(近洱海路)"},{"poiid":"B2094757D06AA2F4469F","title":"莘城学校","lon":"121.39005211","lat":"31.100028758","category":"253","category_name":"校园生活","address":"闵行区普洱路158号"},{"poiid":"B2094654DB6CABFF429D","title":"都市苑","lon":"121.39739","lat":"31.100796","category":"47","category_name":"住宅区","address":"上海市闵行区腾冲路180弄"},{"poiid":"B2094757D16BA0FD4092","title":"华丽家园","lon":"121.39364885","lat":"31.102200406","category":"47","category_name":"住宅区","address":"上海春申路3455号"},{"poiid":"B2094757D16EA3FB439C","title":"解放日报大厦","lon":"121.399031857","lat":"31.1016403948","category":"252","category_name":"楼宇机构","address":"上海都市路4588号"},{"poiid":"B2094750D46AA7FE499C","title":"徐家汇","lon":"121.39447","lat":"31.100862","category":"247","category_name":"餐饮美食","address":null},{"poiid":"B2094757D568AAFC4199","title":"春申复地城二期","lon":"121.3948128","lat":"31.10072083","category":"47","category_name":"住宅区","address":"上海市闵行区都市路4580弄"},{"poiid":"B2094655D268A1FA499C","title":"好宴世家 都市路店","lon":"121.3939951505","lat":"31.097372718732","category":"76","category_name":"上海菜","address":"闵行区都市路4420号(近腾冲路)"},{"poiid":"B2094654DB6CAAF9429A","title":"春申玫瑰苑(南门)","lon":"121.39797","lat":"31.10689","category":"656","category_name":"大门","address":"洱海路99弄"},{"poiid":"B2094655D26EA2F4499A","title":"都市苑(西门)","lon":"121.39627","lat":"31.10079","category":"47","category_name":"住宅区","address":"腾冲路180弄"},{"poiid":"B2094757D065A1F54193","title":"金铭新水岸","lon":"121.395024","lat":"31.098693","category":"500","category_name":"未知分类","address":"上海腾冲路50弄"},{"poiid":"B2094757D064A0F9419D","title":"松闵线","lon":"121.39580535","lat":"31.101249694","category":"38","category_name":"公交车站","address":"上海松江大学城-闵行"},{"poiid":"B2094757D165A4FE419D","title":"依霖幼儿园","lon":"121.395899857","lat":"31.1018603992","category":"57","category_name":"幼儿园","address":"闵行区腾冲路259号柏林春天居住小区(近都市路)"},{"poiid":"B2094750DA65A3FB419F","title":"丸龟制面","lon":"121.393058","lat":"31.105533","category":"247","category_name":"餐饮美食","address":null},{"poiid":"B2094654DB6CABFF439B","title":"好德NO.031","lon":"121.39569","lat":"31.09968","category":"117","category_name":"便民商店/便利店","address":"腾冲路114号"},{"poiid":"B2094757D66DA3FC429E","title":"上海交通警察总队车管所二分所","lon":"121.39542485","lat":"31.100828378","category":"500","category_name":"未知分类","address":"上海市闵行区莘东路"},{"poiid":"B2094654DB6CABF84198","title":"柏林春天(北门)","lon":"121.39553","lat":"31.10129","category":"47","category_name":"住宅区","address":"腾冲路255"},{"poiid":"B2094757D465A1F8419E","title":"汤不辣老鸭汤 都市路店","lon":"121.393317054","lat":"31.099295793","category":"71","category_name":"四川菜","address":"闵行区都市路4428号(近金铭大厦)"},{"poiid":"B2094655D26AA6F5429A","title":"牛奶棚 都市路店","lon":"121.391641054","lat":"31.101202793","category":"67","category_name":"甜品店","address":"闵行区都市路4606号(近春申路)"},{"poiid":"B2094655D269AAFA4592","title":"魔锅坊麻辣香锅 都市路店","lon":"121.391747054","lat":"31.101721793","category":"71","category_name":"四川菜","address":"闵行区都市路4664号(近春申路)"},{"poiid":"B2094655D268A5FC469C","title":"小东北(都市路)","lon":"121.39321","lat":"31.0978","category":"82","category_name":"东北菜","address":"闵行区都市路4461号(春申路与银都路之间)"},{"poiid":"B2094654DB6CABFF4393","title":"名角女士生活馆No.4468","lon":"121.39515","lat":"31.09951","category":"148","category_name":"美容美发店","address":"腾冲路90"},{"poiid":"B2094757D568A7FD499B","title":"郁金香教育会所","lon":"121.39591064","lat":"31.1008705","category":"190","category_name":"培训机构","address":"闵行区腾冲路195号(近都市路)"},{"poiid":"B2094757D069AAF8409F","title":"五云德小笼","lon":"121.401154","lat":"31.105544","category":"68","category_name":"快餐厅","address":"闵行区畹町路万科假日广场117号104室(近春申路)"},{"poiid":"B2094655D26AA3F94099","title":"味煊烧烤","lon":"121.391887054","lat":"31.101793793","category":"68","category_name":"快餐厅","address":"闵行区都市路4664号(近春申路)"},{"poiid":"B2094655D26BA0FE419C","title":"春申复地城一期","lon":"121.3953","lat":"31.10363","category":"47","category_name":"住宅区","address":"上海市闵行区春申路3355弄"},{"poiid":"B2094757D568A7FD4799","title":"欧蒂芙","lon":"121.39516303","lat":"31.09951118","category":"148","category_name":"美容美发店","address":"腾冲路90"},{"poiid":"B2094655D268A5F5409A","title":"春申复地城","lon":"121.3934","lat":"31.10022","category":"47","category_name":"住宅区","address":"腾冲路258"},{"poiid":"B2094654DB6CABF8439C","title":"金铭大厦","lon":"121.39402","lat":"31.0979","category":"46","category_name":"楼宇","address":"都市路4418"},{"poiid":"B2094654DB6CABFE4592","title":"春申城华丽家园","lon":"121.39366","lat":"31.10214","category":"47","category_name":"住宅区","address":"春申路3455弄"},{"poiid":"B2094654DB65A4FD4099","title":"快客No.6616","lon":"121.39401","lat":"31.09912","category":"117","category_name":"便民商店/便利店","address":"腾冲路36-38"},{"poiid":"B2094655D265A0FE4099","title":"春申大厦","lon":"121.397763","lat":"31.107486","category":"46","category_name":"楼宇","address":"上海市闵行区春申路3555号"},{"poiid":"B2094757D569A2FB489C","title":"四季庭苑花草连锁超市腾冲路店","lon":"121.3939131","lat":"31.09955194","category":"120","category_name":"小商品市场","address":"腾冲路35号"},{"poiid":"B2094757D66DA0FD4092","title":"阿宝小厨","lon":"121.398803711","lat":"31.1019821167","category":"247","category_name":"餐饮美食","address":"上海春申路"},{"poiid":"B2094654DB6CABFE499D","title":"好德NO.857","lon":"121.3933","lat":"31.10127","category":"117","category_name":"便民商店/便利店","address":"腾冲路372-374"},{"poiid":"B2094757D568AAFD4592","title":"重庆鸡公煲都市路店","lon":"121.3931961","lat":"31.097845","category":"71","category_name":"四川菜","address":"闵行区都市路"},{"poiid":"B2094757D66DA2FA449D","title":"田园菜场","lon":"121.39673285","lat":"31.102081403","category":"249","category_name":"购物服务","address":"上海银都路"},{"poiid":"B2094757D069A5FB4299","title":"巴黎贝甜(莘庄仲盛店)","lon":"121.39353","lat":"31.09755","category":"247","category_name":"餐饮美食","address":"上海闵行区都市路5001号仲盛世界商城B1楼(近莘庄地铁站南广场)"},{"poiid":"B2094654DB64A1FF4498","title":"尊皇造型","lon":"121.39406","lat":"31.0996","category":"148","category_name":"美容美发店","address":"腾冲路43号"},{"poiid":"B2094757D569A3FF429B","title":"丽婴房(金铭新水岸都市苑西北)","lon":"121.39472439","lat":"31.09936117","category":"255","category_name":"专卖店","address":"中国上海市闵行区腾冲路"},{"poiid":"B2094654DB6CABFE479F","title":"伊时代形象设计","lon":"121.39218","lat":"31.10145","category":"148","category_name":"美容美发店","address":"都市路4664号"},{"poiid":"B2094654DB6CABFE4593","title":"春申城华丽家园(边门)","lon":"121.39422","lat":"31.10321","category":"47","category_name":"住宅区","address":"春申路3455弄"},{"poiid":"B2094757D568A7F9499D","title":"南威文具","lon":"121.39450575","lat":"31.10162055","category":"139","category_name":"文化用品店","address":"腾冲路302"},{"poiid":"B2094751DA6CA7FA409E","title":"加贺屋","lon":"121.39241","lat":"31.1013","category":"95","category_name":"日本料理","address":"闵行区都市路4654号2楼(近春申路)"},{"poiid":"B2094655D36CA6FA4198","title":"都市路银都路","lon":"121.39567","lat":"31.09373","category":"38","category_name":"公交车站","address":"上海ShanghaiMinhangDushi,Rd"},{"poiid":"B2094757D068A1FF439D","title":"柏林春天","lon":"121.39527","lat":"31.10091","category":"500","category_name":"未知分类","address":"上海市闵行区都市路春申路"},{"poiid":"B2094757D069AAFB499A","title":"奥塞花园","lon":"121.39630686356","lat":"31.103186829537","category":"47","category_name":"住宅区","address":"上海普洱路88弄"},{"poiid":"B2094757D068A4F44893","title":"莘城苑","lon":"121.393653","lat":"31.106697","category":"47","category_name":"住宅区","address":"上海市浦东新区上南路3345号"},{"poiid":"B2094654DB6CABFF4293","title":"上海市莘格中学","lon":"121.3973","lat":"31.0998","category":"55","category_name":"中学","address":"腾冲路168"},{"poiid":"B2094655D36CA6FA429B","title":"都市路春申路","lon":"121.39171","lat":"31.10171","category":"38","category_name":"公交车站","address":""},{"poiid":"B2094757D069A5FE439A","title":"恒隆大酒店(春申店)","lon":"121.3996","lat":"31.10565","category":"76","category_name":"上海菜","address":"闵行区春申路2828号(近洱海路)"},{"poiid":"B2094757D06AA2F4469F","title":"莘城学校","lon":"121.39005211","lat":"31.100028758","category":"253","category_name":"校园生活","address":"闵行区普洱路158号"},{"poiid":"B2094654DB6CABFF429D","title":"都市苑","lon":"121.39739","lat":"31.100796","category":"47","category_name":"住宅区","address":"上海市闵行区腾冲路180弄"},{"poiid":"B2094757D16BA0FD4092","title":"华丽家园","lon":"121.39364885","lat":"31.102200406","category":"47","category_name":"住宅区","address":"上海春申路3455号"},{"poiid":"B2094757D16EA3FB439C","title":"解放日报大厦","lon":"121.399031857","lat":"31.1016403948","category":"252","category_name":"楼宇机构","address":"上海都市路4588号"},{"poiid":"B2094750D46AA7FE499C","title":"徐家汇","lon":"121.39447","lat":"31.100862","category":"247","category_name":"餐饮美食","address":null},{"poiid":"B2094757D568AAFC4199","title":"春申复地城二期","lon":"121.3948128","lat":"31.10072083","category":"47","category_name":"住宅区","address":"上海市闵行区都市路4580弄"},{"poiid":"B2094655D268A1FA499C","title":"好宴世家 都市路店","lon":"121.3939951505","lat":"31.097372718732","category":"76","category_name":"上海菜","address":"闵行区都市路4420号(近腾冲路)"},{"poiid":"B2094654DB6CAAF9429A","title":"春申玫瑰苑(南门)","lon":"121.39797","lat":"31.10689","category":"656","category_name":"大门","address":"洱海路99弄"},{"poiid":"B2094655D26EA2F4499A","title":"都市苑(西门)","lon":"121.39627","lat":"31.10079","category":"47","category_name":"住宅区","address":"腾冲路180弄"},{"poiid":"B2094757D065A1F54193","title":"金铭新水岸","lon":"121.395024","lat":"31.098693","category":"500","category_name":"未知分类","address":"上海腾冲路50弄"},{"poiid":"B2094757D064A0F9419D","title":"松闵线","lon":"121.39580535","lat":"31.101249694","category":"38","category_name":"公交车站","address":"上海松江大学城-闵行"},{"poiid":"B2094757D165A4FE419D","title":"依霖幼儿园","lon":"121.395899857","lat":"31.1018603992","category":"57","category_name":"幼儿园","address":"闵行区腾冲路259号柏林春天居住小区(近都市路)"},{"poiid":"B2094750DA65A3FB419F","title":"丸龟制面","lon":"121.393058","lat":"31.105533","category":"247","category_name":"餐饮美食","address":null},{"poiid":"B2094654DB6CABFF439B","title":"好德NO.031","lon":"121.39569","lat":"31.09968","category":"117","category_name":"便民商店/便利店","address":"腾冲路114号"},{"poiid":"B2094757D66DA3FC429E","title":"上海交通警察总队车管所二分所","lon":"121.39542485","lat":"31.100828378","category":"500","category_name":"未知分类","address":"上海市闵行区莘东路"},{"poiid":"B2094654DB6CABF84198","title":"柏林春天(北门)","lon":"121.39553","lat":"31.10129","category":"47","category_name":"住宅区","address":"腾冲路255"},{"poiid":"B2094757D465A1F8419E","title":"汤不辣老鸭汤 都市路店","lon":"121.393317054","lat":"31.099295793","category":"71","category_name":"四川菜","address":"闵行区都市路4428号(近金铭大厦)"},{"poiid":"B2094655D26AA6F5429A","title":"牛奶棚 都市路店","lon":"121.391641054","lat":"31.101202793","category":"67","category_name":"甜品店","address":"闵行区都市路4606号(近春申路)"},{"poiid":"B2094655D269AAFA4592","title":"魔锅坊麻辣香锅 都市路店","lon":"121.391747054","lat":"31.101721793","category":"71","category_name":"四川菜","address":"闵行区都市路4664号(近春申路)"},{"poiid":"B2094655D268A5FC469C","title":"小东北(都市路)","lon":"121.39321","lat":"31.0978","category":"82","category_name":"东北菜","address":"闵行区都市路4461号(春申路与银都路之间)"},{"poiid":"B2094654DB6CABFF4393","title":"名角女士生活馆No.4468","lon":"121.39515","lat":"31.09951","category":"148","category_name":"美容美发店","address":"腾冲路90"},{"poiid":"B2094757D568A7FD499B","title":"郁金香教育会所","lon":"121.39591064","lat":"31.1008705","category":"190","category_name":"培训机构","address":"闵行区腾冲路195号(近都市路)"},{"poiid":"B2094757D069AAF8409F","title":"五云德小笼","lon":"121.401154","lat":"31.105544","category":"68","category_name":"快餐厅","address":"闵行区畹町路万科假日广场117号104室(近春申路)"},{"poiid":"B2094655D26AA3F94099","title":"味煊烧烤","lon":"121.391887054","lat":"31.101793793","category":"68","category_name":"快餐厅","address":"闵行区都市路4664号(近春申路)"},{"poiid":"B2094655D26BA0FE419C","title":"春申复地城一期","lon":"121.3953","lat":"31.10363","category":"47","category_name":"住宅区","address":"上海市闵行区春申路3355弄"},{"poiid":"B2094757D568A7FD4799","title":"欧蒂芙","lon":"121.39516303","lat":"31.09951118","category":"148","category_name":"美容美发店","address":"腾冲路90"},{"poiid":"B2094655D268A5F5409A","title":"春申复地城","lon":"121.3934","lat":"31.10022","category":"47","category_name":"住宅区","address":"腾冲路258"},{"poiid":"B2094654DB6CABF8439C","title":"金铭大厦","lon":"121.39402","lat":"31.0979","category":"46","category_name":"楼宇","address":"都市路4418"},{"poiid":"B2094654DB6CABFE4592","title":"春申城华丽家园","lon":"121.39366","lat":"31.10214","category":"47","category_name":"住宅区","address":"春申路3455弄"},{"poiid":"B2094654DB65A4FD4099","title":"快客No.6616","lon":"121.39401","lat":"31.09912","category":"117","category_name":"便民商店/便利店","address":"腾冲路36-38"},{"poiid":"B2094655D265A0FE4099","title":"春申大厦","lon":"121.397763","lat":"31.107486","category":"46","category_name":"楼宇","address":"上海市闵行区春申路3555号"},{"poiid":"B2094757D569A2FB489C","title":"四季庭苑花草连锁超市腾冲路店","lon":"121.3939131","lat":"31.09955194","category":"120","category_name":"小商品市场","address":"腾冲路35号"},{"poiid":"B2094757D66DA0FD4092","title":"阿宝小厨","lon":"121.398803711","lat":"31.1019821167","category":"247","category_name":"餐饮美食","address":"上海春申路"},{"poiid":"B2094654DB6CABFE499D","title":"好德NO.857","lon":"121.3933","lat":"31.10127","category":"117","category_name":"便民商店/便利店","address":"腾冲路372-374"},{"poiid":"B2094757D568AAFD4592","title":"重庆鸡公煲都市路店","lon":"121.3931961","lat":"31.097845","category":"71","category_name":"四川菜","address":"闵行区都市路"},{"poiid":"B2094757D66DA2FA449D","title":"田园菜场","lon":"121.39673285","lat":"31.102081403","category":"249","category_name":"购物服务","address":"上海银都路"},{"poiid":"B2094757D069A5FB4299","title":"巴黎贝甜(莘庄仲盛店)","lon":"121.39353","lat":"31.09755","category":"247","category_name":"餐饮美食","address":"上海闵行区都市路5001号仲盛世界商城B1楼(近莘庄地铁站南广场)"},{"poiid":"B2094654DB64A1FF4498","title":"尊皇造型","lon":"121.39406","lat":"31.0996","category":"148","category_name":"美容美发店","address":"腾冲路43号"},{"poiid":"B2094757D569A3FF429B","title":"丽婴房(金铭新水岸都市苑西北)","lon":"121.39472439","lat":"31.09936117","category":"255","category_name":"专卖店","address":"中国上海市闵行区腾冲路"},{"poiid":"B2094654DB6CABFE479F","title":"伊时代形象设计","lon":"121.39218","lat":"31.10145","category":"148","category_name":"美容美发店","address":"都市路4664号"},{"poiid":"B2094654DB6CABFE4593","title":"春申城华丽家园(边门)","lon":"121.39422","lat":"31.10321","category":"47","category_name":"住宅区","address":"春申路3455弄"},{"poiid":"B2094757D568A7F9499D","title":"南威文具","lon":"121.39450575","lat":"31.10162055","category":"139","category_name":"文化用品店","address":"腾冲路302"},{"poiid":"B2094751DA6CA7FA409E","title":"加贺屋","lon":"121.39241","lat":"31.1013","category":"95","category_name":"日本料理","address":"闵行区都市路4654号2楼(近春申路)"},{"poiid":"B2094655D36CA6FA4198","title":"都市路银都路","lon":"121.39567","lat":"31.09373","category":"38","category_name":"公交车站","address":"上海ShanghaiMinhangDushi,Rd"},{"poiid":"B2094757D068A1FF439D","title":"柏林春天","lon":"121.39527","lat":"31.10091","category":"500","category_name":"未知分类","address":"上海市闵行区都市路春申路"},{"poiid":"B2094757D069AAFB499A","title":"奥塞花园","lon":"121.39630686356","lat":"31.103186829537","category":"47","category_name":"住宅区","address":"上海普洱路88弄"},{"poiid":"B2094757D068A4F44893","title":"莘城苑","lon":"121.393653","lat":"31.106697","category":"47","category_name":"住宅区","address":"上海市浦东新区上南路3345号"},{"poiid":"B2094654DB6CABFF4293","title":"上海市莘格中学","lon":"121.3973","lat":"31.0998","category":"55","category_name":"中学","address":"腾冲路168"},{"poiid":"B2094655D36CA6FA429B","title":"都市路春申路","lon":"121.39171","lat":"31.10171","category":"38","category_name":"公交车站","address":""},{"poiid":"B2094757D069A5FE439A","title":"恒隆大酒店(春申店)","lon":"121.3996","lat":"31.10565","category":"76","category_name":"上海菜","address":"闵行区春申路2828号(近洱海路)"},{"poiid":"B2094757D06AA2F4469F","title":"莘城学校","lon":"121.39005211","lat":"31.100028758","category":"253","category_name":"校园生活","address":"闵行区普洱路158号"},{"poiid":"B2094654DB6CABFF429D","title":"都市苑","lon":"121.39739","lat":"31.100796","category":"47","category_name":"住宅区","address":"上海市闵行区腾冲路180弄"},{"poiid":"B2094757D16BA0FD4092","title":"华丽家园","lon":"121.39364885","lat":"31.102200406","category":"47","category_name":"住宅区","address":"上海春申路3455号"},{"poiid":"B2094757D16EA3FB439C","title":"解放日报大厦","lon":"121.399031857","lat":"31.1016403948","category":"252","category_name":"楼宇机构","address":"上海都市路4588号"},{"poiid":"B2094750D46AA7FE499C","title":"徐家汇","lon":"121.39447","lat":"31.100862","category":"247","category_name":"餐饮美食","address":null},{"poiid":"B2094757D568AAFC4199","title":"春申复地城二期","lon":"121.3948128","lat":"31.10072083","category":"47","category_name":"住宅区","address":"上海市闵行区都市路4580弄"},{"poiid":"B2094655D268A1FA499C","title":"好宴世家 都市路店","lon":"121.3939951505","lat":"31.097372718732","category":"76","category_name":"上海菜","address":"闵行区都市路4420号(近腾冲路)"},{"poiid":"B2094654DB6CAAF9429A","title":"春申玫瑰苑(南门)","lon":"121.39797","lat":"31.10689","category":"656","category_name":"大门","address":"洱海路99弄"},{"poiid":"B2094655D26EA2F4499A","title":"都市苑(西门)","lon":"121.39627","lat":"31.10079","category":"47","category_name":"住宅区","address":"腾冲路180弄"},{"poiid":"B2094757D065A1F54193","title":"金铭新水岸","lon":"121.395024","lat":"31.098693","category":"500","category_name":"未知分类","address":"上海腾冲路50弄"},{"poiid":"B2094757D064A0F9419D","title":"松闵线","lon":"121.39580535","lat":"31.101249694","category":"38","category_name":"公交车站","address":"上海松江大学城-闵行"},{"poiid":"B2094757D165A4FE419D","title":"依霖幼儿园","lon":"121.395899857","lat":"31.1018603992","category":"57","category_name":"幼儿园","address":"闵行区腾冲路259号柏林春天居住小区(近都市路)"},{"poiid":"B2094750DA65A3FB419F","title":"丸龟制面","lon":"121.393058","lat":"31.105533","category":"247","category_name":"餐饮美食","address":null},{"poiid":"B2094654DB6CABFF439B","title":"好德NO.031","lon":"121.39569","lat":"31.09968","category":"117","category_name":"便民商店/便利店","address":"腾冲路114号"},{"poiid":"B2094757D66DA3FC429E","title":"上海交通警察总队车管所二分所","lon":"121.39542485","lat":"31.100828378","category":"500","category_name":"未知分类","address":"上海市闵行区莘东路"},{"poiid":"B2094654DB6CABF84198","title":"柏林春天(北门)","lon":"121.39553","lat":"31.10129","category":"47","category_name":"住宅区","address":"腾冲路255"},{"poiid":"B2094757D465A1F8419E","title":"汤不辣老鸭汤 都市路店","lon":"121.393317054","lat":"31.099295793","category":"71","category_name":"四川菜","address":"闵行区都市路4428号(近金铭大厦)"},{"poiid":"B2094655D26AA6F5429A","title":"牛奶棚 都市路店","lon":"121.391641054","lat":"31.101202793","category":"67","category_name":"甜品店","address":"闵行区都市路4606号(近春申路)"},{"poiid":"B2094655D269AAFA4592","title":"魔锅坊麻辣香锅 都市路店","lon":"121.391747054","lat":"31.101721793","category":"71","category_name":"四川菜","address":"闵行区都市路4664号(近春申路)"},{"poiid":"B2094655D268A5FC469C","title":"小东北(都市路)","lon":"121.39321","lat":"31.0978","category":"82","category_name":"东北菜","address":"闵行区都市路4461号(春申路与银都路之间)"},{"poiid":"B2094654DB6CABFF4393","title":"名角女士生活馆No.4468","lon":"121.39515","lat":"31.09951","category":"148","category_name":"美容美发店","address":"腾冲路90"},{"poiid":"B2094757D568A7FD499B","title":"郁金香教育会所","lon":"121.39591064","lat":"31.1008705","category":"190","category_name":"培训机构","address":"闵行区腾冲路195号(近都市路)"},{"poiid":"B2094757D069AAF8409F","title":"五云德小笼","lon":"121.401154","lat":"31.105544","category":"68","category_name":"快餐厅","address":"闵行区畹町路万科假日广场117号104室(近春申路)"},{"poiid":"B2094655D26AA3F94099","title":"味煊烧烤","lon":"121.391887054","lat":"31.101793793","category":"68","category_name":"快餐厅","address":"闵行区都市路4664号(近春申路)"},{"poiid":"B2094655D26BA0FE419C","title":"春申复地城一期","lon":"121.3953","lat":"31.10363","category":"47","category_name":"住宅区","address":"上海市闵行区春申路3355弄"},{"poiid":"B2094757D568A7FD4799","title":"欧蒂芙","lon":"121.39516303","lat":"31.09951118","category":"148","category_name":"美容美发店","address":"腾冲路90"},{"poiid":"B2094655D268A5F5409A","title":"春申复地城","lon":"121.3934","lat":"31.10022","category":"47","category_name":"住宅区","address":"腾冲路258"},{"poiid":"B2094654DB6CABF8439C","title":"金铭大厦","lon":"121.39402","lat":"31.0979","category":"46","category_name":"楼宇","address":"都市路4418"},{"poiid":"B2094654DB6CABFE4592","title":"春申城华丽家园","lon":"121.39366","lat":"31.10214","category":"47","category_name":"住宅区","address":"春申路3455弄"},{"poiid":"B2094654DB65A4FD4099","title":"快客No.6616","lon":"121.39401","lat":"31.09912","category":"117","category_name":"便民商店/便利店","address":"腾冲路36-38"},{"poiid":"B2094655D265A0FE4099","title":"春申大厦","lon":"121.397763","lat":"31.107486","category":"46","category_name":"楼宇","address":"上海市闵行区春申路3555号"},{"poiid":"B2094757D569A2FB489C","title":"四季庭苑花草连锁超市腾冲路店","lon":"121.3939131","lat":"31.09955194","category":"120","category_name":"小商品市场","address":"腾冲路35号"},{"poiid":"B2094757D66DA0FD4092","title":"阿宝小厨","lon":"121.398803711","lat":"31.1019821167","category":"247","category_name":"餐饮美食","address":"上海春申路"},{"poiid":"B2094654DB6CABFE499D","title":"好德NO.857","lon":"121.3933","lat":"31.10127","category":"117","category_name":"便民商店/便利店","address":"腾冲路372-374"},{"poiid":"B2094757D568AAFD4592","title":"重庆鸡公煲都市路店","lon":"121.3931961","lat":"31.097845","category":"71","category_name":"四川菜","address":"闵行区都市路"},{"poiid":"B2094757D66DA2FA449D","title":"田园菜场","lon":"121.39673285","lat":"31.102081403","category":"249","category_name":"购物服务","address":"上海银都路"},{"poiid":"B2094757D069A5FB4299","title":"巴黎贝甜(莘庄仲盛店)","lon":"121.39353","lat":"31.09755","category":"247","category_name":"餐饮美食","address":"上海闵行区都市路5001号仲盛世界商城B1楼(近莘庄地铁站南广场)"},{"poiid":"B2094654DB64A1FF4498","title":"尊皇造型","lon":"121.39406","lat":"31.0996","category":"148","category_name":"美容美发店","address":"腾冲路43号"},{"poiid":"B2094757D569A3FF429B","title":"丽婴房(金铭新水岸都市苑西北)","lon":"121.39472439","lat":"31.09936117","category":"255","category_name":"专卖店","address":"中国上海市闵行区腾冲路"},{"poiid":"B2094654DB6CABFE479F","title":"伊时代形象设计","lon":"121.39218","lat":"31.10145","category":"148","category_name":"美容美发店","address":"都市路4664号"},{"poiid":"B2094654DB6CABFE4593","title":"春申城华丽家园(边门)","lon":"121.39422","lat":"31.10321","category":"47","category_name":"住宅区","address":"春申路3455弄"},{"poiid":"B2094757D568A7F9499D","title":"南威文具","lon":"121.39450575","lat":"31.10162055","category":"139","category_name":"文化用品店","address":"腾冲路302"},{"poiid":"B2094751DA6CA7FA409E","title":"加贺屋","lon":"121.39241","lat":"31.1013","category":"95","category_name":"日本料理","address":"闵行区都市路4654号2楼(近春申路)"}]