[{"poiid":"B2094655D26BA3F94593","title":"丰收日(豫园店)","lon":"121.4891","lat":"31.22207","category":"75","category_name":"浙江菜","address":"黄浦区复兴东路789号1-2楼(河南南路口)"},{"poiid":"B2094757D069A7F44392","title":"南翔小笼","lon":"121.49280873","lat":"31.220081083","category":"247","category_name":"餐饮美食","address":"上海老城隍庙豫园路58号"},{"poiid":"B2094757D568A6FF4598","title":"山海亭(复兴东路)","lon":"121.49009928","lat":"31.22246962","category":"268","category_name":"自助","address":"黄浦区河南南路489号香港名都4楼(近复兴东路)"},{"poiid":"B2094753D76FAAFA449C","title":"上海滩国泰旗舰店","lon":"121.466011","lat":"31.216125","category":"249","category_name":"购物服务","address":"淮海中路868号"},{"poiid":"B209475CD564A7F84292","title":"上海滩新天地店","lon":"121.47463","lat":"31.22164","category":"119","category_name":"商场","address":"\"太仓路181弄新天地北里15号\r\n\""},{"poiid":"B209475CD564A7F84392","title":"上海滩浦东香格里拉店","lon":"121.50058","lat":"31.23634","category":"119","category_name":"商场","address":"浦东富成路33号香格里拉酒店内大堂层"},{"poiid":"B2094654DA6EA0FB429E","title":"孔乙己酒家","lon":"121.48838","lat":"31.21819","category":"75","category_name":"浙江菜","address":"黄浦区学宫街36号(近老西门文庙)"},{"poiid":"B2094654DA6EA5FF4493","title":"云悦酒店","lon":"121.4891","lat":"31.22208","category":"213","category_name":"五星级宾馆","address":"黄浦区复兴东路789号(近豫园)"},{"poiid":"B2094757D06BA7FF4193","title":"老西门国际青年旅舍","lon":"121.49243","lat":"31.21852","category":"216","category_name":"经济型连锁酒店","address":"黄浦区蓬莱路115号(近河南南路)"},{"poiid":"B2094757D069AAF54499","title":"河南南路蓬莱路路口","lon":"121.492031","lat":"31.217954","category":"500","category_name":"未知分类","address":"上海黄浦区河南南路蓬莱路路口"},{"poiid":"B2094655D26FA1FE479A","title":"太阳都市花园","lon":"121.4887","lat":"31.22276","category":"47","category_name":"住宅区","address":"河南南路398弄1-4号"},{"poiid":"B2094757D66FA6FA4392","title":"新元素(西藏南路店)","lon":"121.489419","lat":"31.221615","category":"94","category_name":"西餐厅","address":"黄浦区西藏南路228号永银大厦6楼(桃源路西藏南路)"},{"poiid":"B2094757D168A6FD499E","title":"蓬萊路","lon":"121.49024373","lat":"31.217709033","category":"500","category_name":"未知分类","address":"上海市黄浦區蓬萊路"},{"poiid":"B2094655D36CA7F9459F","title":"河南南路文庙路","lon":"121.49068","lat":"31.22031","category":"38","category_name":"公交车站","address":""},{"poiid":"B2094655D36CA7F94599","title":"河南南路复兴东路","lon":"121.48953","lat":"31.22242","category":"38","category_name":"公交车站","address":""},{"poiid":"B2094757D068A7F4429D","title":"南开大厦","lon":"121.49065","lat":"31.217077","category":"46","category_name":"楼宇","address":"浦东新区金湘路225弄"},{"poiid":"B2094757D068A5FB459D","title":"憨豆咖啡","lon":"121.48986773","lat":"31.22226513","category":"260","category_name":"其他","address":"黄浦区河南南路489号香港名都1楼(近复兴东路)"},{"poiid":"B2094757D464A4FE469F","title":"燕太太燕窝 香港名都店","lon":"121.49009","lat":"31.22246","category":"67","category_name":"甜品店","address":"黄浦区河南南路489号香港名都1楼L125室(近复兴东路)"},{"poiid":"B2094655D36CA7F9459E","title":"河南南路蓬莱路","lon":"121.49098","lat":"31.21994","category":"38","category_name":"公交车站","address":""},{"poiid":"B2094752D769A0F44593","title":"城隍庙","lon":"121.492118","lat":"31.220313","category":"500","category_name":"未知分类","address":"上海市城隍庙"},{"poiid":"B2094751D56CA6FA449B","title":"梦花街馄饨","lon":"121.48924","lat":"31.21957","category":"68","category_name":"快餐厅","address":"黄浦区梦花街19号(近柳江街)"},{"poiid":"B2094757D16FA3F4419A","title":"小桃园清真寺","lon":"121.49179","lat":"31.21861","category":"68","category_name":"快餐厅","address":"黄浦区小桃园街52号(近复兴东路)"},{"poiid":"B2094757D16FA3FC489C","title":"建国大厦","lon":"121.488","lat":"31.2197","category":"46","category_name":"楼宇","address":"朝阳区天辰东路7号"},{"poiid":"B2094655D268A0F8499C","title":"华兴里","lon":"121.49002","lat":"31.22008","category":"47","category_name":"住宅区","address":"西仓桥街112弄1-82号"},{"poiid":"B2094757DA65A5F4419E","title":"如家快捷酒店（上海外滩城隍庙店）","lon":"121.490711","lat":"31.222069","category":"216","category_name":"经济型连锁酒店","address":"上海市黄浦区复兴东路699号(近河南南路)"},{"poiid":"B2094757D064A2FC499A","title":"红灯笼馄饨店","lon":"121.48712","lat":"31.22022","category":"68","category_name":"快餐厅","address":"黄浦区复兴东路959弄1-5号(近公交24路老西门站)"},{"poiid":"B2094751D36AA5F8489E","title":"丰收日幸福家宴","lon":"121.49009","lat":"31.22246","category":"76","category_name":"上海菜","address":"黄浦区河南南路489号香港名都广场4楼(近复兴东路)"},{"poiid":"B2094655D26CA4FB449E","title":"士林华苑西门","lon":"121.49063","lat":"31.22055","category":"47","category_name":"住宅区","address":"河南南路555弄"},{"poiid":"B2094655D268A0F8499D","title":"华兴里(北门)","lon":"121.48979","lat":"31.22032","category":"47","category_name":"住宅区","address":"西仓桥街112弄1-82号"},{"poiid":"B2094757D065A4FF449D","title":"韩林炭烤 香港名都店","lon":"121.48988","lat":"31.22201","category":"96","category_name":"韩国料理","address":"黄浦区河南南路495-519号香港名都商场L4楼02(复兴东路河南南路)"},{"poiid":"B2094757D66EA7F44498","title":"文庙路幼儿园","lon":"121.490445538","lat":"31.2204012907","category":"57","category_name":"幼儿园","address":"黄浦区文庙路柳江街17号(近河南南路)"},{"poiid":"B2094654DB69A0F8479E","title":"蓬莱路第二小学","lon":"121.49009","lat":"31.21824","category":"56","category_name":"小学","address":"黄浦区蓬莱路225号(蓬莱路迎勋北路)"},{"poiid":"B2094654DA6EA0F4459C","title":"紫金苑公寓","lon":"121.49045","lat":"31.21957","category":"47","category_name":"住宅区","address":"河南南路612弄28"},{"poiid":"B2094750DA68A6F54893","title":"道顺射箭馆(黄浦)","lon":"121.4915","lat":"31.222013","category":"248","category_name":"生活娱乐","address":"黄浦区复兴东路699号3楼(近河南南路)"},{"poiid":"B2094757D664A2FC4993","title":"六千馆","lon":"121.48975","lat":"31.22226","category":"76","category_name":"上海菜","address":"黄浦区河南南路489号香港名都5楼(近复兴东路)"},{"poiid":"B2094655D268A0FB469A","title":"紫金苑公寓(东门)","lon":"121.49079","lat":"31.2196","category":"47","category_name":"住宅区","address":"河南南路612弄28"},{"poiid":"B2094655D26BA1FD419E","title":"蓬莱路","lon":"121.49116","lat":"31.21933","category":"38","category_name":"公交车站","address":"蓬莱路311号"},{"poiid":"B2094654DB6BA4FF419B","title":"快客河南南路店","lon":"121.4909","lat":"31.21939","category":"117","category_name":"便民商店/便利店","address":"河南南路630-2"},{"poiid":"B2094750D768A6FA4093","title":"噫寿司","lon":"121.488","lat":"31.2176","category":"95","category_name":"日本料理","address":"黄浦区文庙路235号(近中华路)"},{"poiid":"B2094757DB6FA6F8439D","title":"陆家浜路9地铁站","lon":"121.488546","lat":"31.222738","category":"36","category_name":"地铁站","address":"陆家浜路"},{"poiid":"B2094757D165A3F4479A","title":"建新公寓","lon":"121.490503","lat":"31.221123","category":"47","category_name":"住宅区","address":"上海方斜路327号"},{"poiid":"B2094654DA6EA0FB409C","title":"上海市黄浦区回民小学","lon":"121.48961","lat":"31.21892","category":"56","category_name":"小学","address":"柳江街26"},{"poiid":"B2094757D165A4FB459C","title":"黄浦区回民小学","lon":"121.489615","lat":"31.218923","category":"56","category_name":"小学","address":"上海柳江街26号"},{"poiid":"B2094750D665A0FE429B","title":"疯狂土豆(文庙路店)","lon":"121.488","lat":"31.2192","category":"68","category_name":"快餐厅","address":"黄浦区文庙路171号(近中华路)"},{"poiid":"B2094757D16DA7F44492","title":"紫金苑","lon":"121.490455","lat":"31.219565","category":"500","category_name":"未知分类","address":"上海河南南路612弄28号"},{"poiid":"B2094757D568ABF94093","title":"柯迪外贸","lon":"121.4908374","lat":"31.21957303","category":"141","category_name":"服装鞋帽皮具店","address":"河南南路628号"},{"poiid":"B2094655D264A6F84399","title":"港龙公寓(南门)","lon":"121.48861","lat":"31.2202","category":"47","category_name":"住宅区","address":"庄家街51弄1-2号"},{"poiid":"B2094757D06BA2F8479E","title":"66路河南南路蓬莱路站","lon":"121.49040607","lat":"31.220836099","category":"500","category_name":"未知分类","address":"上海河南南路"},{"poiid":"B2094655D264A7F4409F","title":"港龙公寓","lon":"121.48869","lat":"31.22051","category":"47","category_name":"住宅区","address":"庄家街51弄1-2号"},{"poiid":"B2094655D268A0F8499F","title":"司马秤","lon":"121.48986","lat":"31.22136","category":"196","category_name":"公园","address":""},{"poiid":"B2094655D26BA3F94593","title":"丰收日(豫园店)","lon":"121.4891","lat":"31.22207","category":"75","category_name":"浙江菜","address":"黄浦区复兴东路789号1-2楼(河南南路口)"},{"poiid":"B2094757D069A7F44392","title":"南翔小笼","lon":"121.49280873","lat":"31.220081083","category":"247","category_name":"餐饮美食","address":"上海老城隍庙豫园路58号"},{"poiid":"B2094757D568A6FF4598","title":"山海亭(复兴东路)","lon":"121.49009928","lat":"31.22246962","category":"268","category_name":"自助","address":"黄浦区河南南路489号香港名都4楼(近复兴东路)"},{"poiid":"B2094753D76FAAFA449C","title":"上海滩国泰旗舰店","lon":"121.466011","lat":"31.216125","category":"249","category_name":"购物服务","address":"淮海中路868号"},{"poiid":"B209475CD564A7F84292","title":"上海滩新天地店","lon":"121.47463","lat":"31.22164","category":"119","category_name":"商场","address":"\"太仓路181弄新天地北里15号\r\n\""},{"poiid":"B209475CD564A7F84392","title":"上海滩浦东香格里拉店","lon":"121.50058","lat":"31.23634","category":"119","category_name":"商场","address":"浦东富成路33号香格里拉酒店内大堂层"},{"poiid":"B2094654DA6EA0FB429E","title":"孔乙己酒家","lon":"121.48838","lat":"31.21819","category":"75","category_name":"浙江菜","address":"黄浦区学宫街36号(近老西门文庙)"},{"poiid":"B2094654DA6EA5FF4493","title":"云悦酒店","lon":"121.4891","lat":"31.22208","category":"213","category_name":"五星级宾馆","address":"黄浦区复兴东路789号(近豫园)"},{"poiid":"B2094757D06BA7FF4193","title":"老西门国际青年旅舍","lon":"121.49243","lat":"31.21852","category":"216","category_name":"经济型连锁酒店","address":"黄浦区蓬莱路115号(近河南南路)"},{"poiid":"B2094757D069AAF54499","title":"河南南路蓬莱路路口","lon":"121.492031","lat":"31.217954","category":"500","category_name":"未知分类","address":"上海黄浦区河南南路蓬莱路路口"},{"poiid":"B2094655D26FA1FE479A","title":"太阳都市花园","lon":"121.4887","lat":"31.22276","category":"47","category_name":"住宅区","address":"河南南路398弄1-4号"},{"poiid":"B2094757D66FA6FA4392","title":"新元素(西藏南路店)","lon":"121.489419","lat":"31.221615","category":"94","category_name":"西餐厅","address":"黄浦区西藏南路228号永银大厦6楼(桃源路西藏南路)"},{"poiid":"B2094757D168A6FD499E","title":"蓬萊路","lon":"121.49024373","lat":"31.217709033","category":"500","category_name":"未知分类","address":"上海市黄浦區蓬萊路"},{"poiid":"B2094655D36CA7F9459F","title":"河南南路文庙路","lon":"121.49068","lat":"31.22031","category":"38","category_name":"公交车站","address":""},{"poiid":"B2094655D36CA7F94599","title":"河南南路复兴东路","lon":"121.48953","lat":"31.22242","category":"38","category_name":"公交车站","address":""},{"poiid":"B2094757D068A7F4429D","title":"南开大厦","lon":"121.49065","lat":"31.217077","category":"46","category_name":"楼宇","address":"浦东新区金湘路225弄"},{"poiid":"B2094757D068A5FB459D","title":"憨豆咖啡","lon":"121.48986773","lat":"31.22226513","category":"260","category_name":"其他","address":"黄浦区河南南路489号香港名都1楼(近复兴东路)"},{"poiid":"B2094757D464A4FE469F","title":"燕太太燕窝 香港名都店","lon":"121.49009","lat":"31.22246","category":"67","category_name":"甜品店","address":"黄浦区河南南路489号香港名都1楼L125室(近复兴东路)"},{"poiid":"B2094655D36CA7F9459E","title":"河南南路蓬莱路","lon":"121.49098","lat":"31.21994","category":"38","category_name":"公交车站","address":""},{"poiid":"B2094752D769A0F44593","title":"城隍庙","lon":"121.492118","lat":"31.220313","category":"500","category_name":"未知分类","address":"上海市城隍庙"},{"poiid":"B2094751D56CA6FA449B","title":"梦花街馄饨","lon":"121.48924","lat":"31.21957","category":"68","category_name":"快餐厅","address":"黄浦区梦花街19号(近柳江街)"},{"poiid":"B2094757D16FA3F4419A","title":"小桃园清真寺","lon":"121.49179","lat":"31.21861","category":"68","category_name":"快餐厅","address":"黄浦区小桃园街52号(近复兴东路)"},{"poiid":"B2094757D16FA3FC489C","title":"建国大厦","lon":"121.488","lat":"31.2197","category":"46","category_name":"楼宇","address":"朝阳区天辰东路7号"},{"poiid":"B2094655D268A0F8499C","title":"华兴里","lon":"121.49002","lat":"31.22008","category":"47","category_name":"住宅区","address":"西仓桥街112弄1-82号"},{"poiid":"B2094757DA65A5F4419E","title":"如家快捷酒店（上海外滩城隍庙店）","lon":"121.490711","lat":"31.222069","category":"216","category_name":"经济型连锁酒店","address":"上海市黄浦区复兴东路699号(近河南南路)"},{"poiid":"B2094757D064A2FC499A","title":"红灯笼馄饨店","lon":"121.48712","lat":"31.22022","category":"68","category_name":"快餐厅","address":"黄浦区复兴东路959弄1-5号(近公交24路老西门站)"},{"poiid":"B2094751D36AA5F8489E","title":"丰收日幸福家宴","lon":"121.49009","lat":"31.22246","category":"76","category_name":"上海菜","address":"黄浦区河南南路489号香港名都广场4楼(近复兴东路)"},{"poiid":"B2094655D26CA4FB449E","title":"士林华苑西门","lon":"121.49063","lat":"31.22055","category":"47","category_name":"住宅区","address":"河南南路555弄"},{"poiid":"B2094655D268A0F8499D","title":"华兴里(北门)","lon":"121.48979","lat":"31.22032","category":"47","category_name":"住宅区","address":"西仓桥街112弄1-82号"},{"poiid":"B2094757D065A4FF449D","title":"韩林炭烤 香港名都店","lon":"121.48988","lat":"31.22201","category":"96","category_name":"韩国料理","address":"黄浦区河南南路495-519号香港名都商场L4楼02(复兴东路河南南路)"},{"poiid":"B2094757D66EA7F44498","title":"文庙路幼儿园","lon":"121.490445538","lat":"31.2204012907","category":"57","category_name":"幼儿园","address":"黄浦区文庙路柳江街17号(近河南南路)"},{"poiid":"B2094654DB69A0F8479E","title":"蓬莱路第二小学","lon":"121.49009","lat":"31.21824","category":"56","category_name":"小学","address":"黄浦区蓬莱路225号(蓬莱路迎勋北路)"},{"poiid":"B2094654DA6EA0F4459C","title":"紫金苑公寓","lon":"121.49045","lat":"31.21957","category":"47","category_name":"住宅区","address":"河南南路612弄28"},{"poiid":"B2094750DA68A6F54893","title":"道顺射箭馆(黄浦)","lon":"121.4915","lat":"31.222013","category":"248","category_name":"生活娱乐","address":"黄浦区复兴东路699号3楼(近河南南路)"},{"poiid":"B2094757D664A2FC4993","title":"六千馆","lon":"121.48975","lat":"31.22226","category":"76","category_name":"上海菜","address":"黄浦区河南南路489号香港名都5楼(近复兴东路)"},{"poiid":"B2094655D268A0FB469A","title":"紫金苑公寓(东门)","lon":"121.49079","lat":"31.2196","category":"47","category_name":"住宅区","address":"河南南路612弄28"},{"poiid":"B2094655D26BA1FD419E","title":"蓬莱路","lon":"121.49116","lat":"31.21933","category":"38","category_name":"公交车站","address":"蓬莱路311号"},{"poiid":"B2094654DB6BA4FF419B","title":"快客河南南路店","lon":"121.4909","lat":"31.21939","category":"117","category_name":"便民商店/便利店","address":"河南南路630-2"},{"poiid":"B2094750D768A6FA4093","title":"噫寿司","lon":"121.488","lat":"31.2176","category":"95","category_name":"日本料理","address":"黄浦区文庙路235号(近中华路)"},{"poiid":"B2094757DB6FA6F8439D","title":"陆家浜路9地铁站","lon":"121.488546","lat":"31.222738","category":"36","category_name":"地铁站","address":"陆家浜路"},{"poiid":"B2094757D165A3F4479A","title":"建新公寓","lon":"121.490503","lat":"31.221123","category":"47","category_name":"住宅区","address":"上海方斜路327号"},{"poiid":"B2094654DA6EA0FB409C","title":"上海市黄浦区回民小学","lon":"121.48961","lat":"31.21892","category":"56","category_name":"小学","address":"柳江街26"},{"poiid":"B2094757D165A4FB459C","title":"黄浦区回民小学","lon":"121.489615","lat":"31.218923","category":"56","category_name":"小学","address":"上海柳江街26号"},{"poiid":"B2094750D665A0FE429B","title":"疯狂土豆(文庙路店)","lon":"121.488","lat":"31.2192","category":"68","category_name":"快餐厅","address":"黄浦区文庙路171号(近中华路)"},{"poiid":"B2094757D16DA7F44492","title":"紫金苑","lon":"121.490455","lat":"31.219565","category":"500","category_name":"未知分类","address":"上海河南南路612弄28号"},{"poiid":"B2094757D568ABF94093","title":"柯迪外贸","lon":"121.4908374","lat":"31.21957303","category":"141","category_name":"服装鞋帽皮具店","address":"河南南路628号"},{"poiid":"B2094655D264A6F84399","title":"港龙公寓(南门)","lon":"121.48861","lat":"31.2202","category":"47","category_name":"住宅区","address":"庄家街51弄1-2号"},{"poiid":"B2094757D06BA2F8479E","title":"66路河南南路蓬莱路站","lon":"121.49040607","lat":"31.220836099","category":"500","category_name":"未知分类","address":"上海河南南路"},{"poiid":"B2094655D264A7F4409F","title":"港龙公寓","lon":"121.48869","lat":"31.22051","category":"47","category_name":"住宅区","address":"庄家街51弄1-2号"},{"poiid":"B2094655D268A0F8499F","title":"司马秤","lon":"121.48986","lat":"31.22136","category":"196","category_name":"公园","address":""},{"poiid":"B2094655D26BA3F94593","title":"丰收日(豫园店)","lon":"121.4891","lat":"31.22207","category":"75","category_name":"浙江菜","address":"黄浦区复兴东路789号1-2楼(河南南路口)"},{"poiid":"B2094757D069A7F44392","title":"南翔小笼","lon":"121.49280873","lat":"31.220081083","category":"247","category_name":"餐饮美食","address":"上海老城隍庙豫园路58号"},{"poiid":"B2094757D568A6FF4598","title":"山海亭(复兴东路)","lon":"121.49009928","lat":"31.22246962","category":"268","category_name":"自助","address":"黄浦区河南南路489号香港名都4楼(近复兴东路)"},{"poiid":"B2094753D76FAAFA449C","title":"上海滩国泰旗舰店","lon":"121.466011","lat":"31.216125","category":"249","category_name":"购物服务","address":"淮海中路868号"},{"poiid":"B209475CD564A7F84292","title":"上海滩新天地店","lon":"121.47463","lat":"31.22164","category":"119","category_name":"商场","address":"\"太仓路181弄新天地北里15号\r\n\""},{"poiid":"B209475CD564A7F84392","title":"上海滩浦东香格里拉店","lon":"121.50058","lat":"31.23634","category":"119","category_name":"商场","address":"浦东富成路33号香格里拉酒店内大堂层"},{"poiid":"B2094654DA6EA0FB429E","title":"孔乙己酒家","lon":"121.48838","lat":"31.21819","category":"75","category_name":"浙江菜","address":"黄浦区学宫街36号(近老西门文庙)"},{"poiid":"B2094654DA6EA5FF4493","title":"云悦酒店","lon":"121.4891","lat":"31.22208","category":"213","category_name":"五星级宾馆","address":"黄浦区复兴东路789号(近豫园)"},{"poiid":"B2094757D06BA7FF4193","title":"老西门国际青年旅舍","lon":"121.49243","lat":"31.21852","category":"216","category_name":"经济型连锁酒店","address":"黄浦区蓬莱路115号(近河南南路)"},{"poiid":"B2094757D069AAF54499","title":"河南南路蓬莱路路口","lon":"121.492031","lat":"31.217954","category":"500","category_name":"未知分类","address":"上海黄浦区河南南路蓬莱路路口"},{"poiid":"B2094655D26FA1FE479A","title":"太阳都市花园","lon":"121.4887","lat":"31.22276","category":"47","category_name":"住宅区","address":"河南南路398弄1-4号"},{"poiid":"B2094757D66FA6FA4392","title":"新元素(西藏南路店)","lon":"121.489419","lat":"31.221615","category":"94","category_name":"西餐厅","address":"黄浦区西藏南路228号永银大厦6楼(桃源路西藏南路)"},{"poiid":"B2094757D168A6FD499E","title":"蓬萊路","lon":"121.49024373","lat":"31.217709033","category":"500","category_name":"未知分类","address":"上海市黄浦區蓬萊路"},{"poiid":"B2094655D36CA7F9459F","title":"河南南路文庙路","lon":"121.49068","lat":"31.22031","category":"38","category_name":"公交车站","address":""},{"poiid":"B2094655D36CA7F94599","title":"河南南路复兴东路","lon":"121.48953","lat":"31.22242","category":"38","category_name":"公交车站","address":""},{"poiid":"B2094757D068A7F4429D","title":"南开大厦","lon":"121.49065","lat":"31.217077","category":"46","category_name":"楼宇","address":"浦东新区金湘路225弄"},{"poiid":"B2094757D068A5FB459D","title":"憨豆咖啡","lon":"121.48986773","lat":"31.22226513","category":"260","category_name":"其他","address":"黄浦区河南南路489号香港名都1楼(近复兴东路)"},{"poiid":"B2094757D464A4FE469F","title":"燕太太燕窝 香港名都店","lon":"121.49009","lat":"31.22246","category":"67","category_name":"甜品店","address":"黄浦区河南南路489号香港名都1楼L125室(近复兴东路)"},{"poiid":"B2094655D36CA7F9459E","title":"河南南路蓬莱路","lon":"121.49098","lat":"31.21994","category":"38","category_name":"公交车站","address":""},{"poiid":"B2094752D769A0F44593","title":"城隍庙","lon":"121.492118","lat":"31.220313","category":"500","category_name":"未知分类","address":"上海市城隍庙"},{"poiid":"B2094751D56CA6FA449B","title":"梦花街馄饨","lon":"121.48924","lat":"31.21957","category":"68","category_name":"快餐厅","address":"黄浦区梦花街19号(近柳江街)"},{"poiid":"B2094757D16FA3F4419A","title":"小桃园清真寺","lon":"121.49179","lat":"31.21861","category":"68","category_name":"快餐厅","address":"黄浦区小桃园街52号(近复兴东路)"},{"poiid":"B2094757D16FA3FC489C","title":"建国大厦","lon":"121.488","lat":"31.2197","category":"46","category_name":"楼宇","address":"朝阳区天辰东路7号"},{"poiid":"B2094655D268A0F8499C","title":"华兴里","lon":"121.49002","lat":"31.22008","category":"47","category_name":"住宅区","address":"西仓桥街112弄1-82号"},{"poiid":"B2094757DA65A5F4419E","title":"如家快捷酒店（上海外滩城隍庙店）","lon":"121.490711","lat":"31.222069","category":"216","category_name":"经济型连锁酒店","address":"上海市黄浦区复兴东路699号(近河南南路)"},{"poiid":"B2094757D064A2FC499A","title":"红灯笼馄饨店","lon":"121.48712","lat":"31.22022","category":"68","category_name":"快餐厅","address":"黄浦区复兴东路959弄1-5号(近公交24路老西门站)"},{"poiid":"B2094751D36AA5F8489E","title":"丰收日幸福家宴","lon":"121.49009","lat":"31.22246","category":"76","category_name":"上海菜","address":"黄浦区河南南路489号香港名都广场4楼(近复兴东路)"},{"poiid":"B2094655D26CA4FB449E","title":"士林华苑西门","lon":"121.49063","lat":"31.22055","category":"47","category_name":"住宅区","address":"河南南路555弄"},{"poiid":"B2094655D268A0F8499D","title":"华兴里(北门)","lon":"121.48979","lat":"31.22032","category":"47","category_name":"住宅区","address":"西仓桥街112弄1-82号"},{"poiid":"B2094757D065A4FF449D","title":"韩林炭烤 香港名都店","lon":"121.48988","lat":"31.22201","category":"96","category_name":"韩国料理","address":"黄浦区河南南路495-519号香港名都商场L4楼02(复兴东路河南南路)"},{"poiid":"B2094757D66EA7F44498","title":"文庙路幼儿园","lon":"121.490445538","lat":"31.2204012907","category":"57","category_name":"幼儿园","address":"黄浦区文庙路柳江街17号(近河南南路)"},{"poiid":"B2094654DB69A0F8479E","title":"蓬莱路第二小学","lon":"121.49009","lat":"31.21824","category":"56","category_name":"小学","address":"黄浦区蓬莱路225号(蓬莱路迎勋北路)"},{"poiid":"B2094654DA6EA0F4459C","title":"紫金苑公寓","lon":"121.49045","lat":"31.21957","category":"47","category_name":"住宅区","address":"河南南路612弄28"},{"poiid":"B2094750DA68A6F54893","title":"道顺射箭馆(黄浦)","lon":"121.4915","lat":"31.222013","category":"248","category_name":"生活娱乐","address":"黄浦区复兴东路699号3楼(近河南南路)"},{"poiid":"B2094757D664A2FC4993","title":"六千馆","lon":"121.48975","lat":"31.22226","category":"76","category_name":"上海菜","address":"黄浦区河南南路489号香港名都5楼(近复兴东路)"},{"poiid":"B2094655D268A0FB469A","title":"紫金苑公寓(东门)","lon":"121.49079","lat":"31.2196","category":"47","category_name":"住宅区","address":"河南南路612弄28"},{"poiid":"B2094655D26BA1FD419E","title":"蓬莱路","lon":"121.49116","lat":"31.21933","category":"38","category_name":"公交车站","address":"蓬莱路311号"},{"poiid":"B2094654DB6BA4FF419B","title":"快客河南南路店","lon":"121.4909","lat":"31.21939","category":"117","category_name":"便民商店/便利店","address":"河南南路630-2"},{"poiid":"B2094750D768A6FA4093","title":"噫寿司","lon":"121.488","lat":"31.2176","category":"95","category_name":"日本料理","address":"黄浦区文庙路235号(近中华路)"},{"poiid":"B2094757DB6FA6F8439D","title":"陆家浜路9地铁站","lon":"121.488546","lat":"31.222738","category":"36","category_name":"地铁站","address":"陆家浜路"},{"poiid":"B2094757D165A3F4479A","title":"建新公寓","lon":"121.490503","lat":"31.221123","category":"47","category_name":"住宅区","address":"上海方斜路327号"},{"poiid":"B2094654DA6EA0FB409C","title":"上海市黄浦区回民小学","lon":"121.48961","lat":"31.21892","category":"56","category_name":"小学","address":"柳江街26"},{"poiid":"B2094757D165A4FB459C","title":"黄浦区回民小学","lon":"121.489615","lat":"31.218923","category":"56","category_name":"小学","address":"上海柳江街26号"},{"poiid":"B2094750D665A0FE429B","title":"疯狂土豆(文庙路店)","lon":"121.488","lat":"31.2192","category":"68","category_name":"快餐厅","address":"黄浦区文庙路171号(近中华路)"},{"poiid":"B2094757D16DA7F44492","title":"紫金苑","lon":"121.490455","lat":"31.219565","category":"500","category_name":"未知分类","address":"上海河南南路612弄28号"},{"poiid":"B2094757D568ABF94093","title":"柯迪外贸","lon":"121.4908374","lat":"31.21957303","category":"141","category_name":"服装鞋帽皮具店","address":"河南南路628号"},{"poiid":"B2094655D264A6F84399","title":"港龙公寓(南门)","lon":"121.48861","lat":"31.2202","category":"47","category_name":"住宅区","address":"庄家街51弄1-2号"},{"poiid":"B2094757D06BA2F8479E","title":"66路河南南路蓬莱路站","lon":"121.49040607","lat":"31.220836099","category":"500","category_name":"未知分类","address":"上海河南南路"},{"poiid":"B2094655D264A7F4409F","title":"港龙公寓","lon":"121.48869","lat":"31.22051","category":"47","category_name":"住宅区","address":"庄家街51弄1-2号"},{"poiid":"B2094655D268A0F8499F","title":"司马秤","lon":"121.48986","lat":"31.22136","category":"196","category_name":"公园","address":""},{"poiid":"B2094655D26BA3F94593","title":"丰收日(豫园店)","lon":"121.4891","lat":"31.22207","category":"75","category_name":"浙江菜","address":"黄浦区复兴东路789号1-2楼(河南南路口)"},{"poiid":"B2094757D069A7F44392","title":"南翔小笼","lon":"121.49280873","lat":"31.220081083","category":"247","category_name":"餐饮美食","address":"上海老城隍庙豫园路58号"},{"poiid":"B2094757D568A6FF4598","title":"山海亭(复兴东路)","lon":"121.49009928","lat":"31.22246962","category":"268","category_name":"自助","address":"黄浦区河南南路489号香港名都4楼(近复兴东路)"},{"poiid":"B2094753D76FAAFA449C","title":"上海滩国泰旗舰店","lon":"121.466011","lat":"31.216125","category":"249","category_name":"购物服务","address":"淮海中路868号"},{"poiid":"B209475CD564A7F84292","title":"上海滩新天地店","lon":"121.47463","lat":"31.22164","category":"119","category_name":"商场","address":"\"太仓路181弄新天地北里15号\r\n\""},{"poiid":"B209475CD564A7F84392","title":"上海滩浦东香格里拉店","lon":"121.50058","lat":"31.23634","category":"119","category_name":"商场","address":"浦东富成路33号香格里拉酒店内大堂层"},{"poiid":"B2094654DA6EA0FB429E","title":"孔乙己酒家","lon":"121.48838","lat":"31.21819","category":"75","category_name":"浙江菜","address":"黄浦区学宫街36号(近老西门文庙)"},{"poiid":"B2094654DA6EA5FF4493","title":"云悦酒店","lon":"121.4891","lat":"31.22208","category":"213","category_name":"五星级宾馆","address":"黄浦区复兴东路789号(近豫园)"},{"poiid":"B2094757D06BA7FF4193","title":"老西门国际青年旅舍","lon":"121.49243","lat":"31.21852","category":"216","category_name":"经济型连锁酒店","address":"黄浦区蓬莱路115号(近河南南路)"},{"poiid":"B2094757D069AAF54499","title":"河南南路蓬莱路路口","lon":"121.492031","lat":"31.217954","category":"500","category_name":"未知分类","address":"上海黄浦区河南南路蓬莱路路口"},{"poiid":"B2094655D26FA1FE479A","title":"太阳都市花园","lon":"121.4887","lat":"31.22276","category":"47","category_name":"住宅区","address":"河南南路398弄1-4号"},{"poiid":"B2094757D66FA6FA4392","title":"新元素(西藏南路店)","lon":"121.489419","lat":"31.221615","category":"94","category_name":"西餐厅","address":"黄浦区西藏南路228号永银大厦6楼(桃源路西藏南路)"},{"poiid":"B2094757D168A6FD499E","title":"蓬萊路","lon":"121.49024373","lat":"31.217709033","category":"500","category_name":"未知分类","address":"上海市黄浦區蓬萊路"},{"poiid":"B2094655D36CA7F9459F","title":"河南南路文庙路","lon":"121.49068","lat":"31.22031","category":"38","category_name":"公交车站","address":""},{"poiid":"B2094655D36CA7F94599","title":"河南南路复兴东路","lon":"121.48953","lat":"31.22242","category":"38","category_name":"公交车站","address":""},{"poiid":"B2094757D068A7F4429D","title":"南开大厦","lon":"121.49065","lat":"31.217077","category":"46","category_name":"楼宇","address":"浦东新区金湘路225弄"},{"poiid":"B2094757D068A5FB459D","title":"憨豆咖啡","lon":"121.48986773","lat":"31.22226513","category":"260","category_name":"其他","address":"黄浦区河南南路489号香港名都1楼(近复兴东路)"},{"poiid":"B2094757D464A4FE469F","title":"燕太太燕窝 香港名都店","lon":"121.49009","lat":"31.22246","category":"67","category_name":"甜品店","address":"黄浦区河南南路489号香港名都1楼L125室(近复兴东路)"},{"poiid":"B2094655D36CA7F9459E","title":"河南南路蓬莱路","lon":"121.49098","lat":"31.21994","category":"38","category_name":"公交车站","address":""},{"poiid":"B2094752D769A0F44593","title":"城隍庙","lon":"121.492118","lat":"31.220313","category":"500","category_name":"未知分类","address":"上海市城隍庙"},{"poiid":"B2094751D56CA6FA449B","title":"梦花街馄饨","lon":"121.48924","lat":"31.21957","category":"68","category_name":"快餐厅","address":"黄浦区梦花街19号(近柳江街)"},{"poiid":"B2094757D16FA3F4419A","title":"小桃园清真寺","lon":"121.49179","lat":"31.21861","category":"68","category_name":"快餐厅","address":"黄浦区小桃园街52号(近复兴东路)"},{"poiid":"B2094757D16FA3FC489C","title":"建国大厦","lon":"121.488","lat":"31.2197","category":"46","category_name":"楼宇","address":"朝阳区天辰东路7号"},{"poiid":"B2094655D268A0F8499C","title":"华兴里","lon":"121.49002","lat":"31.22008","category":"47","category_name":"住宅区","address":"西仓桥街112弄1-82号"},{"poiid":"B2094757DA65A5F4419E","title":"如家快捷酒店（上海外滩城隍庙店）","lon":"121.490711","lat":"31.222069","category":"216","category_name":"经济型连锁酒店","address":"上海市黄浦区复兴东路699号(近河南南路)"},{"poiid":"B2094757D064A2FC499A","title":"红灯笼馄饨店","lon":"121.48712","lat":"31.22022","category":"68","category_name":"快餐厅","address":"黄浦区复兴东路959弄1-5号(近公交24路老西门站)"},{"poiid":"B2094751D36AA5F8489E","title":"丰收日幸福家宴","lon":"121.49009","lat":"31.22246","category":"76","category_name":"上海菜","address":"黄浦区河南南路489号香港名都广场4楼(近复兴东路)"},{"poiid":"B2094655D26CA4FB449E","title":"士林华苑西门","lon":"121.49063","lat":"31.22055","category":"47","category_name":"住宅区","address":"河南南路555弄"},{"poiid":"B2094655D268A0F8499D","title":"华兴里(北门)","lon":"121.48979","lat":"31.22032","category":"47","category_name":"住宅区","address":"西仓桥街112弄1-82号"},{"poiid":"B2094757D065A4FF449D","title":"韩林炭烤 香港名都店","lon":"121.48988","lat":"31.22201","category":"96","category_name":"韩国料理","address":"黄浦区河南南路495-519号香港名都商场L4楼02(复兴东路河南南路)"},{"poiid":"B2094757D66EA7F44498","title":"文庙路幼儿园","lon":"121.490445538","lat":"31.2204012907","category":"57","category_name":"幼儿园","address":"黄浦区文庙路柳江街17号(近河南南路)"},{"poiid":"B2094654DB69A0F8479E","title":"蓬莱路第二小学","lon":"121.49009","lat":"31.21824","category":"56","category_name":"小学","address":"黄浦区蓬莱路225号(蓬莱路迎勋北路)"},{"poiid":"B2094654DA6EA0F4459C","title":"紫金苑公寓","lon":"121.49045","lat":"31.21957","category":"47","category_name":"住宅区","address":"河南南路612弄28"},{"poiid":"B2094750DA68A6F54893","title":"道顺射箭馆(黄浦)","lon":"121.4915","lat":"31.222013","category":"248","category_name":"生活娱乐","address":"黄浦区复兴东路699号3楼(近河南南路)"},{"poiid":"B2094757D664A2FC4993","title":"六千馆","lon":"121.48975","lat":"31.22226","category":"76","category_name":"上海菜","address":"黄浦区河南南路489号香港名都5楼(近复兴东路)"},{"poiid":"B2094655D268A0FB469A","title":"紫金苑公寓(东门)","lon":"121.49079","lat":"31.2196","category":"47","category_name":"住宅区","address":"河南南路612弄28"},{"poiid":"B2094655D26BA1FD419E","title":"蓬莱路","lon":"121.49116","lat":"31.21933","category":"38","category_name":"公交车站","address":"蓬莱路311号"},{"poiid":"B2094654DB6BA4FF419B","title":"快客河南南路店","lon":"121.4909","lat":"31.21939","category":"117","category_name":"便民商店/便利店","address":"河南南路630-2"},{"poiid":"B2094750D768A6FA4093","title":"噫寿司","lon":"121.488","lat":"31.2176","category":"95","category_name":"日本料理","address":"黄浦区文庙路235号(近中华路)"},{"poiid":"B2094757DB6FA6F8439D","title":"陆家浜路9地铁站","lon":"121.488546","lat":"31.222738","category":"36","category_name":"地铁站","address":"陆家浜路"},{"poiid":"B2094757D165A3F4479A","title":"建新公寓","lon":"121.490503","lat":"31.221123","category":"47","category_name":"住宅区","address":"上海方斜路327号"},{"poiid":"B2094654DA6EA0FB409C","title":"上海市黄浦区回民小学","lon":"121.48961","lat":"31.21892","category":"56","category_name":"小学","address":"柳江街26"},{"poiid":"B2094757D165A4FB459C","title":"黄浦区回民小学","lon":"121.489615","lat":"31.218923","category":"56","category_name":"小学","address":"上海柳江街26号"},{"poiid":"B2094750D665A0FE429B","title":"疯狂土豆(文庙路店)","lon":"121.488","lat":"31.2192","category":"68","category_name":"快餐厅","address":"黄浦区文庙路171号(近中华路)"},{"poiid":"B2094757D16DA7F44492","title":"紫金苑","lon":"121.490455","lat":"31.219565","category":"500","category_name":"未知分类","address":"上海河南南路612弄28号"},{"poiid":"B2094757D568ABF94093","title":"柯迪外贸","lon":"121.4908374","lat":"31.21957303","category":"141","category_name":"服装鞋帽皮具店","address":"河南南路628号"},{"poiid":"B2094655D264A6F84399","title":"港龙公寓(南门)","lon":"121.48861","lat":"31.2202","category":"47","category_name":"住宅区","address":"庄家街51弄1-2号"},{"poiid":"B2094757D06BA2F8479E","title":"66路河南南路蓬莱路站","lon":"121.49040607","lat":"31.220836099","category":"500","category_name":"未知分类","address":"上海河南南路"},{"poiid":"B2094655D264A7F4409F","title":"港龙公寓","lon":"121.48869","lat":"31.22051","category":"47","category_name":"住宅区","address":"庄家街51弄1-2号"},{"poiid":"B2094655D268A0F8499F","title":"司马秤","lon":"121.48986","lat":"31.22136","category":"196","category_name":"公园","address":""}]