[{"poiid":"B2094654DB69A5F94393","title":"星巴克(定西路店)","lon":"121.422165","lat":"31.216689","category":"65","category_name":"咖啡厅","address":"长宁区定西路1328号巴黎春天百货1楼(近宣化路)"},{"poiid":"B2094654D565A6FD4493","title":"巴黎春天(长宁店)","lon":"121.42247","lat":"31.21677","category":"119","category_name":"商场","address":"上海长宁区定西路1328号(近宣化路)"},{"poiid":"B2094757D06FA3FA4892","title":"樂Lofree(愚园店)","lon":"121.422038786","lat":"31.2188481084","category":"68","category_name":"快餐厅","address":"长宁区愚园路1357号(近定西路)"},{"poiid":"B2094757D06FA3F44899","title":"巴黎春天酒店","lon":"121.42116653","lat":"31.218437397","category":"214","category_name":"四星级宾馆","address":"长宁区定西路1555号巴黎春天新世界酒店1楼(近愚园路)"},{"poiid":"B2094655D26DA3FA499C","title":"华宁国际广场","lon":"121.42229","lat":"31.21734","category":"46","category_name":"楼宇","address":"长宁区宣化路300号"},{"poiid":"B2094751D265ABFA449B","title":"韩膳宫料理(中山公园店)","lon":"121.42197","lat":"31.21705","category":"96","category_name":"韩国料理","address":"长宁区定西路1313号鑫茂商厦3楼(宣化路口)"},{"poiid":"B2094655D265A0FC429A","title":"干锅三绝香辣虾中山公园店","lon":"121.42194","lat":"31.21778","category":"86","category_name":"火锅店","address":"定西路1550"},{"poiid":"B2094655D26DA2FE4593","title":"上海贝尔特酒店","lon":"121.42137","lat":"31.21814","category":"94","category_name":"西餐厅","address":"长宁区定西路1525号(近愚园路)"},{"poiid":"B2094757D569A2FC439A","title":"爆爆椒香辣虾干锅三绝(中山公园店)","lon":"121.421762999998","lat":"31.2177039999998","category":"71","category_name":"四川菜","address":"长宁区定西路1550号2-3楼(近愚园路)"},{"poiid":"B2094757D169A1F94598","title":"釜山料理（龙之梦店）","lon":"121.42076325","lat":"31.217123045","category":"247","category_name":"餐饮美食","address":"上海龙之梦6楼"},{"poiid":"B2094751D56DA2FC419E","title":"鲜芋仙(中山公园店)","lon":"121.42189","lat":"31.21677","category":"67","category_name":"甜品店","address":"长宁区定西路1307号(近宣化路)"},{"poiid":"B2094757D068A4FA469C","title":"粤","lon":"121.42168876","lat":"31.218088492","category":"72","category_name":"广东菜","address":"长宁区定西路1525号2楼(近愚园路)"},{"poiid":"B2094454D26BA0FB4493","title":"很高兴遇见你","lon":"121.422645","lat":"31.215187","category":"247","category_name":"餐饮美食","address":"上海市 长宁区定西路1273号4楼"},{"poiid":"B2094750DB64A5FB439D","title":"蓝色布朗尼","lon":"121.420677","lat":"31.216962","category":"247","category_name":"餐饮美食","address":"中山公园"},{"poiid":"B2094757D06FA5FA4898","title":"永和大王(定西路店)","lon":"121.42225","lat":"31.21628","category":"68","category_name":"快餐厅","address":"上海长宁区定西路1295号(近宣化路)  "},{"poiid":"B2094757DB68A4FC429F","title":"爵星时尚茶餐厅","lon":"121.421736","lat":"31.217817","category":"72","category_name":"广东菜","address":"长宁区定西路1515号九州名品商厦2楼(近愚园路)"},{"poiid":"B2094757D16FA1F84999","title":"星伟桌球俱乐部","lon":"121.423278586","lat":"31.216527163","category":"500","category_name":"未知分类","address":"上海长宁区宣化路311号6楼"},{"poiid":"B2094654D565A6FD439E","title":"友乐达台北精致面馆 中山店 YOLOTA","lon":"121.42204507084","lat":"31.216839198355","category":"68","category_name":"快餐厅","address":"长宁区定西路1310弄福安大厦2号(近宣化路)"},{"poiid":"B2094757D06FABFD419D","title":"甜蜜蜜(中山公园店)","lon":"121.42158811","lat":"31.21688471","category":"111","category_name":"休闲餐饮场所","address":"长宁区长宁路823号巴黎春天3楼(定西路口)"},{"poiid":"B2094750DB6AA1FD4999","title":"西九巷咖啡","lon":"121.421356","lat":"31.217721","category":"247","category_name":"餐饮美食","address":"中山公园龙之梦店"},{"poiid":"B2094757D068A7FF419E","title":"DQ冰雪皇后(定西路店)","lon":"121.422455656","lat":"31.2166661625","category":"113","category_name":"冷饮店","address":"长宁区定西路1328号巴黎春天折扣店1楼(近宣化路)"},{"poiid":"B2094757D16EABFF4493","title":"定西路","lon":"121.421","lat":"31.218417","category":"500","category_name":"未知分类","address":"上海定西路"},{"poiid":"B2094757D069A7F8449D","title":"yolota台北精致面馆","lon":"121.42277204","lat":"31.216076164","category":"260","category_name":"其他","address":"上海市定西路1310弄2号"},{"poiid":"B2094454D26BA0FA4299","title":"很高兴遇见你","lon":"121.422653","lat":"31.215265","category":"247","category_name":"餐饮美食","address":"上海市 上海市长宁区定西路1273号4楼"},{"poiid":"B2094757D068A2FF449B","title":"老妈米线(长宁巴春店)","lon":"121.42100822","lat":"31.218743696","category":"86","category_name":"火锅店","address":"长宁区长宁路823号巴黎春天3楼(定西路口)"},{"poiid":"B2094757D06BA5F8409D","title":"85度C(巴黎春天长宁店)","lon":"121.420974717","lat":"31.2184141135","category":"112","category_name":"糕饼店","address":"长宁区长宁路823号巴黎春天B2楼(定西路口)"},{"poiid":"B2094757D16DA7FF4498","title":"HAOLEDI","lon":"121.420343332","lat":"31.2160899951","category":"500","category_name":"未知分类","address":"上海中山公园"},{"poiid":"B2094757D068A6F5499D","title":"枫晚亭","lon":"121.42262588","lat":"31.215524043","category":"76","category_name":"上海菜","address":"长宁区定西路1306号(近安化路)"},{"poiid":"B2094753D76AA4FF469D","title":"梧桐霖","lon":"121.42193","lat":"31.21777","category":"257","category_name":"中餐厅","address":"上海市长宁区定西路1550号4楼(近愚园路)"},{"poiid":"B2094757D068A2FA4392","title":"中国建设银行(愚园路支行)","lon":"121.42271","lat":"31.2157","category":"150","category_name":"银行","address":"上海长宁区定西路1285号(近巴黎春天长宁店)"},{"poiid":"B2094757D16DA7FD439C","title":"鸡排超人","lon":"121.422185586","lat":"31.2174911819","category":"68","category_name":"快餐厅","address":"长宁区定西路1271号(近安化路)"},{"poiid":"B209475CD26EA2F8419A","title":"唛歌时尚KTV(华宁弘基店)","lon":"121.423","lat":"31.217","category":"170","category_name":"KTV","address":"宣化路300号华宁弘基生活中心6楼(近定西路)"},{"poiid":"B2094757D069A2FA469B","title":"食其家(长宁巴黎春天店)","lon":"121.42109358","lat":"31.218609203","category":"95","category_name":"日本料理","address":"长宁区长宁路823号巴黎春天3楼2号(定西路口)"},{"poiid":"B2094751D565A2FC489D","title":"巴黎春天(长宁店店)绿茶","lon":"121.420967","lat":"31.216369","category":"247","category_name":"餐饮美食","address":null},{"poiid":"B2094757D068A6F9469D","title":"春秋国际旅行社(定西路店)","lon":"121.42209","lat":"31.21781","category":"263","category_name":"公司","address":"上海长宁区定西路1558号(近愚园路)  "},{"poiid":"B2094757D06FA7FB429A","title":"宜芝多(龙之梦店)","lon":"121.420012486","lat":"31.2172708776","category":"67","category_name":"甜品店","address":"长宁区长宁路1018号龙之梦购物中心B2楼(近凯旋路)"},{"poiid":"B2094752DB6DA3FD4492","title":"合点寿司","lon":"121.421937","lat":"31.217347","category":"247","category_name":"餐饮美食","address":"上海市 长宁区宣化路300号华宁弘基店"},{"poiid":"B2094753D56EA4F4439E","title":"嘜歌MAGO KTV","lon":"121.421951","lat":"31.217453","category":"170","category_name":"KTV","address":"上海市 上海市长宁区宣化路300号华宁•弘基生活中心6楼"},{"poiid":"B2094757D06AA5FC489B","title":"定西路1273号侬好蛙","lon":"121.422523499","lat":"31.2154140472","category":"500","category_name":"未知分类","address":"上海定西路1273号二楼侬好蛙"},{"poiid":"B2094757D06BA4FE4993","title":"penta lounge","lon":"121.421381","lat":"31.218146","category":"172","category_name":"酒吧","address":"上海长宁区定西路1525号"},{"poiid":"B2094654DB69A0F9479A","title":"大娘水饺 中山公园店","lon":"121.421659054","lat":"31.217990793","category":"68","category_name":"快餐厅","address":"长宁区定西路1550号(近愚园路)"},{"poiid":"B2094753DB64A0FD409F","title":"徹思叔叔烘培工房","lon":"121.421707","lat":"31.216352","category":"247","category_name":"餐饮美食","address":"上海市 长宁路1018号龙之梦B2楼"},{"poiid":"B2094757D06BA3F5429C","title":"上海市工商行政管理局长宁分局","lon":"121.42157458","lat":"31.217209176","category":"500","category_name":"未知分类","address":"上海长宁区定西路1289号"},{"poiid":"B2094654D565A5FF459F","title":"华阳路派出所","lon":"121.42171","lat":"31.2161","category":"609","category_name":"警察局","address":"定西路1291"},{"poiid":"B2094757D06BA0FB429F","title":"好吃的鱼火锅（龙之梦六层）","lon":"121.421358084","lat":"31.2173122989","category":"247","category_name":"餐饮美食","address":"上海长宁路1018号"},{"poiid":"B209475CD064A4FD459B","title":"Boom Cafe  BoomCafe&Bar","lon":"121.42248","lat":"31.21703","category":"65","category_name":"咖啡厅","address":"宣化路313号(近定西路)"},{"poiid":"B2094752D36BA7F54398","title":"COSTA,COFFEE(宣化路店)","lon":"121.42195","lat":"31.21787","category":"247","category_name":"餐饮美食","address":"长宁区宣化路300号华宁弘基生活中心1楼(近定西路)"},{"poiid":"B2094750D76FA1FF479D","title":"尚品渔佬","lon":"121.422","lat":"31.2178","category":"260","category_name":"其他","address":"长宁区定西路1550号4楼(近宣化路)"},{"poiid":"B2094757D16CABFF4392","title":"金水保健按摩(愚园路店)","lon":"121.42211258","lat":"31.218529202","category":"148","category_name":"美容美发店","address":"上海愚园路1381号(近定西路)"},{"poiid":"B2094757D064A4FA4792","title":"中国移动中山公园营业厅","lon":"121.42215071","lat":"31.215670483","category":"46","category_name":"楼宇","address":"上海长宁区定西路1281号"},{"poiid":"B2094654DB69A5F94393","title":"星巴克(定西路店)","lon":"121.422165","lat":"31.216689","category":"65","category_name":"咖啡厅","address":"长宁区定西路1328号巴黎春天百货1楼(近宣化路)"},{"poiid":"B2094654D565A6FD4493","title":"巴黎春天(长宁店)","lon":"121.42247","lat":"31.21677","category":"119","category_name":"商场","address":"上海长宁区定西路1328号(近宣化路)"},{"poiid":"B2094757D06FA3FA4892","title":"樂Lofree(愚园店)","lon":"121.422038786","lat":"31.2188481084","category":"68","category_name":"快餐厅","address":"长宁区愚园路1357号(近定西路)"},{"poiid":"B2094757D06FA3F44899","title":"巴黎春天酒店","lon":"121.42116653","lat":"31.218437397","category":"214","category_name":"四星级宾馆","address":"长宁区定西路1555号巴黎春天新世界酒店1楼(近愚园路)"},{"poiid":"B2094655D26DA3FA499C","title":"华宁国际广场","lon":"121.42229","lat":"31.21734","category":"46","category_name":"楼宇","address":"长宁区宣化路300号"},{"poiid":"B2094751D265ABFA449B","title":"韩膳宫料理(中山公园店)","lon":"121.42197","lat":"31.21705","category":"96","category_name":"韩国料理","address":"长宁区定西路1313号鑫茂商厦3楼(宣化路口)"},{"poiid":"B2094655D265A0FC429A","title":"干锅三绝香辣虾中山公园店","lon":"121.42194","lat":"31.21778","category":"86","category_name":"火锅店","address":"定西路1550"},{"poiid":"B2094655D26DA2FE4593","title":"上海贝尔特酒店","lon":"121.42137","lat":"31.21814","category":"94","category_name":"西餐厅","address":"长宁区定西路1525号(近愚园路)"},{"poiid":"B2094757D569A2FC439A","title":"爆爆椒香辣虾干锅三绝(中山公园店)","lon":"121.421762999998","lat":"31.2177039999998","category":"71","category_name":"四川菜","address":"长宁区定西路1550号2-3楼(近愚园路)"},{"poiid":"B2094757D169A1F94598","title":"釜山料理（龙之梦店）","lon":"121.42076325","lat":"31.217123045","category":"247","category_name":"餐饮美食","address":"上海龙之梦6楼"},{"poiid":"B2094751D56DA2FC419E","title":"鲜芋仙(中山公园店)","lon":"121.42189","lat":"31.21677","category":"67","category_name":"甜品店","address":"长宁区定西路1307号(近宣化路)"},{"poiid":"B2094757D068A4FA469C","title":"粤","lon":"121.42168876","lat":"31.218088492","category":"72","category_name":"广东菜","address":"长宁区定西路1525号2楼(近愚园路)"},{"poiid":"B2094454D26BA0FB4493","title":"很高兴遇见你","lon":"121.422645","lat":"31.215187","category":"247","category_name":"餐饮美食","address":"上海市 长宁区定西路1273号4楼"},{"poiid":"B2094750DB64A5FB439D","title":"蓝色布朗尼","lon":"121.420677","lat":"31.216962","category":"247","category_name":"餐饮美食","address":"中山公园"},{"poiid":"B2094757D06FA5FA4898","title":"永和大王(定西路店)","lon":"121.42225","lat":"31.21628","category":"68","category_name":"快餐厅","address":"上海长宁区定西路1295号(近宣化路)  "},{"poiid":"B2094757DB68A4FC429F","title":"爵星时尚茶餐厅","lon":"121.421736","lat":"31.217817","category":"72","category_name":"广东菜","address":"长宁区定西路1515号九州名品商厦2楼(近愚园路)"},{"poiid":"B2094757D16FA1F84999","title":"星伟桌球俱乐部","lon":"121.423278586","lat":"31.216527163","category":"500","category_name":"未知分类","address":"上海长宁区宣化路311号6楼"},{"poiid":"B2094654D565A6FD439E","title":"友乐达台北精致面馆 中山店 YOLOTA","lon":"121.42204507084","lat":"31.216839198355","category":"68","category_name":"快餐厅","address":"长宁区定西路1310弄福安大厦2号(近宣化路)"},{"poiid":"B2094757D06FABFD419D","title":"甜蜜蜜(中山公园店)","lon":"121.42158811","lat":"31.21688471","category":"111","category_name":"休闲餐饮场所","address":"长宁区长宁路823号巴黎春天3楼(定西路口)"},{"poiid":"B2094750DB6AA1FD4999","title":"西九巷咖啡","lon":"121.421356","lat":"31.217721","category":"247","category_name":"餐饮美食","address":"中山公园龙之梦店"},{"poiid":"B2094757D068A7FF419E","title":"DQ冰雪皇后(定西路店)","lon":"121.422455656","lat":"31.2166661625","category":"113","category_name":"冷饮店","address":"长宁区定西路1328号巴黎春天折扣店1楼(近宣化路)"},{"poiid":"B2094757D16EABFF4493","title":"定西路","lon":"121.421","lat":"31.218417","category":"500","category_name":"未知分类","address":"上海定西路"},{"poiid":"B2094757D069A7F8449D","title":"yolota台北精致面馆","lon":"121.42277204","lat":"31.216076164","category":"260","category_name":"其他","address":"上海市定西路1310弄2号"},{"poiid":"B2094454D26BA0FA4299","title":"很高兴遇见你","lon":"121.422653","lat":"31.215265","category":"247","category_name":"餐饮美食","address":"上海市 上海市长宁区定西路1273号4楼"},{"poiid":"B2094757D068A2FF449B","title":"老妈米线(长宁巴春店)","lon":"121.42100822","lat":"31.218743696","category":"86","category_name":"火锅店","address":"长宁区长宁路823号巴黎春天3楼(定西路口)"},{"poiid":"B2094757D06BA5F8409D","title":"85度C(巴黎春天长宁店)","lon":"121.420974717","lat":"31.2184141135","category":"112","category_name":"糕饼店","address":"长宁区长宁路823号巴黎春天B2楼(定西路口)"},{"poiid":"B2094757D16DA7FF4498","title":"HAOLEDI","lon":"121.420343332","lat":"31.2160899951","category":"500","category_name":"未知分类","address":"上海中山公园"},{"poiid":"B2094757D068A6F5499D","title":"枫晚亭","lon":"121.42262588","lat":"31.215524043","category":"76","category_name":"上海菜","address":"长宁区定西路1306号(近安化路)"},{"poiid":"B2094753D76AA4FF469D","title":"梧桐霖","lon":"121.42193","lat":"31.21777","category":"257","category_name":"中餐厅","address":"上海市长宁区定西路1550号4楼(近愚园路)"},{"poiid":"B2094757D068A2FA4392","title":"中国建设银行(愚园路支行)","lon":"121.42271","lat":"31.2157","category":"150","category_name":"银行","address":"上海长宁区定西路1285号(近巴黎春天长宁店)"},{"poiid":"B2094757D16DA7FD439C","title":"鸡排超人","lon":"121.422185586","lat":"31.2174911819","category":"68","category_name":"快餐厅","address":"长宁区定西路1271号(近安化路)"},{"poiid":"B209475CD26EA2F8419A","title":"唛歌时尚KTV(华宁弘基店)","lon":"121.423","lat":"31.217","category":"170","category_name":"KTV","address":"宣化路300号华宁弘基生活中心6楼(近定西路)"},{"poiid":"B2094757D069A2FA469B","title":"食其家(长宁巴黎春天店)","lon":"121.42109358","lat":"31.218609203","category":"95","category_name":"日本料理","address":"长宁区长宁路823号巴黎春天3楼2号(定西路口)"},{"poiid":"B2094751D565A2FC489D","title":"巴黎春天(长宁店店)绿茶","lon":"121.420967","lat":"31.216369","category":"247","category_name":"餐饮美食","address":null},{"poiid":"B2094757D068A6F9469D","title":"春秋国际旅行社(定西路店)","lon":"121.42209","lat":"31.21781","category":"263","category_name":"公司","address":"上海长宁区定西路1558号(近愚园路)  "},{"poiid":"B2094757D06FA7FB429A","title":"宜芝多(龙之梦店)","lon":"121.420012486","lat":"31.2172708776","category":"67","category_name":"甜品店","address":"长宁区长宁路1018号龙之梦购物中心B2楼(近凯旋路)"},{"poiid":"B2094752DB6DA3FD4492","title":"合点寿司","lon":"121.421937","lat":"31.217347","category":"247","category_name":"餐饮美食","address":"上海市 长宁区宣化路300号华宁弘基店"},{"poiid":"B2094753D56EA4F4439E","title":"嘜歌MAGO KTV","lon":"121.421951","lat":"31.217453","category":"170","category_name":"KTV","address":"上海市 上海市长宁区宣化路300号华宁•弘基生活中心6楼"},{"poiid":"B2094757D06AA5FC489B","title":"定西路1273号侬好蛙","lon":"121.422523499","lat":"31.2154140472","category":"500","category_name":"未知分类","address":"上海定西路1273号二楼侬好蛙"},{"poiid":"B2094757D06BA4FE4993","title":"penta lounge","lon":"121.421381","lat":"31.218146","category":"172","category_name":"酒吧","address":"上海长宁区定西路1525号"},{"poiid":"B2094654DB69A0F9479A","title":"大娘水饺 中山公园店","lon":"121.421659054","lat":"31.217990793","category":"68","category_name":"快餐厅","address":"长宁区定西路1550号(近愚园路)"},{"poiid":"B2094753DB64A0FD409F","title":"徹思叔叔烘培工房","lon":"121.421707","lat":"31.216352","category":"247","category_name":"餐饮美食","address":"上海市 长宁路1018号龙之梦B2楼"},{"poiid":"B2094757D06BA3F5429C","title":"上海市工商行政管理局长宁分局","lon":"121.42157458","lat":"31.217209176","category":"500","category_name":"未知分类","address":"上海长宁区定西路1289号"},{"poiid":"B2094654D565A5FF459F","title":"华阳路派出所","lon":"121.42171","lat":"31.2161","category":"609","category_name":"警察局","address":"定西路1291"},{"poiid":"B2094757D06BA0FB429F","title":"好吃的鱼火锅（龙之梦六层）","lon":"121.421358084","lat":"31.2173122989","category":"247","category_name":"餐饮美食","address":"上海长宁路1018号"},{"poiid":"B209475CD064A4FD459B","title":"Boom Cafe  BoomCafe&Bar","lon":"121.42248","lat":"31.21703","category":"65","category_name":"咖啡厅","address":"宣化路313号(近定西路)"},{"poiid":"B2094752D36BA7F54398","title":"COSTA,COFFEE(宣化路店)","lon":"121.42195","lat":"31.21787","category":"247","category_name":"餐饮美食","address":"长宁区宣化路300号华宁弘基生活中心1楼(近定西路)"},{"poiid":"B2094750D76FA1FF479D","title":"尚品渔佬","lon":"121.422","lat":"31.2178","category":"260","category_name":"其他","address":"长宁区定西路1550号4楼(近宣化路)"},{"poiid":"B2094757D16CABFF4392","title":"金水保健按摩(愚园路店)","lon":"121.42211258","lat":"31.218529202","category":"148","category_name":"美容美发店","address":"上海愚园路1381号(近定西路)"},{"poiid":"B2094757D064A4FA4792","title":"中国移动中山公园营业厅","lon":"121.42215071","lat":"31.215670483","category":"46","category_name":"楼宇","address":"上海长宁区定西路1281号"},{"poiid":"B2094654DB69A5F94393","title":"星巴克(定西路店)","lon":"121.422165","lat":"31.216689","category":"65","category_name":"咖啡厅","address":"长宁区定西路1328号巴黎春天百货1楼(近宣化路)"},{"poiid":"B2094654D565A6FD4493","title":"巴黎春天(长宁店)","lon":"121.42247","lat":"31.21677","category":"119","category_name":"商场","address":"上海长宁区定西路1328号(近宣化路)"},{"poiid":"B2094757D06FA3FA4892","title":"樂Lofree(愚园店)","lon":"121.422038786","lat":"31.2188481084","category":"68","category_name":"快餐厅","address":"长宁区愚园路1357号(近定西路)"},{"poiid":"B2094757D06FA3F44899","title":"巴黎春天酒店","lon":"121.42116653","lat":"31.218437397","category":"214","category_name":"四星级宾馆","address":"长宁区定西路1555号巴黎春天新世界酒店1楼(近愚园路)"},{"poiid":"B2094655D26DA3FA499C","title":"华宁国际广场","lon":"121.42229","lat":"31.21734","category":"46","category_name":"楼宇","address":"长宁区宣化路300号"},{"poiid":"B2094751D265ABFA449B","title":"韩膳宫料理(中山公园店)","lon":"121.42197","lat":"31.21705","category":"96","category_name":"韩国料理","address":"长宁区定西路1313号鑫茂商厦3楼(宣化路口)"},{"poiid":"B2094655D265A0FC429A","title":"干锅三绝香辣虾中山公园店","lon":"121.42194","lat":"31.21778","category":"86","category_name":"火锅店","address":"定西路1550"},{"poiid":"B2094655D26DA2FE4593","title":"上海贝尔特酒店","lon":"121.42137","lat":"31.21814","category":"94","category_name":"西餐厅","address":"长宁区定西路1525号(近愚园路)"},{"poiid":"B2094757D569A2FC439A","title":"爆爆椒香辣虾干锅三绝(中山公园店)","lon":"121.421762999998","lat":"31.2177039999998","category":"71","category_name":"四川菜","address":"长宁区定西路1550号2-3楼(近愚园路)"},{"poiid":"B2094757D169A1F94598","title":"釜山料理（龙之梦店）","lon":"121.42076325","lat":"31.217123045","category":"247","category_name":"餐饮美食","address":"上海龙之梦6楼"},{"poiid":"B2094751D56DA2FC419E","title":"鲜芋仙(中山公园店)","lon":"121.42189","lat":"31.21677","category":"67","category_name":"甜品店","address":"长宁区定西路1307号(近宣化路)"},{"poiid":"B2094757D068A4FA469C","title":"粤","lon":"121.42168876","lat":"31.218088492","category":"72","category_name":"广东菜","address":"长宁区定西路1525号2楼(近愚园路)"},{"poiid":"B2094454D26BA0FB4493","title":"很高兴遇见你","lon":"121.422645","lat":"31.215187","category":"247","category_name":"餐饮美食","address":"上海市 长宁区定西路1273号4楼"},{"poiid":"B2094750DB64A5FB439D","title":"蓝色布朗尼","lon":"121.420677","lat":"31.216962","category":"247","category_name":"餐饮美食","address":"中山公园"},{"poiid":"B2094757D06FA5FA4898","title":"永和大王(定西路店)","lon":"121.42225","lat":"31.21628","category":"68","category_name":"快餐厅","address":"上海长宁区定西路1295号(近宣化路)  "},{"poiid":"B2094757DB68A4FC429F","title":"爵星时尚茶餐厅","lon":"121.421736","lat":"31.217817","category":"72","category_name":"广东菜","address":"长宁区定西路1515号九州名品商厦2楼(近愚园路)"},{"poiid":"B2094757D16FA1F84999","title":"星伟桌球俱乐部","lon":"121.423278586","lat":"31.216527163","category":"500","category_name":"未知分类","address":"上海长宁区宣化路311号6楼"},{"poiid":"B2094654D565A6FD439E","title":"友乐达台北精致面馆 中山店 YOLOTA","lon":"121.42204507084","lat":"31.216839198355","category":"68","category_name":"快餐厅","address":"长宁区定西路1310弄福安大厦2号(近宣化路)"},{"poiid":"B2094757D06FABFD419D","title":"甜蜜蜜(中山公园店)","lon":"121.42158811","lat":"31.21688471","category":"111","category_name":"休闲餐饮场所","address":"长宁区长宁路823号巴黎春天3楼(定西路口)"},{"poiid":"B2094750DB6AA1FD4999","title":"西九巷咖啡","lon":"121.421356","lat":"31.217721","category":"247","category_name":"餐饮美食","address":"中山公园龙之梦店"},{"poiid":"B2094757D068A7FF419E","title":"DQ冰雪皇后(定西路店)","lon":"121.422455656","lat":"31.2166661625","category":"113","category_name":"冷饮店","address":"长宁区定西路1328号巴黎春天折扣店1楼(近宣化路)"},{"poiid":"B2094757D16EABFF4493","title":"定西路","lon":"121.421","lat":"31.218417","category":"500","category_name":"未知分类","address":"上海定西路"},{"poiid":"B2094757D069A7F8449D","title":"yolota台北精致面馆","lon":"121.42277204","lat":"31.216076164","category":"260","category_name":"其他","address":"上海市定西路1310弄2号"},{"poiid":"B2094454D26BA0FA4299","title":"很高兴遇见你","lon":"121.422653","lat":"31.215265","category":"247","category_name":"餐饮美食","address":"上海市 上海市长宁区定西路1273号4楼"},{"poiid":"B2094757D068A2FF449B","title":"老妈米线(长宁巴春店)","lon":"121.42100822","lat":"31.218743696","category":"86","category_name":"火锅店","address":"长宁区长宁路823号巴黎春天3楼(定西路口)"},{"poiid":"B2094757D06BA5F8409D","title":"85度C(巴黎春天长宁店)","lon":"121.420974717","lat":"31.2184141135","category":"112","category_name":"糕饼店","address":"长宁区长宁路823号巴黎春天B2楼(定西路口)"},{"poiid":"B2094757D16DA7FF4498","title":"HAOLEDI","lon":"121.420343332","lat":"31.2160899951","category":"500","category_name":"未知分类","address":"上海中山公园"},{"poiid":"B2094757D068A6F5499D","title":"枫晚亭","lon":"121.42262588","lat":"31.215524043","category":"76","category_name":"上海菜","address":"长宁区定西路1306号(近安化路)"},{"poiid":"B2094753D76AA4FF469D","title":"梧桐霖","lon":"121.42193","lat":"31.21777","category":"257","category_name":"中餐厅","address":"上海市长宁区定西路1550号4楼(近愚园路)"},{"poiid":"B2094757D068A2FA4392","title":"中国建设银行(愚园路支行)","lon":"121.42271","lat":"31.2157","category":"150","category_name":"银行","address":"上海长宁区定西路1285号(近巴黎春天长宁店)"},{"poiid":"B2094757D16DA7FD439C","title":"鸡排超人","lon":"121.422185586","lat":"31.2174911819","category":"68","category_name":"快餐厅","address":"长宁区定西路1271号(近安化路)"},{"poiid":"B209475CD26EA2F8419A","title":"唛歌时尚KTV(华宁弘基店)","lon":"121.423","lat":"31.217","category":"170","category_name":"KTV","address":"宣化路300号华宁弘基生活中心6楼(近定西路)"},{"poiid":"B2094757D069A2FA469B","title":"食其家(长宁巴黎春天店)","lon":"121.42109358","lat":"31.218609203","category":"95","category_name":"日本料理","address":"长宁区长宁路823号巴黎春天3楼2号(定西路口)"},{"poiid":"B2094751D565A2FC489D","title":"巴黎春天(长宁店店)绿茶","lon":"121.420967","lat":"31.216369","category":"247","category_name":"餐饮美食","address":null},{"poiid":"B2094757D068A6F9469D","title":"春秋国际旅行社(定西路店)","lon":"121.42209","lat":"31.21781","category":"263","category_name":"公司","address":"上海长宁区定西路1558号(近愚园路)  "},{"poiid":"B2094757D06FA7FB429A","title":"宜芝多(龙之梦店)","lon":"121.420012486","lat":"31.2172708776","category":"67","category_name":"甜品店","address":"长宁区长宁路1018号龙之梦购物中心B2楼(近凯旋路)"},{"poiid":"B2094752DB6DA3FD4492","title":"合点寿司","lon":"121.421937","lat":"31.217347","category":"247","category_name":"餐饮美食","address":"上海市 长宁区宣化路300号华宁弘基店"},{"poiid":"B2094753D56EA4F4439E","title":"嘜歌MAGO KTV","lon":"121.421951","lat":"31.217453","category":"170","category_name":"KTV","address":"上海市 上海市长宁区宣化路300号华宁•弘基生活中心6楼"},{"poiid":"B2094757D06AA5FC489B","title":"定西路1273号侬好蛙","lon":"121.422523499","lat":"31.2154140472","category":"500","category_name":"未知分类","address":"上海定西路1273号二楼侬好蛙"},{"poiid":"B2094757D06BA4FE4993","title":"penta lounge","lon":"121.421381","lat":"31.218146","category":"172","category_name":"酒吧","address":"上海长宁区定西路1525号"},{"poiid":"B2094654DB69A0F9479A","title":"大娘水饺 中山公园店","lon":"121.421659054","lat":"31.217990793","category":"68","category_name":"快餐厅","address":"长宁区定西路1550号(近愚园路)"},{"poiid":"B2094753DB64A0FD409F","title":"徹思叔叔烘培工房","lon":"121.421707","lat":"31.216352","category":"247","category_name":"餐饮美食","address":"上海市 长宁路1018号龙之梦B2楼"},{"poiid":"B2094757D06BA3F5429C","title":"上海市工商行政管理局长宁分局","lon":"121.42157458","lat":"31.217209176","category":"500","category_name":"未知分类","address":"上海长宁区定西路1289号"},{"poiid":"B2094654D565A5FF459F","title":"华阳路派出所","lon":"121.42171","lat":"31.2161","category":"609","category_name":"警察局","address":"定西路1291"},{"poiid":"B2094757D06BA0FB429F","title":"好吃的鱼火锅（龙之梦六层）","lon":"121.421358084","lat":"31.2173122989","category":"247","category_name":"餐饮美食","address":"上海长宁路1018号"},{"poiid":"B209475CD064A4FD459B","title":"Boom Cafe  BoomCafe&Bar","lon":"121.42248","lat":"31.21703","category":"65","category_name":"咖啡厅","address":"宣化路313号(近定西路)"},{"poiid":"B2094752D36BA7F54398","title":"COSTA,COFFEE(宣化路店)","lon":"121.42195","lat":"31.21787","category":"247","category_name":"餐饮美食","address":"长宁区宣化路300号华宁弘基生活中心1楼(近定西路)"},{"poiid":"B2094750D76FA1FF479D","title":"尚品渔佬","lon":"121.422","lat":"31.2178","category":"260","category_name":"其他","address":"长宁区定西路1550号4楼(近宣化路)"},{"poiid":"B2094757D16CABFF4392","title":"金水保健按摩(愚园路店)","lon":"121.42211258","lat":"31.218529202","category":"148","category_name":"美容美发店","address":"上海愚园路1381号(近定西路)"},{"poiid":"B2094757D064A4FA4792","title":"中国移动中山公园营业厅","lon":"121.42215071","lat":"31.215670483","category":"46","category_name":"楼宇","address":"上海长宁区定西路1281号"},{"poiid":"B2094654DB69A5F94393","title":"星巴克(定西路店)","lon":"121.422165","lat":"31.216689","category":"65","category_name":"咖啡厅","address":"长宁区定西路1328号巴黎春天百货1楼(近宣化路)"},{"poiid":"B2094654D565A6FD4493","title":"巴黎春天(长宁店)","lon":"121.42247","lat":"31.21677","category":"119","category_name":"商场","address":"上海长宁区定西路1328号(近宣化路)"},{"poiid":"B2094757D06FA3FA4892","title":"樂Lofree(愚园店)","lon":"121.422038786","lat":"31.2188481084","category":"68","category_name":"快餐厅","address":"长宁区愚园路1357号(近定西路)"},{"poiid":"B2094757D06FA3F44899","title":"巴黎春天酒店","lon":"121.42116653","lat":"31.218437397","category":"214","category_name":"四星级宾馆","address":"长宁区定西路1555号巴黎春天新世界酒店1楼(近愚园路)"},{"poiid":"B2094655D26DA3FA499C","title":"华宁国际广场","lon":"121.42229","lat":"31.21734","category":"46","category_name":"楼宇","address":"长宁区宣化路300号"},{"poiid":"B2094751D265ABFA449B","title":"韩膳宫料理(中山公园店)","lon":"121.42197","lat":"31.21705","category":"96","category_name":"韩国料理","address":"长宁区定西路1313号鑫茂商厦3楼(宣化路口)"},{"poiid":"B2094655D265A0FC429A","title":"干锅三绝香辣虾中山公园店","lon":"121.42194","lat":"31.21778","category":"86","category_name":"火锅店","address":"定西路1550"},{"poiid":"B2094655D26DA2FE4593","title":"上海贝尔特酒店","lon":"121.42137","lat":"31.21814","category":"94","category_name":"西餐厅","address":"长宁区定西路1525号(近愚园路)"},{"poiid":"B2094757D569A2FC439A","title":"爆爆椒香辣虾干锅三绝(中山公园店)","lon":"121.421762999998","lat":"31.2177039999998","category":"71","category_name":"四川菜","address":"长宁区定西路1550号2-3楼(近愚园路)"},{"poiid":"B2094757D169A1F94598","title":"釜山料理（龙之梦店）","lon":"121.42076325","lat":"31.217123045","category":"247","category_name":"餐饮美食","address":"上海龙之梦6楼"},{"poiid":"B2094751D56DA2FC419E","title":"鲜芋仙(中山公园店)","lon":"121.42189","lat":"31.21677","category":"67","category_name":"甜品店","address":"长宁区定西路1307号(近宣化路)"},{"poiid":"B2094757D068A4FA469C","title":"粤","lon":"121.42168876","lat":"31.218088492","category":"72","category_name":"广东菜","address":"长宁区定西路1525号2楼(近愚园路)"},{"poiid":"B2094454D26BA0FB4493","title":"很高兴遇见你","lon":"121.422645","lat":"31.215187","category":"247","category_name":"餐饮美食","address":"上海市 长宁区定西路1273号4楼"},{"poiid":"B2094750DB64A5FB439D","title":"蓝色布朗尼","lon":"121.420677","lat":"31.216962","category":"247","category_name":"餐饮美食","address":"中山公园"},{"poiid":"B2094757D06FA5FA4898","title":"永和大王(定西路店)","lon":"121.42225","lat":"31.21628","category":"68","category_name":"快餐厅","address":"上海长宁区定西路1295号(近宣化路)  "},{"poiid":"B2094757DB68A4FC429F","title":"爵星时尚茶餐厅","lon":"121.421736","lat":"31.217817","category":"72","category_name":"广东菜","address":"长宁区定西路1515号九州名品商厦2楼(近愚园路)"},{"poiid":"B2094757D16FA1F84999","title":"星伟桌球俱乐部","lon":"121.423278586","lat":"31.216527163","category":"500","category_name":"未知分类","address":"上海长宁区宣化路311号6楼"},{"poiid":"B2094654D565A6FD439E","title":"友乐达台北精致面馆 中山店 YOLOTA","lon":"121.42204507084","lat":"31.216839198355","category":"68","category_name":"快餐厅","address":"长宁区定西路1310弄福安大厦2号(近宣化路)"},{"poiid":"B2094757D06FABFD419D","title":"甜蜜蜜(中山公园店)","lon":"121.42158811","lat":"31.21688471","category":"111","category_name":"休闲餐饮场所","address":"长宁区长宁路823号巴黎春天3楼(定西路口)"},{"poiid":"B2094750DB6AA1FD4999","title":"西九巷咖啡","lon":"121.421356","lat":"31.217721","category":"247","category_name":"餐饮美食","address":"中山公园龙之梦店"},{"poiid":"B2094757D068A7FF419E","title":"DQ冰雪皇后(定西路店)","lon":"121.422455656","lat":"31.2166661625","category":"113","category_name":"冷饮店","address":"长宁区定西路1328号巴黎春天折扣店1楼(近宣化路)"},{"poiid":"B2094757D16EABFF4493","title":"定西路","lon":"121.421","lat":"31.218417","category":"500","category_name":"未知分类","address":"上海定西路"},{"poiid":"B2094757D069A7F8449D","title":"yolota台北精致面馆","lon":"121.42277204","lat":"31.216076164","category":"260","category_name":"其他","address":"上海市定西路1310弄2号"},{"poiid":"B2094454D26BA0FA4299","title":"很高兴遇见你","lon":"121.422653","lat":"31.215265","category":"247","category_name":"餐饮美食","address":"上海市 上海市长宁区定西路1273号4楼"},{"poiid":"B2094757D068A2FF449B","title":"老妈米线(长宁巴春店)","lon":"121.42100822","lat":"31.218743696","category":"86","category_name":"火锅店","address":"长宁区长宁路823号巴黎春天3楼(定西路口)"},{"poiid":"B2094757D06BA5F8409D","title":"85度C(巴黎春天长宁店)","lon":"121.420974717","lat":"31.2184141135","category":"112","category_name":"糕饼店","address":"长宁区长宁路823号巴黎春天B2楼(定西路口)"},{"poiid":"B2094757D16DA7FF4498","title":"HAOLEDI","lon":"121.420343332","lat":"31.2160899951","category":"500","category_name":"未知分类","address":"上海中山公园"},{"poiid":"B2094757D068A6F5499D","title":"枫晚亭","lon":"121.42262588","lat":"31.215524043","category":"76","category_name":"上海菜","address":"长宁区定西路1306号(近安化路)"},{"poiid":"B2094753D76AA4FF469D","title":"梧桐霖","lon":"121.42193","lat":"31.21777","category":"257","category_name":"中餐厅","address":"上海市长宁区定西路1550号4楼(近愚园路)"},{"poiid":"B2094757D068A2FA4392","title":"中国建设银行(愚园路支行)","lon":"121.42271","lat":"31.2157","category":"150","category_name":"银行","address":"上海长宁区定西路1285号(近巴黎春天长宁店)"},{"poiid":"B2094757D16DA7FD439C","title":"鸡排超人","lon":"121.422185586","lat":"31.2174911819","category":"68","category_name":"快餐厅","address":"长宁区定西路1271号(近安化路)"},{"poiid":"B209475CD26EA2F8419A","title":"唛歌时尚KTV(华宁弘基店)","lon":"121.423","lat":"31.217","category":"170","category_name":"KTV","address":"宣化路300号华宁弘基生活中心6楼(近定西路)"},{"poiid":"B2094757D069A2FA469B","title":"食其家(长宁巴黎春天店)","lon":"121.42109358","lat":"31.218609203","category":"95","category_name":"日本料理","address":"长宁区长宁路823号巴黎春天3楼2号(定西路口)"},{"poiid":"B2094751D565A2FC489D","title":"巴黎春天(长宁店店)绿茶","lon":"121.420967","lat":"31.216369","category":"247","category_name":"餐饮美食","address":null},{"poiid":"B2094757D068A6F9469D","title":"春秋国际旅行社(定西路店)","lon":"121.42209","lat":"31.21781","category":"263","category_name":"公司","address":"上海长宁区定西路1558号(近愚园路)  "},{"poiid":"B2094757D06FA7FB429A","title":"宜芝多(龙之梦店)","lon":"121.420012486","lat":"31.2172708776","category":"67","category_name":"甜品店","address":"长宁区长宁路1018号龙之梦购物中心B2楼(近凯旋路)"},{"poiid":"B2094752DB6DA3FD4492","title":"合点寿司","lon":"121.421937","lat":"31.217347","category":"247","category_name":"餐饮美食","address":"上海市 长宁区宣化路300号华宁弘基店"},{"poiid":"B2094753D56EA4F4439E","title":"嘜歌MAGO KTV","lon":"121.421951","lat":"31.217453","category":"170","category_name":"KTV","address":"上海市 上海市长宁区宣化路300号华宁•弘基生活中心6楼"},{"poiid":"B2094757D06AA5FC489B","title":"定西路1273号侬好蛙","lon":"121.422523499","lat":"31.2154140472","category":"500","category_name":"未知分类","address":"上海定西路1273号二楼侬好蛙"},{"poiid":"B2094757D06BA4FE4993","title":"penta lounge","lon":"121.421381","lat":"31.218146","category":"172","category_name":"酒吧","address":"上海长宁区定西路1525号"},{"poiid":"B2094654DB69A0F9479A","title":"大娘水饺 中山公园店","lon":"121.421659054","lat":"31.217990793","category":"68","category_name":"快餐厅","address":"长宁区定西路1550号(近愚园路)"},{"poiid":"B2094753DB64A0FD409F","title":"徹思叔叔烘培工房","lon":"121.421707","lat":"31.216352","category":"247","category_name":"餐饮美食","address":"上海市 长宁路1018号龙之梦B2楼"},{"poiid":"B2094757D06BA3F5429C","title":"上海市工商行政管理局长宁分局","lon":"121.42157458","lat":"31.217209176","category":"500","category_name":"未知分类","address":"上海长宁区定西路1289号"},{"poiid":"B2094654D565A5FF459F","title":"华阳路派出所","lon":"121.42171","lat":"31.2161","category":"609","category_name":"警察局","address":"定西路1291"},{"poiid":"B2094757D06BA0FB429F","title":"好吃的鱼火锅（龙之梦六层）","lon":"121.421358084","lat":"31.2173122989","category":"247","category_name":"餐饮美食","address":"上海长宁路1018号"},{"poiid":"B209475CD064A4FD459B","title":"Boom Cafe  BoomCafe&Bar","lon":"121.42248","lat":"31.21703","category":"65","category_name":"咖啡厅","address":"宣化路313号(近定西路)"},{"poiid":"B2094752D36BA7F54398","title":"COSTA,COFFEE(宣化路店)","lon":"121.42195","lat":"31.21787","category":"247","category_name":"餐饮美食","address":"长宁区宣化路300号华宁弘基生活中心1楼(近定西路)"},{"poiid":"B2094750D76FA1FF479D","title":"尚品渔佬","lon":"121.422","lat":"31.2178","category":"260","category_name":"其他","address":"长宁区定西路1550号4楼(近宣化路)"},{"poiid":"B2094757D16CABFF4392","title":"金水保健按摩(愚园路店)","lon":"121.42211258","lat":"31.218529202","category":"148","category_name":"美容美发店","address":"上海愚园路1381号(近定西路)"},{"poiid":"B2094757D064A4FA4792","title":"中国移动中山公园营业厅","lon":"121.42215071","lat":"31.215670483","category":"46","category_name":"楼宇","address":"上海长宁区定西路1281号"}]