[{"poiid":"B2094655D26AAAF8409F","title":"唛歌时尚KTV(淮海中路店)","lon":"121.47889","lat":"31.22532","category":"170","category_name":"KTV","address":"卢湾区淮海中路98号金钟广场3-4楼(近龙门路)"},{"poiid":"B2094655D26AA0F84799","title":"上海中医药大学附属曙光医院","lon":"121.47867","lat":"31.22293","category":"162","category_name":"医院","address":"卢湾区普安路185号(近淮海公园)"},{"poiid":"B2094655D36CA1FE409C","title":"寿宁路","lon":"121.48061","lat":"31.22345","category":"38","category_name":"公交车站","address":""},{"poiid":"B2094753D76FAAFA449C","title":"上海滩国泰旗舰店","lon":"121.466011","lat":"31.216125","category":"249","category_name":"购物服务","address":"淮海中路868号"},{"poiid":"B209475CD564A7F84292","title":"上海滩新天地店","lon":"121.47463","lat":"31.22164","category":"119","category_name":"商场","address":"\"太仓路181弄新天地北里15号\r\n\""},{"poiid":"B209475CD564A7F8439E","title":"上海滩中信泰富店","lon":"121.45602","lat":"31.22851","category":"119","category_name":"商场","address":"\"南京西路1168号中信泰富广场，店铺号221.\r\n\""},{"poiid":"B209475CD564A7F84392","title":"上海滩浦东香格里拉店","lon":"121.50058","lat":"31.23634","category":"119","category_name":"商场","address":"浦东富成路33号香格里拉酒店内大堂层"},{"poiid":"B2094654DB6BA4FB409B","title":"星巴克(柳林店)","lon":"121.48024","lat":"31.22483","category":"65","category_name":"咖啡厅","address":"卢湾区柳林路65号柳林大厦1楼(近西藏南路)"},{"poiid":"B2094654DA6EAAFE4998","title":"大上海时代广场","lon":"121.4789","lat":"31.22477","category":"119","category_name":"商场","address":"浦东区张杨路502号(浦东南路口)"},{"poiid":"B2094654DA6EAAF8499A","title":"万裕国际影城(淮海中路店)","lon":"121.478684","lat":"31.224496","category":"178","category_name":"电影院","address":"淮海中路93-99号大上海时代广场L6"},{"poiid":"B2094757D06EABF54599","title":"淮海一号","lon":"121.480128324","lat":"31.2250132719","category":"260","category_name":"其他","address":"卢湾区柳林路65号柳林大厦6楼(近淮海中路)"},{"poiid":"B2094757D064A1FD449A","title":"地铁8号线大世界站","lon":"121.478748638","lat":"31.2230810477","category":"36","category_name":"地铁站","address":"上海大世界站"},{"poiid":"B2094757D06FA2FF489E","title":"海之幸(兰生大厦店)","lon":"121.47965073","lat":"31.225309195","category":"95","category_name":"日本料理","address":"卢湾区淮海中路8号兰生大厦4楼401室(近西藏南路)"},{"poiid":"B2094757D06FA4F84399","title":"老丰阁(兰生大厦店)","lon":"121.48016","lat":"31.22549","category":"75","category_name":"浙江菜","address":"卢湾区淮海中路8号兰生大厦38-39楼(近西藏南路)"},{"poiid":"B2094753D26EA4FD4392","title":"饭小馆","lon":"121.480981","lat":"31.224193","category":"247","category_name":"餐饮美食","address":"上海市 上海市西藏南路279号108室"},{"poiid":"B2094757D06FA7FD479D","title":"藏鲜工坊","lon":"121.47956","lat":"31.22517","category":"260","category_name":"其他","address":"卢湾区淮海中路98号金钟广场5楼(近柳林路)"},{"poiid":"B2094757D068A1FC4693","title":"天天周末(黄浦店)","lon":"121.480736676","lat":"31.2249215581","category":"249","category_name":"购物服务","address":"黄浦区淮海东路99号2楼215室(近西藏路)"},{"poiid":"B2094757D06BA7FB4792","title":"上海一号 黄浦店","lon":"121.479844338","lat":"31.2252164932","category":"500","category_name":"未知分类","address":"上海淮海东路99号"},{"poiid":"B2094757D068A7FE459A","title":"好记龙虾","lon":"121.48246","lat":"31.22404","category":"68","category_name":"快餐厅","address":"卢湾区寿宁路16号(近西藏南路)"},{"poiid":"B2094757D06FA1FA419E","title":"YOBA酸奶冰淇淋(西藏南路店)","lon":"121.481198","lat":"31.2241349","category":"113","category_name":"冷饮店","address":"黄浦区西藏南路279号109铺(近寿宁路)"},{"poiid":"B2094757D06FA1F9479E","title":"821撞球娱乐P1馆","lon":"121.48010684","lat":"31.22494441","category":"171","category_name":"台球厅","address":"上海淮海中路1号8楼"},{"poiid":"B2094757D664A7FF4692","title":"翠萃餐厅","lon":"121.48078","lat":"31.22447","category":"76","category_name":"上海菜","address":"西藏南路251号2楼近桃源路"},{"poiid":"B2094757D06EAAFA4393","title":"道顿堀酷酷璐 吴江路店","lon":"121.480552","lat":"31.224973","category":"95","category_name":"日本料理","address":"静安区吴江路169号四季坊122号(近石门一路)"},{"poiid":"B2094654DA6EAAF8479D","title":"满记甜品 时代广场店","lon":"121.478519054","lat":"31.224573793","category":"67","category_name":"甜品店","address":"卢湾区淮海中路99号大上海时代广场B1楼K7-K8(柳林路口)"},{"poiid":"B2094757D06FA1FF479C","title":"味千拉面(淮海中路店)","lon":"121.48052","lat":"31.22496","category":"95","category_name":"日本料理","address":"卢湾区柳林路65号柳林大厦2楼(近西藏南路)"},{"poiid":"B2094757D568A7FB489A","title":"The Fat Olive","lon":"121.480385","lat":"31.224354","category":"257","category_name":"中餐厅","address":"西藏南路228号6楼会所餐厅南部2号(近寿宁路)"},{"poiid":"B2094757D069ABFD419D","title":"淮海中路西藏南路","lon":"121.4799603","lat":"31.225501936","category":"500","category_name":"未知分类","address":"上海淮海中路西藏南路"},{"poiid":"B2094655D26AAAF94698","title":"梅园村酒家淮海路店","lon":"121.47889","lat":"31.22532","category":"76","category_name":"上海菜","address":"卢湾区淮海中路98号金钟广场6楼(近西藏南路)"},{"poiid":"B2094757D064A1FC4392","title":"淮海279","lon":"121.48077473","lat":"31.224404175","category":"76","category_name":"上海菜","address":"黄浦区西藏南路279号弘基西门町(近淮海东路)"},{"poiid":"B2094753DA6FAAFE4392","title":"星怡会","lon":"121.478469","lat":"31.225124","category":"247","category_name":"餐饮美食","address":"黄浦区淮海中路138号上海广场2楼"},{"poiid":"B2094757D06EAAF9419C","title":"汤城小厨(时代广场店)","lon":"121.47876","lat":"31.22429","category":"72","category_name":"广东菜","address":"卢湾区淮海中路99号大上海时代广场4楼401-402号(柳林路口)"},{"poiid":"B209475CD365A7FF409F","title":"S2Club","lon":"121.47981","lat":"31.22527","category":"172","category_name":"酒吧","address":"淮海中路1号6楼(近柳林路)"},{"poiid":"B2094757D064A3F44293","title":"Fraser Residence 上海辉盛庭国际公寓","lon":"121.481061948","lat":"31.2234862464","category":"500","category_name":"未知分类","address":"卢湾区寿宁路98号(近淮海中路)"},{"poiid":"B2094750D76EA3F5429C","title":"寿宁路美食街","lon":"121.481","lat":"31.2236","category":"68","category_name":"快餐厅","address":"黄浦区寿宁路(西藏路人民路之间)"},{"poiid":"B2094655D26EA6F54192","title":"大家乐(时代店)","lon":"121.47912","lat":"31.22467","category":"68","category_name":"快餐厅","address":"卢湾区淮海中路99号大上海时代广场B1楼(柳林路口)"},{"poiid":"B2094655D269A4FB4798","title":"ZARA(时代广场店)","lon":"121.47867","lat":"31.22439","category":"141","category_name":"服装鞋帽皮具店","address":"卢湾区淮海中路111号大上海时代广场(近普安路)"},{"poiid":"B2094757D568A4F5449F","title":"淮海1号酒吧ONEPUB","lon":"121.480039","lat":"31.225076","category":"172","category_name":"酒吧","address":"淮海中路1号"},{"poiid":"B2094454D36DA2FB489E","title":"LinX CLUB","lon":"121.479324","lat":"31.225328","category":"248","category_name":"生活娱乐","address":"上海市 淮海中路"},{"poiid":"B2094654DA6EAAF8479E","title":"葡京茶餐厅(淮海店)","lon":"121.4789","lat":"31.22477","category":"72","category_name":"广东菜","address":"卢湾区淮海中路99号大上海时代广场B1楼(柳林路口)"},{"poiid":"B2094757D16CA6F9479F","title":"麦德龙餐饮通西藏南路商场","lon":"121.48024373","lat":"31.224242172","category":"68","category_name":"快餐厅","address":"卢湾区西藏南路228号永银大厦2楼(近淮海中路)"},{"poiid":"B2094654DA6EABFB4198","title":"巴辣子","lon":"121.48039970258","lat":"31.223424021383","category":"71","category_name":"四川菜","address":"卢湾区寿宁路71弄7号(柳林路西藏南路间)"},{"poiid":"B2094654DB69A5FE4398","title":"肯德基(柳林店)","lon":"121.4802","lat":"31.22522","category":"68","category_name":"快餐厅","address":"卢湾区柳林路65号柳林大厦内(近西藏南路)"},{"poiid":"B2094757D065A5F9489E","title":"新天地酒吧街","lon":"121.47819073","lat":"31.224759183","category":"260","category_name":"其他","address":"上海市黄浦区黄陂南路"},{"poiid":"B209475DDA6DA4FB409B","title":"石板街","lon":"121.478378","lat":"31.224979","category":"247","category_name":"餐饮美食","address":"上海市 上海时代广场6楼"},{"poiid":"B2094654DB65A2F94399","title":"赛博数码广场","lon":"121.48013","lat":"31.22529","category":"138","category_name":"家电电子卖场","address":"淮海中路1号"},{"poiid":"B2094757D06FABF9479B","title":"Starbucks柳林路店","lon":"121.479033","lat":"31.225412","category":"500","category_name":"未知分类","address":"上海淮海中路柳林路口"},{"poiid":"B2094753DA6AA5F9419C","title":"COVA@K11","lon":"121.478927","lat":"31.223541","category":"500","category_name":"未知分类","address":"上海市 淮海中路300号2楼"},{"poiid":"B209475CD669A0F5479E","title":"辣府","lon":"121.480041","lat":"31.225524","category":"247","category_name":"餐饮美食","address":"上海市 云南南路180号"},{"poiid":"B2094753D664A3FA4092","title":"复旦大学","lon":"121.479087","lat":"31.224962","category":"671","category_name":"高校中心点","address":"上海市 杨浦区邯郸路220号"},{"poiid":"B2094757D06FA6FA459A","title":"韩风炭火烤肉(时代店)","lon":"121.47924","lat":"31.22445","category":"96","category_name":"韩国料理","address":"卢湾区淮海中路99号大上海时代广场B1楼(柳林路口)"},{"poiid":"B2094655D26AAAF8409F","title":"唛歌时尚KTV(淮海中路店)","lon":"121.47889","lat":"31.22532","category":"170","category_name":"KTV","address":"卢湾区淮海中路98号金钟广场3-4楼(近龙门路)"},{"poiid":"B2094655D26AA0F84799","title":"上海中医药大学附属曙光医院","lon":"121.47867","lat":"31.22293","category":"162","category_name":"医院","address":"卢湾区普安路185号(近淮海公园)"},{"poiid":"B2094655D36CA1FE409C","title":"寿宁路","lon":"121.48061","lat":"31.22345","category":"38","category_name":"公交车站","address":""},{"poiid":"B2094753D76FAAFA449C","title":"上海滩国泰旗舰店","lon":"121.466011","lat":"31.216125","category":"249","category_name":"购物服务","address":"淮海中路868号"},{"poiid":"B209475CD564A7F84292","title":"上海滩新天地店","lon":"121.47463","lat":"31.22164","category":"119","category_name":"商场","address":"\"太仓路181弄新天地北里15号\r\n\""},{"poiid":"B209475CD564A7F8439E","title":"上海滩中信泰富店","lon":"121.45602","lat":"31.22851","category":"119","category_name":"商场","address":"\"南京西路1168号中信泰富广场，店铺号221.\r\n\""},{"poiid":"B209475CD564A7F84392","title":"上海滩浦东香格里拉店","lon":"121.50058","lat":"31.23634","category":"119","category_name":"商场","address":"浦东富成路33号香格里拉酒店内大堂层"},{"poiid":"B2094654DB6BA4FB409B","title":"星巴克(柳林店)","lon":"121.48024","lat":"31.22483","category":"65","category_name":"咖啡厅","address":"卢湾区柳林路65号柳林大厦1楼(近西藏南路)"},{"poiid":"B2094654DA6EAAFE4998","title":"大上海时代广场","lon":"121.4789","lat":"31.22477","category":"119","category_name":"商场","address":"浦东区张杨路502号(浦东南路口)"},{"poiid":"B2094654DA6EAAF8499A","title":"万裕国际影城(淮海中路店)","lon":"121.478684","lat":"31.224496","category":"178","category_name":"电影院","address":"淮海中路93-99号大上海时代广场L6"},{"poiid":"B2094757D06EABF54599","title":"淮海一号","lon":"121.480128324","lat":"31.2250132719","category":"260","category_name":"其他","address":"卢湾区柳林路65号柳林大厦6楼(近淮海中路)"},{"poiid":"B2094757D064A1FD449A","title":"地铁8号线大世界站","lon":"121.478748638","lat":"31.2230810477","category":"36","category_name":"地铁站","address":"上海大世界站"},{"poiid":"B2094757D06FA2FF489E","title":"海之幸(兰生大厦店)","lon":"121.47965073","lat":"31.225309195","category":"95","category_name":"日本料理","address":"卢湾区淮海中路8号兰生大厦4楼401室(近西藏南路)"},{"poiid":"B2094757D06FA4F84399","title":"老丰阁(兰生大厦店)","lon":"121.48016","lat":"31.22549","category":"75","category_name":"浙江菜","address":"卢湾区淮海中路8号兰生大厦38-39楼(近西藏南路)"},{"poiid":"B2094753D26EA4FD4392","title":"饭小馆","lon":"121.480981","lat":"31.224193","category":"247","category_name":"餐饮美食","address":"上海市 上海市西藏南路279号108室"},{"poiid":"B2094757D06FA7FD479D","title":"藏鲜工坊","lon":"121.47956","lat":"31.22517","category":"260","category_name":"其他","address":"卢湾区淮海中路98号金钟广场5楼(近柳林路)"},{"poiid":"B2094757D068A1FC4693","title":"天天周末(黄浦店)","lon":"121.480736676","lat":"31.2249215581","category":"249","category_name":"购物服务","address":"黄浦区淮海东路99号2楼215室(近西藏路)"},{"poiid":"B2094757D06BA7FB4792","title":"上海一号 黄浦店","lon":"121.479844338","lat":"31.2252164932","category":"500","category_name":"未知分类","address":"上海淮海东路99号"},{"poiid":"B2094757D068A7FE459A","title":"好记龙虾","lon":"121.48246","lat":"31.22404","category":"68","category_name":"快餐厅","address":"卢湾区寿宁路16号(近西藏南路)"},{"poiid":"B2094757D06FA1FA419E","title":"YOBA酸奶冰淇淋(西藏南路店)","lon":"121.481198","lat":"31.2241349","category":"113","category_name":"冷饮店","address":"黄浦区西藏南路279号109铺(近寿宁路)"},{"poiid":"B2094757D06FA1F9479E","title":"821撞球娱乐P1馆","lon":"121.48010684","lat":"31.22494441","category":"171","category_name":"台球厅","address":"上海淮海中路1号8楼"},{"poiid":"B2094757D664A7FF4692","title":"翠萃餐厅","lon":"121.48078","lat":"31.22447","category":"76","category_name":"上海菜","address":"西藏南路251号2楼近桃源路"},{"poiid":"B2094757D06EAAFA4393","title":"道顿堀酷酷璐 吴江路店","lon":"121.480552","lat":"31.224973","category":"95","category_name":"日本料理","address":"静安区吴江路169号四季坊122号(近石门一路)"},{"poiid":"B2094654DA6EAAF8479D","title":"满记甜品 时代广场店","lon":"121.478519054","lat":"31.224573793","category":"67","category_name":"甜品店","address":"卢湾区淮海中路99号大上海时代广场B1楼K7-K8(柳林路口)"},{"poiid":"B2094757D06FA1FF479C","title":"味千拉面(淮海中路店)","lon":"121.48052","lat":"31.22496","category":"95","category_name":"日本料理","address":"卢湾区柳林路65号柳林大厦2楼(近西藏南路)"},{"poiid":"B2094757D568A7FB489A","title":"The Fat Olive","lon":"121.480385","lat":"31.224354","category":"257","category_name":"中餐厅","address":"西藏南路228号6楼会所餐厅南部2号(近寿宁路)"},{"poiid":"B2094757D069ABFD419D","title":"淮海中路西藏南路","lon":"121.4799603","lat":"31.225501936","category":"500","category_name":"未知分类","address":"上海淮海中路西藏南路"},{"poiid":"B2094655D26AAAF94698","title":"梅园村酒家淮海路店","lon":"121.47889","lat":"31.22532","category":"76","category_name":"上海菜","address":"卢湾区淮海中路98号金钟广场6楼(近西藏南路)"},{"poiid":"B2094757D064A1FC4392","title":"淮海279","lon":"121.48077473","lat":"31.224404175","category":"76","category_name":"上海菜","address":"黄浦区西藏南路279号弘基西门町(近淮海东路)"},{"poiid":"B2094753DA6FAAFE4392","title":"星怡会","lon":"121.478469","lat":"31.225124","category":"247","category_name":"餐饮美食","address":"黄浦区淮海中路138号上海广场2楼"},{"poiid":"B2094757D06EAAF9419C","title":"汤城小厨(时代广场店)","lon":"121.47876","lat":"31.22429","category":"72","category_name":"广东菜","address":"卢湾区淮海中路99号大上海时代广场4楼401-402号(柳林路口)"},{"poiid":"B209475CD365A7FF409F","title":"S2Club","lon":"121.47981","lat":"31.22527","category":"172","category_name":"酒吧","address":"淮海中路1号6楼(近柳林路)"},{"poiid":"B2094757D064A3F44293","title":"Fraser Residence 上海辉盛庭国际公寓","lon":"121.481061948","lat":"31.2234862464","category":"500","category_name":"未知分类","address":"卢湾区寿宁路98号(近淮海中路)"},{"poiid":"B2094750D76EA3F5429C","title":"寿宁路美食街","lon":"121.481","lat":"31.2236","category":"68","category_name":"快餐厅","address":"黄浦区寿宁路(西藏路人民路之间)"},{"poiid":"B2094655D26EA6F54192","title":"大家乐(时代店)","lon":"121.47912","lat":"31.22467","category":"68","category_name":"快餐厅","address":"卢湾区淮海中路99号大上海时代广场B1楼(柳林路口)"},{"poiid":"B2094655D269A4FB4798","title":"ZARA(时代广场店)","lon":"121.47867","lat":"31.22439","category":"141","category_name":"服装鞋帽皮具店","address":"卢湾区淮海中路111号大上海时代广场(近普安路)"},{"poiid":"B2094757D568A4F5449F","title":"淮海1号酒吧ONEPUB","lon":"121.480039","lat":"31.225076","category":"172","category_name":"酒吧","address":"淮海中路1号"},{"poiid":"B2094454D36DA2FB489E","title":"LinX CLUB","lon":"121.479324","lat":"31.225328","category":"248","category_name":"生活娱乐","address":"上海市 淮海中路"},{"poiid":"B2094654DA6EAAF8479E","title":"葡京茶餐厅(淮海店)","lon":"121.4789","lat":"31.22477","category":"72","category_name":"广东菜","address":"卢湾区淮海中路99号大上海时代广场B1楼(柳林路口)"},{"poiid":"B2094757D16CA6F9479F","title":"麦德龙餐饮通西藏南路商场","lon":"121.48024373","lat":"31.224242172","category":"68","category_name":"快餐厅","address":"卢湾区西藏南路228号永银大厦2楼(近淮海中路)"},{"poiid":"B2094654DA6EABFB4198","title":"巴辣子","lon":"121.48039970258","lat":"31.223424021383","category":"71","category_name":"四川菜","address":"卢湾区寿宁路71弄7号(柳林路西藏南路间)"},{"poiid":"B2094654DB69A5FE4398","title":"肯德基(柳林店)","lon":"121.4802","lat":"31.22522","category":"68","category_name":"快餐厅","address":"卢湾区柳林路65号柳林大厦内(近西藏南路)"},{"poiid":"B2094757D065A5F9489E","title":"新天地酒吧街","lon":"121.47819073","lat":"31.224759183","category":"260","category_name":"其他","address":"上海市黄浦区黄陂南路"},{"poiid":"B209475DDA6DA4FB409B","title":"石板街","lon":"121.478378","lat":"31.224979","category":"247","category_name":"餐饮美食","address":"上海市 上海时代广场6楼"},{"poiid":"B2094654DB65A2F94399","title":"赛博数码广场","lon":"121.48013","lat":"31.22529","category":"138","category_name":"家电电子卖场","address":"淮海中路1号"},{"poiid":"B2094757D06FABF9479B","title":"Starbucks柳林路店","lon":"121.479033","lat":"31.225412","category":"500","category_name":"未知分类","address":"上海淮海中路柳林路口"},{"poiid":"B2094753DA6AA5F9419C","title":"COVA@K11","lon":"121.478927","lat":"31.223541","category":"500","category_name":"未知分类","address":"上海市 淮海中路300号2楼"},{"poiid":"B209475CD669A0F5479E","title":"辣府","lon":"121.480041","lat":"31.225524","category":"247","category_name":"餐饮美食","address":"上海市 云南南路180号"},{"poiid":"B2094753D664A3FA4092","title":"复旦大学","lon":"121.479087","lat":"31.224962","category":"671","category_name":"高校中心点","address":"上海市 杨浦区邯郸路220号"},{"poiid":"B2094757D06FA6FA459A","title":"韩风炭火烤肉(时代店)","lon":"121.47924","lat":"31.22445","category":"96","category_name":"韩国料理","address":"卢湾区淮海中路99号大上海时代广场B1楼(柳林路口)"},{"poiid":"B2094655D26AAAF8409F","title":"唛歌时尚KTV(淮海中路店)","lon":"121.47889","lat":"31.22532","category":"170","category_name":"KTV","address":"卢湾区淮海中路98号金钟广场3-4楼(近龙门路)"},{"poiid":"B2094655D26AA0F84799","title":"上海中医药大学附属曙光医院","lon":"121.47867","lat":"31.22293","category":"162","category_name":"医院","address":"卢湾区普安路185号(近淮海公园)"},{"poiid":"B2094655D36CA1FE409C","title":"寿宁路","lon":"121.48061","lat":"31.22345","category":"38","category_name":"公交车站","address":""},{"poiid":"B2094753D76FAAFA449C","title":"上海滩国泰旗舰店","lon":"121.466011","lat":"31.216125","category":"249","category_name":"购物服务","address":"淮海中路868号"},{"poiid":"B209475CD564A7F84292","title":"上海滩新天地店","lon":"121.47463","lat":"31.22164","category":"119","category_name":"商场","address":"\"太仓路181弄新天地北里15号\r\n\""},{"poiid":"B209475CD564A7F8439E","title":"上海滩中信泰富店","lon":"121.45602","lat":"31.22851","category":"119","category_name":"商场","address":"\"南京西路1168号中信泰富广场，店铺号221.\r\n\""},{"poiid":"B209475CD564A7F84392","title":"上海滩浦东香格里拉店","lon":"121.50058","lat":"31.23634","category":"119","category_name":"商场","address":"浦东富成路33号香格里拉酒店内大堂层"},{"poiid":"B2094654DB6BA4FB409B","title":"星巴克(柳林店)","lon":"121.48024","lat":"31.22483","category":"65","category_name":"咖啡厅","address":"卢湾区柳林路65号柳林大厦1楼(近西藏南路)"},{"poiid":"B2094654DA6EAAFE4998","title":"大上海时代广场","lon":"121.4789","lat":"31.22477","category":"119","category_name":"商场","address":"浦东区张杨路502号(浦东南路口)"},{"poiid":"B2094654DA6EAAF8499A","title":"万裕国际影城(淮海中路店)","lon":"121.478684","lat":"31.224496","category":"178","category_name":"电影院","address":"淮海中路93-99号大上海时代广场L6"},{"poiid":"B2094757D06EABF54599","title":"淮海一号","lon":"121.480128324","lat":"31.2250132719","category":"260","category_name":"其他","address":"卢湾区柳林路65号柳林大厦6楼(近淮海中路)"},{"poiid":"B2094757D064A1FD449A","title":"地铁8号线大世界站","lon":"121.478748638","lat":"31.2230810477","category":"36","category_name":"地铁站","address":"上海大世界站"},{"poiid":"B2094757D06FA2FF489E","title":"海之幸(兰生大厦店)","lon":"121.47965073","lat":"31.225309195","category":"95","category_name":"日本料理","address":"卢湾区淮海中路8号兰生大厦4楼401室(近西藏南路)"},{"poiid":"B2094757D06FA4F84399","title":"老丰阁(兰生大厦店)","lon":"121.48016","lat":"31.22549","category":"75","category_name":"浙江菜","address":"卢湾区淮海中路8号兰生大厦38-39楼(近西藏南路)"},{"poiid":"B2094753D26EA4FD4392","title":"饭小馆","lon":"121.480981","lat":"31.224193","category":"247","category_name":"餐饮美食","address":"上海市 上海市西藏南路279号108室"},{"poiid":"B2094757D06FA7FD479D","title":"藏鲜工坊","lon":"121.47956","lat":"31.22517","category":"260","category_name":"其他","address":"卢湾区淮海中路98号金钟广场5楼(近柳林路)"},{"poiid":"B2094757D068A1FC4693","title":"天天周末(黄浦店)","lon":"121.480736676","lat":"31.2249215581","category":"249","category_name":"购物服务","address":"黄浦区淮海东路99号2楼215室(近西藏路)"},{"poiid":"B2094757D06BA7FB4792","title":"上海一号 黄浦店","lon":"121.479844338","lat":"31.2252164932","category":"500","category_name":"未知分类","address":"上海淮海东路99号"},{"poiid":"B2094757D068A7FE459A","title":"好记龙虾","lon":"121.48246","lat":"31.22404","category":"68","category_name":"快餐厅","address":"卢湾区寿宁路16号(近西藏南路)"},{"poiid":"B2094757D06FA1FA419E","title":"YOBA酸奶冰淇淋(西藏南路店)","lon":"121.481198","lat":"31.2241349","category":"113","category_name":"冷饮店","address":"黄浦区西藏南路279号109铺(近寿宁路)"},{"poiid":"B2094757D06FA1F9479E","title":"821撞球娱乐P1馆","lon":"121.48010684","lat":"31.22494441","category":"171","category_name":"台球厅","address":"上海淮海中路1号8楼"},{"poiid":"B2094757D664A7FF4692","title":"翠萃餐厅","lon":"121.48078","lat":"31.22447","category":"76","category_name":"上海菜","address":"西藏南路251号2楼近桃源路"},{"poiid":"B2094757D06EAAFA4393","title":"道顿堀酷酷璐 吴江路店","lon":"121.480552","lat":"31.224973","category":"95","category_name":"日本料理","address":"静安区吴江路169号四季坊122号(近石门一路)"},{"poiid":"B2094654DA6EAAF8479D","title":"满记甜品 时代广场店","lon":"121.478519054","lat":"31.224573793","category":"67","category_name":"甜品店","address":"卢湾区淮海中路99号大上海时代广场B1楼K7-K8(柳林路口)"},{"poiid":"B2094757D06FA1FF479C","title":"味千拉面(淮海中路店)","lon":"121.48052","lat":"31.22496","category":"95","category_name":"日本料理","address":"卢湾区柳林路65号柳林大厦2楼(近西藏南路)"},{"poiid":"B2094757D568A7FB489A","title":"The Fat Olive","lon":"121.480385","lat":"31.224354","category":"257","category_name":"中餐厅","address":"西藏南路228号6楼会所餐厅南部2号(近寿宁路)"},{"poiid":"B2094757D069ABFD419D","title":"淮海中路西藏南路","lon":"121.4799603","lat":"31.225501936","category":"500","category_name":"未知分类","address":"上海淮海中路西藏南路"},{"poiid":"B2094655D26AAAF94698","title":"梅园村酒家淮海路店","lon":"121.47889","lat":"31.22532","category":"76","category_name":"上海菜","address":"卢湾区淮海中路98号金钟广场6楼(近西藏南路)"},{"poiid":"B2094757D064A1FC4392","title":"淮海279","lon":"121.48077473","lat":"31.224404175","category":"76","category_name":"上海菜","address":"黄浦区西藏南路279号弘基西门町(近淮海东路)"},{"poiid":"B2094753DA6FAAFE4392","title":"星怡会","lon":"121.478469","lat":"31.225124","category":"247","category_name":"餐饮美食","address":"黄浦区淮海中路138号上海广场2楼"},{"poiid":"B2094757D06EAAF9419C","title":"汤城小厨(时代广场店)","lon":"121.47876","lat":"31.22429","category":"72","category_name":"广东菜","address":"卢湾区淮海中路99号大上海时代广场4楼401-402号(柳林路口)"},{"poiid":"B209475CD365A7FF409F","title":"S2Club","lon":"121.47981","lat":"31.22527","category":"172","category_name":"酒吧","address":"淮海中路1号6楼(近柳林路)"},{"poiid":"B2094757D064A3F44293","title":"Fraser Residence 上海辉盛庭国际公寓","lon":"121.481061948","lat":"31.2234862464","category":"500","category_name":"未知分类","address":"卢湾区寿宁路98号(近淮海中路)"},{"poiid":"B2094750D76EA3F5429C","title":"寿宁路美食街","lon":"121.481","lat":"31.2236","category":"68","category_name":"快餐厅","address":"黄浦区寿宁路(西藏路人民路之间)"},{"poiid":"B2094655D26EA6F54192","title":"大家乐(时代店)","lon":"121.47912","lat":"31.22467","category":"68","category_name":"快餐厅","address":"卢湾区淮海中路99号大上海时代广场B1楼(柳林路口)"},{"poiid":"B2094655D269A4FB4798","title":"ZARA(时代广场店)","lon":"121.47867","lat":"31.22439","category":"141","category_name":"服装鞋帽皮具店","address":"卢湾区淮海中路111号大上海时代广场(近普安路)"},{"poiid":"B2094757D568A4F5449F","title":"淮海1号酒吧ONEPUB","lon":"121.480039","lat":"31.225076","category":"172","category_name":"酒吧","address":"淮海中路1号"},{"poiid":"B2094454D36DA2FB489E","title":"LinX CLUB","lon":"121.479324","lat":"31.225328","category":"248","category_name":"生活娱乐","address":"上海市 淮海中路"},{"poiid":"B2094654DA6EAAF8479E","title":"葡京茶餐厅(淮海店)","lon":"121.4789","lat":"31.22477","category":"72","category_name":"广东菜","address":"卢湾区淮海中路99号大上海时代广场B1楼(柳林路口)"},{"poiid":"B2094757D16CA6F9479F","title":"麦德龙餐饮通西藏南路商场","lon":"121.48024373","lat":"31.224242172","category":"68","category_name":"快餐厅","address":"卢湾区西藏南路228号永银大厦2楼(近淮海中路)"},{"poiid":"B2094654DA6EABFB4198","title":"巴辣子","lon":"121.48039970258","lat":"31.223424021383","category":"71","category_name":"四川菜","address":"卢湾区寿宁路71弄7号(柳林路西藏南路间)"},{"poiid":"B2094654DB69A5FE4398","title":"肯德基(柳林店)","lon":"121.4802","lat":"31.22522","category":"68","category_name":"快餐厅","address":"卢湾区柳林路65号柳林大厦内(近西藏南路)"},{"poiid":"B2094757D065A5F9489E","title":"新天地酒吧街","lon":"121.47819073","lat":"31.224759183","category":"260","category_name":"其他","address":"上海市黄浦区黄陂南路"},{"poiid":"B209475DDA6DA4FB409B","title":"石板街","lon":"121.478378","lat":"31.224979","category":"247","category_name":"餐饮美食","address":"上海市 上海时代广场6楼"},{"poiid":"B2094654DB65A2F94399","title":"赛博数码广场","lon":"121.48013","lat":"31.22529","category":"138","category_name":"家电电子卖场","address":"淮海中路1号"},{"poiid":"B2094757D06FABF9479B","title":"Starbucks柳林路店","lon":"121.479033","lat":"31.225412","category":"500","category_name":"未知分类","address":"上海淮海中路柳林路口"},{"poiid":"B2094753DA6AA5F9419C","title":"COVA@K11","lon":"121.478927","lat":"31.223541","category":"500","category_name":"未知分类","address":"上海市 淮海中路300号2楼"},{"poiid":"B209475CD669A0F5479E","title":"辣府","lon":"121.480041","lat":"31.225524","category":"247","category_name":"餐饮美食","address":"上海市 云南南路180号"},{"poiid":"B2094753D664A3FA4092","title":"复旦大学","lon":"121.479087","lat":"31.224962","category":"671","category_name":"高校中心点","address":"上海市 杨浦区邯郸路220号"},{"poiid":"B2094757D06FA6FA459A","title":"韩风炭火烤肉(时代店)","lon":"121.47924","lat":"31.22445","category":"96","category_name":"韩国料理","address":"卢湾区淮海中路99号大上海时代广场B1楼(柳林路口)"},{"poiid":"B2094655D26AAAF8409F","title":"唛歌时尚KTV(淮海中路店)","lon":"121.47889","lat":"31.22532","category":"170","category_name":"KTV","address":"卢湾区淮海中路98号金钟广场3-4楼(近龙门路)"},{"poiid":"B2094655D26AA0F84799","title":"上海中医药大学附属曙光医院","lon":"121.47867","lat":"31.22293","category":"162","category_name":"医院","address":"卢湾区普安路185号(近淮海公园)"},{"poiid":"B2094655D36CA1FE409C","title":"寿宁路","lon":"121.48061","lat":"31.22345","category":"38","category_name":"公交车站","address":""},{"poiid":"B2094753D76FAAFA449C","title":"上海滩国泰旗舰店","lon":"121.466011","lat":"31.216125","category":"249","category_name":"购物服务","address":"淮海中路868号"},{"poiid":"B209475CD564A7F84292","title":"上海滩新天地店","lon":"121.47463","lat":"31.22164","category":"119","category_name":"商场","address":"\"太仓路181弄新天地北里15号\r\n\""},{"poiid":"B209475CD564A7F8439E","title":"上海滩中信泰富店","lon":"121.45602","lat":"31.22851","category":"119","category_name":"商场","address":"\"南京西路1168号中信泰富广场，店铺号221.\r\n\""},{"poiid":"B209475CD564A7F84392","title":"上海滩浦东香格里拉店","lon":"121.50058","lat":"31.23634","category":"119","category_name":"商场","address":"浦东富成路33号香格里拉酒店内大堂层"},{"poiid":"B2094654DB6BA4FB409B","title":"星巴克(柳林店)","lon":"121.48024","lat":"31.22483","category":"65","category_name":"咖啡厅","address":"卢湾区柳林路65号柳林大厦1楼(近西藏南路)"},{"poiid":"B2094654DA6EAAFE4998","title":"大上海时代广场","lon":"121.4789","lat":"31.22477","category":"119","category_name":"商场","address":"浦东区张杨路502号(浦东南路口)"},{"poiid":"B2094654DA6EAAF8499A","title":"万裕国际影城(淮海中路店)","lon":"121.478684","lat":"31.224496","category":"178","category_name":"电影院","address":"淮海中路93-99号大上海时代广场L6"},{"poiid":"B2094757D06EABF54599","title":"淮海一号","lon":"121.480128324","lat":"31.2250132719","category":"260","category_name":"其他","address":"卢湾区柳林路65号柳林大厦6楼(近淮海中路)"},{"poiid":"B2094757D064A1FD449A","title":"地铁8号线大世界站","lon":"121.478748638","lat":"31.2230810477","category":"36","category_name":"地铁站","address":"上海大世界站"},{"poiid":"B2094757D06FA2FF489E","title":"海之幸(兰生大厦店)","lon":"121.47965073","lat":"31.225309195","category":"95","category_name":"日本料理","address":"卢湾区淮海中路8号兰生大厦4楼401室(近西藏南路)"},{"poiid":"B2094757D06FA4F84399","title":"老丰阁(兰生大厦店)","lon":"121.48016","lat":"31.22549","category":"75","category_name":"浙江菜","address":"卢湾区淮海中路8号兰生大厦38-39楼(近西藏南路)"},{"poiid":"B2094753D26EA4FD4392","title":"饭小馆","lon":"121.480981","lat":"31.224193","category":"247","category_name":"餐饮美食","address":"上海市 上海市西藏南路279号108室"},{"poiid":"B2094757D06FA7FD479D","title":"藏鲜工坊","lon":"121.47956","lat":"31.22517","category":"260","category_name":"其他","address":"卢湾区淮海中路98号金钟广场5楼(近柳林路)"},{"poiid":"B2094757D068A1FC4693","title":"天天周末(黄浦店)","lon":"121.480736676","lat":"31.2249215581","category":"249","category_name":"购物服务","address":"黄浦区淮海东路99号2楼215室(近西藏路)"},{"poiid":"B2094757D06BA7FB4792","title":"上海一号 黄浦店","lon":"121.479844338","lat":"31.2252164932","category":"500","category_name":"未知分类","address":"上海淮海东路99号"},{"poiid":"B2094757D068A7FE459A","title":"好记龙虾","lon":"121.48246","lat":"31.22404","category":"68","category_name":"快餐厅","address":"卢湾区寿宁路16号(近西藏南路)"},{"poiid":"B2094757D06FA1FA419E","title":"YOBA酸奶冰淇淋(西藏南路店)","lon":"121.481198","lat":"31.2241349","category":"113","category_name":"冷饮店","address":"黄浦区西藏南路279号109铺(近寿宁路)"},{"poiid":"B2094757D06FA1F9479E","title":"821撞球娱乐P1馆","lon":"121.48010684","lat":"31.22494441","category":"171","category_name":"台球厅","address":"上海淮海中路1号8楼"},{"poiid":"B2094757D664A7FF4692","title":"翠萃餐厅","lon":"121.48078","lat":"31.22447","category":"76","category_name":"上海菜","address":"西藏南路251号2楼近桃源路"},{"poiid":"B2094757D06EAAFA4393","title":"道顿堀酷酷璐 吴江路店","lon":"121.480552","lat":"31.224973","category":"95","category_name":"日本料理","address":"静安区吴江路169号四季坊122号(近石门一路)"},{"poiid":"B2094654DA6EAAF8479D","title":"满记甜品 时代广场店","lon":"121.478519054","lat":"31.224573793","category":"67","category_name":"甜品店","address":"卢湾区淮海中路99号大上海时代广场B1楼K7-K8(柳林路口)"},{"poiid":"B2094757D06FA1FF479C","title":"味千拉面(淮海中路店)","lon":"121.48052","lat":"31.22496","category":"95","category_name":"日本料理","address":"卢湾区柳林路65号柳林大厦2楼(近西藏南路)"},{"poiid":"B2094757D568A7FB489A","title":"The Fat Olive","lon":"121.480385","lat":"31.224354","category":"257","category_name":"中餐厅","address":"西藏南路228号6楼会所餐厅南部2号(近寿宁路)"},{"poiid":"B2094757D069ABFD419D","title":"淮海中路西藏南路","lon":"121.4799603","lat":"31.225501936","category":"500","category_name":"未知分类","address":"上海淮海中路西藏南路"},{"poiid":"B2094655D26AAAF94698","title":"梅园村酒家淮海路店","lon":"121.47889","lat":"31.22532","category":"76","category_name":"上海菜","address":"卢湾区淮海中路98号金钟广场6楼(近西藏南路)"},{"poiid":"B2094757D064A1FC4392","title":"淮海279","lon":"121.48077473","lat":"31.224404175","category":"76","category_name":"上海菜","address":"黄浦区西藏南路279号弘基西门町(近淮海东路)"},{"poiid":"B2094753DA6FAAFE4392","title":"星怡会","lon":"121.478469","lat":"31.225124","category":"247","category_name":"餐饮美食","address":"黄浦区淮海中路138号上海广场2楼"},{"poiid":"B2094757D06EAAF9419C","title":"汤城小厨(时代广场店)","lon":"121.47876","lat":"31.22429","category":"72","category_name":"广东菜","address":"卢湾区淮海中路99号大上海时代广场4楼401-402号(柳林路口)"},{"poiid":"B209475CD365A7FF409F","title":"S2Club","lon":"121.47981","lat":"31.22527","category":"172","category_name":"酒吧","address":"淮海中路1号6楼(近柳林路)"},{"poiid":"B2094757D064A3F44293","title":"Fraser Residence 上海辉盛庭国际公寓","lon":"121.481061948","lat":"31.2234862464","category":"500","category_name":"未知分类","address":"卢湾区寿宁路98号(近淮海中路)"},{"poiid":"B2094750D76EA3F5429C","title":"寿宁路美食街","lon":"121.481","lat":"31.2236","category":"68","category_name":"快餐厅","address":"黄浦区寿宁路(西藏路人民路之间)"},{"poiid":"B2094655D26EA6F54192","title":"大家乐(时代店)","lon":"121.47912","lat":"31.22467","category":"68","category_name":"快餐厅","address":"卢湾区淮海中路99号大上海时代广场B1楼(柳林路口)"},{"poiid":"B2094655D269A4FB4798","title":"ZARA(时代广场店)","lon":"121.47867","lat":"31.22439","category":"141","category_name":"服装鞋帽皮具店","address":"卢湾区淮海中路111号大上海时代广场(近普安路)"},{"poiid":"B2094757D568A4F5449F","title":"淮海1号酒吧ONEPUB","lon":"121.480039","lat":"31.225076","category":"172","category_name":"酒吧","address":"淮海中路1号"},{"poiid":"B2094454D36DA2FB489E","title":"LinX CLUB","lon":"121.479324","lat":"31.225328","category":"248","category_name":"生活娱乐","address":"上海市 淮海中路"},{"poiid":"B2094654DA6EAAF8479E","title":"葡京茶餐厅(淮海店)","lon":"121.4789","lat":"31.22477","category":"72","category_name":"广东菜","address":"卢湾区淮海中路99号大上海时代广场B1楼(柳林路口)"},{"poiid":"B2094757D16CA6F9479F","title":"麦德龙餐饮通西藏南路商场","lon":"121.48024373","lat":"31.224242172","category":"68","category_name":"快餐厅","address":"卢湾区西藏南路228号永银大厦2楼(近淮海中路)"},{"poiid":"B2094654DA6EABFB4198","title":"巴辣子","lon":"121.48039970258","lat":"31.223424021383","category":"71","category_name":"四川菜","address":"卢湾区寿宁路71弄7号(柳林路西藏南路间)"},{"poiid":"B2094654DB69A5FE4398","title":"肯德基(柳林店)","lon":"121.4802","lat":"31.22522","category":"68","category_name":"快餐厅","address":"卢湾区柳林路65号柳林大厦内(近西藏南路)"},{"poiid":"B2094757D065A5F9489E","title":"新天地酒吧街","lon":"121.47819073","lat":"31.224759183","category":"260","category_name":"其他","address":"上海市黄浦区黄陂南路"},{"poiid":"B209475DDA6DA4FB409B","title":"石板街","lon":"121.478378","lat":"31.224979","category":"247","category_name":"餐饮美食","address":"上海市 上海时代广场6楼"},{"poiid":"B2094654DB65A2F94399","title":"赛博数码广场","lon":"121.48013","lat":"31.22529","category":"138","category_name":"家电电子卖场","address":"淮海中路1号"},{"poiid":"B2094757D06FABF9479B","title":"Starbucks柳林路店","lon":"121.479033","lat":"31.225412","category":"500","category_name":"未知分类","address":"上海淮海中路柳林路口"},{"poiid":"B2094753DA6AA5F9419C","title":"COVA@K11","lon":"121.478927","lat":"31.223541","category":"500","category_name":"未知分类","address":"上海市 淮海中路300号2楼"},{"poiid":"B209475CD669A0F5479E","title":"辣府","lon":"121.480041","lat":"31.225524","category":"247","category_name":"餐饮美食","address":"上海市 云南南路180号"},{"poiid":"B2094753D664A3FA4092","title":"复旦大学","lon":"121.479087","lat":"31.224962","category":"671","category_name":"高校中心点","address":"上海市 杨浦区邯郸路220号"},{"poiid":"B2094757D06FA6FA459A","title":"韩风炭火烤肉(时代店)","lon":"121.47924","lat":"31.22445","category":"96","category_name":"韩国料理","address":"卢湾区淮海中路99号大上海时代广场B1楼(柳林路口)"},{"poiid":"B2094655D26AAAF8409F","title":"唛歌时尚KTV(淮海中路店)","lon":"121.47889","lat":"31.22532","category":"170","category_name":"KTV","address":"卢湾区淮海中路98号金钟广场3-4楼(近龙门路)"},{"poiid":"B2094655D26AA0F84799","title":"上海中医药大学附属曙光医院","lon":"121.47867","lat":"31.22293","category":"162","category_name":"医院","address":"卢湾区普安路185号(近淮海公园)"},{"poiid":"B2094655D36CA1FE409C","title":"寿宁路","lon":"121.48061","lat":"31.22345","category":"38","category_name":"公交车站","address":""},{"poiid":"B2094753D76FAAFA449C","title":"上海滩国泰旗舰店","lon":"121.466011","lat":"31.216125","category":"249","category_name":"购物服务","address":"淮海中路868号"},{"poiid":"B209475CD564A7F84292","title":"上海滩新天地店","lon":"121.47463","lat":"31.22164","category":"119","category_name":"商场","address":"\"太仓路181弄新天地北里15号\r\n\""},{"poiid":"B209475CD564A7F8439E","title":"上海滩中信泰富店","lon":"121.45602","lat":"31.22851","category":"119","category_name":"商场","address":"\"南京西路1168号中信泰富广场，店铺号221.\r\n\""},{"poiid":"B209475CD564A7F84392","title":"上海滩浦东香格里拉店","lon":"121.50058","lat":"31.23634","category":"119","category_name":"商场","address":"浦东富成路33号香格里拉酒店内大堂层"},{"poiid":"B2094654DB6BA4FB409B","title":"星巴克(柳林店)","lon":"121.48024","lat":"31.22483","category":"65","category_name":"咖啡厅","address":"卢湾区柳林路65号柳林大厦1楼(近西藏南路)"},{"poiid":"B2094654DA6EAAFE4998","title":"大上海时代广场","lon":"121.4789","lat":"31.22477","category":"119","category_name":"商场","address":"浦东区张杨路502号(浦东南路口)"},{"poiid":"B2094654DA6EAAF8499A","title":"万裕国际影城(淮海中路店)","lon":"121.478684","lat":"31.224496","category":"178","category_name":"电影院","address":"淮海中路93-99号大上海时代广场L6"},{"poiid":"B2094757D06EABF54599","title":"淮海一号","lon":"121.480128324","lat":"31.2250132719","category":"260","category_name":"其他","address":"卢湾区柳林路65号柳林大厦6楼(近淮海中路)"},{"poiid":"B2094757D064A1FD449A","title":"地铁8号线大世界站","lon":"121.478748638","lat":"31.2230810477","category":"36","category_name":"地铁站","address":"上海大世界站"},{"poiid":"B2094757D06FA2FF489E","title":"海之幸(兰生大厦店)","lon":"121.47965073","lat":"31.225309195","category":"95","category_name":"日本料理","address":"卢湾区淮海中路8号兰生大厦4楼401室(近西藏南路)"},{"poiid":"B2094757D06FA4F84399","title":"老丰阁(兰生大厦店)","lon":"121.48016","lat":"31.22549","category":"75","category_name":"浙江菜","address":"卢湾区淮海中路8号兰生大厦38-39楼(近西藏南路)"},{"poiid":"B2094753D26EA4FD4392","title":"饭小馆","lon":"121.480981","lat":"31.224193","category":"247","category_name":"餐饮美食","address":"上海市 上海市西藏南路279号108室"},{"poiid":"B2094757D06FA7FD479D","title":"藏鲜工坊","lon":"121.47956","lat":"31.22517","category":"260","category_name":"其他","address":"卢湾区淮海中路98号金钟广场5楼(近柳林路)"},{"poiid":"B2094757D068A1FC4693","title":"天天周末(黄浦店)","lon":"121.480736676","lat":"31.2249215581","category":"249","category_name":"购物服务","address":"黄浦区淮海东路99号2楼215室(近西藏路)"},{"poiid":"B2094757D06BA7FB4792","title":"上海一号 黄浦店","lon":"121.479844338","lat":"31.2252164932","category":"500","category_name":"未知分类","address":"上海淮海东路99号"},{"poiid":"B2094757D068A7FE459A","title":"好记龙虾","lon":"121.48246","lat":"31.22404","category":"68","category_name":"快餐厅","address":"卢湾区寿宁路16号(近西藏南路)"},{"poiid":"B2094757D06FA1FA419E","title":"YOBA酸奶冰淇淋(西藏南路店)","lon":"121.481198","lat":"31.2241349","category":"113","category_name":"冷饮店","address":"黄浦区西藏南路279号109铺(近寿宁路)"},{"poiid":"B2094757D06FA1F9479E","title":"821撞球娱乐P1馆","lon":"121.48010684","lat":"31.22494441","category":"171","category_name":"台球厅","address":"上海淮海中路1号8楼"},{"poiid":"B2094757D664A7FF4692","title":"翠萃餐厅","lon":"121.48078","lat":"31.22447","category":"76","category_name":"上海菜","address":"西藏南路251号2楼近桃源路"},{"poiid":"B2094757D06EAAFA4393","title":"道顿堀酷酷璐 吴江路店","lon":"121.480552","lat":"31.224973","category":"95","category_name":"日本料理","address":"静安区吴江路169号四季坊122号(近石门一路)"},{"poiid":"B2094654DA6EAAF8479D","title":"满记甜品 时代广场店","lon":"121.478519054","lat":"31.224573793","category":"67","category_name":"甜品店","address":"卢湾区淮海中路99号大上海时代广场B1楼K7-K8(柳林路口)"},{"poiid":"B2094757D06FA1FF479C","title":"味千拉面(淮海中路店)","lon":"121.48052","lat":"31.22496","category":"95","category_name":"日本料理","address":"卢湾区柳林路65号柳林大厦2楼(近西藏南路)"},{"poiid":"B2094757D568A7FB489A","title":"The Fat Olive","lon":"121.480385","lat":"31.224354","category":"257","category_name":"中餐厅","address":"西藏南路228号6楼会所餐厅南部2号(近寿宁路)"},{"poiid":"B2094757D069ABFD419D","title":"淮海中路西藏南路","lon":"121.4799603","lat":"31.225501936","category":"500","category_name":"未知分类","address":"上海淮海中路西藏南路"},{"poiid":"B2094655D26AAAF94698","title":"梅园村酒家淮海路店","lon":"121.47889","lat":"31.22532","category":"76","category_name":"上海菜","address":"卢湾区淮海中路98号金钟广场6楼(近西藏南路)"},{"poiid":"B2094757D064A1FC4392","title":"淮海279","lon":"121.48077473","lat":"31.224404175","category":"76","category_name":"上海菜","address":"黄浦区西藏南路279号弘基西门町(近淮海东路)"},{"poiid":"B2094753DA6FAAFE4392","title":"星怡会","lon":"121.478469","lat":"31.225124","category":"247","category_name":"餐饮美食","address":"黄浦区淮海中路138号上海广场2楼"},{"poiid":"B2094757D06EAAF9419C","title":"汤城小厨(时代广场店)","lon":"121.47876","lat":"31.22429","category":"72","category_name":"广东菜","address":"卢湾区淮海中路99号大上海时代广场4楼401-402号(柳林路口)"},{"poiid":"B209475CD365A7FF409F","title":"S2Club","lon":"121.47981","lat":"31.22527","category":"172","category_name":"酒吧","address":"淮海中路1号6楼(近柳林路)"},{"poiid":"B2094757D064A3F44293","title":"Fraser Residence 上海辉盛庭国际公寓","lon":"121.481061948","lat":"31.2234862464","category":"500","category_name":"未知分类","address":"卢湾区寿宁路98号(近淮海中路)"},{"poiid":"B2094750D76EA3F5429C","title":"寿宁路美食街","lon":"121.481","lat":"31.2236","category":"68","category_name":"快餐厅","address":"黄浦区寿宁路(西藏路人民路之间)"},{"poiid":"B2094655D26EA6F54192","title":"大家乐(时代店)","lon":"121.47912","lat":"31.22467","category":"68","category_name":"快餐厅","address":"卢湾区淮海中路99号大上海时代广场B1楼(柳林路口)"},{"poiid":"B2094655D269A4FB4798","title":"ZARA(时代广场店)","lon":"121.47867","lat":"31.22439","category":"141","category_name":"服装鞋帽皮具店","address":"卢湾区淮海中路111号大上海时代广场(近普安路)"},{"poiid":"B2094757D568A4F5449F","title":"淮海1号酒吧ONEPUB","lon":"121.480039","lat":"31.225076","category":"172","category_name":"酒吧","address":"淮海中路1号"},{"poiid":"B2094454D36DA2FB489E","title":"LinX CLUB","lon":"121.479324","lat":"31.225328","category":"248","category_name":"生活娱乐","address":"上海市 淮海中路"},{"poiid":"B2094654DA6EAAF8479E","title":"葡京茶餐厅(淮海店)","lon":"121.4789","lat":"31.22477","category":"72","category_name":"广东菜","address":"卢湾区淮海中路99号大上海时代广场B1楼(柳林路口)"},{"poiid":"B2094757D16CA6F9479F","title":"麦德龙餐饮通西藏南路商场","lon":"121.48024373","lat":"31.224242172","category":"68","category_name":"快餐厅","address":"卢湾区西藏南路228号永银大厦2楼(近淮海中路)"},{"poiid":"B2094654DA6EABFB4198","title":"巴辣子","lon":"121.48039970258","lat":"31.223424021383","category":"71","category_name":"四川菜","address":"卢湾区寿宁路71弄7号(柳林路西藏南路间)"},{"poiid":"B2094654DB69A5FE4398","title":"肯德基(柳林店)","lon":"121.4802","lat":"31.22522","category":"68","category_name":"快餐厅","address":"卢湾区柳林路65号柳林大厦内(近西藏南路)"},{"poiid":"B2094757D065A5F9489E","title":"新天地酒吧街","lon":"121.47819073","lat":"31.224759183","category":"260","category_name":"其他","address":"上海市黄浦区黄陂南路"},{"poiid":"B209475DDA6DA4FB409B","title":"石板街","lon":"121.478378","lat":"31.224979","category":"247","category_name":"餐饮美食","address":"上海市 上海时代广场6楼"},{"poiid":"B2094654DB65A2F94399","title":"赛博数码广场","lon":"121.48013","lat":"31.22529","category":"138","category_name":"家电电子卖场","address":"淮海中路1号"},{"poiid":"B2094757D06FABF9479B","title":"Starbucks柳林路店","lon":"121.479033","lat":"31.225412","category":"500","category_name":"未知分类","address":"上海淮海中路柳林路口"},{"poiid":"B2094753DA6AA5F9419C","title":"COVA@K11","lon":"121.478927","lat":"31.223541","category":"500","category_name":"未知分类","address":"上海市 淮海中路300号2楼"},{"poiid":"B209475CD669A0F5479E","title":"辣府","lon":"121.480041","lat":"31.225524","category":"247","category_name":"餐饮美食","address":"上海市 云南南路180号"},{"poiid":"B2094753D664A3FA4092","title":"复旦大学","lon":"121.479087","lat":"31.224962","category":"671","category_name":"高校中心点","address":"上海市 杨浦区邯郸路220号"},{"poiid":"B2094757D06FA6FA459A","title":"韩风炭火烤肉(时代店)","lon":"121.47924","lat":"31.22445","category":"96","category_name":"韩国料理","address":"卢湾区淮海中路99号大上海时代广场B1楼(柳林路口)"}]