[{"poiid":"B2094655D26AABFD4492","title":"顺风大酒店 西藏中路店","lon":"121.474632054","lat":"31.234972793","category":"75","category_name":"浙江菜","address":"黄浦区南京东路830号第一百货新楼7楼(近西藏中路)"},{"poiid":"B2094654DA6FAAF5419F","title":"新世界城","lon":"121.47395","lat":"31.23484","category":"119","category_name":"商场","address":"黄浦区南京西路2-68号(近西藏中路)"},{"poiid":"B2094654DA6FA1FC449E","title":"百联世茂国际广场","lon":"121.47549","lat":"31.23462","category":"119","category_name":"商场","address":"黄浦区南京东路819号(近西藏中路)"},{"poiid":"B2094753D76FAAFA449C","title":"上海滩国泰旗舰店","lon":"121.466011","lat":"31.216125","category":"249","category_name":"购物服务","address":"淮海中路868号"},{"poiid":"B209475CD564A7F84292","title":"上海滩新天地店","lon":"121.47463","lat":"31.22164","category":"119","category_name":"商场","address":"\"太仓路181弄新天地北里15号\r\n\""},{"poiid":"B209475CD564A7F8439E","title":"上海滩中信泰富店","lon":"121.45602","lat":"31.22851","category":"119","category_name":"商场","address":"\"南京西路1168号中信泰富广场，店铺号221.\r\n\""},{"poiid":"B209475CD564A7F84392","title":"上海滩浦东香格里拉店","lon":"121.50058","lat":"31.23634","category":"119","category_name":"商场","address":"浦东富成路33号香格里拉酒店内大堂层"},{"poiid":"B2094655D26AABFF4099","title":"厚味香辣馆(百联世茂店)","lon":"121.47549","lat":"31.23462","category":"71","category_name":"四川菜","address":"黄浦区南京东路819号百联世茂8楼(近西藏中路)"},{"poiid":"B2094654DA6FA1F9419C","title":"南京路步行街","lon":"121.4748","lat":"31.23477","category":"116","category_name":"特色商业街","address":"上海,上海市,上海市黄浦区南京路步行街"},{"poiid":"B2094654DB69A4FC4093","title":"好乐迪(南京东路店)","lon":"121.47549","lat":"31.23462","category":"170","category_name":"KTV","address":"黄浦区南京东路步行街809号百联世茂国际广场2期10楼(近贵州路)"},{"poiid":"B2094655D26AA4FE4198","title":"韩膳宫料理百联世茂店","lon":"121.47549","lat":"31.23462","category":"96","category_name":"韩国料理","address":"黄浦区南京东路819号百联世茂国际广场6楼(近西藏中路)"},{"poiid":"B2094654DA6FA1F94092","title":"世纪大上海电影城","lon":"121.47469","lat":"31.23501","category":"178","category_name":"电影院","address":"上海市西藏中路500号第一百货商店(新楼)8楼"},{"poiid":"B2094654DB64ABFC419E","title":"新世界影城","lon":"121.47399","lat":"31.2348","category":"178","category_name":"电影院","address":"南京西路2-68号新世界城12层"},{"poiid":"B2094655D26AABFD449A","title":"西堤牛排新世界店","lon":"121.474","lat":"31.2348","category":"94","category_name":"西餐厅","address":"黄浦区南京西路2-68号新世界城5楼(近西藏中路)"},{"poiid":"B2094655D26AABFD469A","title":"三人行(人民广场店)","lon":"121.47549","lat":"31.23462","category":"86","category_name":"火锅店","address":"黄浦区南京东路819号百联世茂7楼(近西藏路)"},{"poiid":"B2094654DA6FA1F9419F","title":"上海市第一百货商店","lon":"121.4747","lat":"31.23499","category":"119","category_name":"商场","address":"黄浦区南京东路830号(近西藏中路)"},{"poiid":"B2094655D26AABFE4298","title":"豆捞坊人民广场店","lon":"121.47549","lat":"31.23462","category":"247","category_name":"餐饮美食","address":"黄浦区南京东路819号百联世茂8楼(近西藏中路)"},{"poiid":"B2094757D06FA2FE4999","title":"必胜客(新世界店)","lon":"121.47427","lat":"31.23453","category":"94","category_name":"西餐厅","address":"黄浦区南京西路2-68号新世界城B1楼(近西藏中路)"},{"poiid":"B2094752D16FA3F8499D","title":"新白鹿餐厅","lon":"121.474899","lat":"31.235458","category":"247","category_name":"餐饮美食","address":"南京东路东方商厦九楼"},{"poiid":"B2094757D06FA0F9429D","title":"鲜墙房(永安大饭店)","lon":"121.47814","lat":"31.23456","category":"76","category_name":"上海菜","address":"黄浦区九江路600号永安4-5楼(近浙江中路)"},{"poiid":"B2094757D465A4F9439A","title":"避风塘 第一百货店","lon":"121.474632054","lat":"31.234972793","category":"72","category_name":"广东菜","address":"黄浦区南京东路830号第一百货4楼(近西藏中路)"},{"poiid":"B2094654DA6FAAF54298","title":"新世界紫澜门大酒店","lon":"121.4741","lat":"31.23495","category":"72","category_name":"广东菜","address":"黄浦区南京西路2-68号新世界城12楼(近西藏中路)"},{"poiid":"B2094757D068A7F84498","title":"汤姆熊(新世界店)","lon":"121.473908238","lat":"31.2356113148","category":"173","category_name":"游戏厅","address":"黄浦区南京西路2-68号新世界城9楼(近西藏中路)"},{"poiid":"B2094757D06FA1FF4998","title":"望湘园(第一百货店)","lon":"121.47446","lat":"31.23555","category":"77","category_name":"湖南菜","address":"上海黄浦区南京东路830号第一百货新楼6楼(近西藏中路)  "},{"poiid":"B2094757D06BA3FF479B","title":"好樂迪(百聯世貿店)","lon":"121.474730738","lat":"31.2343223873","category":"500","category_name":"未知分类","address":"上海九江路路貴州路"},{"poiid":"B2094752D068A1FF459C","title":"鱼酷活鱼现烤","lon":"121.474869","lat":"31.235397","category":"247","category_name":"餐饮美食","address":"南京东路东方商厦9楼"},{"poiid":"B2094757D06FA1F9439F","title":"一茶一坐(新世界店)","lon":"121.47443","lat":"31.23459","category":"260","category_name":"其他","address":"黄浦区南京西路72号新世界城1楼,3楼(西藏中路口)"},{"poiid":"B2094750D76FA4FC499E","title":"山间堂民间瓦缸煨汤(人民广场店)","lon":"121.474","lat":"31.2347","category":"260","category_name":"其他","address":"黄浦区南京西路2号新世界城6楼"},{"poiid":"B2094757D464A7FE459B","title":"大诚 市百一店","lon":"121.474632054","lat":"31.234972793","category":"95","category_name":"日本料理","address":"黄浦区南京东路830号第一百货新楼6楼(近西藏中路)"},{"poiid":"B2094757D06FA3FE4293","title":"汉堡王 新世界店 Burger King","lon":"121.474211054","lat":"31.234833793","category":"68","category_name":"快餐厅","address":"黄浦区南京西路2-88号新世界城B1楼(近西藏中路)"},{"poiid":"B2094757D16DAAFD469A","title":"南京路东方商厦","lon":"121.475278738","lat":"31.2346593945","category":"500","category_name":"未知分类","address":"上海市黄浦区黄河路"},{"poiid":"B2094757D465A4F84298","title":"韩林炭烤 市百一店","lon":"121.474632054","lat":"31.234972793","category":"96","category_name":"韩国料理","address":"黄浦区南京东路800号市百一店北楼5楼(近西藏中路)"},{"poiid":"B2094752D669A6FD429E","title":"西贝西北菜","lon":"121.475074","lat":"31.234573","category":"247","category_name":"餐饮美食","address":"南京东路东方商厦"},{"poiid":"B2094757DB69AAFD409C","title":"善知鸟日本创作料理","lon":"121.474278","lat":"31.235902","category":"95","category_name":"日本料理","address":"黄浦区西藏中路500号思源商厦6A(近凤阳路)"},{"poiid":"B2094757D068ABFB439C","title":"来富士","lon":"121.474963738","lat":"31.2354534114","category":"247","category_name":"餐饮美食","address":"上海市黄浦区温州路"},{"poiid":"B2094655D26BA3F84798","title":"味千拉面新世界店","lon":"121.474","lat":"31.2348","category":"95","category_name":"日本料理","address":"黄浦区南京西路2-68号新世界城2楼(近西藏中路)"},{"poiid":"B2094757D06FA3FB469D","title":"789新概念火锅料理(新世界店)","lon":"121.47441","lat":"31.23462","category":"86","category_name":"火锅店","address":"黄浦区南京西路2-88号新世界城4楼(近西藏中路)"},{"poiid":"B2094752D46CA1F5409A","title":"三宝粥铺","lon":"121.474482","lat":"31.235848","category":"247","category_name":"餐饮美食","address":"第一百货8楼"},{"poiid":"B2094654DB69A0FA4698","title":"许留山(南京东路店)","lon":"121.4754","lat":"31.23506","category":"67","category_name":"甜品店","address":"黄浦区南京东路800号东方商厦2楼(近西藏中路)"},{"poiid":"B2094750D66BAAF54298","title":"猫屎咖啡(雅居乐国际广场店)","lon":"121.474","lat":"31.2358","category":"260","category_name":"其他","address":"黄浦区西藏中路525号雅居乐国际广场1楼"},{"poiid":"B2094757D068A0F5409B","title":"一茶一座(市百一店)","lon":"121.47438373","lat":"31.23542141","category":"47","category_name":"住宅区","address":"上海市黄浦区南京东路830号3楼"},{"poiid":"B2094757D06FAAFD4193","title":"蜀菜行家(南京东路市百一店)","lon":"121.4752","lat":"31.23464","category":"71","category_name":"四川菜","address":"黄浦区南京东路830号第一百货商店新楼5楼(近西藏中路)"},{"poiid":"B2094753D26BAAF8439F","title":"白木屋","lon":"121.475601","lat":"31.234787","category":"500","category_name":"未知分类","address":"上海市 南京东路百联世贸"},{"poiid":"B2094757D06FA5FD429F","title":"吉野家（南京路店）","lon":"121.474799","lat":"31.234774","category":"500","category_name":"未知分类","address":"上海南京路步行街"},{"poiid":"B2094753D16EAAFC469A","title":"鱼酷活鱼现烤(东方商厦店)","lon":"121.47535","lat":"31.23522","category":"71","category_name":"四川菜","address":"黄浦区南京东路800号东方商厦9楼(近西藏东路)"},{"poiid":"B2094750D26BA2F84093","title":"太兴茶餐厅","lon":"121.474784","lat":"31.234413","category":"500","category_name":"未知分类","address":"来福士"},{"poiid":"B2094654DB69A5FE469E","title":"肯德基 KFC (新世界店)","lon":"121.47395","lat":"31.23484","category":"68","category_name":"快餐厅","address":"黄浦区南京西路2-68号新世纪城B1楼(近西藏中路)"},{"poiid":"B2094757D56DA4FD459A","title":"仙芋鲜旗舰店","lon":"121.475138","lat":"31.234816","category":"247","category_name":"餐饮美食","address":"福州路558号"},{"poiid":"B2094753D66FA4F54799","title":"年代秀饭堂","lon":"121.474713","lat":"31.234527","category":"247","category_name":"餐饮美食","address":"上海市 黄浦区西藏中路雅居乐国际广场"},{"poiid":"B2094757D06BA2F8409E","title":"大城日本料理","lon":"121.47448073","lat":"31.23542741","category":"500","category_name":"未知分类","address":"上海第一百货6楼"},{"poiid":"B2094655D26AABFD4492","title":"顺风大酒店 西藏中路店","lon":"121.474632054","lat":"31.234972793","category":"75","category_name":"浙江菜","address":"黄浦区南京东路830号第一百货新楼7楼(近西藏中路)"},{"poiid":"B2094654DA6FAAF5419F","title":"新世界城","lon":"121.47395","lat":"31.23484","category":"119","category_name":"商场","address":"黄浦区南京西路2-68号(近西藏中路)"},{"poiid":"B2094654DA6FA1FC449E","title":"百联世茂国际广场","lon":"121.47549","lat":"31.23462","category":"119","category_name":"商场","address":"黄浦区南京东路819号(近西藏中路)"},{"poiid":"B2094753D76FAAFA449C","title":"上海滩国泰旗舰店","lon":"121.466011","lat":"31.216125","category":"249","category_name":"购物服务","address":"淮海中路868号"},{"poiid":"B209475CD564A7F84292","title":"上海滩新天地店","lon":"121.47463","lat":"31.22164","category":"119","category_name":"商场","address":"\"太仓路181弄新天地北里15号\r\n\""},{"poiid":"B209475CD564A7F8439E","title":"上海滩中信泰富店","lon":"121.45602","lat":"31.22851","category":"119","category_name":"商场","address":"\"南京西路1168号中信泰富广场，店铺号221.\r\n\""},{"poiid":"B209475CD564A7F84392","title":"上海滩浦东香格里拉店","lon":"121.50058","lat":"31.23634","category":"119","category_name":"商场","address":"浦东富成路33号香格里拉酒店内大堂层"},{"poiid":"B2094655D26AABFF4099","title":"厚味香辣馆(百联世茂店)","lon":"121.47549","lat":"31.23462","category":"71","category_name":"四川菜","address":"黄浦区南京东路819号百联世茂8楼(近西藏中路)"},{"poiid":"B2094654DA6FA1F9419C","title":"南京路步行街","lon":"121.4748","lat":"31.23477","category":"116","category_name":"特色商业街","address":"上海,上海市,上海市黄浦区南京路步行街"},{"poiid":"B2094654DB69A4FC4093","title":"好乐迪(南京东路店)","lon":"121.47549","lat":"31.23462","category":"170","category_name":"KTV","address":"黄浦区南京东路步行街809号百联世茂国际广场2期10楼(近贵州路)"},{"poiid":"B2094655D26AA4FE4198","title":"韩膳宫料理百联世茂店","lon":"121.47549","lat":"31.23462","category":"96","category_name":"韩国料理","address":"黄浦区南京东路819号百联世茂国际广场6楼(近西藏中路)"},{"poiid":"B2094654DA6FA1F94092","title":"世纪大上海电影城","lon":"121.47469","lat":"31.23501","category":"178","category_name":"电影院","address":"上海市西藏中路500号第一百货商店(新楼)8楼"},{"poiid":"B2094654DB64ABFC419E","title":"新世界影城","lon":"121.47399","lat":"31.2348","category":"178","category_name":"电影院","address":"南京西路2-68号新世界城12层"},{"poiid":"B2094655D26AABFD449A","title":"西堤牛排新世界店","lon":"121.474","lat":"31.2348","category":"94","category_name":"西餐厅","address":"黄浦区南京西路2-68号新世界城5楼(近西藏中路)"},{"poiid":"B2094655D26AABFD469A","title":"三人行(人民广场店)","lon":"121.47549","lat":"31.23462","category":"86","category_name":"火锅店","address":"黄浦区南京东路819号百联世茂7楼(近西藏路)"},{"poiid":"B2094654DA6FA1F9419F","title":"上海市第一百货商店","lon":"121.4747","lat":"31.23499","category":"119","category_name":"商场","address":"黄浦区南京东路830号(近西藏中路)"},{"poiid":"B2094655D26AABFE4298","title":"豆捞坊人民广场店","lon":"121.47549","lat":"31.23462","category":"247","category_name":"餐饮美食","address":"黄浦区南京东路819号百联世茂8楼(近西藏中路)"},{"poiid":"B2094757D06FA2FE4999","title":"必胜客(新世界店)","lon":"121.47427","lat":"31.23453","category":"94","category_name":"西餐厅","address":"黄浦区南京西路2-68号新世界城B1楼(近西藏中路)"},{"poiid":"B2094752D16FA3F8499D","title":"新白鹿餐厅","lon":"121.474899","lat":"31.235458","category":"247","category_name":"餐饮美食","address":"南京东路东方商厦九楼"},{"poiid":"B2094757D06FA0F9429D","title":"鲜墙房(永安大饭店)","lon":"121.47814","lat":"31.23456","category":"76","category_name":"上海菜","address":"黄浦区九江路600号永安4-5楼(近浙江中路)"},{"poiid":"B2094757D465A4F9439A","title":"避风塘 第一百货店","lon":"121.474632054","lat":"31.234972793","category":"72","category_name":"广东菜","address":"黄浦区南京东路830号第一百货4楼(近西藏中路)"},{"poiid":"B2094654DA6FAAF54298","title":"新世界紫澜门大酒店","lon":"121.4741","lat":"31.23495","category":"72","category_name":"广东菜","address":"黄浦区南京西路2-68号新世界城12楼(近西藏中路)"},{"poiid":"B2094757D068A7F84498","title":"汤姆熊(新世界店)","lon":"121.473908238","lat":"31.2356113148","category":"173","category_name":"游戏厅","address":"黄浦区南京西路2-68号新世界城9楼(近西藏中路)"},{"poiid":"B2094757D06FA1FF4998","title":"望湘园(第一百货店)","lon":"121.47446","lat":"31.23555","category":"77","category_name":"湖南菜","address":"上海黄浦区南京东路830号第一百货新楼6楼(近西藏中路)  "},{"poiid":"B2094757D06BA3FF479B","title":"好樂迪(百聯世貿店)","lon":"121.474730738","lat":"31.2343223873","category":"500","category_name":"未知分类","address":"上海九江路路貴州路"},{"poiid":"B2094752D068A1FF459C","title":"鱼酷活鱼现烤","lon":"121.474869","lat":"31.235397","category":"247","category_name":"餐饮美食","address":"南京东路东方商厦9楼"},{"poiid":"B2094757D06FA1F9439F","title":"一茶一坐(新世界店)","lon":"121.47443","lat":"31.23459","category":"260","category_name":"其他","address":"黄浦区南京西路72号新世界城1楼,3楼(西藏中路口)"},{"poiid":"B2094750D76FA4FC499E","title":"山间堂民间瓦缸煨汤(人民广场店)","lon":"121.474","lat":"31.2347","category":"260","category_name":"其他","address":"黄浦区南京西路2号新世界城6楼"},{"poiid":"B2094757D464A7FE459B","title":"大诚 市百一店","lon":"121.474632054","lat":"31.234972793","category":"95","category_name":"日本料理","address":"黄浦区南京东路830号第一百货新楼6楼(近西藏中路)"},{"poiid":"B2094757D06FA3FE4293","title":"汉堡王 新世界店 Burger King","lon":"121.474211054","lat":"31.234833793","category":"68","category_name":"快餐厅","address":"黄浦区南京西路2-88号新世界城B1楼(近西藏中路)"},{"poiid":"B2094757D16DAAFD469A","title":"南京路东方商厦","lon":"121.475278738","lat":"31.2346593945","category":"500","category_name":"未知分类","address":"上海市黄浦区黄河路"},{"poiid":"B2094757D465A4F84298","title":"韩林炭烤 市百一店","lon":"121.474632054","lat":"31.234972793","category":"96","category_name":"韩国料理","address":"黄浦区南京东路800号市百一店北楼5楼(近西藏中路)"},{"poiid":"B2094752D669A6FD429E","title":"西贝西北菜","lon":"121.475074","lat":"31.234573","category":"247","category_name":"餐饮美食","address":"南京东路东方商厦"},{"poiid":"B2094757DB69AAFD409C","title":"善知鸟日本创作料理","lon":"121.474278","lat":"31.235902","category":"95","category_name":"日本料理","address":"黄浦区西藏中路500号思源商厦6A(近凤阳路)"},{"poiid":"B2094757D068ABFB439C","title":"来富士","lon":"121.474963738","lat":"31.2354534114","category":"247","category_name":"餐饮美食","address":"上海市黄浦区温州路"},{"poiid":"B2094655D26BA3F84798","title":"味千拉面新世界店","lon":"121.474","lat":"31.2348","category":"95","category_name":"日本料理","address":"黄浦区南京西路2-68号新世界城2楼(近西藏中路)"},{"poiid":"B2094757D06FA3FB469D","title":"789新概念火锅料理(新世界店)","lon":"121.47441","lat":"31.23462","category":"86","category_name":"火锅店","address":"黄浦区南京西路2-88号新世界城4楼(近西藏中路)"},{"poiid":"B2094752D46CA1F5409A","title":"三宝粥铺","lon":"121.474482","lat":"31.235848","category":"247","category_name":"餐饮美食","address":"第一百货8楼"},{"poiid":"B2094654DB69A0FA4698","title":"许留山(南京东路店)","lon":"121.4754","lat":"31.23506","category":"67","category_name":"甜品店","address":"黄浦区南京东路800号东方商厦2楼(近西藏中路)"},{"poiid":"B2094750D66BAAF54298","title":"猫屎咖啡(雅居乐国际广场店)","lon":"121.474","lat":"31.2358","category":"260","category_name":"其他","address":"黄浦区西藏中路525号雅居乐国际广场1楼"},{"poiid":"B2094757D068A0F5409B","title":"一茶一座(市百一店)","lon":"121.47438373","lat":"31.23542141","category":"47","category_name":"住宅区","address":"上海市黄浦区南京东路830号3楼"},{"poiid":"B2094757D06FAAFD4193","title":"蜀菜行家(南京东路市百一店)","lon":"121.4752","lat":"31.23464","category":"71","category_name":"四川菜","address":"黄浦区南京东路830号第一百货商店新楼5楼(近西藏中路)"},{"poiid":"B2094753D26BAAF8439F","title":"白木屋","lon":"121.475601","lat":"31.234787","category":"500","category_name":"未知分类","address":"上海市 南京东路百联世贸"},{"poiid":"B2094757D06FA5FD429F","title":"吉野家（南京路店）","lon":"121.474799","lat":"31.234774","category":"500","category_name":"未知分类","address":"上海南京路步行街"},{"poiid":"B2094753D16EAAFC469A","title":"鱼酷活鱼现烤(东方商厦店)","lon":"121.47535","lat":"31.23522","category":"71","category_name":"四川菜","address":"黄浦区南京东路800号东方商厦9楼(近西藏东路)"},{"poiid":"B2094750D26BA2F84093","title":"太兴茶餐厅","lon":"121.474784","lat":"31.234413","category":"500","category_name":"未知分类","address":"来福士"},{"poiid":"B2094654DB69A5FE469E","title":"肯德基 KFC (新世界店)","lon":"121.47395","lat":"31.23484","category":"68","category_name":"快餐厅","address":"黄浦区南京西路2-68号新世纪城B1楼(近西藏中路)"},{"poiid":"B2094757D56DA4FD459A","title":"仙芋鲜旗舰店","lon":"121.475138","lat":"31.234816","category":"247","category_name":"餐饮美食","address":"福州路558号"},{"poiid":"B2094753D66FA4F54799","title":"年代秀饭堂","lon":"121.474713","lat":"31.234527","category":"247","category_name":"餐饮美食","address":"上海市 黄浦区西藏中路雅居乐国际广场"},{"poiid":"B2094757D06BA2F8409E","title":"大城日本料理","lon":"121.47448073","lat":"31.23542741","category":"500","category_name":"未知分类","address":"上海第一百货6楼"},{"poiid":"B2094655D26AABFD4492","title":"顺风大酒店 西藏中路店","lon":"121.474632054","lat":"31.234972793","category":"75","category_name":"浙江菜","address":"黄浦区南京东路830号第一百货新楼7楼(近西藏中路)"},{"poiid":"B2094654DA6FAAF5419F","title":"新世界城","lon":"121.47395","lat":"31.23484","category":"119","category_name":"商场","address":"黄浦区南京西路2-68号(近西藏中路)"},{"poiid":"B2094654DA6FA1FC449E","title":"百联世茂国际广场","lon":"121.47549","lat":"31.23462","category":"119","category_name":"商场","address":"黄浦区南京东路819号(近西藏中路)"},{"poiid":"B2094753D76FAAFA449C","title":"上海滩国泰旗舰店","lon":"121.466011","lat":"31.216125","category":"249","category_name":"购物服务","address":"淮海中路868号"},{"poiid":"B209475CD564A7F84292","title":"上海滩新天地店","lon":"121.47463","lat":"31.22164","category":"119","category_name":"商场","address":"\"太仓路181弄新天地北里15号\r\n\""},{"poiid":"B209475CD564A7F8439E","title":"上海滩中信泰富店","lon":"121.45602","lat":"31.22851","category":"119","category_name":"商场","address":"\"南京西路1168号中信泰富广场，店铺号221.\r\n\""},{"poiid":"B209475CD564A7F84392","title":"上海滩浦东香格里拉店","lon":"121.50058","lat":"31.23634","category":"119","category_name":"商场","address":"浦东富成路33号香格里拉酒店内大堂层"},{"poiid":"B2094655D26AABFF4099","title":"厚味香辣馆(百联世茂店)","lon":"121.47549","lat":"31.23462","category":"71","category_name":"四川菜","address":"黄浦区南京东路819号百联世茂8楼(近西藏中路)"},{"poiid":"B2094654DA6FA1F9419C","title":"南京路步行街","lon":"121.4748","lat":"31.23477","category":"116","category_name":"特色商业街","address":"上海,上海市,上海市黄浦区南京路步行街"},{"poiid":"B2094654DB69A4FC4093","title":"好乐迪(南京东路店)","lon":"121.47549","lat":"31.23462","category":"170","category_name":"KTV","address":"黄浦区南京东路步行街809号百联世茂国际广场2期10楼(近贵州路)"},{"poiid":"B2094655D26AA4FE4198","title":"韩膳宫料理百联世茂店","lon":"121.47549","lat":"31.23462","category":"96","category_name":"韩国料理","address":"黄浦区南京东路819号百联世茂国际广场6楼(近西藏中路)"},{"poiid":"B2094654DA6FA1F94092","title":"世纪大上海电影城","lon":"121.47469","lat":"31.23501","category":"178","category_name":"电影院","address":"上海市西藏中路500号第一百货商店(新楼)8楼"},{"poiid":"B2094654DB64ABFC419E","title":"新世界影城","lon":"121.47399","lat":"31.2348","category":"178","category_name":"电影院","address":"南京西路2-68号新世界城12层"},{"poiid":"B2094655D26AABFD449A","title":"西堤牛排新世界店","lon":"121.474","lat":"31.2348","category":"94","category_name":"西餐厅","address":"黄浦区南京西路2-68号新世界城5楼(近西藏中路)"},{"poiid":"B2094655D26AABFD469A","title":"三人行(人民广场店)","lon":"121.47549","lat":"31.23462","category":"86","category_name":"火锅店","address":"黄浦区南京东路819号百联世茂7楼(近西藏路)"},{"poiid":"B2094654DA6FA1F9419F","title":"上海市第一百货商店","lon":"121.4747","lat":"31.23499","category":"119","category_name":"商场","address":"黄浦区南京东路830号(近西藏中路)"},{"poiid":"B2094655D26AABFE4298","title":"豆捞坊人民广场店","lon":"121.47549","lat":"31.23462","category":"247","category_name":"餐饮美食","address":"黄浦区南京东路819号百联世茂8楼(近西藏中路)"},{"poiid":"B2094757D06FA2FE4999","title":"必胜客(新世界店)","lon":"121.47427","lat":"31.23453","category":"94","category_name":"西餐厅","address":"黄浦区南京西路2-68号新世界城B1楼(近西藏中路)"},{"poiid":"B2094752D16FA3F8499D","title":"新白鹿餐厅","lon":"121.474899","lat":"31.235458","category":"247","category_name":"餐饮美食","address":"南京东路东方商厦九楼"},{"poiid":"B2094757D06FA0F9429D","title":"鲜墙房(永安大饭店)","lon":"121.47814","lat":"31.23456","category":"76","category_name":"上海菜","address":"黄浦区九江路600号永安4-5楼(近浙江中路)"},{"poiid":"B2094757D465A4F9439A","title":"避风塘 第一百货店","lon":"121.474632054","lat":"31.234972793","category":"72","category_name":"广东菜","address":"黄浦区南京东路830号第一百货4楼(近西藏中路)"},{"poiid":"B2094654DA6FAAF54298","title":"新世界紫澜门大酒店","lon":"121.4741","lat":"31.23495","category":"72","category_name":"广东菜","address":"黄浦区南京西路2-68号新世界城12楼(近西藏中路)"},{"poiid":"B2094757D068A7F84498","title":"汤姆熊(新世界店)","lon":"121.473908238","lat":"31.2356113148","category":"173","category_name":"游戏厅","address":"黄浦区南京西路2-68号新世界城9楼(近西藏中路)"},{"poiid":"B2094757D06FA1FF4998","title":"望湘园(第一百货店)","lon":"121.47446","lat":"31.23555","category":"77","category_name":"湖南菜","address":"上海黄浦区南京东路830号第一百货新楼6楼(近西藏中路)  "},{"poiid":"B2094757D06BA3FF479B","title":"好樂迪(百聯世貿店)","lon":"121.474730738","lat":"31.2343223873","category":"500","category_name":"未知分类","address":"上海九江路路貴州路"},{"poiid":"B2094752D068A1FF459C","title":"鱼酷活鱼现烤","lon":"121.474869","lat":"31.235397","category":"247","category_name":"餐饮美食","address":"南京东路东方商厦9楼"},{"poiid":"B2094757D06FA1F9439F","title":"一茶一坐(新世界店)","lon":"121.47443","lat":"31.23459","category":"260","category_name":"其他","address":"黄浦区南京西路72号新世界城1楼,3楼(西藏中路口)"},{"poiid":"B2094750D76FA4FC499E","title":"山间堂民间瓦缸煨汤(人民广场店)","lon":"121.474","lat":"31.2347","category":"260","category_name":"其他","address":"黄浦区南京西路2号新世界城6楼"},{"poiid":"B2094757D464A7FE459B","title":"大诚 市百一店","lon":"121.474632054","lat":"31.234972793","category":"95","category_name":"日本料理","address":"黄浦区南京东路830号第一百货新楼6楼(近西藏中路)"},{"poiid":"B2094757D06FA3FE4293","title":"汉堡王 新世界店 Burger King","lon":"121.474211054","lat":"31.234833793","category":"68","category_name":"快餐厅","address":"黄浦区南京西路2-88号新世界城B1楼(近西藏中路)"},{"poiid":"B2094757D16DAAFD469A","title":"南京路东方商厦","lon":"121.475278738","lat":"31.2346593945","category":"500","category_name":"未知分类","address":"上海市黄浦区黄河路"},{"poiid":"B2094757D465A4F84298","title":"韩林炭烤 市百一店","lon":"121.474632054","lat":"31.234972793","category":"96","category_name":"韩国料理","address":"黄浦区南京东路800号市百一店北楼5楼(近西藏中路)"},{"poiid":"B2094752D669A6FD429E","title":"西贝西北菜","lon":"121.475074","lat":"31.234573","category":"247","category_name":"餐饮美食","address":"南京东路东方商厦"},{"poiid":"B2094757DB69AAFD409C","title":"善知鸟日本创作料理","lon":"121.474278","lat":"31.235902","category":"95","category_name":"日本料理","address":"黄浦区西藏中路500号思源商厦6A(近凤阳路)"},{"poiid":"B2094757D068ABFB439C","title":"来富士","lon":"121.474963738","lat":"31.2354534114","category":"247","category_name":"餐饮美食","address":"上海市黄浦区温州路"},{"poiid":"B2094655D26BA3F84798","title":"味千拉面新世界店","lon":"121.474","lat":"31.2348","category":"95","category_name":"日本料理","address":"黄浦区南京西路2-68号新世界城2楼(近西藏中路)"},{"poiid":"B2094757D06FA3FB469D","title":"789新概念火锅料理(新世界店)","lon":"121.47441","lat":"31.23462","category":"86","category_name":"火锅店","address":"黄浦区南京西路2-88号新世界城4楼(近西藏中路)"},{"poiid":"B2094752D46CA1F5409A","title":"三宝粥铺","lon":"121.474482","lat":"31.235848","category":"247","category_name":"餐饮美食","address":"第一百货8楼"},{"poiid":"B2094654DB69A0FA4698","title":"许留山(南京东路店)","lon":"121.4754","lat":"31.23506","category":"67","category_name":"甜品店","address":"黄浦区南京东路800号东方商厦2楼(近西藏中路)"},{"poiid":"B2094750D66BAAF54298","title":"猫屎咖啡(雅居乐国际广场店)","lon":"121.474","lat":"31.2358","category":"260","category_name":"其他","address":"黄浦区西藏中路525号雅居乐国际广场1楼"},{"poiid":"B2094757D068A0F5409B","title":"一茶一座(市百一店)","lon":"121.47438373","lat":"31.23542141","category":"47","category_name":"住宅区","address":"上海市黄浦区南京东路830号3楼"},{"poiid":"B2094757D06FAAFD4193","title":"蜀菜行家(南京东路市百一店)","lon":"121.4752","lat":"31.23464","category":"71","category_name":"四川菜","address":"黄浦区南京东路830号第一百货商店新楼5楼(近西藏中路)"},{"poiid":"B2094753D26BAAF8439F","title":"白木屋","lon":"121.475601","lat":"31.234787","category":"500","category_name":"未知分类","address":"上海市 南京东路百联世贸"},{"poiid":"B2094757D06FA5FD429F","title":"吉野家（南京路店）","lon":"121.474799","lat":"31.234774","category":"500","category_name":"未知分类","address":"上海南京路步行街"},{"poiid":"B2094753D16EAAFC469A","title":"鱼酷活鱼现烤(东方商厦店)","lon":"121.47535","lat":"31.23522","category":"71","category_name":"四川菜","address":"黄浦区南京东路800号东方商厦9楼(近西藏东路)"},{"poiid":"B2094750D26BA2F84093","title":"太兴茶餐厅","lon":"121.474784","lat":"31.234413","category":"500","category_name":"未知分类","address":"来福士"},{"poiid":"B2094654DB69A5FE469E","title":"肯德基 KFC (新世界店)","lon":"121.47395","lat":"31.23484","category":"68","category_name":"快餐厅","address":"黄浦区南京西路2-68号新世纪城B1楼(近西藏中路)"},{"poiid":"B2094757D56DA4FD459A","title":"仙芋鲜旗舰店","lon":"121.475138","lat":"31.234816","category":"247","category_name":"餐饮美食","address":"福州路558号"},{"poiid":"B2094753D66FA4F54799","title":"年代秀饭堂","lon":"121.474713","lat":"31.234527","category":"247","category_name":"餐饮美食","address":"上海市 黄浦区西藏中路雅居乐国际广场"},{"poiid":"B2094757D06BA2F8409E","title":"大城日本料理","lon":"121.47448073","lat":"31.23542741","category":"500","category_name":"未知分类","address":"上海第一百货6楼"},{"poiid":"B2094655D26AABFD4492","title":"顺风大酒店 西藏中路店","lon":"121.474632054","lat":"31.234972793","category":"75","category_name":"浙江菜","address":"黄浦区南京东路830号第一百货新楼7楼(近西藏中路)"},{"poiid":"B2094654DA6FAAF5419F","title":"新世界城","lon":"121.47395","lat":"31.23484","category":"119","category_name":"商场","address":"黄浦区南京西路2-68号(近西藏中路)"},{"poiid":"B2094654DA6FA1FC449E","title":"百联世茂国际广场","lon":"121.47549","lat":"31.23462","category":"119","category_name":"商场","address":"黄浦区南京东路819号(近西藏中路)"},{"poiid":"B2094753D76FAAFA449C","title":"上海滩国泰旗舰店","lon":"121.466011","lat":"31.216125","category":"249","category_name":"购物服务","address":"淮海中路868号"},{"poiid":"B209475CD564A7F84292","title":"上海滩新天地店","lon":"121.47463","lat":"31.22164","category":"119","category_name":"商场","address":"\"太仓路181弄新天地北里15号\r\n\""},{"poiid":"B209475CD564A7F8439E","title":"上海滩中信泰富店","lon":"121.45602","lat":"31.22851","category":"119","category_name":"商场","address":"\"南京西路1168号中信泰富广场，店铺号221.\r\n\""},{"poiid":"B209475CD564A7F84392","title":"上海滩浦东香格里拉店","lon":"121.50058","lat":"31.23634","category":"119","category_name":"商场","address":"浦东富成路33号香格里拉酒店内大堂层"},{"poiid":"B2094655D26AABFF4099","title":"厚味香辣馆(百联世茂店)","lon":"121.47549","lat":"31.23462","category":"71","category_name":"四川菜","address":"黄浦区南京东路819号百联世茂8楼(近西藏中路)"},{"poiid":"B2094654DA6FA1F9419C","title":"南京路步行街","lon":"121.4748","lat":"31.23477","category":"116","category_name":"特色商业街","address":"上海,上海市,上海市黄浦区南京路步行街"},{"poiid":"B2094654DB69A4FC4093","title":"好乐迪(南京东路店)","lon":"121.47549","lat":"31.23462","category":"170","category_name":"KTV","address":"黄浦区南京东路步行街809号百联世茂国际广场2期10楼(近贵州路)"},{"poiid":"B2094655D26AA4FE4198","title":"韩膳宫料理百联世茂店","lon":"121.47549","lat":"31.23462","category":"96","category_name":"韩国料理","address":"黄浦区南京东路819号百联世茂国际广场6楼(近西藏中路)"},{"poiid":"B2094654DA6FA1F94092","title":"世纪大上海电影城","lon":"121.47469","lat":"31.23501","category":"178","category_name":"电影院","address":"上海市西藏中路500号第一百货商店(新楼)8楼"},{"poiid":"B2094654DB64ABFC419E","title":"新世界影城","lon":"121.47399","lat":"31.2348","category":"178","category_name":"电影院","address":"南京西路2-68号新世界城12层"},{"poiid":"B2094655D26AABFD449A","title":"西堤牛排新世界店","lon":"121.474","lat":"31.2348","category":"94","category_name":"西餐厅","address":"黄浦区南京西路2-68号新世界城5楼(近西藏中路)"},{"poiid":"B2094655D26AABFD469A","title":"三人行(人民广场店)","lon":"121.47549","lat":"31.23462","category":"86","category_name":"火锅店","address":"黄浦区南京东路819号百联世茂7楼(近西藏路)"},{"poiid":"B2094654DA6FA1F9419F","title":"上海市第一百货商店","lon":"121.4747","lat":"31.23499","category":"119","category_name":"商场","address":"黄浦区南京东路830号(近西藏中路)"},{"poiid":"B2094655D26AABFE4298","title":"豆捞坊人民广场店","lon":"121.47549","lat":"31.23462","category":"247","category_name":"餐饮美食","address":"黄浦区南京东路819号百联世茂8楼(近西藏中路)"},{"poiid":"B2094757D06FA2FE4999","title":"必胜客(新世界店)","lon":"121.47427","lat":"31.23453","category":"94","category_name":"西餐厅","address":"黄浦区南京西路2-68号新世界城B1楼(近西藏中路)"},{"poiid":"B2094752D16FA3F8499D","title":"新白鹿餐厅","lon":"121.474899","lat":"31.235458","category":"247","category_name":"餐饮美食","address":"南京东路东方商厦九楼"},{"poiid":"B2094757D06FA0F9429D","title":"鲜墙房(永安大饭店)","lon":"121.47814","lat":"31.23456","category":"76","category_name":"上海菜","address":"黄浦区九江路600号永安4-5楼(近浙江中路)"},{"poiid":"B2094757D465A4F9439A","title":"避风塘 第一百货店","lon":"121.474632054","lat":"31.234972793","category":"72","category_name":"广东菜","address":"黄浦区南京东路830号第一百货4楼(近西藏中路)"},{"poiid":"B2094654DA6FAAF54298","title":"新世界紫澜门大酒店","lon":"121.4741","lat":"31.23495","category":"72","category_name":"广东菜","address":"黄浦区南京西路2-68号新世界城12楼(近西藏中路)"},{"poiid":"B2094757D068A7F84498","title":"汤姆熊(新世界店)","lon":"121.473908238","lat":"31.2356113148","category":"173","category_name":"游戏厅","address":"黄浦区南京西路2-68号新世界城9楼(近西藏中路)"},{"poiid":"B2094757D06FA1FF4998","title":"望湘园(第一百货店)","lon":"121.47446","lat":"31.23555","category":"77","category_name":"湖南菜","address":"上海黄浦区南京东路830号第一百货新楼6楼(近西藏中路)  "},{"poiid":"B2094757D06BA3FF479B","title":"好樂迪(百聯世貿店)","lon":"121.474730738","lat":"31.2343223873","category":"500","category_name":"未知分类","address":"上海九江路路貴州路"},{"poiid":"B2094752D068A1FF459C","title":"鱼酷活鱼现烤","lon":"121.474869","lat":"31.235397","category":"247","category_name":"餐饮美食","address":"南京东路东方商厦9楼"},{"poiid":"B2094757D06FA1F9439F","title":"一茶一坐(新世界店)","lon":"121.47443","lat":"31.23459","category":"260","category_name":"其他","address":"黄浦区南京西路72号新世界城1楼,3楼(西藏中路口)"},{"poiid":"B2094750D76FA4FC499E","title":"山间堂民间瓦缸煨汤(人民广场店)","lon":"121.474","lat":"31.2347","category":"260","category_name":"其他","address":"黄浦区南京西路2号新世界城6楼"},{"poiid":"B2094757D464A7FE459B","title":"大诚 市百一店","lon":"121.474632054","lat":"31.234972793","category":"95","category_name":"日本料理","address":"黄浦区南京东路830号第一百货新楼6楼(近西藏中路)"},{"poiid":"B2094757D06FA3FE4293","title":"汉堡王 新世界店 Burger King","lon":"121.474211054","lat":"31.234833793","category":"68","category_name":"快餐厅","address":"黄浦区南京西路2-88号新世界城B1楼(近西藏中路)"},{"poiid":"B2094757D16DAAFD469A","title":"南京路东方商厦","lon":"121.475278738","lat":"31.2346593945","category":"500","category_name":"未知分类","address":"上海市黄浦区黄河路"},{"poiid":"B2094757D465A4F84298","title":"韩林炭烤 市百一店","lon":"121.474632054","lat":"31.234972793","category":"96","category_name":"韩国料理","address":"黄浦区南京东路800号市百一店北楼5楼(近西藏中路)"},{"poiid":"B2094752D669A6FD429E","title":"西贝西北菜","lon":"121.475074","lat":"31.234573","category":"247","category_name":"餐饮美食","address":"南京东路东方商厦"},{"poiid":"B2094757DB69AAFD409C","title":"善知鸟日本创作料理","lon":"121.474278","lat":"31.235902","category":"95","category_name":"日本料理","address":"黄浦区西藏中路500号思源商厦6A(近凤阳路)"},{"poiid":"B2094757D068ABFB439C","title":"来富士","lon":"121.474963738","lat":"31.2354534114","category":"247","category_name":"餐饮美食","address":"上海市黄浦区温州路"},{"poiid":"B2094655D26BA3F84798","title":"味千拉面新世界店","lon":"121.474","lat":"31.2348","category":"95","category_name":"日本料理","address":"黄浦区南京西路2-68号新世界城2楼(近西藏中路)"},{"poiid":"B2094757D06FA3FB469D","title":"789新概念火锅料理(新世界店)","lon":"121.47441","lat":"31.23462","category":"86","category_name":"火锅店","address":"黄浦区南京西路2-88号新世界城4楼(近西藏中路)"},{"poiid":"B2094752D46CA1F5409A","title":"三宝粥铺","lon":"121.474482","lat":"31.235848","category":"247","category_name":"餐饮美食","address":"第一百货8楼"},{"poiid":"B2094654DB69A0FA4698","title":"许留山(南京东路店)","lon":"121.4754","lat":"31.23506","category":"67","category_name":"甜品店","address":"黄浦区南京东路800号东方商厦2楼(近西藏中路)"},{"poiid":"B2094750D66BAAF54298","title":"猫屎咖啡(雅居乐国际广场店)","lon":"121.474","lat":"31.2358","category":"260","category_name":"其他","address":"黄浦区西藏中路525号雅居乐国际广场1楼"},{"poiid":"B2094757D068A0F5409B","title":"一茶一座(市百一店)","lon":"121.47438373","lat":"31.23542141","category":"47","category_name":"住宅区","address":"上海市黄浦区南京东路830号3楼"},{"poiid":"B2094757D06FAAFD4193","title":"蜀菜行家(南京东路市百一店)","lon":"121.4752","lat":"31.23464","category":"71","category_name":"四川菜","address":"黄浦区南京东路830号第一百货商店新楼5楼(近西藏中路)"},{"poiid":"B2094753D26BAAF8439F","title":"白木屋","lon":"121.475601","lat":"31.234787","category":"500","category_name":"未知分类","address":"上海市 南京东路百联世贸"},{"poiid":"B2094757D06FA5FD429F","title":"吉野家（南京路店）","lon":"121.474799","lat":"31.234774","category":"500","category_name":"未知分类","address":"上海南京路步行街"},{"poiid":"B2094753D16EAAFC469A","title":"鱼酷活鱼现烤(东方商厦店)","lon":"121.47535","lat":"31.23522","category":"71","category_name":"四川菜","address":"黄浦区南京东路800号东方商厦9楼(近西藏东路)"},{"poiid":"B2094750D26BA2F84093","title":"太兴茶餐厅","lon":"121.474784","lat":"31.234413","category":"500","category_name":"未知分类","address":"来福士"},{"poiid":"B2094654DB69A5FE469E","title":"肯德基 KFC (新世界店)","lon":"121.47395","lat":"31.23484","category":"68","category_name":"快餐厅","address":"黄浦区南京西路2-68号新世纪城B1楼(近西藏中路)"},{"poiid":"B2094757D56DA4FD459A","title":"仙芋鲜旗舰店","lon":"121.475138","lat":"31.234816","category":"247","category_name":"餐饮美食","address":"福州路558号"},{"poiid":"B2094753D66FA4F54799","title":"年代秀饭堂","lon":"121.474713","lat":"31.234527","category":"247","category_name":"餐饮美食","address":"上海市 黄浦区西藏中路雅居乐国际广场"},{"poiid":"B2094757D06BA2F8409E","title":"大城日本料理","lon":"121.47448073","lat":"31.23542741","category":"500","category_name":"未知分类","address":"上海第一百货6楼"},{"poiid":"B2094655D26AABFD4492","title":"顺风大酒店 西藏中路店","lon":"121.474632054","lat":"31.234972793","category":"75","category_name":"浙江菜","address":"黄浦区南京东路830号第一百货新楼7楼(近西藏中路)"},{"poiid":"B2094654DA6FAAF5419F","title":"新世界城","lon":"121.47395","lat":"31.23484","category":"119","category_name":"商场","address":"黄浦区南京西路2-68号(近西藏中路)"},{"poiid":"B2094654DA6FA1FC449E","title":"百联世茂国际广场","lon":"121.47549","lat":"31.23462","category":"119","category_name":"商场","address":"黄浦区南京东路819号(近西藏中路)"},{"poiid":"B2094753D76FAAFA449C","title":"上海滩国泰旗舰店","lon":"121.466011","lat":"31.216125","category":"249","category_name":"购物服务","address":"淮海中路868号"},{"poiid":"B209475CD564A7F84292","title":"上海滩新天地店","lon":"121.47463","lat":"31.22164","category":"119","category_name":"商场","address":"\"太仓路181弄新天地北里15号\r\n\""},{"poiid":"B209475CD564A7F8439E","title":"上海滩中信泰富店","lon":"121.45602","lat":"31.22851","category":"119","category_name":"商场","address":"\"南京西路1168号中信泰富广场，店铺号221.\r\n\""},{"poiid":"B209475CD564A7F84392","title":"上海滩浦东香格里拉店","lon":"121.50058","lat":"31.23634","category":"119","category_name":"商场","address":"浦东富成路33号香格里拉酒店内大堂层"},{"poiid":"B2094655D26AABFF4099","title":"厚味香辣馆(百联世茂店)","lon":"121.47549","lat":"31.23462","category":"71","category_name":"四川菜","address":"黄浦区南京东路819号百联世茂8楼(近西藏中路)"},{"poiid":"B2094654DA6FA1F9419C","title":"南京路步行街","lon":"121.4748","lat":"31.23477","category":"116","category_name":"特色商业街","address":"上海,上海市,上海市黄浦区南京路步行街"},{"poiid":"B2094654DB69A4FC4093","title":"好乐迪(南京东路店)","lon":"121.47549","lat":"31.23462","category":"170","category_name":"KTV","address":"黄浦区南京东路步行街809号百联世茂国际广场2期10楼(近贵州路)"},{"poiid":"B2094655D26AA4FE4198","title":"韩膳宫料理百联世茂店","lon":"121.47549","lat":"31.23462","category":"96","category_name":"韩国料理","address":"黄浦区南京东路819号百联世茂国际广场6楼(近西藏中路)"},{"poiid":"B2094654DA6FA1F94092","title":"世纪大上海电影城","lon":"121.47469","lat":"31.23501","category":"178","category_name":"电影院","address":"上海市西藏中路500号第一百货商店(新楼)8楼"},{"poiid":"B2094654DB64ABFC419E","title":"新世界影城","lon":"121.47399","lat":"31.2348","category":"178","category_name":"电影院","address":"南京西路2-68号新世界城12层"},{"poiid":"B2094655D26AABFD449A","title":"西堤牛排新世界店","lon":"121.474","lat":"31.2348","category":"94","category_name":"西餐厅","address":"黄浦区南京西路2-68号新世界城5楼(近西藏中路)"},{"poiid":"B2094655D26AABFD469A","title":"三人行(人民广场店)","lon":"121.47549","lat":"31.23462","category":"86","category_name":"火锅店","address":"黄浦区南京东路819号百联世茂7楼(近西藏路)"},{"poiid":"B2094654DA6FA1F9419F","title":"上海市第一百货商店","lon":"121.4747","lat":"31.23499","category":"119","category_name":"商场","address":"黄浦区南京东路830号(近西藏中路)"},{"poiid":"B2094655D26AABFE4298","title":"豆捞坊人民广场店","lon":"121.47549","lat":"31.23462","category":"247","category_name":"餐饮美食","address":"黄浦区南京东路819号百联世茂8楼(近西藏中路)"},{"poiid":"B2094757D06FA2FE4999","title":"必胜客(新世界店)","lon":"121.47427","lat":"31.23453","category":"94","category_name":"西餐厅","address":"黄浦区南京西路2-68号新世界城B1楼(近西藏中路)"},{"poiid":"B2094752D16FA3F8499D","title":"新白鹿餐厅","lon":"121.474899","lat":"31.235458","category":"247","category_name":"餐饮美食","address":"南京东路东方商厦九楼"},{"poiid":"B2094757D06FA0F9429D","title":"鲜墙房(永安大饭店)","lon":"121.47814","lat":"31.23456","category":"76","category_name":"上海菜","address":"黄浦区九江路600号永安4-5楼(近浙江中路)"},{"poiid":"B2094757D465A4F9439A","title":"避风塘 第一百货店","lon":"121.474632054","lat":"31.234972793","category":"72","category_name":"广东菜","address":"黄浦区南京东路830号第一百货4楼(近西藏中路)"},{"poiid":"B2094654DA6FAAF54298","title":"新世界紫澜门大酒店","lon":"121.4741","lat":"31.23495","category":"72","category_name":"广东菜","address":"黄浦区南京西路2-68号新世界城12楼(近西藏中路)"},{"poiid":"B2094757D068A7F84498","title":"汤姆熊(新世界店)","lon":"121.473908238","lat":"31.2356113148","category":"173","category_name":"游戏厅","address":"黄浦区南京西路2-68号新世界城9楼(近西藏中路)"},{"poiid":"B2094757D06FA1FF4998","title":"望湘园(第一百货店)","lon":"121.47446","lat":"31.23555","category":"77","category_name":"湖南菜","address":"上海黄浦区南京东路830号第一百货新楼6楼(近西藏中路)  "},{"poiid":"B2094757D06BA3FF479B","title":"好樂迪(百聯世貿店)","lon":"121.474730738","lat":"31.2343223873","category":"500","category_name":"未知分类","address":"上海九江路路貴州路"},{"poiid":"B2094752D068A1FF459C","title":"鱼酷活鱼现烤","lon":"121.474869","lat":"31.235397","category":"247","category_name":"餐饮美食","address":"南京东路东方商厦9楼"},{"poiid":"B2094757D06FA1F9439F","title":"一茶一坐(新世界店)","lon":"121.47443","lat":"31.23459","category":"260","category_name":"其他","address":"黄浦区南京西路72号新世界城1楼,3楼(西藏中路口)"},{"poiid":"B2094750D76FA4FC499E","title":"山间堂民间瓦缸煨汤(人民广场店)","lon":"121.474","lat":"31.2347","category":"260","category_name":"其他","address":"黄浦区南京西路2号新世界城6楼"},{"poiid":"B2094757D464A7FE459B","title":"大诚 市百一店","lon":"121.474632054","lat":"31.234972793","category":"95","category_name":"日本料理","address":"黄浦区南京东路830号第一百货新楼6楼(近西藏中路)"},{"poiid":"B2094757D06FA3FE4293","title":"汉堡王 新世界店 Burger King","lon":"121.474211054","lat":"31.234833793","category":"68","category_name":"快餐厅","address":"黄浦区南京西路2-88号新世界城B1楼(近西藏中路)"},{"poiid":"B2094757D16DAAFD469A","title":"南京路东方商厦","lon":"121.475278738","lat":"31.2346593945","category":"500","category_name":"未知分类","address":"上海市黄浦区黄河路"},{"poiid":"B2094757D465A4F84298","title":"韩林炭烤 市百一店","lon":"121.474632054","lat":"31.234972793","category":"96","category_name":"韩国料理","address":"黄浦区南京东路800号市百一店北楼5楼(近西藏中路)"},{"poiid":"B2094752D669A6FD429E","title":"西贝西北菜","lon":"121.475074","lat":"31.234573","category":"247","category_name":"餐饮美食","address":"南京东路东方商厦"},{"poiid":"B2094757DB69AAFD409C","title":"善知鸟日本创作料理","lon":"121.474278","lat":"31.235902","category":"95","category_name":"日本料理","address":"黄浦区西藏中路500号思源商厦6A(近凤阳路)"},{"poiid":"B2094757D068ABFB439C","title":"来富士","lon":"121.474963738","lat":"31.2354534114","category":"247","category_name":"餐饮美食","address":"上海市黄浦区温州路"},{"poiid":"B2094655D26BA3F84798","title":"味千拉面新世界店","lon":"121.474","lat":"31.2348","category":"95","category_name":"日本料理","address":"黄浦区南京西路2-68号新世界城2楼(近西藏中路)"},{"poiid":"B2094757D06FA3FB469D","title":"789新概念火锅料理(新世界店)","lon":"121.47441","lat":"31.23462","category":"86","category_name":"火锅店","address":"黄浦区南京西路2-88号新世界城4楼(近西藏中路)"},{"poiid":"B2094752D46CA1F5409A","title":"三宝粥铺","lon":"121.474482","lat":"31.235848","category":"247","category_name":"餐饮美食","address":"第一百货8楼"},{"poiid":"B2094654DB69A0FA4698","title":"许留山(南京东路店)","lon":"121.4754","lat":"31.23506","category":"67","category_name":"甜品店","address":"黄浦区南京东路800号东方商厦2楼(近西藏中路)"},{"poiid":"B2094750D66BAAF54298","title":"猫屎咖啡(雅居乐国际广场店)","lon":"121.474","lat":"31.2358","category":"260","category_name":"其他","address":"黄浦区西藏中路525号雅居乐国际广场1楼"},{"poiid":"B2094757D068A0F5409B","title":"一茶一座(市百一店)","lon":"121.47438373","lat":"31.23542141","category":"47","category_name":"住宅区","address":"上海市黄浦区南京东路830号3楼"},{"poiid":"B2094757D06FAAFD4193","title":"蜀菜行家(南京东路市百一店)","lon":"121.4752","lat":"31.23464","category":"71","category_name":"四川菜","address":"黄浦区南京东路830号第一百货商店新楼5楼(近西藏中路)"},{"poiid":"B2094753D26BAAF8439F","title":"白木屋","lon":"121.475601","lat":"31.234787","category":"500","category_name":"未知分类","address":"上海市 南京东路百联世贸"},{"poiid":"B2094757D06FA5FD429F","title":"吉野家（南京路店）","lon":"121.474799","lat":"31.234774","category":"500","category_name":"未知分类","address":"上海南京路步行街"},{"poiid":"B2094753D16EAAFC469A","title":"鱼酷活鱼现烤(东方商厦店)","lon":"121.47535","lat":"31.23522","category":"71","category_name":"四川菜","address":"黄浦区南京东路800号东方商厦9楼(近西藏东路)"},{"poiid":"B2094750D26BA2F84093","title":"太兴茶餐厅","lon":"121.474784","lat":"31.234413","category":"500","category_name":"未知分类","address":"来福士"},{"poiid":"B2094654DB69A5FE469E","title":"肯德基 KFC (新世界店)","lon":"121.47395","lat":"31.23484","category":"68","category_name":"快餐厅","address":"黄浦区南京西路2-68号新世纪城B1楼(近西藏中路)"},{"poiid":"B2094757D56DA4FD459A","title":"仙芋鲜旗舰店","lon":"121.475138","lat":"31.234816","category":"247","category_name":"餐饮美食","address":"福州路558号"},{"poiid":"B2094753D66FA4F54799","title":"年代秀饭堂","lon":"121.474713","lat":"31.234527","category":"247","category_name":"餐饮美食","address":"上海市 黄浦区西藏中路雅居乐国际广场"},{"poiid":"B2094757D06BA2F8409E","title":"大城日本料理","lon":"121.47448073","lat":"31.23542741","category":"500","category_name":"未知分类","address":"上海第一百货6楼"}]