[{"poiid":"B2094757D068A7F9469D","title":"联怡枇杷生态园","lon":"121.13281267","lat":"31.13237601","category":"500","category_name":"未知分类","address":"上海ShanghaiQingpuHuyu Expressway Exit"},{"poiid":"B2094654DA6BA4FF419D","title":"凯博休闲农庄","lon":"121.12996","lat":"31.12377","category":"248","category_name":"生活娱乐","address":"外青松公路7188号近沪青平公路"},{"poiid":"B2094757D06FA7FC489F","title":"福寿园","lon":"121.131284073","lat":"31.1121971078","category":"47","category_name":"住宅区","address":"上海近郊青浦区外青松公路7270号"},{"poiid":"B2094654DB6AA0FE419E","title":"上海市青浦区图书馆","lon":"121.13671","lat":"31.14783","category":"181","category_name":"图书馆","address":"青浦区青龙路60号(华浦南路青龙路)"},{"poiid":"B2094757D068A4F5419A","title":"帕缇欧香苑","lon":"121.1250559","lat":"31.141070094","category":"252","category_name":"楼宇机构","address":"上海青浦区外青松公路6666弄"},{"poiid":"B2094757D664A1F84893","title":"海港一号","lon":"121.132756054","lat":"31.146040793","category":"76","category_name":"上海菜","address":"青浦区华青南路177弄58号(近青湖路)"},{"poiid":"B2094757D16CAAF94199","title":"澳京豆捞","lon":"121.135293671","lat":"31.1478073198","category":"86","category_name":"火锅店","address":"青浦区华青南路800弄1号(近青浦图书馆)"},{"poiid":"B2094655D36DA6FF499C","title":"上海青浦影城","lon":"121.11842","lat":"31.13721","category":"178","category_name":"电影院","address":"上海市青浦区沪青平公路5669弄(金域广场)63栋22号"},{"poiid":"B2094757D06BA1FA419F","title":"琵琶园农家乐","lon":"121.134522671","lat":"31.1320980049","category":"75","category_name":"浙江菜","address":"上海外青松公路7166号"},{"poiid":"B2094757D069A2F5489D","title":"G50沪渝高速青浦城区收费站","lon":"121.124441394","lat":"31.130823627","category":"267","category_name":"收费站","address":"上海G50沪渝高速青浦城区收费站"},{"poiid":"B2094757D06BA3FF479E","title":"仁恒运杰河滨花苑","lon":"121.12885939","lat":"31.140946384","category":"252","category_name":"楼宇机构","address":"上海青浦区外青松公路6999弄"},{"poiid":"B2094757D16DABF9489C","title":"仁恒运杰河滨花园","lon":"121.136","lat":"31.1474","category":"252","category_name":"楼宇机构","address":"上海市浦东新区锦和路99弄"},{"poiid":"B2094757D06BA0F8409D","title":"巴黎no.88 bar","lon":"121.13347347","lat":"31.146377457","category":"500","category_name":"未知分类","address":"上海青浦区华青南路511号(巴黎之夜楼上)"},{"poiid":"B2094655D36CA5FF4392","title":"城中东路保安路","lon":"121.12422","lat":"31.14644","category":"38","category_name":"公交车站","address":""},{"poiid":"B2094654DA6BABF94593","title":"运杰城市花园(华青南路)","lon":"121.13467","lat":"31.14449","category":"47","category_name":"住宅区","address":"上海市宝山区聚丰园路303号"},{"poiid":"B2094750D568A0F94392","title":"香港纯Kparyt","lon":"121.126731","lat":"31.146087","category":"170","category_name":"KTV","address":"青浦区青湖路晨兴国际"},{"poiid":"B2094757D064A7F4409D","title":"蓝山咖啡(青浦店)","lon":"121.1367","lat":"31.14814","category":"65","category_name":"咖啡厅","address":"青浦区华青南路800弄1-3号(华浦南路青龙路)"},{"poiid":"B2094757D16FABFB4798","title":"小木屋农家菜","lon":"121.124215671","lat":"31.131902901","category":"76","category_name":"上海菜","address":"青浦区外青松公路6666弄68-69号(近热浪健身俱乐部)"},{"poiid":"B2094654DA6BABFB459C","title":"夏阳湖国际花园","lon":"121.13573","lat":"31.146868","category":"47","category_name":"住宅区","address":"上海市青浦区青湖路800弄"},{"poiid":"B2094750D664A6FB4392","title":"张家湾生态园","lon":"121.13","lat":"31.1233","category":"87","category_name":"特色／地方风味餐厅","address":"青浦区外青松公路7188号张家湾生态园内"},{"poiid":"B2094757D56EA0F44198","title":"车水马廷","lon":"121.1253619","lat":"31.13135855","category":"76","category_name":"上海菜","address":"青浦区外青松公路6677号(近福寿园)"},{"poiid":"B2094757D66AA0F54898","title":"丑小鸭家常菜馆","lon":"121.12565","lat":"31.12875","category":"76","category_name":"上海菜","address":"青浦区青松路7199号一区12-16号(近福寿园)"},{"poiid":"B2094757D568A7FD4898","title":"轩和坊","lon":"121.1264411","lat":"31.132295","category":"46","category_name":"楼宇","address":"朱家角镇新风路185弄"},{"poiid":"B2094757D16CA2F44898","title":"上海市第三劳动教养管理所","lon":"121.146984864","lat":"31.1233796078","category":"500","category_name":"未知分类","address":"上海青浦区庆丰路1号"},{"poiid":"B2094752D26FABF84593","title":"巴黎纯K量贩式KTV","lon":"121.134186","lat":"31.146301","category":"170","category_name":"KTV","address":"上海市青浦区华青南路511号"},{"poiid":"B2094757D16DAAFF419E","title":"青浦热浪游泳健身会所","lon":"121.12440467","lat":"31.141178186","category":"500","category_name":"未知分类","address":"青浦区外青松公路6666号(近沪青平公路)"},{"poiid":"B2094654DA6BABFA409D","title":"梦丹苑","lon":"121.13171","lat":"31.146254","category":"47","category_name":"住宅区","address":"青湖路4625弄"},{"poiid":"B2094752D665A2FE499F","title":"青浦区实验中学（东校区）","lon":"121.137035","lat":"31.138983","category":"55","category_name":"中学","address":"青浦区华青南路九十八弄28号"},{"poiid":"B2094654DA6BA5F94393","title":"青浦东方中学","lon":"121.12189","lat":"31.14408","category":"55","category_name":"中学","address":"上海青浦区浦仓路88号"},{"poiid":"B2094753D768A2FF4299","title":"上井精致料理","lon":"121.130928","lat":"31.14208","category":"247","category_name":"餐饮美食","address":"上海市 青浦区华青南路"},{"poiid":"B2094655D264A4F9489A","title":"G50青浦城区收费站","lon":"121.12445","lat":"31.13151","category":"267","category_name":"收费站","address":""},{"poiid":"B2094757D568A7F5449C","title":"全驴馆","lon":"121.129342","lat":"31.125371","category":"260","category_name":"其他","address":"青浦区外青松公路7199号18-20号"},{"poiid":"B2094750D66AA4F8409F","title":"上海市青浦监狱","lon":"121.138511","lat":"31.121097","category":"608","category_name":"法院","address":"青浦区外青松公路7405号"},{"poiid":"B2094757D064A4FE489B","title":"上岛咖啡(青湖路店)","lon":"121.134193571","lat":"31.1456604768","category":"65","category_name":"咖啡厅","address":"青浦区青湖路879号(近华青南路)"},{"poiid":"B2094757D46AA4F94699","title":"太麻里台湾私房牛肉面馆 青湖店","lon":"121.133558","lat":"31.145971","category":"91","category_name":"台湾菜","address":"青浦区青湖路914号"},{"poiid":"B2094757D16FA5F8429E","title":"金色淡水","lon":"121.131923071","lat":"31.1441594467","category":"68","category_name":"快餐厅","address":"青浦区青峰路71号(新华骥苑对面)"},{"poiid":"B2094757D16DA1F44699","title":"莱欧发型","lon":"121.138438521","lat":"31.1401526464","category":"148","category_name":"美容美发店","address":"闵行区青浦区公园路351号(欧洲路口)"},{"poiid":"B2094757D064A1FD4798","title":"运杰城市花园","lon":"121.136759041","lat":"31.1439934034","category":"252","category_name":"楼宇机构","address":"上海市宝山区聚丰园路303号"},{"poiid":"B2094654DA6BA5FB449B","title":"上海市公安局青浦分局交通警察支队","lon":"121.11951","lat":"31.13749","category":"250","category_name":"公园户外","address":"沪青平公路5540"},{"poiid":"B2094654DA6BA4FB459B","title":"多味坊土菜馆","lon":"121.13249","lat":"31.14557","category":"257","category_name":"中餐厅","address":"青浦区青湖路945号"},{"poiid":"B2094757D064A6F9469E","title":"G50沪渝高速金泽收费站","lon":"121.124253","lat":"31.131357","category":"267","category_name":"收费站","address":"上海G50沪渝高速金泽收费站"},{"poiid":"B2094751D56CA1F8419F","title":"Ms Chen's Restaurant & Bar","lon":"121.12579","lat":"31.14401","category":"172","category_name":"酒吧","address":"青浦区外青松公路6666弄16号帕缇欧香小区内"},{"poiid":"B2094757D568A4FB4998","title":"巴黎之夜","lon":"121.13402018","lat":"31.14663628","category":"170","category_name":"KTV","address":"青浦区华青南路511号(近青湖路)"},{"poiid":"B2094757D16EA5FD4592","title":"西岑","lon":"121.1244","lat":"31.131441","category":"500","category_name":"未知分类","address":"上海A9公路"},{"poiid":"B2094757D16EA5FC4493","title":"吉祥馄饨(青湖路店)","lon":"121.1334247","lat":"31.1457509","category":"68","category_name":"快餐厅","address":"青浦区青湖路917号"},{"poiid":"B2094654DA6BA5FB4499","title":"上海大众汽车青浦销售服务有限公司","lon":"121.12095","lat":"31.13812","category":"159","category_name":"汽车维修","address":"青浦区沪青平公路5528号"},{"poiid":"B2094654DA6BABF9469C","title":"华骥小区1号门","lon":"121.13148","lat":"31.14469","category":"47","category_name":"住宅区","address":"青浦镇"},{"poiid":"B2094757D66CA7F9409F","title":"青浦区实验小学东部(豫英学校)","lon":"121.137971671","lat":"31.1443182499","category":"500","category_name":"未知分类","address":"上海市青浦区青湖路459号"},{"poiid":"B2094750D565A5F4479B","title":"宝燕海鲜酒楼","lon":"121.13417","lat":"31.146339","category":"247","category_name":"餐饮美食","address":"青浦区华青南路505号(清湖路口)"},{"poiid":"B2094751D56CAAFA4992","title":"小阁楼(青湖路店)","lon":"121.13161","lat":"31.14554","category":"71","category_name":"四川菜","address":"青浦区青湖路975号(近外青松公路)"},{"poiid":"B2094757D068A7F9469D","title":"联怡枇杷生态园","lon":"121.13281267","lat":"31.13237601","category":"500","category_name":"未知分类","address":"上海ShanghaiQingpuHuyu Expressway Exit"},{"poiid":"B2094654DA6BA4FF419D","title":"凯博休闲农庄","lon":"121.12996","lat":"31.12377","category":"248","category_name":"生活娱乐","address":"外青松公路7188号近沪青平公路"},{"poiid":"B2094757D06FA7FC489F","title":"福寿园","lon":"121.131284073","lat":"31.1121971078","category":"47","category_name":"住宅区","address":"上海近郊青浦区外青松公路7270号"},{"poiid":"B2094654DB6AA0FE419E","title":"上海市青浦区图书馆","lon":"121.13671","lat":"31.14783","category":"181","category_name":"图书馆","address":"青浦区青龙路60号(华浦南路青龙路)"},{"poiid":"B2094757D068A4F5419A","title":"帕缇欧香苑","lon":"121.1250559","lat":"31.141070094","category":"252","category_name":"楼宇机构","address":"上海青浦区外青松公路6666弄"},{"poiid":"B2094757D664A1F84893","title":"海港一号","lon":"121.132756054","lat":"31.146040793","category":"76","category_name":"上海菜","address":"青浦区华青南路177弄58号(近青湖路)"},{"poiid":"B2094757D16CAAF94199","title":"澳京豆捞","lon":"121.135293671","lat":"31.1478073198","category":"86","category_name":"火锅店","address":"青浦区华青南路800弄1号(近青浦图书馆)"},{"poiid":"B2094655D36DA6FF499C","title":"上海青浦影城","lon":"121.11842","lat":"31.13721","category":"178","category_name":"电影院","address":"上海市青浦区沪青平公路5669弄(金域广场)63栋22号"},{"poiid":"B2094757D06BA1FA419F","title":"琵琶园农家乐","lon":"121.134522671","lat":"31.1320980049","category":"75","category_name":"浙江菜","address":"上海外青松公路7166号"},{"poiid":"B2094757D069A2F5489D","title":"G50沪渝高速青浦城区收费站","lon":"121.124441394","lat":"31.130823627","category":"267","category_name":"收费站","address":"上海G50沪渝高速青浦城区收费站"},{"poiid":"B2094757D06BA3FF479E","title":"仁恒运杰河滨花苑","lon":"121.12885939","lat":"31.140946384","category":"252","category_name":"楼宇机构","address":"上海青浦区外青松公路6999弄"},{"poiid":"B2094757D16DABF9489C","title":"仁恒运杰河滨花园","lon":"121.136","lat":"31.1474","category":"252","category_name":"楼宇机构","address":"上海市浦东新区锦和路99弄"},{"poiid":"B2094757D06BA0F8409D","title":"巴黎no.88 bar","lon":"121.13347347","lat":"31.146377457","category":"500","category_name":"未知分类","address":"上海青浦区华青南路511号(巴黎之夜楼上)"},{"poiid":"B2094655D36CA5FF4392","title":"城中东路保安路","lon":"121.12422","lat":"31.14644","category":"38","category_name":"公交车站","address":""},{"poiid":"B2094654DA6BABF94593","title":"运杰城市花园(华青南路)","lon":"121.13467","lat":"31.14449","category":"47","category_name":"住宅区","address":"上海市宝山区聚丰园路303号"},{"poiid":"B2094750D568A0F94392","title":"香港纯Kparyt","lon":"121.126731","lat":"31.146087","category":"170","category_name":"KTV","address":"青浦区青湖路晨兴国际"},{"poiid":"B2094757D064A7F4409D","title":"蓝山咖啡(青浦店)","lon":"121.1367","lat":"31.14814","category":"65","category_name":"咖啡厅","address":"青浦区华青南路800弄1-3号(华浦南路青龙路)"},{"poiid":"B2094757D16FABFB4798","title":"小木屋农家菜","lon":"121.124215671","lat":"31.131902901","category":"76","category_name":"上海菜","address":"青浦区外青松公路6666弄68-69号(近热浪健身俱乐部)"},{"poiid":"B2094654DA6BABFB459C","title":"夏阳湖国际花园","lon":"121.13573","lat":"31.146868","category":"47","category_name":"住宅区","address":"上海市青浦区青湖路800弄"},{"poiid":"B2094750D664A6FB4392","title":"张家湾生态园","lon":"121.13","lat":"31.1233","category":"87","category_name":"特色／地方风味餐厅","address":"青浦区外青松公路7188号张家湾生态园内"},{"poiid":"B2094757D56EA0F44198","title":"车水马廷","lon":"121.1253619","lat":"31.13135855","category":"76","category_name":"上海菜","address":"青浦区外青松公路6677号(近福寿园)"},{"poiid":"B2094757D66AA0F54898","title":"丑小鸭家常菜馆","lon":"121.12565","lat":"31.12875","category":"76","category_name":"上海菜","address":"青浦区青松路7199号一区12-16号(近福寿园)"},{"poiid":"B2094757D568A7FD4898","title":"轩和坊","lon":"121.1264411","lat":"31.132295","category":"46","category_name":"楼宇","address":"朱家角镇新风路185弄"},{"poiid":"B2094757D16CA2F44898","title":"上海市第三劳动教养管理所","lon":"121.146984864","lat":"31.1233796078","category":"500","category_name":"未知分类","address":"上海青浦区庆丰路1号"},{"poiid":"B2094752D26FABF84593","title":"巴黎纯K量贩式KTV","lon":"121.134186","lat":"31.146301","category":"170","category_name":"KTV","address":"上海市青浦区华青南路511号"},{"poiid":"B2094757D16DAAFF419E","title":"青浦热浪游泳健身会所","lon":"121.12440467","lat":"31.141178186","category":"500","category_name":"未知分类","address":"青浦区外青松公路6666号(近沪青平公路)"},{"poiid":"B2094654DA6BABFA409D","title":"梦丹苑","lon":"121.13171","lat":"31.146254","category":"47","category_name":"住宅区","address":"青湖路4625弄"},{"poiid":"B2094752D665A2FE499F","title":"青浦区实验中学（东校区）","lon":"121.137035","lat":"31.138983","category":"55","category_name":"中学","address":"青浦区华青南路九十八弄28号"},{"poiid":"B2094654DA6BA5F94393","title":"青浦东方中学","lon":"121.12189","lat":"31.14408","category":"55","category_name":"中学","address":"上海青浦区浦仓路88号"},{"poiid":"B2094753D768A2FF4299","title":"上井精致料理","lon":"121.130928","lat":"31.14208","category":"247","category_name":"餐饮美食","address":"上海市 青浦区华青南路"},{"poiid":"B2094655D264A4F9489A","title":"G50青浦城区收费站","lon":"121.12445","lat":"31.13151","category":"267","category_name":"收费站","address":""},{"poiid":"B2094757D568A7F5449C","title":"全驴馆","lon":"121.129342","lat":"31.125371","category":"260","category_name":"其他","address":"青浦区外青松公路7199号18-20号"},{"poiid":"B2094750D66AA4F8409F","title":"上海市青浦监狱","lon":"121.138511","lat":"31.121097","category":"608","category_name":"法院","address":"青浦区外青松公路7405号"},{"poiid":"B2094757D064A4FE489B","title":"上岛咖啡(青湖路店)","lon":"121.134193571","lat":"31.1456604768","category":"65","category_name":"咖啡厅","address":"青浦区青湖路879号(近华青南路)"},{"poiid":"B2094757D46AA4F94699","title":"太麻里台湾私房牛肉面馆 青湖店","lon":"121.133558","lat":"31.145971","category":"91","category_name":"台湾菜","address":"青浦区青湖路914号"},{"poiid":"B2094757D16FA5F8429E","title":"金色淡水","lon":"121.131923071","lat":"31.1441594467","category":"68","category_name":"快餐厅","address":"青浦区青峰路71号(新华骥苑对面)"},{"poiid":"B2094757D16DA1F44699","title":"莱欧发型","lon":"121.138438521","lat":"31.1401526464","category":"148","category_name":"美容美发店","address":"闵行区青浦区公园路351号(欧洲路口)"},{"poiid":"B2094757D064A1FD4798","title":"运杰城市花园","lon":"121.136759041","lat":"31.1439934034","category":"252","category_name":"楼宇机构","address":"上海市宝山区聚丰园路303号"},{"poiid":"B2094654DA6BA5FB449B","title":"上海市公安局青浦分局交通警察支队","lon":"121.11951","lat":"31.13749","category":"250","category_name":"公园户外","address":"沪青平公路5540"},{"poiid":"B2094654DA6BA4FB459B","title":"多味坊土菜馆","lon":"121.13249","lat":"31.14557","category":"257","category_name":"中餐厅","address":"青浦区青湖路945号"},{"poiid":"B2094757D064A6F9469E","title":"G50沪渝高速金泽收费站","lon":"121.124253","lat":"31.131357","category":"267","category_name":"收费站","address":"上海G50沪渝高速金泽收费站"},{"poiid":"B2094751D56CA1F8419F","title":"Ms Chen's Restaurant & Bar","lon":"121.12579","lat":"31.14401","category":"172","category_name":"酒吧","address":"青浦区外青松公路6666弄16号帕缇欧香小区内"},{"poiid":"B2094757D568A4FB4998","title":"巴黎之夜","lon":"121.13402018","lat":"31.14663628","category":"170","category_name":"KTV","address":"青浦区华青南路511号(近青湖路)"},{"poiid":"B2094757D16EA5FD4592","title":"西岑","lon":"121.1244","lat":"31.131441","category":"500","category_name":"未知分类","address":"上海A9公路"},{"poiid":"B2094757D16EA5FC4493","title":"吉祥馄饨(青湖路店)","lon":"121.1334247","lat":"31.1457509","category":"68","category_name":"快餐厅","address":"青浦区青湖路917号"},{"poiid":"B2094654DA6BA5FB4499","title":"上海大众汽车青浦销售服务有限公司","lon":"121.12095","lat":"31.13812","category":"159","category_name":"汽车维修","address":"青浦区沪青平公路5528号"},{"poiid":"B2094654DA6BABF9469C","title":"华骥小区1号门","lon":"121.13148","lat":"31.14469","category":"47","category_name":"住宅区","address":"青浦镇"},{"poiid":"B2094757D66CA7F9409F","title":"青浦区实验小学东部(豫英学校)","lon":"121.137971671","lat":"31.1443182499","category":"500","category_name":"未知分类","address":"上海市青浦区青湖路459号"},{"poiid":"B2094750D565A5F4479B","title":"宝燕海鲜酒楼","lon":"121.13417","lat":"31.146339","category":"247","category_name":"餐饮美食","address":"青浦区华青南路505号(清湖路口)"},{"poiid":"B2094751D56CAAFA4992","title":"小阁楼(青湖路店)","lon":"121.13161","lat":"31.14554","category":"71","category_name":"四川菜","address":"青浦区青湖路975号(近外青松公路)"},{"poiid":"B2094757D068A7F9469D","title":"联怡枇杷生态园","lon":"121.13281267","lat":"31.13237601","category":"500","category_name":"未知分类","address":"上海ShanghaiQingpuHuyu Expressway Exit"},{"poiid":"B2094654DA6BA4FF419D","title":"凯博休闲农庄","lon":"121.12996","lat":"31.12377","category":"248","category_name":"生活娱乐","address":"外青松公路7188号近沪青平公路"},{"poiid":"B2094757D06FA7FC489F","title":"福寿园","lon":"121.131284073","lat":"31.1121971078","category":"47","category_name":"住宅区","address":"上海近郊青浦区外青松公路7270号"},{"poiid":"B2094654DB6AA0FE419E","title":"上海市青浦区图书馆","lon":"121.13671","lat":"31.14783","category":"181","category_name":"图书馆","address":"青浦区青龙路60号(华浦南路青龙路)"},{"poiid":"B2094757D068A4F5419A","title":"帕缇欧香苑","lon":"121.1250559","lat":"31.141070094","category":"252","category_name":"楼宇机构","address":"上海青浦区外青松公路6666弄"},{"poiid":"B2094757D664A1F84893","title":"海港一号","lon":"121.132756054","lat":"31.146040793","category":"76","category_name":"上海菜","address":"青浦区华青南路177弄58号(近青湖路)"},{"poiid":"B2094757D16CAAF94199","title":"澳京豆捞","lon":"121.135293671","lat":"31.1478073198","category":"86","category_name":"火锅店","address":"青浦区华青南路800弄1号(近青浦图书馆)"},{"poiid":"B2094655D36DA6FF499C","title":"上海青浦影城","lon":"121.11842","lat":"31.13721","category":"178","category_name":"电影院","address":"上海市青浦区沪青平公路5669弄(金域广场)63栋22号"},{"poiid":"B2094757D06BA1FA419F","title":"琵琶园农家乐","lon":"121.134522671","lat":"31.1320980049","category":"75","category_name":"浙江菜","address":"上海外青松公路7166号"},{"poiid":"B2094757D069A2F5489D","title":"G50沪渝高速青浦城区收费站","lon":"121.124441394","lat":"31.130823627","category":"267","category_name":"收费站","address":"上海G50沪渝高速青浦城区收费站"},{"poiid":"B2094757D06BA3FF479E","title":"仁恒运杰河滨花苑","lon":"121.12885939","lat":"31.140946384","category":"252","category_name":"楼宇机构","address":"上海青浦区外青松公路6999弄"},{"poiid":"B2094757D16DABF9489C","title":"仁恒运杰河滨花园","lon":"121.136","lat":"31.1474","category":"252","category_name":"楼宇机构","address":"上海市浦东新区锦和路99弄"},{"poiid":"B2094757D06BA0F8409D","title":"巴黎no.88 bar","lon":"121.13347347","lat":"31.146377457","category":"500","category_name":"未知分类","address":"上海青浦区华青南路511号(巴黎之夜楼上)"},{"poiid":"B2094655D36CA5FF4392","title":"城中东路保安路","lon":"121.12422","lat":"31.14644","category":"38","category_name":"公交车站","address":""},{"poiid":"B2094654DA6BABF94593","title":"运杰城市花园(华青南路)","lon":"121.13467","lat":"31.14449","category":"47","category_name":"住宅区","address":"上海市宝山区聚丰园路303号"},{"poiid":"B2094750D568A0F94392","title":"香港纯Kparyt","lon":"121.126731","lat":"31.146087","category":"170","category_name":"KTV","address":"青浦区青湖路晨兴国际"},{"poiid":"B2094757D064A7F4409D","title":"蓝山咖啡(青浦店)","lon":"121.1367","lat":"31.14814","category":"65","category_name":"咖啡厅","address":"青浦区华青南路800弄1-3号(华浦南路青龙路)"},{"poiid":"B2094757D16FABFB4798","title":"小木屋农家菜","lon":"121.124215671","lat":"31.131902901","category":"76","category_name":"上海菜","address":"青浦区外青松公路6666弄68-69号(近热浪健身俱乐部)"},{"poiid":"B2094654DA6BABFB459C","title":"夏阳湖国际花园","lon":"121.13573","lat":"31.146868","category":"47","category_name":"住宅区","address":"上海市青浦区青湖路800弄"},{"poiid":"B2094750D664A6FB4392","title":"张家湾生态园","lon":"121.13","lat":"31.1233","category":"87","category_name":"特色／地方风味餐厅","address":"青浦区外青松公路7188号张家湾生态园内"},{"poiid":"B2094757D56EA0F44198","title":"车水马廷","lon":"121.1253619","lat":"31.13135855","category":"76","category_name":"上海菜","address":"青浦区外青松公路6677号(近福寿园)"},{"poiid":"B2094757D66AA0F54898","title":"丑小鸭家常菜馆","lon":"121.12565","lat":"31.12875","category":"76","category_name":"上海菜","address":"青浦区青松路7199号一区12-16号(近福寿园)"},{"poiid":"B2094757D568A7FD4898","title":"轩和坊","lon":"121.1264411","lat":"31.132295","category":"46","category_name":"楼宇","address":"朱家角镇新风路185弄"},{"poiid":"B2094757D16CA2F44898","title":"上海市第三劳动教养管理所","lon":"121.146984864","lat":"31.1233796078","category":"500","category_name":"未知分类","address":"上海青浦区庆丰路1号"},{"poiid":"B2094752D26FABF84593","title":"巴黎纯K量贩式KTV","lon":"121.134186","lat":"31.146301","category":"170","category_name":"KTV","address":"上海市青浦区华青南路511号"},{"poiid":"B2094757D16DAAFF419E","title":"青浦热浪游泳健身会所","lon":"121.12440467","lat":"31.141178186","category":"500","category_name":"未知分类","address":"青浦区外青松公路6666号(近沪青平公路)"},{"poiid":"B2094654DA6BABFA409D","title":"梦丹苑","lon":"121.13171","lat":"31.146254","category":"47","category_name":"住宅区","address":"青湖路4625弄"},{"poiid":"B2094752D665A2FE499F","title":"青浦区实验中学（东校区）","lon":"121.137035","lat":"31.138983","category":"55","category_name":"中学","address":"青浦区华青南路九十八弄28号"},{"poiid":"B2094654DA6BA5F94393","title":"青浦东方中学","lon":"121.12189","lat":"31.14408","category":"55","category_name":"中学","address":"上海青浦区浦仓路88号"},{"poiid":"B2094753D768A2FF4299","title":"上井精致料理","lon":"121.130928","lat":"31.14208","category":"247","category_name":"餐饮美食","address":"上海市 青浦区华青南路"},{"poiid":"B2094655D264A4F9489A","title":"G50青浦城区收费站","lon":"121.12445","lat":"31.13151","category":"267","category_name":"收费站","address":""},{"poiid":"B2094757D568A7F5449C","title":"全驴馆","lon":"121.129342","lat":"31.125371","category":"260","category_name":"其他","address":"青浦区外青松公路7199号18-20号"},{"poiid":"B2094750D66AA4F8409F","title":"上海市青浦监狱","lon":"121.138511","lat":"31.121097","category":"608","category_name":"法院","address":"青浦区外青松公路7405号"},{"poiid":"B2094757D064A4FE489B","title":"上岛咖啡(青湖路店)","lon":"121.134193571","lat":"31.1456604768","category":"65","category_name":"咖啡厅","address":"青浦区青湖路879号(近华青南路)"},{"poiid":"B2094757D46AA4F94699","title":"太麻里台湾私房牛肉面馆 青湖店","lon":"121.133558","lat":"31.145971","category":"91","category_name":"台湾菜","address":"青浦区青湖路914号"},{"poiid":"B2094757D16FA5F8429E","title":"金色淡水","lon":"121.131923071","lat":"31.1441594467","category":"68","category_name":"快餐厅","address":"青浦区青峰路71号(新华骥苑对面)"},{"poiid":"B2094757D16DA1F44699","title":"莱欧发型","lon":"121.138438521","lat":"31.1401526464","category":"148","category_name":"美容美发店","address":"闵行区青浦区公园路351号(欧洲路口)"},{"poiid":"B2094757D064A1FD4798","title":"运杰城市花园","lon":"121.136759041","lat":"31.1439934034","category":"252","category_name":"楼宇机构","address":"上海市宝山区聚丰园路303号"},{"poiid":"B2094654DA6BA5FB449B","title":"上海市公安局青浦分局交通警察支队","lon":"121.11951","lat":"31.13749","category":"250","category_name":"公园户外","address":"沪青平公路5540"},{"poiid":"B2094654DA6BA4FB459B","title":"多味坊土菜馆","lon":"121.13249","lat":"31.14557","category":"257","category_name":"中餐厅","address":"青浦区青湖路945号"},{"poiid":"B2094757D064A6F9469E","title":"G50沪渝高速金泽收费站","lon":"121.124253","lat":"31.131357","category":"267","category_name":"收费站","address":"上海G50沪渝高速金泽收费站"},{"poiid":"B2094751D56CA1F8419F","title":"Ms Chen's Restaurant & Bar","lon":"121.12579","lat":"31.14401","category":"172","category_name":"酒吧","address":"青浦区外青松公路6666弄16号帕缇欧香小区内"},{"poiid":"B2094757D568A4FB4998","title":"巴黎之夜","lon":"121.13402018","lat":"31.14663628","category":"170","category_name":"KTV","address":"青浦区华青南路511号(近青湖路)"},{"poiid":"B2094757D16EA5FD4592","title":"西岑","lon":"121.1244","lat":"31.131441","category":"500","category_name":"未知分类","address":"上海A9公路"},{"poiid":"B2094757D16EA5FC4493","title":"吉祥馄饨(青湖路店)","lon":"121.1334247","lat":"31.1457509","category":"68","category_name":"快餐厅","address":"青浦区青湖路917号"},{"poiid":"B2094654DA6BA5FB4499","title":"上海大众汽车青浦销售服务有限公司","lon":"121.12095","lat":"31.13812","category":"159","category_name":"汽车维修","address":"青浦区沪青平公路5528号"},{"poiid":"B2094654DA6BABF9469C","title":"华骥小区1号门","lon":"121.13148","lat":"31.14469","category":"47","category_name":"住宅区","address":"青浦镇"},{"poiid":"B2094757D66CA7F9409F","title":"青浦区实验小学东部(豫英学校)","lon":"121.137971671","lat":"31.1443182499","category":"500","category_name":"未知分类","address":"上海市青浦区青湖路459号"},{"poiid":"B2094750D565A5F4479B","title":"宝燕海鲜酒楼","lon":"121.13417","lat":"31.146339","category":"247","category_name":"餐饮美食","address":"青浦区华青南路505号(清湖路口)"},{"poiid":"B2094751D56CAAFA4992","title":"小阁楼(青湖路店)","lon":"121.13161","lat":"31.14554","category":"71","category_name":"四川菜","address":"青浦区青湖路975号(近外青松公路)"},{"poiid":"B2094757D068A7F9469D","title":"联怡枇杷生态园","lon":"121.13281267","lat":"31.13237601","category":"500","category_name":"未知分类","address":"上海ShanghaiQingpuHuyu Expressway Exit"},{"poiid":"B2094654DA6BA4FF419D","title":"凯博休闲农庄","lon":"121.12996","lat":"31.12377","category":"248","category_name":"生活娱乐","address":"外青松公路7188号近沪青平公路"},{"poiid":"B2094757D06FA7FC489F","title":"福寿园","lon":"121.131284073","lat":"31.1121971078","category":"47","category_name":"住宅区","address":"上海近郊青浦区外青松公路7270号"},{"poiid":"B2094654DB6AA0FE419E","title":"上海市青浦区图书馆","lon":"121.13671","lat":"31.14783","category":"181","category_name":"图书馆","address":"青浦区青龙路60号(华浦南路青龙路)"},{"poiid":"B2094757D068A4F5419A","title":"帕缇欧香苑","lon":"121.1250559","lat":"31.141070094","category":"252","category_name":"楼宇机构","address":"上海青浦区外青松公路6666弄"},{"poiid":"B2094757D664A1F84893","title":"海港一号","lon":"121.132756054","lat":"31.146040793","category":"76","category_name":"上海菜","address":"青浦区华青南路177弄58号(近青湖路)"},{"poiid":"B2094757D16CAAF94199","title":"澳京豆捞","lon":"121.135293671","lat":"31.1478073198","category":"86","category_name":"火锅店","address":"青浦区华青南路800弄1号(近青浦图书馆)"},{"poiid":"B2094655D36DA6FF499C","title":"上海青浦影城","lon":"121.11842","lat":"31.13721","category":"178","category_name":"电影院","address":"上海市青浦区沪青平公路5669弄(金域广场)63栋22号"},{"poiid":"B2094757D06BA1FA419F","title":"琵琶园农家乐","lon":"121.134522671","lat":"31.1320980049","category":"75","category_name":"浙江菜","address":"上海外青松公路7166号"},{"poiid":"B2094757D069A2F5489D","title":"G50沪渝高速青浦城区收费站","lon":"121.124441394","lat":"31.130823627","category":"267","category_name":"收费站","address":"上海G50沪渝高速青浦城区收费站"},{"poiid":"B2094757D06BA3FF479E","title":"仁恒运杰河滨花苑","lon":"121.12885939","lat":"31.140946384","category":"252","category_name":"楼宇机构","address":"上海青浦区外青松公路6999弄"},{"poiid":"B2094757D16DABF9489C","title":"仁恒运杰河滨花园","lon":"121.136","lat":"31.1474","category":"252","category_name":"楼宇机构","address":"上海市浦东新区锦和路99弄"},{"poiid":"B2094757D06BA0F8409D","title":"巴黎no.88 bar","lon":"121.13347347","lat":"31.146377457","category":"500","category_name":"未知分类","address":"上海青浦区华青南路511号(巴黎之夜楼上)"},{"poiid":"B2094655D36CA5FF4392","title":"城中东路保安路","lon":"121.12422","lat":"31.14644","category":"38","category_name":"公交车站","address":""},{"poiid":"B2094654DA6BABF94593","title":"运杰城市花园(华青南路)","lon":"121.13467","lat":"31.14449","category":"47","category_name":"住宅区","address":"上海市宝山区聚丰园路303号"},{"poiid":"B2094750D568A0F94392","title":"香港纯Kparyt","lon":"121.126731","lat":"31.146087","category":"170","category_name":"KTV","address":"青浦区青湖路晨兴国际"},{"poiid":"B2094757D064A7F4409D","title":"蓝山咖啡(青浦店)","lon":"121.1367","lat":"31.14814","category":"65","category_name":"咖啡厅","address":"青浦区华青南路800弄1-3号(华浦南路青龙路)"},{"poiid":"B2094757D16FABFB4798","title":"小木屋农家菜","lon":"121.124215671","lat":"31.131902901","category":"76","category_name":"上海菜","address":"青浦区外青松公路6666弄68-69号(近热浪健身俱乐部)"},{"poiid":"B2094654DA6BABFB459C","title":"夏阳湖国际花园","lon":"121.13573","lat":"31.146868","category":"47","category_name":"住宅区","address":"上海市青浦区青湖路800弄"},{"poiid":"B2094750D664A6FB4392","title":"张家湾生态园","lon":"121.13","lat":"31.1233","category":"87","category_name":"特色／地方风味餐厅","address":"青浦区外青松公路7188号张家湾生态园内"},{"poiid":"B2094757D56EA0F44198","title":"车水马廷","lon":"121.1253619","lat":"31.13135855","category":"76","category_name":"上海菜","address":"青浦区外青松公路6677号(近福寿园)"},{"poiid":"B2094757D66AA0F54898","title":"丑小鸭家常菜馆","lon":"121.12565","lat":"31.12875","category":"76","category_name":"上海菜","address":"青浦区青松路7199号一区12-16号(近福寿园)"},{"poiid":"B2094757D568A7FD4898","title":"轩和坊","lon":"121.1264411","lat":"31.132295","category":"46","category_name":"楼宇","address":"朱家角镇新风路185弄"},{"poiid":"B2094757D16CA2F44898","title":"上海市第三劳动教养管理所","lon":"121.146984864","lat":"31.1233796078","category":"500","category_name":"未知分类","address":"上海青浦区庆丰路1号"},{"poiid":"B2094752D26FABF84593","title":"巴黎纯K量贩式KTV","lon":"121.134186","lat":"31.146301","category":"170","category_name":"KTV","address":"上海市青浦区华青南路511号"},{"poiid":"B2094757D16DAAFF419E","title":"青浦热浪游泳健身会所","lon":"121.12440467","lat":"31.141178186","category":"500","category_name":"未知分类","address":"青浦区外青松公路6666号(近沪青平公路)"},{"poiid":"B2094654DA6BABFA409D","title":"梦丹苑","lon":"121.13171","lat":"31.146254","category":"47","category_name":"住宅区","address":"青湖路4625弄"},{"poiid":"B2094752D665A2FE499F","title":"青浦区实验中学（东校区）","lon":"121.137035","lat":"31.138983","category":"55","category_name":"中学","address":"青浦区华青南路九十八弄28号"},{"poiid":"B2094654DA6BA5F94393","title":"青浦东方中学","lon":"121.12189","lat":"31.14408","category":"55","category_name":"中学","address":"上海青浦区浦仓路88号"},{"poiid":"B2094753D768A2FF4299","title":"上井精致料理","lon":"121.130928","lat":"31.14208","category":"247","category_name":"餐饮美食","address":"上海市 青浦区华青南路"},{"poiid":"B2094655D264A4F9489A","title":"G50青浦城区收费站","lon":"121.12445","lat":"31.13151","category":"267","category_name":"收费站","address":""},{"poiid":"B2094757D568A7F5449C","title":"全驴馆","lon":"121.129342","lat":"31.125371","category":"260","category_name":"其他","address":"青浦区外青松公路7199号18-20号"},{"poiid":"B2094750D66AA4F8409F","title":"上海市青浦监狱","lon":"121.138511","lat":"31.121097","category":"608","category_name":"法院","address":"青浦区外青松公路7405号"},{"poiid":"B2094757D064A4FE489B","title":"上岛咖啡(青湖路店)","lon":"121.134193571","lat":"31.1456604768","category":"65","category_name":"咖啡厅","address":"青浦区青湖路879号(近华青南路)"},{"poiid":"B2094757D46AA4F94699","title":"太麻里台湾私房牛肉面馆 青湖店","lon":"121.133558","lat":"31.145971","category":"91","category_name":"台湾菜","address":"青浦区青湖路914号"},{"poiid":"B2094757D16FA5F8429E","title":"金色淡水","lon":"121.131923071","lat":"31.1441594467","category":"68","category_name":"快餐厅","address":"青浦区青峰路71号(新华骥苑对面)"},{"poiid":"B2094757D16DA1F44699","title":"莱欧发型","lon":"121.138438521","lat":"31.1401526464","category":"148","category_name":"美容美发店","address":"闵行区青浦区公园路351号(欧洲路口)"},{"poiid":"B2094757D064A1FD4798","title":"运杰城市花园","lon":"121.136759041","lat":"31.1439934034","category":"252","category_name":"楼宇机构","address":"上海市宝山区聚丰园路303号"},{"poiid":"B2094654DA6BA5FB449B","title":"上海市公安局青浦分局交通警察支队","lon":"121.11951","lat":"31.13749","category":"250","category_name":"公园户外","address":"沪青平公路5540"},{"poiid":"B2094654DA6BA4FB459B","title":"多味坊土菜馆","lon":"121.13249","lat":"31.14557","category":"257","category_name":"中餐厅","address":"青浦区青湖路945号"},{"poiid":"B2094757D064A6F9469E","title":"G50沪渝高速金泽收费站","lon":"121.124253","lat":"31.131357","category":"267","category_name":"收费站","address":"上海G50沪渝高速金泽收费站"},{"poiid":"B2094751D56CA1F8419F","title":"Ms Chen's Restaurant & Bar","lon":"121.12579","lat":"31.14401","category":"172","category_name":"酒吧","address":"青浦区外青松公路6666弄16号帕缇欧香小区内"},{"poiid":"B2094757D568A4FB4998","title":"巴黎之夜","lon":"121.13402018","lat":"31.14663628","category":"170","category_name":"KTV","address":"青浦区华青南路511号(近青湖路)"},{"poiid":"B2094757D16EA5FD4592","title":"西岑","lon":"121.1244","lat":"31.131441","category":"500","category_name":"未知分类","address":"上海A9公路"},{"poiid":"B2094757D16EA5FC4493","title":"吉祥馄饨(青湖路店)","lon":"121.1334247","lat":"31.1457509","category":"68","category_name":"快餐厅","address":"青浦区青湖路917号"},{"poiid":"B2094654DA6BA5FB4499","title":"上海大众汽车青浦销售服务有限公司","lon":"121.12095","lat":"31.13812","category":"159","category_name":"汽车维修","address":"青浦区沪青平公路5528号"},{"poiid":"B2094654DA6BABF9469C","title":"华骥小区1号门","lon":"121.13148","lat":"31.14469","category":"47","category_name":"住宅区","address":"青浦镇"},{"poiid":"B2094757D66CA7F9409F","title":"青浦区实验小学东部(豫英学校)","lon":"121.137971671","lat":"31.1443182499","category":"500","category_name":"未知分类","address":"上海市青浦区青湖路459号"},{"poiid":"B2094750D565A5F4479B","title":"宝燕海鲜酒楼","lon":"121.13417","lat":"31.146339","category":"247","category_name":"餐饮美食","address":"青浦区华青南路505号(清湖路口)"},{"poiid":"B2094751D56CAAFA4992","title":"小阁楼(青湖路店)","lon":"121.13161","lat":"31.14554","category":"71","category_name":"四川菜","address":"青浦区青湖路975号(近外青松公路)"}]