[{"poiid":"B2094757D068A4FF419C","title":"梅陇镇广场","lon":"121.456631071","lat":"31.2264992206","category":"119","category_name":"商场","address":"松江区荣乐东路1133弄"},{"poiid":"B2094757D06EAAF84199","title":"梅龙镇伊势丹广场","lon":"121.45681952","lat":"31.228880108","category":"119","category_name":"商场","address":"上海静安区南京西路1038号梅龙镇广场(近江宁路)"},{"poiid":"B2094654DB69A6F44893","title":"金钱豹餐饮(中信店)","lon":"121.45568","lat":"31.22796","category":"247","category_name":"餐饮美食","address":"静安区南京西路1168号中信泰富广场4-5楼(近陕西北路)"},{"poiid":"B2094753D76FAAFA449C","title":"上海滩国泰旗舰店","lon":"121.466011","lat":"31.216125","category":"249","category_name":"购物服务","address":"淮海中路868号"},{"poiid":"B209475CD564A7F84292","title":"上海滩新天地店","lon":"121.47463","lat":"31.22164","category":"119","category_name":"商场","address":"\"太仓路181弄新天地北里15号\r\n\""},{"poiid":"B2094654DB64A7F94793","title":"玛满矿(中信泰富店)","lon":"121.45568","lat":"31.22796","category":"99","category_name":"泰国／越南菜品餐厅","address":"静安区南京西路1168号中信泰富广场4楼417号铺(近陕西北路)"},{"poiid":"B209475CD564A7F8439E","title":"上海滩中信泰富店","lon":"121.45602","lat":"31.22851","category":"119","category_name":"商场","address":"\"南京西路1168号中信泰富广场，店铺号221.\r\n\""},{"poiid":"B2094654DB6BA6F54092","title":"俏江南(南京西路)","lon":"121.45569","lat":"31.22796","category":"71","category_name":"四川菜","address":"静安区南京西路1168号中信泰富广场3楼(近陕西北路)"},{"poiid":"B2094757D06FA1F44193","title":"翡翠酒家 梅龙镇店 Crystal Jade","lon":"121.45665764809","lat":"31.228605488824","category":"72","category_name":"广东菜","address":"静安区南京西路1038号梅龙镇广场7楼(近江宁路)"},{"poiid":"B2094757D06FA3F44898","title":"甜蜜蜜(南京西路店)","lon":"121.45788","lat":"31.22816","category":"67","category_name":"甜品店","address":"静安区南京西路1001号凯司令2楼(梅龙镇广场斜对面)"},{"poiid":"B2094654DA6CA1FF469C","title":"新镇江酒家","lon":"121.45673","lat":"31.22814","category":"74","category_name":"江苏菜","address":"静安区南京西路1111号(近江宁路)"},{"poiid":"B2094654DA6CA1FF4499","title":"麦当劳(南京西路)","lon":"121.45569","lat":"31.22796","category":"68","category_name":"快餐厅","address":"静安区南京西路1168号中信泰富广场B1楼(近陕西北路)"},{"poiid":"B2094757D06FA5FF4792","title":"美国驻上海总领事馆(Consulate General of the United States in Shanghai)","lon":"121.45674315","lat":"31.228797151","category":"46","category_name":"楼宇","address":"上海徐汇区淮海中路1469号(近乌鲁木齐南路)"},{"poiid":"B2094757D06FA6F44693","title":"哈根达斯(梅龙镇店)","lon":"121.45737","lat":"31.22847","category":"113","category_name":"冷饮店","address":"静安区南京西路1038号梅龙镇广场1楼109C-D(近江宁路)"},{"poiid":"B2094757D068A3FB469E","title":"梅龙镇酒家(总店)","lon":"121.4561979","lat":"31.228197746","category":"75","category_name":"浙江菜","address":"静安区南京西路1081弄22号(近江宁路)"},{"poiid":"B2094757D16FA1F4419B","title":"品川(恒隆店)","lon":"121.45439","lat":"31.22758","category":"71","category_name":"四川菜","address":"静安区南京西路1266号恒隆广场5楼(近陕西北路)"},{"poiid":"B2094757D06FA6FD4598","title":"小南国(金鹰广场店)","lon":"121.45523","lat":"31.22788","category":"76","category_name":"上海菜","address":"静安区陕西北路278号金鹰国际购物中心7楼(近南京西路)"},{"poiid":"B2094655D26DAAFB4999","title":"中信泰富广场(南门)","lon":"121.45568","lat":"31.22795","category":"656","category_name":"大门","address":""},{"poiid":"B2094757D06FA3FF4192","title":"Wagas沃歌斯(中信泰富店)","lon":"121.45568753","lat":"31.228491679","category":"94","category_name":"西餐厅","address":"静安区南京西路1168号中信泰富B1楼(近陕西北路)"},{"poiid":"B2094752D06CA5FD469D","title":"小辉哥火锅","lon":"121.455719","lat":"31.228485","category":"247","category_name":"餐饮美食","address":"梅龙镇广场南京西路1038号701室-709室"},{"poiid":"B2094757D06FA7FC439D","title":"美新点心店","lon":"121.45626446","lat":"31.22563169","category":"68","category_name":"快餐厅","address":"静安区陕西北路105号(近威海路)"},{"poiid":"B2094750D76EABF44393","title":"味皇港式茶餐厅","lon":"121.456","lat":"31.2287","category":"72","category_name":"广东菜","address":"静安区南京西路1168号中信泰富广场B1楼(近陕西北路)"},{"poiid":"B2094654DA6CA1FA489C","title":"上海民主党派大厦","lon":"121.45629","lat":"31.22603","category":"46","category_name":"楼宇","address":"上海市静安区陕西北路128号"},{"poiid":"B2094757D06FA2FD499E","title":"gz cafe","lon":"121.458061218","lat":"31.2260665894","category":"130","category_name":"礼品饰品店","address":"静安区南京西路1025弄静安别墅162号(近江宁路)"},{"poiid":"B2094757D065A2FF479A","title":"美国领事馆签证处","lon":"121.456695138","lat":"31.2288976717","category":"252","category_name":"楼宇机构","address":"静安区南京西路1038号梅龙镇广场8楼(近江宁路)"},{"poiid":"B2094757D06FA6FE439F","title":"2666图书馆","lon":"121.45823373","lat":"31.226929229","category":"181","category_name":"图书馆","address":"静安区南京西路1025弄静安别墅136号(近梅龙镇伊势丹)"},{"poiid":"B2094757D06FA0FE4599","title":"寿司处武贞(梅龙镇店)","lon":"121.45699","lat":"31.22835","category":"95","category_name":"日本料理","address":"上海静安区南京西路1038号梅龙镇广场B1楼  "},{"poiid":"B2094654DA6CA1F4499C","title":"文汇新民联合报业集团","lon":"121.45748","lat":"31.22553","category":"61","category_name":"报社","address":"威海路755-757号文新报业大厦"},{"poiid":"B2094757D06BA5F9459C","title":"申汇轩(陕西北路店)","lon":"121.45674","lat":"31.22552","category":"76","category_name":"上海菜","address":"静安区陕西北路128号民主党派大厦裙楼1-2楼(近威海路)"},{"poiid":"B2094757D06FA7F54693","title":"Cafe Specchi","lon":"121.45730106","lat":"31.225408997","category":"65","category_name":"咖啡厅","address":"上海静安区南京西路1266号恒隆广场1F(近陕西北路)  "},{"poiid":"B2094757D06FA0F9419C","title":"旋转黑糖冰","lon":"121.45781","lat":"31.22573","category":"113","category_name":"冷饮店","address":"静安区威海路708号(近陕西北路)"},{"poiid":"B2094752D665A0FE449E","title":"点点心","lon":"121.457295","lat":"31.227772","category":"247","category_name":"餐饮美食","address":"南京西路889号2楼"},{"poiid":"B2094757D06FA5FE459E","title":"Gucci(金鹰店)","lon":"121.45552","lat":"31.22787","category":"141","category_name":"服装鞋帽皮具店","address":"上海静安区陕西北路278号金鹰国际购物中心(近南京西路)  "},{"poiid":"B2094757D66CABFC439A","title":"麻辣誘惑","lon":"121.456319738","lat":"31.2284212615","category":"247","category_name":"餐饮美食","address":"上海梅龍鎮"},{"poiid":"B2094757D064A5F8419D","title":"森下创作料理","lon":"121.456423738","lat":"31.2258492067","category":"76","category_name":"上海菜","address":"静安区南京西路1025弄静安别墅123号(近吴江路)"},{"poiid":"B2094757D064A4FD449A","title":"和良日式造型(威海)","lon":"121.456196738","lat":"31.2254711987","category":"148","category_name":"美容美发店","address":"上海威海路840号"},{"poiid":"B2094757D06FA0FA4198","title":"Vale 192","lon":"121.45883373","lat":"31.226695224","category":"94","category_name":"西餐厅","address":"静安区南京西路1025弄静安别墅192号(近茂名北路)"},{"poiid":"B2094655D26BA3FE439E","title":"汉堡王 梅龙镇店 Burger King","lon":"121.456526054","lat":"31.228408793","category":"68","category_name":"快餐厅","address":"静安区南京西路1038号梅龙镇广场B1楼(近江宁路)"},{"poiid":"B2094654DA6CA1FF449D","title":"鱼翅捞饭 静安店","lon":"121.455857054","lat":"31.227937793","category":"72","category_name":"广东菜","address":"静安区南京西路1168号中信泰富广场5楼(近陕西北路)"},{"poiid":"B2094654D564ABFF4192","title":"巨富大厦","lon":"121.45722681438","lat":"31.226610095807","category":"46","category_name":"楼宇","address":"越秀区环市东路362-366号"},{"poiid":"B2094757D06BA4F8499C","title":"榄香","lon":"121.45519373","lat":"31.226518221","category":"247","category_name":"餐饮美食","address":"上海金鹰"},{"poiid":"B2094757D165A4FC4593","title":"C'N'C中信泰富","lon":"121.456299738","lat":"31.2253271956","category":"500","category_name":"未知分类","address":"上海南京西路1168号地下一层LG09"},{"poiid":"B2094757D06BA3F54492","title":"Godiva(梅龙镇广场店)","lon":"121.45701","lat":"31.22834","category":"67","category_name":"甜品店","address":"静安区南京西路1038号梅龙镇广场1楼3号商铺(近江宁路)"},{"poiid":"B2094751D56CA3FD469B","title":"COSTA COFFEE(环艺影城店)","lon":"121.45669","lat":"31.22864","category":"65","category_name":"咖啡厅","address":"静安区南京西路1038号梅龙镇广场10楼B区(近江宁路)"},{"poiid":"B2094757D169A6FF489B","title":"刘娟美甲梅龙镇店","lon":"121.456390738","lat":"31.2285672647","category":"500","category_name":"未知分类","address":"上海南京西路梅龙镇广场6楼"},{"poiid":"B2094655D26AA1FE4498","title":"王磊形象公社梅龙镇2店","lon":"121.45672","lat":"31.22862","category":"247","category_name":"餐饮美食","address":"静安区南京西路1038号梅龙镇广场801座(近江宁路)"},{"poiid":"B2094757D06BA5FA409B","title":"恒隆广场停车场","lon":"121.45838165","lat":"31.225849151","category":"260","category_name":"其他","address":"上海静安区南京西路1266号(近陕西北路) "},{"poiid":"B2094752D36DA3FC479A","title":"夏布洛尔咖啡馆","lon":"121.45848332051","lat":"31.227573760046","category":"65","category_name":"咖啡厅","address":"南京西路1025弄静安别墅93号底楼"},{"poiid":"B2094757D16CA3FC439E","title":"sweet season思维季节","lon":"121.45831673","lat":"31.227850249","category":"65","category_name":"咖啡厅","address":"静安区南京西路1025弄静安别墅67号(近梅陇镇广场)"},{"poiid":"B2094750D26FA4FE429B","title":"starbucks","lon":"121.456367","lat":"31.225322","category":"247","category_name":"餐饮美食","address":"中兴泰富"},{"poiid":"B2094757D068A4FF419C","title":"梅陇镇广场","lon":"121.456631071","lat":"31.2264992206","category":"119","category_name":"商场","address":"松江区荣乐东路1133弄"},{"poiid":"B2094757D06EAAF84199","title":"梅龙镇伊势丹广场","lon":"121.45681952","lat":"31.228880108","category":"119","category_name":"商场","address":"上海静安区南京西路1038号梅龙镇广场(近江宁路)"},{"poiid":"B2094654DB69A6F44893","title":"金钱豹餐饮(中信店)","lon":"121.45568","lat":"31.22796","category":"247","category_name":"餐饮美食","address":"静安区南京西路1168号中信泰富广场4-5楼(近陕西北路)"},{"poiid":"B2094753D76FAAFA449C","title":"上海滩国泰旗舰店","lon":"121.466011","lat":"31.216125","category":"249","category_name":"购物服务","address":"淮海中路868号"},{"poiid":"B209475CD564A7F84292","title":"上海滩新天地店","lon":"121.47463","lat":"31.22164","category":"119","category_name":"商场","address":"\"太仓路181弄新天地北里15号\r\n\""},{"poiid":"B2094654DB64A7F94793","title":"玛满矿(中信泰富店)","lon":"121.45568","lat":"31.22796","category":"99","category_name":"泰国／越南菜品餐厅","address":"静安区南京西路1168号中信泰富广场4楼417号铺(近陕西北路)"},{"poiid":"B209475CD564A7F8439E","title":"上海滩中信泰富店","lon":"121.45602","lat":"31.22851","category":"119","category_name":"商场","address":"\"南京西路1168号中信泰富广场，店铺号221.\r\n\""},{"poiid":"B2094654DB6BA6F54092","title":"俏江南(南京西路)","lon":"121.45569","lat":"31.22796","category":"71","category_name":"四川菜","address":"静安区南京西路1168号中信泰富广场3楼(近陕西北路)"},{"poiid":"B2094757D06FA1F44193","title":"翡翠酒家 梅龙镇店 Crystal Jade","lon":"121.45665764809","lat":"31.228605488824","category":"72","category_name":"广东菜","address":"静安区南京西路1038号梅龙镇广场7楼(近江宁路)"},{"poiid":"B2094757D06FA3F44898","title":"甜蜜蜜(南京西路店)","lon":"121.45788","lat":"31.22816","category":"67","category_name":"甜品店","address":"静安区南京西路1001号凯司令2楼(梅龙镇广场斜对面)"},{"poiid":"B2094654DA6CA1FF469C","title":"新镇江酒家","lon":"121.45673","lat":"31.22814","category":"74","category_name":"江苏菜","address":"静安区南京西路1111号(近江宁路)"},{"poiid":"B2094654DA6CA1FF4499","title":"麦当劳(南京西路)","lon":"121.45569","lat":"31.22796","category":"68","category_name":"快餐厅","address":"静安区南京西路1168号中信泰富广场B1楼(近陕西北路)"},{"poiid":"B2094757D06FA5FF4792","title":"美国驻上海总领事馆(Consulate General of the United States in Shanghai)","lon":"121.45674315","lat":"31.228797151","category":"46","category_name":"楼宇","address":"上海徐汇区淮海中路1469号(近乌鲁木齐南路)"},{"poiid":"B2094757D06FA6F44693","title":"哈根达斯(梅龙镇店)","lon":"121.45737","lat":"31.22847","category":"113","category_name":"冷饮店","address":"静安区南京西路1038号梅龙镇广场1楼109C-D(近江宁路)"},{"poiid":"B2094757D068A3FB469E","title":"梅龙镇酒家(总店)","lon":"121.4561979","lat":"31.228197746","category":"75","category_name":"浙江菜","address":"静安区南京西路1081弄22号(近江宁路)"},{"poiid":"B2094757D16FA1F4419B","title":"品川(恒隆店)","lon":"121.45439","lat":"31.22758","category":"71","category_name":"四川菜","address":"静安区南京西路1266号恒隆广场5楼(近陕西北路)"},{"poiid":"B2094757D06FA6FD4598","title":"小南国(金鹰广场店)","lon":"121.45523","lat":"31.22788","category":"76","category_name":"上海菜","address":"静安区陕西北路278号金鹰国际购物中心7楼(近南京西路)"},{"poiid":"B2094655D26DAAFB4999","title":"中信泰富广场(南门)","lon":"121.45568","lat":"31.22795","category":"656","category_name":"大门","address":""},{"poiid":"B2094757D06FA3FF4192","title":"Wagas沃歌斯(中信泰富店)","lon":"121.45568753","lat":"31.228491679","category":"94","category_name":"西餐厅","address":"静安区南京西路1168号中信泰富B1楼(近陕西北路)"},{"poiid":"B2094752D06CA5FD469D","title":"小辉哥火锅","lon":"121.455719","lat":"31.228485","category":"247","category_name":"餐饮美食","address":"梅龙镇广场南京西路1038号701室-709室"},{"poiid":"B2094757D06FA7FC439D","title":"美新点心店","lon":"121.45626446","lat":"31.22563169","category":"68","category_name":"快餐厅","address":"静安区陕西北路105号(近威海路)"},{"poiid":"B2094750D76EABF44393","title":"味皇港式茶餐厅","lon":"121.456","lat":"31.2287","category":"72","category_name":"广东菜","address":"静安区南京西路1168号中信泰富广场B1楼(近陕西北路)"},{"poiid":"B2094654DA6CA1FA489C","title":"上海民主党派大厦","lon":"121.45629","lat":"31.22603","category":"46","category_name":"楼宇","address":"上海市静安区陕西北路128号"},{"poiid":"B2094757D06FA2FD499E","title":"gz cafe","lon":"121.458061218","lat":"31.2260665894","category":"130","category_name":"礼品饰品店","address":"静安区南京西路1025弄静安别墅162号(近江宁路)"},{"poiid":"B2094757D065A2FF479A","title":"美国领事馆签证处","lon":"121.456695138","lat":"31.2288976717","category":"252","category_name":"楼宇机构","address":"静安区南京西路1038号梅龙镇广场8楼(近江宁路)"},{"poiid":"B2094757D06FA6FE439F","title":"2666图书馆","lon":"121.45823373","lat":"31.226929229","category":"181","category_name":"图书馆","address":"静安区南京西路1025弄静安别墅136号(近梅龙镇伊势丹)"},{"poiid":"B2094757D06FA0FE4599","title":"寿司处武贞(梅龙镇店)","lon":"121.45699","lat":"31.22835","category":"95","category_name":"日本料理","address":"上海静安区南京西路1038号梅龙镇广场B1楼  "},{"poiid":"B2094654DA6CA1F4499C","title":"文汇新民联合报业集团","lon":"121.45748","lat":"31.22553","category":"61","category_name":"报社","address":"威海路755-757号文新报业大厦"},{"poiid":"B2094757D06BA5F9459C","title":"申汇轩(陕西北路店)","lon":"121.45674","lat":"31.22552","category":"76","category_name":"上海菜","address":"静安区陕西北路128号民主党派大厦裙楼1-2楼(近威海路)"},{"poiid":"B2094757D06FA7F54693","title":"Cafe Specchi","lon":"121.45730106","lat":"31.225408997","category":"65","category_name":"咖啡厅","address":"上海静安区南京西路1266号恒隆广场1F(近陕西北路)  "},{"poiid":"B2094757D06FA0F9419C","title":"旋转黑糖冰","lon":"121.45781","lat":"31.22573","category":"113","category_name":"冷饮店","address":"静安区威海路708号(近陕西北路)"},{"poiid":"B2094752D665A0FE449E","title":"点点心","lon":"121.457295","lat":"31.227772","category":"247","category_name":"餐饮美食","address":"南京西路889号2楼"},{"poiid":"B2094757D06FA5FE459E","title":"Gucci(金鹰店)","lon":"121.45552","lat":"31.22787","category":"141","category_name":"服装鞋帽皮具店","address":"上海静安区陕西北路278号金鹰国际购物中心(近南京西路)  "},{"poiid":"B2094757D66CABFC439A","title":"麻辣誘惑","lon":"121.456319738","lat":"31.2284212615","category":"247","category_name":"餐饮美食","address":"上海梅龍鎮"},{"poiid":"B2094757D064A5F8419D","title":"森下创作料理","lon":"121.456423738","lat":"31.2258492067","category":"76","category_name":"上海菜","address":"静安区南京西路1025弄静安别墅123号(近吴江路)"},{"poiid":"B2094757D064A4FD449A","title":"和良日式造型(威海)","lon":"121.456196738","lat":"31.2254711987","category":"148","category_name":"美容美发店","address":"上海威海路840号"},{"poiid":"B2094757D06FA0FA4198","title":"Vale 192","lon":"121.45883373","lat":"31.226695224","category":"94","category_name":"西餐厅","address":"静安区南京西路1025弄静安别墅192号(近茂名北路)"},{"poiid":"B2094655D26BA3FE439E","title":"汉堡王 梅龙镇店 Burger King","lon":"121.456526054","lat":"31.228408793","category":"68","category_name":"快餐厅","address":"静安区南京西路1038号梅龙镇广场B1楼(近江宁路)"},{"poiid":"B2094654DA6CA1FF449D","title":"鱼翅捞饭 静安店","lon":"121.455857054","lat":"31.227937793","category":"72","category_name":"广东菜","address":"静安区南京西路1168号中信泰富广场5楼(近陕西北路)"},{"poiid":"B2094654D564ABFF4192","title":"巨富大厦","lon":"121.45722681438","lat":"31.226610095807","category":"46","category_name":"楼宇","address":"越秀区环市东路362-366号"},{"poiid":"B2094757D06BA4F8499C","title":"榄香","lon":"121.45519373","lat":"31.226518221","category":"247","category_name":"餐饮美食","address":"上海金鹰"},{"poiid":"B2094757D165A4FC4593","title":"C'N'C中信泰富","lon":"121.456299738","lat":"31.2253271956","category":"500","category_name":"未知分类","address":"上海南京西路1168号地下一层LG09"},{"poiid":"B2094757D06BA3F54492","title":"Godiva(梅龙镇广场店)","lon":"121.45701","lat":"31.22834","category":"67","category_name":"甜品店","address":"静安区南京西路1038号梅龙镇广场1楼3号商铺(近江宁路)"},{"poiid":"B2094751D56CA3FD469B","title":"COSTA COFFEE(环艺影城店)","lon":"121.45669","lat":"31.22864","category":"65","category_name":"咖啡厅","address":"静安区南京西路1038号梅龙镇广场10楼B区(近江宁路)"},{"poiid":"B2094757D169A6FF489B","title":"刘娟美甲梅龙镇店","lon":"121.456390738","lat":"31.2285672647","category":"500","category_name":"未知分类","address":"上海南京西路梅龙镇广场6楼"},{"poiid":"B2094655D26AA1FE4498","title":"王磊形象公社梅龙镇2店","lon":"121.45672","lat":"31.22862","category":"247","category_name":"餐饮美食","address":"静安区南京西路1038号梅龙镇广场801座(近江宁路)"},{"poiid":"B2094757D06BA5FA409B","title":"恒隆广场停车场","lon":"121.45838165","lat":"31.225849151","category":"260","category_name":"其他","address":"上海静安区南京西路1266号(近陕西北路) "},{"poiid":"B2094752D36DA3FC479A","title":"夏布洛尔咖啡馆","lon":"121.45848332051","lat":"31.227573760046","category":"65","category_name":"咖啡厅","address":"南京西路1025弄静安别墅93号底楼"},{"poiid":"B2094757D16CA3FC439E","title":"sweet season思维季节","lon":"121.45831673","lat":"31.227850249","category":"65","category_name":"咖啡厅","address":"静安区南京西路1025弄静安别墅67号(近梅陇镇广场)"},{"poiid":"B2094750D26FA4FE429B","title":"starbucks","lon":"121.456367","lat":"31.225322","category":"247","category_name":"餐饮美食","address":"中兴泰富"},{"poiid":"B2094757D068A4FF419C","title":"梅陇镇广场","lon":"121.456631071","lat":"31.2264992206","category":"119","category_name":"商场","address":"松江区荣乐东路1133弄"},{"poiid":"B2094757D06EAAF84199","title":"梅龙镇伊势丹广场","lon":"121.45681952","lat":"31.228880108","category":"119","category_name":"商场","address":"上海静安区南京西路1038号梅龙镇广场(近江宁路)"},{"poiid":"B2094654DB69A6F44893","title":"金钱豹餐饮(中信店)","lon":"121.45568","lat":"31.22796","category":"247","category_name":"餐饮美食","address":"静安区南京西路1168号中信泰富广场4-5楼(近陕西北路)"},{"poiid":"B2094753D76FAAFA449C","title":"上海滩国泰旗舰店","lon":"121.466011","lat":"31.216125","category":"249","category_name":"购物服务","address":"淮海中路868号"},{"poiid":"B209475CD564A7F84292","title":"上海滩新天地店","lon":"121.47463","lat":"31.22164","category":"119","category_name":"商场","address":"\"太仓路181弄新天地北里15号\r\n\""},{"poiid":"B2094654DB64A7F94793","title":"玛满矿(中信泰富店)","lon":"121.45568","lat":"31.22796","category":"99","category_name":"泰国／越南菜品餐厅","address":"静安区南京西路1168号中信泰富广场4楼417号铺(近陕西北路)"},{"poiid":"B209475CD564A7F8439E","title":"上海滩中信泰富店","lon":"121.45602","lat":"31.22851","category":"119","category_name":"商场","address":"\"南京西路1168号中信泰富广场，店铺号221.\r\n\""},{"poiid":"B2094654DB6BA6F54092","title":"俏江南(南京西路)","lon":"121.45569","lat":"31.22796","category":"71","category_name":"四川菜","address":"静安区南京西路1168号中信泰富广场3楼(近陕西北路)"},{"poiid":"B2094757D06FA1F44193","title":"翡翠酒家 梅龙镇店 Crystal Jade","lon":"121.45665764809","lat":"31.228605488824","category":"72","category_name":"广东菜","address":"静安区南京西路1038号梅龙镇广场7楼(近江宁路)"},{"poiid":"B2094757D06FA3F44898","title":"甜蜜蜜(南京西路店)","lon":"121.45788","lat":"31.22816","category":"67","category_name":"甜品店","address":"静安区南京西路1001号凯司令2楼(梅龙镇广场斜对面)"},{"poiid":"B2094654DA6CA1FF469C","title":"新镇江酒家","lon":"121.45673","lat":"31.22814","category":"74","category_name":"江苏菜","address":"静安区南京西路1111号(近江宁路)"},{"poiid":"B2094654DA6CA1FF4499","title":"麦当劳(南京西路)","lon":"121.45569","lat":"31.22796","category":"68","category_name":"快餐厅","address":"静安区南京西路1168号中信泰富广场B1楼(近陕西北路)"},{"poiid":"B2094757D06FA5FF4792","title":"美国驻上海总领事馆(Consulate General of the United States in Shanghai)","lon":"121.45674315","lat":"31.228797151","category":"46","category_name":"楼宇","address":"上海徐汇区淮海中路1469号(近乌鲁木齐南路)"},{"poiid":"B2094757D06FA6F44693","title":"哈根达斯(梅龙镇店)","lon":"121.45737","lat":"31.22847","category":"113","category_name":"冷饮店","address":"静安区南京西路1038号梅龙镇广场1楼109C-D(近江宁路)"},{"poiid":"B2094757D068A3FB469E","title":"梅龙镇酒家(总店)","lon":"121.4561979","lat":"31.228197746","category":"75","category_name":"浙江菜","address":"静安区南京西路1081弄22号(近江宁路)"},{"poiid":"B2094757D16FA1F4419B","title":"品川(恒隆店)","lon":"121.45439","lat":"31.22758","category":"71","category_name":"四川菜","address":"静安区南京西路1266号恒隆广场5楼(近陕西北路)"},{"poiid":"B2094757D06FA6FD4598","title":"小南国(金鹰广场店)","lon":"121.45523","lat":"31.22788","category":"76","category_name":"上海菜","address":"静安区陕西北路278号金鹰国际购物中心7楼(近南京西路)"},{"poiid":"B2094655D26DAAFB4999","title":"中信泰富广场(南门)","lon":"121.45568","lat":"31.22795","category":"656","category_name":"大门","address":""},{"poiid":"B2094757D06FA3FF4192","title":"Wagas沃歌斯(中信泰富店)","lon":"121.45568753","lat":"31.228491679","category":"94","category_name":"西餐厅","address":"静安区南京西路1168号中信泰富B1楼(近陕西北路)"},{"poiid":"B2094752D06CA5FD469D","title":"小辉哥火锅","lon":"121.455719","lat":"31.228485","category":"247","category_name":"餐饮美食","address":"梅龙镇广场南京西路1038号701室-709室"},{"poiid":"B2094757D06FA7FC439D","title":"美新点心店","lon":"121.45626446","lat":"31.22563169","category":"68","category_name":"快餐厅","address":"静安区陕西北路105号(近威海路)"},{"poiid":"B2094750D76EABF44393","title":"味皇港式茶餐厅","lon":"121.456","lat":"31.2287","category":"72","category_name":"广东菜","address":"静安区南京西路1168号中信泰富广场B1楼(近陕西北路)"},{"poiid":"B2094654DA6CA1FA489C","title":"上海民主党派大厦","lon":"121.45629","lat":"31.22603","category":"46","category_name":"楼宇","address":"上海市静安区陕西北路128号"},{"poiid":"B2094757D06FA2FD499E","title":"gz cafe","lon":"121.458061218","lat":"31.2260665894","category":"130","category_name":"礼品饰品店","address":"静安区南京西路1025弄静安别墅162号(近江宁路)"},{"poiid":"B2094757D065A2FF479A","title":"美国领事馆签证处","lon":"121.456695138","lat":"31.2288976717","category":"252","category_name":"楼宇机构","address":"静安区南京西路1038号梅龙镇广场8楼(近江宁路)"},{"poiid":"B2094757D06FA6FE439F","title":"2666图书馆","lon":"121.45823373","lat":"31.226929229","category":"181","category_name":"图书馆","address":"静安区南京西路1025弄静安别墅136号(近梅龙镇伊势丹)"},{"poiid":"B2094757D06FA0FE4599","title":"寿司处武贞(梅龙镇店)","lon":"121.45699","lat":"31.22835","category":"95","category_name":"日本料理","address":"上海静安区南京西路1038号梅龙镇广场B1楼  "},{"poiid":"B2094654DA6CA1F4499C","title":"文汇新民联合报业集团","lon":"121.45748","lat":"31.22553","category":"61","category_name":"报社","address":"威海路755-757号文新报业大厦"},{"poiid":"B2094757D06BA5F9459C","title":"申汇轩(陕西北路店)","lon":"121.45674","lat":"31.22552","category":"76","category_name":"上海菜","address":"静安区陕西北路128号民主党派大厦裙楼1-2楼(近威海路)"},{"poiid":"B2094757D06FA7F54693","title":"Cafe Specchi","lon":"121.45730106","lat":"31.225408997","category":"65","category_name":"咖啡厅","address":"上海静安区南京西路1266号恒隆广场1F(近陕西北路)  "},{"poiid":"B2094757D06FA0F9419C","title":"旋转黑糖冰","lon":"121.45781","lat":"31.22573","category":"113","category_name":"冷饮店","address":"静安区威海路708号(近陕西北路)"},{"poiid":"B2094752D665A0FE449E","title":"点点心","lon":"121.457295","lat":"31.227772","category":"247","category_name":"餐饮美食","address":"南京西路889号2楼"},{"poiid":"B2094757D06FA5FE459E","title":"Gucci(金鹰店)","lon":"121.45552","lat":"31.22787","category":"141","category_name":"服装鞋帽皮具店","address":"上海静安区陕西北路278号金鹰国际购物中心(近南京西路)  "},{"poiid":"B2094757D66CABFC439A","title":"麻辣誘惑","lon":"121.456319738","lat":"31.2284212615","category":"247","category_name":"餐饮美食","address":"上海梅龍鎮"},{"poiid":"B2094757D064A5F8419D","title":"森下创作料理","lon":"121.456423738","lat":"31.2258492067","category":"76","category_name":"上海菜","address":"静安区南京西路1025弄静安别墅123号(近吴江路)"},{"poiid":"B2094757D064A4FD449A","title":"和良日式造型(威海)","lon":"121.456196738","lat":"31.2254711987","category":"148","category_name":"美容美发店","address":"上海威海路840号"},{"poiid":"B2094757D06FA0FA4198","title":"Vale 192","lon":"121.45883373","lat":"31.226695224","category":"94","category_name":"西餐厅","address":"静安区南京西路1025弄静安别墅192号(近茂名北路)"},{"poiid":"B2094655D26BA3FE439E","title":"汉堡王 梅龙镇店 Burger King","lon":"121.456526054","lat":"31.228408793","category":"68","category_name":"快餐厅","address":"静安区南京西路1038号梅龙镇广场B1楼(近江宁路)"},{"poiid":"B2094654DA6CA1FF449D","title":"鱼翅捞饭 静安店","lon":"121.455857054","lat":"31.227937793","category":"72","category_name":"广东菜","address":"静安区南京西路1168号中信泰富广场5楼(近陕西北路)"},{"poiid":"B2094654D564ABFF4192","title":"巨富大厦","lon":"121.45722681438","lat":"31.226610095807","category":"46","category_name":"楼宇","address":"越秀区环市东路362-366号"},{"poiid":"B2094757D06BA4F8499C","title":"榄香","lon":"121.45519373","lat":"31.226518221","category":"247","category_name":"餐饮美食","address":"上海金鹰"},{"poiid":"B2094757D165A4FC4593","title":"C'N'C中信泰富","lon":"121.456299738","lat":"31.2253271956","category":"500","category_name":"未知分类","address":"上海南京西路1168号地下一层LG09"},{"poiid":"B2094757D06BA3F54492","title":"Godiva(梅龙镇广场店)","lon":"121.45701","lat":"31.22834","category":"67","category_name":"甜品店","address":"静安区南京西路1038号梅龙镇广场1楼3号商铺(近江宁路)"},{"poiid":"B2094751D56CA3FD469B","title":"COSTA COFFEE(环艺影城店)","lon":"121.45669","lat":"31.22864","category":"65","category_name":"咖啡厅","address":"静安区南京西路1038号梅龙镇广场10楼B区(近江宁路)"},{"poiid":"B2094757D169A6FF489B","title":"刘娟美甲梅龙镇店","lon":"121.456390738","lat":"31.2285672647","category":"500","category_name":"未知分类","address":"上海南京西路梅龙镇广场6楼"},{"poiid":"B2094655D26AA1FE4498","title":"王磊形象公社梅龙镇2店","lon":"121.45672","lat":"31.22862","category":"247","category_name":"餐饮美食","address":"静安区南京西路1038号梅龙镇广场801座(近江宁路)"},{"poiid":"B2094757D06BA5FA409B","title":"恒隆广场停车场","lon":"121.45838165","lat":"31.225849151","category":"260","category_name":"其他","address":"上海静安区南京西路1266号(近陕西北路) "},{"poiid":"B2094752D36DA3FC479A","title":"夏布洛尔咖啡馆","lon":"121.45848332051","lat":"31.227573760046","category":"65","category_name":"咖啡厅","address":"南京西路1025弄静安别墅93号底楼"},{"poiid":"B2094757D16CA3FC439E","title":"sweet season思维季节","lon":"121.45831673","lat":"31.227850249","category":"65","category_name":"咖啡厅","address":"静安区南京西路1025弄静安别墅67号(近梅陇镇广场)"},{"poiid":"B2094750D26FA4FE429B","title":"starbucks","lon":"121.456367","lat":"31.225322","category":"247","category_name":"餐饮美食","address":"中兴泰富"},{"poiid":"B2094757D068A4FF419C","title":"梅陇镇广场","lon":"121.456631071","lat":"31.2264992206","category":"119","category_name":"商场","address":"松江区荣乐东路1133弄"},{"poiid":"B2094757D06EAAF84199","title":"梅龙镇伊势丹广场","lon":"121.45681952","lat":"31.228880108","category":"119","category_name":"商场","address":"上海静安区南京西路1038号梅龙镇广场(近江宁路)"},{"poiid":"B2094654DB69A6F44893","title":"金钱豹餐饮(中信店)","lon":"121.45568","lat":"31.22796","category":"247","category_name":"餐饮美食","address":"静安区南京西路1168号中信泰富广场4-5楼(近陕西北路)"},{"poiid":"B2094753D76FAAFA449C","title":"上海滩国泰旗舰店","lon":"121.466011","lat":"31.216125","category":"249","category_name":"购物服务","address":"淮海中路868号"},{"poiid":"B209475CD564A7F84292","title":"上海滩新天地店","lon":"121.47463","lat":"31.22164","category":"119","category_name":"商场","address":"\"太仓路181弄新天地北里15号\r\n\""},{"poiid":"B2094654DB64A7F94793","title":"玛满矿(中信泰富店)","lon":"121.45568","lat":"31.22796","category":"99","category_name":"泰国／越南菜品餐厅","address":"静安区南京西路1168号中信泰富广场4楼417号铺(近陕西北路)"},{"poiid":"B209475CD564A7F8439E","title":"上海滩中信泰富店","lon":"121.45602","lat":"31.22851","category":"119","category_name":"商场","address":"\"南京西路1168号中信泰富广场，店铺号221.\r\n\""},{"poiid":"B2094654DB6BA6F54092","title":"俏江南(南京西路)","lon":"121.45569","lat":"31.22796","category":"71","category_name":"四川菜","address":"静安区南京西路1168号中信泰富广场3楼(近陕西北路)"},{"poiid":"B2094757D06FA1F44193","title":"翡翠酒家 梅龙镇店 Crystal Jade","lon":"121.45665764809","lat":"31.228605488824","category":"72","category_name":"广东菜","address":"静安区南京西路1038号梅龙镇广场7楼(近江宁路)"},{"poiid":"B2094757D06FA3F44898","title":"甜蜜蜜(南京西路店)","lon":"121.45788","lat":"31.22816","category":"67","category_name":"甜品店","address":"静安区南京西路1001号凯司令2楼(梅龙镇广场斜对面)"},{"poiid":"B2094654DA6CA1FF469C","title":"新镇江酒家","lon":"121.45673","lat":"31.22814","category":"74","category_name":"江苏菜","address":"静安区南京西路1111号(近江宁路)"},{"poiid":"B2094654DA6CA1FF4499","title":"麦当劳(南京西路)","lon":"121.45569","lat":"31.22796","category":"68","category_name":"快餐厅","address":"静安区南京西路1168号中信泰富广场B1楼(近陕西北路)"},{"poiid":"B2094757D06FA5FF4792","title":"美国驻上海总领事馆(Consulate General of the United States in Shanghai)","lon":"121.45674315","lat":"31.228797151","category":"46","category_name":"楼宇","address":"上海徐汇区淮海中路1469号(近乌鲁木齐南路)"},{"poiid":"B2094757D06FA6F44693","title":"哈根达斯(梅龙镇店)","lon":"121.45737","lat":"31.22847","category":"113","category_name":"冷饮店","address":"静安区南京西路1038号梅龙镇广场1楼109C-D(近江宁路)"},{"poiid":"B2094757D068A3FB469E","title":"梅龙镇酒家(总店)","lon":"121.4561979","lat":"31.228197746","category":"75","category_name":"浙江菜","address":"静安区南京西路1081弄22号(近江宁路)"},{"poiid":"B2094757D16FA1F4419B","title":"品川(恒隆店)","lon":"121.45439","lat":"31.22758","category":"71","category_name":"四川菜","address":"静安区南京西路1266号恒隆广场5楼(近陕西北路)"},{"poiid":"B2094757D06FA6FD4598","title":"小南国(金鹰广场店)","lon":"121.45523","lat":"31.22788","category":"76","category_name":"上海菜","address":"静安区陕西北路278号金鹰国际购物中心7楼(近南京西路)"},{"poiid":"B2094655D26DAAFB4999","title":"中信泰富广场(南门)","lon":"121.45568","lat":"31.22795","category":"656","category_name":"大门","address":""},{"poiid":"B2094757D06FA3FF4192","title":"Wagas沃歌斯(中信泰富店)","lon":"121.45568753","lat":"31.228491679","category":"94","category_name":"西餐厅","address":"静安区南京西路1168号中信泰富B1楼(近陕西北路)"},{"poiid":"B2094752D06CA5FD469D","title":"小辉哥火锅","lon":"121.455719","lat":"31.228485","category":"247","category_name":"餐饮美食","address":"梅龙镇广场南京西路1038号701室-709室"},{"poiid":"B2094757D06FA7FC439D","title":"美新点心店","lon":"121.45626446","lat":"31.22563169","category":"68","category_name":"快餐厅","address":"静安区陕西北路105号(近威海路)"},{"poiid":"B2094750D76EABF44393","title":"味皇港式茶餐厅","lon":"121.456","lat":"31.2287","category":"72","category_name":"广东菜","address":"静安区南京西路1168号中信泰富广场B1楼(近陕西北路)"},{"poiid":"B2094654DA6CA1FA489C","title":"上海民主党派大厦","lon":"121.45629","lat":"31.22603","category":"46","category_name":"楼宇","address":"上海市静安区陕西北路128号"},{"poiid":"B2094757D06FA2FD499E","title":"gz cafe","lon":"121.458061218","lat":"31.2260665894","category":"130","category_name":"礼品饰品店","address":"静安区南京西路1025弄静安别墅162号(近江宁路)"},{"poiid":"B2094757D065A2FF479A","title":"美国领事馆签证处","lon":"121.456695138","lat":"31.2288976717","category":"252","category_name":"楼宇机构","address":"静安区南京西路1038号梅龙镇广场8楼(近江宁路)"},{"poiid":"B2094757D06FA6FE439F","title":"2666图书馆","lon":"121.45823373","lat":"31.226929229","category":"181","category_name":"图书馆","address":"静安区南京西路1025弄静安别墅136号(近梅龙镇伊势丹)"},{"poiid":"B2094757D06FA0FE4599","title":"寿司处武贞(梅龙镇店)","lon":"121.45699","lat":"31.22835","category":"95","category_name":"日本料理","address":"上海静安区南京西路1038号梅龙镇广场B1楼  "},{"poiid":"B2094654DA6CA1F4499C","title":"文汇新民联合报业集团","lon":"121.45748","lat":"31.22553","category":"61","category_name":"报社","address":"威海路755-757号文新报业大厦"},{"poiid":"B2094757D06BA5F9459C","title":"申汇轩(陕西北路店)","lon":"121.45674","lat":"31.22552","category":"76","category_name":"上海菜","address":"静安区陕西北路128号民主党派大厦裙楼1-2楼(近威海路)"},{"poiid":"B2094757D06FA7F54693","title":"Cafe Specchi","lon":"121.45730106","lat":"31.225408997","category":"65","category_name":"咖啡厅","address":"上海静安区南京西路1266号恒隆广场1F(近陕西北路)  "},{"poiid":"B2094757D06FA0F9419C","title":"旋转黑糖冰","lon":"121.45781","lat":"31.22573","category":"113","category_name":"冷饮店","address":"静安区威海路708号(近陕西北路)"},{"poiid":"B2094752D665A0FE449E","title":"点点心","lon":"121.457295","lat":"31.227772","category":"247","category_name":"餐饮美食","address":"南京西路889号2楼"},{"poiid":"B2094757D06FA5FE459E","title":"Gucci(金鹰店)","lon":"121.45552","lat":"31.22787","category":"141","category_name":"服装鞋帽皮具店","address":"上海静安区陕西北路278号金鹰国际购物中心(近南京西路)  "},{"poiid":"B2094757D66CABFC439A","title":"麻辣誘惑","lon":"121.456319738","lat":"31.2284212615","category":"247","category_name":"餐饮美食","address":"上海梅龍鎮"},{"poiid":"B2094757D064A5F8419D","title":"森下创作料理","lon":"121.456423738","lat":"31.2258492067","category":"76","category_name":"上海菜","address":"静安区南京西路1025弄静安别墅123号(近吴江路)"},{"poiid":"B2094757D064A4FD449A","title":"和良日式造型(威海)","lon":"121.456196738","lat":"31.2254711987","category":"148","category_name":"美容美发店","address":"上海威海路840号"},{"poiid":"B2094757D06FA0FA4198","title":"Vale 192","lon":"121.45883373","lat":"31.226695224","category":"94","category_name":"西餐厅","address":"静安区南京西路1025弄静安别墅192号(近茂名北路)"},{"poiid":"B2094655D26BA3FE439E","title":"汉堡王 梅龙镇店 Burger King","lon":"121.456526054","lat":"31.228408793","category":"68","category_name":"快餐厅","address":"静安区南京西路1038号梅龙镇广场B1楼(近江宁路)"},{"poiid":"B2094654DA6CA1FF449D","title":"鱼翅捞饭 静安店","lon":"121.455857054","lat":"31.227937793","category":"72","category_name":"广东菜","address":"静安区南京西路1168号中信泰富广场5楼(近陕西北路)"},{"poiid":"B2094654D564ABFF4192","title":"巨富大厦","lon":"121.45722681438","lat":"31.226610095807","category":"46","category_name":"楼宇","address":"越秀区环市东路362-366号"},{"poiid":"B2094757D06BA4F8499C","title":"榄香","lon":"121.45519373","lat":"31.226518221","category":"247","category_name":"餐饮美食","address":"上海金鹰"},{"poiid":"B2094757D165A4FC4593","title":"C'N'C中信泰富","lon":"121.456299738","lat":"31.2253271956","category":"500","category_name":"未知分类","address":"上海南京西路1168号地下一层LG09"},{"poiid":"B2094757D06BA3F54492","title":"Godiva(梅龙镇广场店)","lon":"121.45701","lat":"31.22834","category":"67","category_name":"甜品店","address":"静安区南京西路1038号梅龙镇广场1楼3号商铺(近江宁路)"},{"poiid":"B2094751D56CA3FD469B","title":"COSTA COFFEE(环艺影城店)","lon":"121.45669","lat":"31.22864","category":"65","category_name":"咖啡厅","address":"静安区南京西路1038号梅龙镇广场10楼B区(近江宁路)"},{"poiid":"B2094757D169A6FF489B","title":"刘娟美甲梅龙镇店","lon":"121.456390738","lat":"31.2285672647","category":"500","category_name":"未知分类","address":"上海南京西路梅龙镇广场6楼"},{"poiid":"B2094655D26AA1FE4498","title":"王磊形象公社梅龙镇2店","lon":"121.45672","lat":"31.22862","category":"247","category_name":"餐饮美食","address":"静安区南京西路1038号梅龙镇广场801座(近江宁路)"},{"poiid":"B2094757D06BA5FA409B","title":"恒隆广场停车场","lon":"121.45838165","lat":"31.225849151","category":"260","category_name":"其他","address":"上海静安区南京西路1266号(近陕西北路) "},{"poiid":"B2094752D36DA3FC479A","title":"夏布洛尔咖啡馆","lon":"121.45848332051","lat":"31.227573760046","category":"65","category_name":"咖啡厅","address":"南京西路1025弄静安别墅93号底楼"},{"poiid":"B2094757D16CA3FC439E","title":"sweet season思维季节","lon":"121.45831673","lat":"31.227850249","category":"65","category_name":"咖啡厅","address":"静安区南京西路1025弄静安别墅67号(近梅陇镇广场)"},{"poiid":"B2094750D26FA4FE429B","title":"starbucks","lon":"121.456367","lat":"31.225322","category":"247","category_name":"餐饮美食","address":"中兴泰富"},{"poiid":"B2094757D068A4FF419C","title":"梅陇镇广场","lon":"121.456631071","lat":"31.2264992206","category":"119","category_name":"商场","address":"松江区荣乐东路1133弄"},{"poiid":"B2094757D06EAAF84199","title":"梅龙镇伊势丹广场","lon":"121.45681952","lat":"31.228880108","category":"119","category_name":"商场","address":"上海静安区南京西路1038号梅龙镇广场(近江宁路)"},{"poiid":"B2094654DB69A6F44893","title":"金钱豹餐饮(中信店)","lon":"121.45568","lat":"31.22796","category":"247","category_name":"餐饮美食","address":"静安区南京西路1168号中信泰富广场4-5楼(近陕西北路)"},{"poiid":"B2094753D76FAAFA449C","title":"上海滩国泰旗舰店","lon":"121.466011","lat":"31.216125","category":"249","category_name":"购物服务","address":"淮海中路868号"},{"poiid":"B209475CD564A7F84292","title":"上海滩新天地店","lon":"121.47463","lat":"31.22164","category":"119","category_name":"商场","address":"\"太仓路181弄新天地北里15号\r\n\""},{"poiid":"B2094654DB64A7F94793","title":"玛满矿(中信泰富店)","lon":"121.45568","lat":"31.22796","category":"99","category_name":"泰国／越南菜品餐厅","address":"静安区南京西路1168号中信泰富广场4楼417号铺(近陕西北路)"},{"poiid":"B209475CD564A7F8439E","title":"上海滩中信泰富店","lon":"121.45602","lat":"31.22851","category":"119","category_name":"商场","address":"\"南京西路1168号中信泰富广场，店铺号221.\r\n\""},{"poiid":"B2094654DB6BA6F54092","title":"俏江南(南京西路)","lon":"121.45569","lat":"31.22796","category":"71","category_name":"四川菜","address":"静安区南京西路1168号中信泰富广场3楼(近陕西北路)"},{"poiid":"B2094757D06FA1F44193","title":"翡翠酒家 梅龙镇店 Crystal Jade","lon":"121.45665764809","lat":"31.228605488824","category":"72","category_name":"广东菜","address":"静安区南京西路1038号梅龙镇广场7楼(近江宁路)"},{"poiid":"B2094757D06FA3F44898","title":"甜蜜蜜(南京西路店)","lon":"121.45788","lat":"31.22816","category":"67","category_name":"甜品店","address":"静安区南京西路1001号凯司令2楼(梅龙镇广场斜对面)"},{"poiid":"B2094654DA6CA1FF469C","title":"新镇江酒家","lon":"121.45673","lat":"31.22814","category":"74","category_name":"江苏菜","address":"静安区南京西路1111号(近江宁路)"},{"poiid":"B2094654DA6CA1FF4499","title":"麦当劳(南京西路)","lon":"121.45569","lat":"31.22796","category":"68","category_name":"快餐厅","address":"静安区南京西路1168号中信泰富广场B1楼(近陕西北路)"},{"poiid":"B2094757D06FA5FF4792","title":"美国驻上海总领事馆(Consulate General of the United States in Shanghai)","lon":"121.45674315","lat":"31.228797151","category":"46","category_name":"楼宇","address":"上海徐汇区淮海中路1469号(近乌鲁木齐南路)"},{"poiid":"B2094757D06FA6F44693","title":"哈根达斯(梅龙镇店)","lon":"121.45737","lat":"31.22847","category":"113","category_name":"冷饮店","address":"静安区南京西路1038号梅龙镇广场1楼109C-D(近江宁路)"},{"poiid":"B2094757D068A3FB469E","title":"梅龙镇酒家(总店)","lon":"121.4561979","lat":"31.228197746","category":"75","category_name":"浙江菜","address":"静安区南京西路1081弄22号(近江宁路)"},{"poiid":"B2094757D16FA1F4419B","title":"品川(恒隆店)","lon":"121.45439","lat":"31.22758","category":"71","category_name":"四川菜","address":"静安区南京西路1266号恒隆广场5楼(近陕西北路)"},{"poiid":"B2094757D06FA6FD4598","title":"小南国(金鹰广场店)","lon":"121.45523","lat":"31.22788","category":"76","category_name":"上海菜","address":"静安区陕西北路278号金鹰国际购物中心7楼(近南京西路)"},{"poiid":"B2094655D26DAAFB4999","title":"中信泰富广场(南门)","lon":"121.45568","lat":"31.22795","category":"656","category_name":"大门","address":""},{"poiid":"B2094757D06FA3FF4192","title":"Wagas沃歌斯(中信泰富店)","lon":"121.45568753","lat":"31.228491679","category":"94","category_name":"西餐厅","address":"静安区南京西路1168号中信泰富B1楼(近陕西北路)"},{"poiid":"B2094752D06CA5FD469D","title":"小辉哥火锅","lon":"121.455719","lat":"31.228485","category":"247","category_name":"餐饮美食","address":"梅龙镇广场南京西路1038号701室-709室"},{"poiid":"B2094757D06FA7FC439D","title":"美新点心店","lon":"121.45626446","lat":"31.22563169","category":"68","category_name":"快餐厅","address":"静安区陕西北路105号(近威海路)"},{"poiid":"B2094750D76EABF44393","title":"味皇港式茶餐厅","lon":"121.456","lat":"31.2287","category":"72","category_name":"广东菜","address":"静安区南京西路1168号中信泰富广场B1楼(近陕西北路)"},{"poiid":"B2094654DA6CA1FA489C","title":"上海民主党派大厦","lon":"121.45629","lat":"31.22603","category":"46","category_name":"楼宇","address":"上海市静安区陕西北路128号"},{"poiid":"B2094757D06FA2FD499E","title":"gz cafe","lon":"121.458061218","lat":"31.2260665894","category":"130","category_name":"礼品饰品店","address":"静安区南京西路1025弄静安别墅162号(近江宁路)"},{"poiid":"B2094757D065A2FF479A","title":"美国领事馆签证处","lon":"121.456695138","lat":"31.2288976717","category":"252","category_name":"楼宇机构","address":"静安区南京西路1038号梅龙镇广场8楼(近江宁路)"},{"poiid":"B2094757D06FA6FE439F","title":"2666图书馆","lon":"121.45823373","lat":"31.226929229","category":"181","category_name":"图书馆","address":"静安区南京西路1025弄静安别墅136号(近梅龙镇伊势丹)"},{"poiid":"B2094757D06FA0FE4599","title":"寿司处武贞(梅龙镇店)","lon":"121.45699","lat":"31.22835","category":"95","category_name":"日本料理","address":"上海静安区南京西路1038号梅龙镇广场B1楼  "},{"poiid":"B2094654DA6CA1F4499C","title":"文汇新民联合报业集团","lon":"121.45748","lat":"31.22553","category":"61","category_name":"报社","address":"威海路755-757号文新报业大厦"},{"poiid":"B2094757D06BA5F9459C","title":"申汇轩(陕西北路店)","lon":"121.45674","lat":"31.22552","category":"76","category_name":"上海菜","address":"静安区陕西北路128号民主党派大厦裙楼1-2楼(近威海路)"},{"poiid":"B2094757D06FA7F54693","title":"Cafe Specchi","lon":"121.45730106","lat":"31.225408997","category":"65","category_name":"咖啡厅","address":"上海静安区南京西路1266号恒隆广场1F(近陕西北路)  "},{"poiid":"B2094757D06FA0F9419C","title":"旋转黑糖冰","lon":"121.45781","lat":"31.22573","category":"113","category_name":"冷饮店","address":"静安区威海路708号(近陕西北路)"},{"poiid":"B2094752D665A0FE449E","title":"点点心","lon":"121.457295","lat":"31.227772","category":"247","category_name":"餐饮美食","address":"南京西路889号2楼"},{"poiid":"B2094757D06FA5FE459E","title":"Gucci(金鹰店)","lon":"121.45552","lat":"31.22787","category":"141","category_name":"服装鞋帽皮具店","address":"上海静安区陕西北路278号金鹰国际购物中心(近南京西路)  "},{"poiid":"B2094757D66CABFC439A","title":"麻辣誘惑","lon":"121.456319738","lat":"31.2284212615","category":"247","category_name":"餐饮美食","address":"上海梅龍鎮"},{"poiid":"B2094757D064A5F8419D","title":"森下创作料理","lon":"121.456423738","lat":"31.2258492067","category":"76","category_name":"上海菜","address":"静安区南京西路1025弄静安别墅123号(近吴江路)"},{"poiid":"B2094757D064A4FD449A","title":"和良日式造型(威海)","lon":"121.456196738","lat":"31.2254711987","category":"148","category_name":"美容美发店","address":"上海威海路840号"},{"poiid":"B2094757D06FA0FA4198","title":"Vale 192","lon":"121.45883373","lat":"31.226695224","category":"94","category_name":"西餐厅","address":"静安区南京西路1025弄静安别墅192号(近茂名北路)"},{"poiid":"B2094655D26BA3FE439E","title":"汉堡王 梅龙镇店 Burger King","lon":"121.456526054","lat":"31.228408793","category":"68","category_name":"快餐厅","address":"静安区南京西路1038号梅龙镇广场B1楼(近江宁路)"},{"poiid":"B2094654DA6CA1FF449D","title":"鱼翅捞饭 静安店","lon":"121.455857054","lat":"31.227937793","category":"72","category_name":"广东菜","address":"静安区南京西路1168号中信泰富广场5楼(近陕西北路)"},{"poiid":"B2094654D564ABFF4192","title":"巨富大厦","lon":"121.45722681438","lat":"31.226610095807","category":"46","category_name":"楼宇","address":"越秀区环市东路362-366号"},{"poiid":"B2094757D06BA4F8499C","title":"榄香","lon":"121.45519373","lat":"31.226518221","category":"247","category_name":"餐饮美食","address":"上海金鹰"},{"poiid":"B2094757D165A4FC4593","title":"C'N'C中信泰富","lon":"121.456299738","lat":"31.2253271956","category":"500","category_name":"未知分类","address":"上海南京西路1168号地下一层LG09"},{"poiid":"B2094757D06BA3F54492","title":"Godiva(梅龙镇广场店)","lon":"121.45701","lat":"31.22834","category":"67","category_name":"甜品店","address":"静安区南京西路1038号梅龙镇广场1楼3号商铺(近江宁路)"},{"poiid":"B2094751D56CA3FD469B","title":"COSTA COFFEE(环艺影城店)","lon":"121.45669","lat":"31.22864","category":"65","category_name":"咖啡厅","address":"静安区南京西路1038号梅龙镇广场10楼B区(近江宁路)"},{"poiid":"B2094757D169A6FF489B","title":"刘娟美甲梅龙镇店","lon":"121.456390738","lat":"31.2285672647","category":"500","category_name":"未知分类","address":"上海南京西路梅龙镇广场6楼"},{"poiid":"B2094655D26AA1FE4498","title":"王磊形象公社梅龙镇2店","lon":"121.45672","lat":"31.22862","category":"247","category_name":"餐饮美食","address":"静安区南京西路1038号梅龙镇广场801座(近江宁路)"},{"poiid":"B2094757D06BA5FA409B","title":"恒隆广场停车场","lon":"121.45838165","lat":"31.225849151","category":"260","category_name":"其他","address":"上海静安区南京西路1266号(近陕西北路) "},{"poiid":"B2094752D36DA3FC479A","title":"夏布洛尔咖啡馆","lon":"121.45848332051","lat":"31.227573760046","category":"65","category_name":"咖啡厅","address":"南京西路1025弄静安别墅93号底楼"},{"poiid":"B2094757D16CA3FC439E","title":"sweet season思维季节","lon":"121.45831673","lat":"31.227850249","category":"65","category_name":"咖啡厅","address":"静安区南京西路1025弄静安别墅67号(近梅陇镇广场)"},{"poiid":"B2094750D26FA4FE429B","title":"starbucks","lon":"121.456367","lat":"31.225322","category":"247","category_name":"餐饮美食","address":"中兴泰富"}]