[{"poiid":"B2094757D06EAAFD429A","title":"海底捞火锅店(北京西路店)","lon":"121.45505","lat":"31.23012","category":"86","category_name":"火锅店","address":"静安区北京西路1068号3楼(近江宁路)"},{"poiid":"B2094654DA6CA1F54793","title":"环艺电影城","lon":"121.45679","lat":"31.22907","category":"178","category_name":"电影院","address":"上海市静安区南京西路1038号梅龙镇广场10楼"},{"poiid":"B2094654DB6AA6FC4893","title":"星巴克(中信店)","lon":"121.4549","lat":"31.2286","category":"65","category_name":"咖啡厅","address":"静安区南京西路1168号中信泰富广场B1楼LG12单元(近陕西北路)"},{"poiid":"B2094753D76FAAFA449C","title":"上海滩国泰旗舰店","lon":"121.466011","lat":"31.216125","category":"249","category_name":"购物服务","address":"淮海中路868号"},{"poiid":"B209475CD564A7F84292","title":"上海滩新天地店","lon":"121.47463","lat":"31.22164","category":"119","category_name":"商场","address":"\"太仓路181弄新天地北里15号\r\n\""},{"poiid":"B2094655D26AA0FD449B","title":"好乐迪量贩式KTV（江宁路店）","lon":"121.45452","lat":"31.23065","category":"170","category_name":"KTV","address":"静安区江宁路167号食博汇4楼(近北京西路)"},{"poiid":"B2094757D06FA3FB449D","title":"蓝玛赫","lon":"121.455921","lat":"31.229122","category":"94","category_name":"西餐厅","address":"静安区南京西路1038号梅龙镇广场3楼319A(近江宁路)"},{"poiid":"B209475CD564A7F8439E","title":"上海滩中信泰富店","lon":"121.45602","lat":"31.22851","category":"119","category_name":"商场","address":"\"南京西路1168号中信泰富广场，店铺号221.\r\n\""},{"poiid":"B2094757D06FA3FC4698","title":"枣子树(江宁店)","lon":"121.456622771","lat":"31.2296432097","category":"89","category_name":"中式素餐馆","address":"静安区奉贤路258号(美琪剧院旁)"},{"poiid":"B2094654DB6BA6F54392","title":"梅龙镇商厦(南汇路)","lon":"121.45703","lat":"31.22942","category":"46","category_name":"楼宇","address":"南京西路1038号"},{"poiid":"B2094655D268A3FB4898","title":"麻辣诱惑 梅龙镇广场店 Spice Spirit","lon":"121.456538054","lat":"31.228397793","category":"71","category_name":"四川菜","address":"静安区南京西路1038号梅龙镇广场7楼(近江宁路)"},{"poiid":"B2094750D56EA1FD459F","title":"大牌小厨","lon":"121.454795","lat":"31.230346","category":"74","category_name":"江苏菜","address":"静安区江宁路167号新城大厦1楼"},{"poiid":"B2094757D068ABFC4093","title":"迈泰(江宁店)","lon":"121.455279838","lat":"31.2307829119","category":"99","category_name":"泰国／越南菜品餐厅","address":"静安区江宁路101号(北京西路口)"},{"poiid":"B2094655D268A6F84393","title":"台北吴记老锅底麻辣火锅(江宁路店)","lon":"121.45554","lat":"31.22933","category":"86","category_name":"火锅店","address":"上海静安区江宁路77号3楼(近中信泰富)"},{"poiid":"B2094752DB69AAF94292","title":"澳门肥仔文猪骨煲","lon":"121.456581","lat":"31.230287","category":"247","category_name":"餐饮美食","address":"上海市 上海市南汇路77号"},{"poiid":"B2094757D068A1FE4098","title":"上海爱莎金煦全套房酒店","lon":"121.454661","lat":"31.228642","category":"76","category_name":"上海菜","address":"静安区陕西北路288号爱莎金煦全套房酒店9楼(近南京西路)"},{"poiid":"B2094757D065A4F94993","title":"好乐迪","lon":"121.454527","lat":"31.230658","category":"500","category_name":"未知分类","address":"静安区江宁路167号食博汇4楼(近北京西路)"},{"poiid":"B2094757D06FA6FE4792","title":"瑞慈健康管理中心(凯迪克店)","lon":"121.45536","lat":"31.23056","category":"162","category_name":"医院","address":"上海静安区江宁路212号凯迪克大厦3楼(近北京西路)"},{"poiid":"B2094757D06FA0F84298","title":"圆苑酒家(梅陇镇店)","lon":"121.45652866","lat":"31.229180824","category":"75","category_name":"浙江菜","address":"静安区南京西路1038号梅龙镇广场4楼(近江宁路)"},{"poiid":"B2094750D76CA5FD419D","title":"Awana满金香","lon":"121.454","lat":"31.2299","category":"110","category_name":"其他亚洲菜","address":"静安区北京西路1124号1楼(近陕西北路)"},{"poiid":"B2094757D06FA3FF4192","title":"Wagas沃歌斯(中信泰富店)","lon":"121.45568753","lat":"31.228491679","category":"94","category_name":"西餐厅","address":"静安区南京西路1168号中信泰富B1楼(近陕西北路)"},{"poiid":"B2094752D06CA5FD469D","title":"小辉哥火锅","lon":"121.455719","lat":"31.228485","category":"247","category_name":"餐饮美食","address":"梅龙镇广场南京西路1038号701室-709室"},{"poiid":"B2094757DA64AAFD4993","title":"梅陇镇伊势丹商场(Westgate Tower)","lon":"121.456645","lat":"31.229242","category":"252","category_name":"楼宇机构","address":"南京西路1038号"},{"poiid":"B2094654DA6CA1F5499F","title":"河河亭铁板烧日本料理(南京西路)","lon":"121.45678","lat":"31.22907","category":"269","category_name":"烧烤","address":"静安区南京西路1038号梅龙镇广场5楼(近江宁路)"},{"poiid":"B2094757DB69A1FC409E","title":"梅陇镇广场环艺影城","lon":"121.454393","lat":"31.230119","category":"248","category_name":"生活娱乐","address":"静安区"},{"poiid":"B2094750D76EABF44393","title":"味皇港式茶餐厅","lon":"121.456","lat":"31.2287","category":"72","category_name":"广东菜","address":"静安区南京西路1168号中信泰富广场B1楼(近陕西北路)"},{"poiid":"B2094757D06FA6FD489E","title":"花水木(食博汇店)","lon":"121.45474243","lat":"31.230369567","category":"95","category_name":"日本料理","address":"上海静安区北京西路1068号食博汇2楼"},{"poiid":"B2094757D06FA2FC449D","title":"感智盲人保健会所(北京西路店)","lon":"121.45529","lat":"31.22981","category":"149","category_name":"洗浴推拿场所","address":"静安区北京西路1065号-1(近江宁路)"},{"poiid":"B2094757D065A2FF479A","title":"美国领事馆签证处","lon":"121.456695138","lat":"31.2288976717","category":"252","category_name":"楼宇机构","address":"静安区南京西路1038号梅龙镇广场8楼(近江宁路)"},{"poiid":"B2094757D068A1F4409B","title":"美琪桂林米粉","lon":"121.45652887304","lat":"31.228560252955","category":"68","category_name":"快餐厅","address":"静安区江宁路66-1号(近奉贤路)"},{"poiid":"B2094654DA6CA1F5489F","title":"异人馆","lon":"121.456538054","lat":"31.228397793","category":"95","category_name":"日本料理","address":"静安区南京西路1038号梅龙镇广场7楼(近江宁路)"},{"poiid":"B2094750DB68A2F8499C","title":"陈渔落宴","lon":"121.455184","lat":"31.229986","category":"71","category_name":"四川菜","address":"静安区北京西路1068号食博汇2楼(近江宁路)"},{"poiid":"B2094757D068A2FF439B","title":"鸭王(江宁店)","lon":"121.45576","lat":"31.22903","category":"260","category_name":"其他","address":"静安区江宁路77号(近奉贤路)"},{"poiid":"B2094757D06FA7F54692","title":"御锅坊","lon":"121.455117938","lat":"31.2284299317","category":"86","category_name":"火锅店","address":"静安区江宁路77号恒顺大厦7楼(奉贤路口)"},{"poiid":"B2094655D269ABFD4598","title":"烈火游艺机","lon":"121.45597","lat":"31.22938","category":"247","category_name":"餐饮美食","address":"静安区江宁路77号美琪大戏院4楼(近奉贤路)"},{"poiid":"B2094757D068A6FA4398","title":"银亭 Gintei  teppanyaki","lon":"121.4580654395","lat":"31.230427698102","category":"95","category_name":"日本料理","address":"静安区南汇路75号(近北京西路)"},{"poiid":"B2094750D664A4F54792","title":"徐家庄千岛湖鱼头王","lon":"121.457","lat":"31.2298","category":"76","category_name":"上海菜","address":"静安区南汇路52号(近梅龙镇广场)"},{"poiid":"B2094757D464A7F8499A","title":"日本料理成田屋","lon":"121.454851054","lat":"31.230204793","category":"95","category_name":"日本料理","address":"静安区北京西路1068号食博汇2楼(近江宁路)"},{"poiid":"B2094757D165ABF9499B","title":"康道会馆","lon":"121.45458573","lat":"31.22976629","category":"500","category_name":"未知分类","address":"静安区江宁路167号食博汇2楼(近北京西路)"},{"poiid":"B2094757D068A4FE499F","title":"绿杨邨77坊","lon":"121.45566","lat":"31.22876","category":"72","category_name":"广东菜","address":"静安区奉贤路282号(近江宁路)"},{"poiid":"B2094751D465ABFE499F","title":"COSTA COFFEE(中信泰富店)","lon":"121.45587","lat":"31.22872","category":"65","category_name":"咖啡厅","address":"静安区南京西路1168号中信泰富广场501A单元(近江宁路)"},{"poiid":"B2094757D065AAFC439A","title":"兴业大厦","lon":"121.455293","lat":"31.230702","category":"252","category_name":"楼宇机构","address":"北京西路1028号,江宁路168号"},{"poiid":"B2094757D069A3FD479B","title":"藏乐汤坊(奉贤路店)","lon":"121.45448773","lat":"31.229040274","category":"72","category_name":"广东菜","address":"静安区奉贤路282号(美琪大戏院对面)"},{"poiid":"B2094750D26AA2FE489E","title":"枫日本料理","lon":"121.454406","lat":"31.230009","category":"95","category_name":"日本料理","address":"静安区北京西路1068号食博会2楼(近江宁路)"},{"poiid":"B2094757D465ABF8499B","title":"勝圆日本料理","lon":"121.456502","lat":"31.229761","category":"247","category_name":"餐饮美食","address":"静安区奉贤路286号(近江宁路)"},{"poiid":"B2094654DA6CA5F4449F","title":"亚盛大厦","lon":"121.45509","lat":"31.23098","category":"46","category_name":"楼宇","address":"江宁路188"},{"poiid":"B2094655D26FA3F5439E","title":"梅龙镇广场(三号门)","lon":"121.45617","lat":"31.22915","category":"119","category_name":"商场","address":"南京西路1038号"},{"poiid":"B2094752D76FAAF94799","title":"德克士（江宁路店）","lon":"121.455613","lat":"31.229652","category":"247","category_name":"餐饮美食","address":"江宁路奉贤路口"},{"poiid":"B2094757D064A5F94898","title":"石見日本料理","lon":"121.45568125","lat":"31.231307273","category":"95","category_name":"日本料理","address":"静安区北京西路991号(近江宁路)"},{"poiid":"B2094654DB69A7FD409D","title":"绿杨村酒家 江宁店","lon":"121.45604682298","lat":"31.229361757005","category":"247","category_name":"餐饮美食","address":"静安区江宁路77号美琪大戏院对面(近奉贤路)"},{"poiid":"B2094757D06EAAFD429A","title":"海底捞火锅店(北京西路店)","lon":"121.45505","lat":"31.23012","category":"86","category_name":"火锅店","address":"静安区北京西路1068号3楼(近江宁路)"},{"poiid":"B2094654DA6CA1F54793","title":"环艺电影城","lon":"121.45679","lat":"31.22907","category":"178","category_name":"电影院","address":"上海市静安区南京西路1038号梅龙镇广场10楼"},{"poiid":"B2094654DB6AA6FC4893","title":"星巴克(中信店)","lon":"121.4549","lat":"31.2286","category":"65","category_name":"咖啡厅","address":"静安区南京西路1168号中信泰富广场B1楼LG12单元(近陕西北路)"},{"poiid":"B2094753D76FAAFA449C","title":"上海滩国泰旗舰店","lon":"121.466011","lat":"31.216125","category":"249","category_name":"购物服务","address":"淮海中路868号"},{"poiid":"B209475CD564A7F84292","title":"上海滩新天地店","lon":"121.47463","lat":"31.22164","category":"119","category_name":"商场","address":"\"太仓路181弄新天地北里15号\r\n\""},{"poiid":"B2094655D26AA0FD449B","title":"好乐迪量贩式KTV（江宁路店）","lon":"121.45452","lat":"31.23065","category":"170","category_name":"KTV","address":"静安区江宁路167号食博汇4楼(近北京西路)"},{"poiid":"B2094757D06FA3FB449D","title":"蓝玛赫","lon":"121.455921","lat":"31.229122","category":"94","category_name":"西餐厅","address":"静安区南京西路1038号梅龙镇广场3楼319A(近江宁路)"},{"poiid":"B209475CD564A7F8439E","title":"上海滩中信泰富店","lon":"121.45602","lat":"31.22851","category":"119","category_name":"商场","address":"\"南京西路1168号中信泰富广场，店铺号221.\r\n\""},{"poiid":"B2094757D06FA3FC4698","title":"枣子树(江宁店)","lon":"121.456622771","lat":"31.2296432097","category":"89","category_name":"中式素餐馆","address":"静安区奉贤路258号(美琪剧院旁)"},{"poiid":"B2094654DB6BA6F54392","title":"梅龙镇商厦(南汇路)","lon":"121.45703","lat":"31.22942","category":"46","category_name":"楼宇","address":"南京西路1038号"},{"poiid":"B2094655D268A3FB4898","title":"麻辣诱惑 梅龙镇广场店 Spice Spirit","lon":"121.456538054","lat":"31.228397793","category":"71","category_name":"四川菜","address":"静安区南京西路1038号梅龙镇广场7楼(近江宁路)"},{"poiid":"B2094750D56EA1FD459F","title":"大牌小厨","lon":"121.454795","lat":"31.230346","category":"74","category_name":"江苏菜","address":"静安区江宁路167号新城大厦1楼"},{"poiid":"B2094757D068ABFC4093","title":"迈泰(江宁店)","lon":"121.455279838","lat":"31.2307829119","category":"99","category_name":"泰国／越南菜品餐厅","address":"静安区江宁路101号(北京西路口)"},{"poiid":"B2094655D268A6F84393","title":"台北吴记老锅底麻辣火锅(江宁路店)","lon":"121.45554","lat":"31.22933","category":"86","category_name":"火锅店","address":"上海静安区江宁路77号3楼(近中信泰富)"},{"poiid":"B2094752DB69AAF94292","title":"澳门肥仔文猪骨煲","lon":"121.456581","lat":"31.230287","category":"247","category_name":"餐饮美食","address":"上海市 上海市南汇路77号"},{"poiid":"B2094757D068A1FE4098","title":"上海爱莎金煦全套房酒店","lon":"121.454661","lat":"31.228642","category":"76","category_name":"上海菜","address":"静安区陕西北路288号爱莎金煦全套房酒店9楼(近南京西路)"},{"poiid":"B2094757D065A4F94993","title":"好乐迪","lon":"121.454527","lat":"31.230658","category":"500","category_name":"未知分类","address":"静安区江宁路167号食博汇4楼(近北京西路)"},{"poiid":"B2094757D06FA6FE4792","title":"瑞慈健康管理中心(凯迪克店)","lon":"121.45536","lat":"31.23056","category":"162","category_name":"医院","address":"上海静安区江宁路212号凯迪克大厦3楼(近北京西路)"},{"poiid":"B2094757D06FA0F84298","title":"圆苑酒家(梅陇镇店)","lon":"121.45652866","lat":"31.229180824","category":"75","category_name":"浙江菜","address":"静安区南京西路1038号梅龙镇广场4楼(近江宁路)"},{"poiid":"B2094750D76CA5FD419D","title":"Awana满金香","lon":"121.454","lat":"31.2299","category":"110","category_name":"其他亚洲菜","address":"静安区北京西路1124号1楼(近陕西北路)"},{"poiid":"B2094757D06FA3FF4192","title":"Wagas沃歌斯(中信泰富店)","lon":"121.45568753","lat":"31.228491679","category":"94","category_name":"西餐厅","address":"静安区南京西路1168号中信泰富B1楼(近陕西北路)"},{"poiid":"B2094752D06CA5FD469D","title":"小辉哥火锅","lon":"121.455719","lat":"31.228485","category":"247","category_name":"餐饮美食","address":"梅龙镇广场南京西路1038号701室-709室"},{"poiid":"B2094757DA64AAFD4993","title":"梅陇镇伊势丹商场(Westgate Tower)","lon":"121.456645","lat":"31.229242","category":"252","category_name":"楼宇机构","address":"南京西路1038号"},{"poiid":"B2094654DA6CA1F5499F","title":"河河亭铁板烧日本料理(南京西路)","lon":"121.45678","lat":"31.22907","category":"269","category_name":"烧烤","address":"静安区南京西路1038号梅龙镇广场5楼(近江宁路)"},{"poiid":"B2094757DB69A1FC409E","title":"梅陇镇广场环艺影城","lon":"121.454393","lat":"31.230119","category":"248","category_name":"生活娱乐","address":"静安区"},{"poiid":"B2094750D76EABF44393","title":"味皇港式茶餐厅","lon":"121.456","lat":"31.2287","category":"72","category_name":"广东菜","address":"静安区南京西路1168号中信泰富广场B1楼(近陕西北路)"},{"poiid":"B2094757D06FA6FD489E","title":"花水木(食博汇店)","lon":"121.45474243","lat":"31.230369567","category":"95","category_name":"日本料理","address":"上海静安区北京西路1068号食博汇2楼"},{"poiid":"B2094757D06FA2FC449D","title":"感智盲人保健会所(北京西路店)","lon":"121.45529","lat":"31.22981","category":"149","category_name":"洗浴推拿场所","address":"静安区北京西路1065号-1(近江宁路)"},{"poiid":"B2094757D065A2FF479A","title":"美国领事馆签证处","lon":"121.456695138","lat":"31.2288976717","category":"252","category_name":"楼宇机构","address":"静安区南京西路1038号梅龙镇广场8楼(近江宁路)"},{"poiid":"B2094757D068A1F4409B","title":"美琪桂林米粉","lon":"121.45652887304","lat":"31.228560252955","category":"68","category_name":"快餐厅","address":"静安区江宁路66-1号(近奉贤路)"},{"poiid":"B2094654DA6CA1F5489F","title":"异人馆","lon":"121.456538054","lat":"31.228397793","category":"95","category_name":"日本料理","address":"静安区南京西路1038号梅龙镇广场7楼(近江宁路)"},{"poiid":"B2094750DB68A2F8499C","title":"陈渔落宴","lon":"121.455184","lat":"31.229986","category":"71","category_name":"四川菜","address":"静安区北京西路1068号食博汇2楼(近江宁路)"},{"poiid":"B2094757D068A2FF439B","title":"鸭王(江宁店)","lon":"121.45576","lat":"31.22903","category":"260","category_name":"其他","address":"静安区江宁路77号(近奉贤路)"},{"poiid":"B2094757D06FA7F54692","title":"御锅坊","lon":"121.455117938","lat":"31.2284299317","category":"86","category_name":"火锅店","address":"静安区江宁路77号恒顺大厦7楼(奉贤路口)"},{"poiid":"B2094655D269ABFD4598","title":"烈火游艺机","lon":"121.45597","lat":"31.22938","category":"247","category_name":"餐饮美食","address":"静安区江宁路77号美琪大戏院4楼(近奉贤路)"},{"poiid":"B2094757D068A6FA4398","title":"银亭 Gintei  teppanyaki","lon":"121.4580654395","lat":"31.230427698102","category":"95","category_name":"日本料理","address":"静安区南汇路75号(近北京西路)"},{"poiid":"B2094750D664A4F54792","title":"徐家庄千岛湖鱼头王","lon":"121.457","lat":"31.2298","category":"76","category_name":"上海菜","address":"静安区南汇路52号(近梅龙镇广场)"},{"poiid":"B2094757D464A7F8499A","title":"日本料理成田屋","lon":"121.454851054","lat":"31.230204793","category":"95","category_name":"日本料理","address":"静安区北京西路1068号食博汇2楼(近江宁路)"},{"poiid":"B2094757D165ABF9499B","title":"康道会馆","lon":"121.45458573","lat":"31.22976629","category":"500","category_name":"未知分类","address":"静安区江宁路167号食博汇2楼(近北京西路)"},{"poiid":"B2094757D068A4FE499F","title":"绿杨邨77坊","lon":"121.45566","lat":"31.22876","category":"72","category_name":"广东菜","address":"静安区奉贤路282号(近江宁路)"},{"poiid":"B2094751D465ABFE499F","title":"COSTA COFFEE(中信泰富店)","lon":"121.45587","lat":"31.22872","category":"65","category_name":"咖啡厅","address":"静安区南京西路1168号中信泰富广场501A单元(近江宁路)"},{"poiid":"B2094757D065AAFC439A","title":"兴业大厦","lon":"121.455293","lat":"31.230702","category":"252","category_name":"楼宇机构","address":"北京西路1028号,江宁路168号"},{"poiid":"B2094757D069A3FD479B","title":"藏乐汤坊(奉贤路店)","lon":"121.45448773","lat":"31.229040274","category":"72","category_name":"广东菜","address":"静安区奉贤路282号(美琪大戏院对面)"},{"poiid":"B2094750D26AA2FE489E","title":"枫日本料理","lon":"121.454406","lat":"31.230009","category":"95","category_name":"日本料理","address":"静安区北京西路1068号食博会2楼(近江宁路)"},{"poiid":"B2094757D465ABF8499B","title":"勝圆日本料理","lon":"121.456502","lat":"31.229761","category":"247","category_name":"餐饮美食","address":"静安区奉贤路286号(近江宁路)"},{"poiid":"B2094654DA6CA5F4449F","title":"亚盛大厦","lon":"121.45509","lat":"31.23098","category":"46","category_name":"楼宇","address":"江宁路188"},{"poiid":"B2094655D26FA3F5439E","title":"梅龙镇广场(三号门)","lon":"121.45617","lat":"31.22915","category":"119","category_name":"商场","address":"南京西路1038号"},{"poiid":"B2094752D76FAAF94799","title":"德克士（江宁路店）","lon":"121.455613","lat":"31.229652","category":"247","category_name":"餐饮美食","address":"江宁路奉贤路口"},{"poiid":"B2094757D064A5F94898","title":"石見日本料理","lon":"121.45568125","lat":"31.231307273","category":"95","category_name":"日本料理","address":"静安区北京西路991号(近江宁路)"},{"poiid":"B2094654DB69A7FD409D","title":"绿杨村酒家 江宁店","lon":"121.45604682298","lat":"31.229361757005","category":"247","category_name":"餐饮美食","address":"静安区江宁路77号美琪大戏院对面(近奉贤路)"},{"poiid":"B2094757D06EAAFD429A","title":"海底捞火锅店(北京西路店)","lon":"121.45505","lat":"31.23012","category":"86","category_name":"火锅店","address":"静安区北京西路1068号3楼(近江宁路)"},{"poiid":"B2094654DA6CA1F54793","title":"环艺电影城","lon":"121.45679","lat":"31.22907","category":"178","category_name":"电影院","address":"上海市静安区南京西路1038号梅龙镇广场10楼"},{"poiid":"B2094654DB6AA6FC4893","title":"星巴克(中信店)","lon":"121.4549","lat":"31.2286","category":"65","category_name":"咖啡厅","address":"静安区南京西路1168号中信泰富广场B1楼LG12单元(近陕西北路)"},{"poiid":"B2094753D76FAAFA449C","title":"上海滩国泰旗舰店","lon":"121.466011","lat":"31.216125","category":"249","category_name":"购物服务","address":"淮海中路868号"},{"poiid":"B209475CD564A7F84292","title":"上海滩新天地店","lon":"121.47463","lat":"31.22164","category":"119","category_name":"商场","address":"\"太仓路181弄新天地北里15号\r\n\""},{"poiid":"B2094655D26AA0FD449B","title":"好乐迪量贩式KTV（江宁路店）","lon":"121.45452","lat":"31.23065","category":"170","category_name":"KTV","address":"静安区江宁路167号食博汇4楼(近北京西路)"},{"poiid":"B2094757D06FA3FB449D","title":"蓝玛赫","lon":"121.455921","lat":"31.229122","category":"94","category_name":"西餐厅","address":"静安区南京西路1038号梅龙镇广场3楼319A(近江宁路)"},{"poiid":"B209475CD564A7F8439E","title":"上海滩中信泰富店","lon":"121.45602","lat":"31.22851","category":"119","category_name":"商场","address":"\"南京西路1168号中信泰富广场，店铺号221.\r\n\""},{"poiid":"B2094757D06FA3FC4698","title":"枣子树(江宁店)","lon":"121.456622771","lat":"31.2296432097","category":"89","category_name":"中式素餐馆","address":"静安区奉贤路258号(美琪剧院旁)"},{"poiid":"B2094654DB6BA6F54392","title":"梅龙镇商厦(南汇路)","lon":"121.45703","lat":"31.22942","category":"46","category_name":"楼宇","address":"南京西路1038号"},{"poiid":"B2094655D268A3FB4898","title":"麻辣诱惑 梅龙镇广场店 Spice Spirit","lon":"121.456538054","lat":"31.228397793","category":"71","category_name":"四川菜","address":"静安区南京西路1038号梅龙镇广场7楼(近江宁路)"},{"poiid":"B2094750D56EA1FD459F","title":"大牌小厨","lon":"121.454795","lat":"31.230346","category":"74","category_name":"江苏菜","address":"静安区江宁路167号新城大厦1楼"},{"poiid":"B2094757D068ABFC4093","title":"迈泰(江宁店)","lon":"121.455279838","lat":"31.2307829119","category":"99","category_name":"泰国／越南菜品餐厅","address":"静安区江宁路101号(北京西路口)"},{"poiid":"B2094655D268A6F84393","title":"台北吴记老锅底麻辣火锅(江宁路店)","lon":"121.45554","lat":"31.22933","category":"86","category_name":"火锅店","address":"上海静安区江宁路77号3楼(近中信泰富)"},{"poiid":"B2094752DB69AAF94292","title":"澳门肥仔文猪骨煲","lon":"121.456581","lat":"31.230287","category":"247","category_name":"餐饮美食","address":"上海市 上海市南汇路77号"},{"poiid":"B2094757D068A1FE4098","title":"上海爱莎金煦全套房酒店","lon":"121.454661","lat":"31.228642","category":"76","category_name":"上海菜","address":"静安区陕西北路288号爱莎金煦全套房酒店9楼(近南京西路)"},{"poiid":"B2094757D065A4F94993","title":"好乐迪","lon":"121.454527","lat":"31.230658","category":"500","category_name":"未知分类","address":"静安区江宁路167号食博汇4楼(近北京西路)"},{"poiid":"B2094757D06FA6FE4792","title":"瑞慈健康管理中心(凯迪克店)","lon":"121.45536","lat":"31.23056","category":"162","category_name":"医院","address":"上海静安区江宁路212号凯迪克大厦3楼(近北京西路)"},{"poiid":"B2094757D06FA0F84298","title":"圆苑酒家(梅陇镇店)","lon":"121.45652866","lat":"31.229180824","category":"75","category_name":"浙江菜","address":"静安区南京西路1038号梅龙镇广场4楼(近江宁路)"},{"poiid":"B2094750D76CA5FD419D","title":"Awana满金香","lon":"121.454","lat":"31.2299","category":"110","category_name":"其他亚洲菜","address":"静安区北京西路1124号1楼(近陕西北路)"},{"poiid":"B2094757D06FA3FF4192","title":"Wagas沃歌斯(中信泰富店)","lon":"121.45568753","lat":"31.228491679","category":"94","category_name":"西餐厅","address":"静安区南京西路1168号中信泰富B1楼(近陕西北路)"},{"poiid":"B2094752D06CA5FD469D","title":"小辉哥火锅","lon":"121.455719","lat":"31.228485","category":"247","category_name":"餐饮美食","address":"梅龙镇广场南京西路1038号701室-709室"},{"poiid":"B2094757DA64AAFD4993","title":"梅陇镇伊势丹商场(Westgate Tower)","lon":"121.456645","lat":"31.229242","category":"252","category_name":"楼宇机构","address":"南京西路1038号"},{"poiid":"B2094654DA6CA1F5499F","title":"河河亭铁板烧日本料理(南京西路)","lon":"121.45678","lat":"31.22907","category":"269","category_name":"烧烤","address":"静安区南京西路1038号梅龙镇广场5楼(近江宁路)"},{"poiid":"B2094757DB69A1FC409E","title":"梅陇镇广场环艺影城","lon":"121.454393","lat":"31.230119","category":"248","category_name":"生活娱乐","address":"静安区"},{"poiid":"B2094750D76EABF44393","title":"味皇港式茶餐厅","lon":"121.456","lat":"31.2287","category":"72","category_name":"广东菜","address":"静安区南京西路1168号中信泰富广场B1楼(近陕西北路)"},{"poiid":"B2094757D06FA6FD489E","title":"花水木(食博汇店)","lon":"121.45474243","lat":"31.230369567","category":"95","category_name":"日本料理","address":"上海静安区北京西路1068号食博汇2楼"},{"poiid":"B2094757D06FA2FC449D","title":"感智盲人保健会所(北京西路店)","lon":"121.45529","lat":"31.22981","category":"149","category_name":"洗浴推拿场所","address":"静安区北京西路1065号-1(近江宁路)"},{"poiid":"B2094757D065A2FF479A","title":"美国领事馆签证处","lon":"121.456695138","lat":"31.2288976717","category":"252","category_name":"楼宇机构","address":"静安区南京西路1038号梅龙镇广场8楼(近江宁路)"},{"poiid":"B2094757D068A1F4409B","title":"美琪桂林米粉","lon":"121.45652887304","lat":"31.228560252955","category":"68","category_name":"快餐厅","address":"静安区江宁路66-1号(近奉贤路)"},{"poiid":"B2094654DA6CA1F5489F","title":"异人馆","lon":"121.456538054","lat":"31.228397793","category":"95","category_name":"日本料理","address":"静安区南京西路1038号梅龙镇广场7楼(近江宁路)"},{"poiid":"B2094750DB68A2F8499C","title":"陈渔落宴","lon":"121.455184","lat":"31.229986","category":"71","category_name":"四川菜","address":"静安区北京西路1068号食博汇2楼(近江宁路)"},{"poiid":"B2094757D068A2FF439B","title":"鸭王(江宁店)","lon":"121.45576","lat":"31.22903","category":"260","category_name":"其他","address":"静安区江宁路77号(近奉贤路)"},{"poiid":"B2094757D06FA7F54692","title":"御锅坊","lon":"121.455117938","lat":"31.2284299317","category":"86","category_name":"火锅店","address":"静安区江宁路77号恒顺大厦7楼(奉贤路口)"},{"poiid":"B2094655D269ABFD4598","title":"烈火游艺机","lon":"121.45597","lat":"31.22938","category":"247","category_name":"餐饮美食","address":"静安区江宁路77号美琪大戏院4楼(近奉贤路)"},{"poiid":"B2094757D068A6FA4398","title":"银亭 Gintei  teppanyaki","lon":"121.4580654395","lat":"31.230427698102","category":"95","category_name":"日本料理","address":"静安区南汇路75号(近北京西路)"},{"poiid":"B2094750D664A4F54792","title":"徐家庄千岛湖鱼头王","lon":"121.457","lat":"31.2298","category":"76","category_name":"上海菜","address":"静安区南汇路52号(近梅龙镇广场)"},{"poiid":"B2094757D464A7F8499A","title":"日本料理成田屋","lon":"121.454851054","lat":"31.230204793","category":"95","category_name":"日本料理","address":"静安区北京西路1068号食博汇2楼(近江宁路)"},{"poiid":"B2094757D165ABF9499B","title":"康道会馆","lon":"121.45458573","lat":"31.22976629","category":"500","category_name":"未知分类","address":"静安区江宁路167号食博汇2楼(近北京西路)"},{"poiid":"B2094757D068A4FE499F","title":"绿杨邨77坊","lon":"121.45566","lat":"31.22876","category":"72","category_name":"广东菜","address":"静安区奉贤路282号(近江宁路)"},{"poiid":"B2094751D465ABFE499F","title":"COSTA COFFEE(中信泰富店)","lon":"121.45587","lat":"31.22872","category":"65","category_name":"咖啡厅","address":"静安区南京西路1168号中信泰富广场501A单元(近江宁路)"},{"poiid":"B2094757D065AAFC439A","title":"兴业大厦","lon":"121.455293","lat":"31.230702","category":"252","category_name":"楼宇机构","address":"北京西路1028号,江宁路168号"},{"poiid":"B2094757D069A3FD479B","title":"藏乐汤坊(奉贤路店)","lon":"121.45448773","lat":"31.229040274","category":"72","category_name":"广东菜","address":"静安区奉贤路282号(美琪大戏院对面)"},{"poiid":"B2094750D26AA2FE489E","title":"枫日本料理","lon":"121.454406","lat":"31.230009","category":"95","category_name":"日本料理","address":"静安区北京西路1068号食博会2楼(近江宁路)"},{"poiid":"B2094757D465ABF8499B","title":"勝圆日本料理","lon":"121.456502","lat":"31.229761","category":"247","category_name":"餐饮美食","address":"静安区奉贤路286号(近江宁路)"},{"poiid":"B2094654DA6CA5F4449F","title":"亚盛大厦","lon":"121.45509","lat":"31.23098","category":"46","category_name":"楼宇","address":"江宁路188"},{"poiid":"B2094655D26FA3F5439E","title":"梅龙镇广场(三号门)","lon":"121.45617","lat":"31.22915","category":"119","category_name":"商场","address":"南京西路1038号"},{"poiid":"B2094752D76FAAF94799","title":"德克士（江宁路店）","lon":"121.455613","lat":"31.229652","category":"247","category_name":"餐饮美食","address":"江宁路奉贤路口"},{"poiid":"B2094757D064A5F94898","title":"石見日本料理","lon":"121.45568125","lat":"31.231307273","category":"95","category_name":"日本料理","address":"静安区北京西路991号(近江宁路)"},{"poiid":"B2094654DB69A7FD409D","title":"绿杨村酒家 江宁店","lon":"121.45604682298","lat":"31.229361757005","category":"247","category_name":"餐饮美食","address":"静安区江宁路77号美琪大戏院对面(近奉贤路)"},{"poiid":"B2094757D06EAAFD429A","title":"海底捞火锅店(北京西路店)","lon":"121.45505","lat":"31.23012","category":"86","category_name":"火锅店","address":"静安区北京西路1068号3楼(近江宁路)"},{"poiid":"B2094654DA6CA1F54793","title":"环艺电影城","lon":"121.45679","lat":"31.22907","category":"178","category_name":"电影院","address":"上海市静安区南京西路1038号梅龙镇广场10楼"},{"poiid":"B2094654DB6AA6FC4893","title":"星巴克(中信店)","lon":"121.4549","lat":"31.2286","category":"65","category_name":"咖啡厅","address":"静安区南京西路1168号中信泰富广场B1楼LG12单元(近陕西北路)"},{"poiid":"B2094753D76FAAFA449C","title":"上海滩国泰旗舰店","lon":"121.466011","lat":"31.216125","category":"249","category_name":"购物服务","address":"淮海中路868号"},{"poiid":"B209475CD564A7F84292","title":"上海滩新天地店","lon":"121.47463","lat":"31.22164","category":"119","category_name":"商场","address":"\"太仓路181弄新天地北里15号\r\n\""},{"poiid":"B2094655D26AA0FD449B","title":"好乐迪量贩式KTV（江宁路店）","lon":"121.45452","lat":"31.23065","category":"170","category_name":"KTV","address":"静安区江宁路167号食博汇4楼(近北京西路)"},{"poiid":"B2094757D06FA3FB449D","title":"蓝玛赫","lon":"121.455921","lat":"31.229122","category":"94","category_name":"西餐厅","address":"静安区南京西路1038号梅龙镇广场3楼319A(近江宁路)"},{"poiid":"B209475CD564A7F8439E","title":"上海滩中信泰富店","lon":"121.45602","lat":"31.22851","category":"119","category_name":"商场","address":"\"南京西路1168号中信泰富广场，店铺号221.\r\n\""},{"poiid":"B2094757D06FA3FC4698","title":"枣子树(江宁店)","lon":"121.456622771","lat":"31.2296432097","category":"89","category_name":"中式素餐馆","address":"静安区奉贤路258号(美琪剧院旁)"},{"poiid":"B2094654DB6BA6F54392","title":"梅龙镇商厦(南汇路)","lon":"121.45703","lat":"31.22942","category":"46","category_name":"楼宇","address":"南京西路1038号"},{"poiid":"B2094655D268A3FB4898","title":"麻辣诱惑 梅龙镇广场店 Spice Spirit","lon":"121.456538054","lat":"31.228397793","category":"71","category_name":"四川菜","address":"静安区南京西路1038号梅龙镇广场7楼(近江宁路)"},{"poiid":"B2094750D56EA1FD459F","title":"大牌小厨","lon":"121.454795","lat":"31.230346","category":"74","category_name":"江苏菜","address":"静安区江宁路167号新城大厦1楼"},{"poiid":"B2094757D068ABFC4093","title":"迈泰(江宁店)","lon":"121.455279838","lat":"31.2307829119","category":"99","category_name":"泰国／越南菜品餐厅","address":"静安区江宁路101号(北京西路口)"},{"poiid":"B2094655D268A6F84393","title":"台北吴记老锅底麻辣火锅(江宁路店)","lon":"121.45554","lat":"31.22933","category":"86","category_name":"火锅店","address":"上海静安区江宁路77号3楼(近中信泰富)"},{"poiid":"B2094752DB69AAF94292","title":"澳门肥仔文猪骨煲","lon":"121.456581","lat":"31.230287","category":"247","category_name":"餐饮美食","address":"上海市 上海市南汇路77号"},{"poiid":"B2094757D068A1FE4098","title":"上海爱莎金煦全套房酒店","lon":"121.454661","lat":"31.228642","category":"76","category_name":"上海菜","address":"静安区陕西北路288号爱莎金煦全套房酒店9楼(近南京西路)"},{"poiid":"B2094757D065A4F94993","title":"好乐迪","lon":"121.454527","lat":"31.230658","category":"500","category_name":"未知分类","address":"静安区江宁路167号食博汇4楼(近北京西路)"},{"poiid":"B2094757D06FA6FE4792","title":"瑞慈健康管理中心(凯迪克店)","lon":"121.45536","lat":"31.23056","category":"162","category_name":"医院","address":"上海静安区江宁路212号凯迪克大厦3楼(近北京西路)"},{"poiid":"B2094757D06FA0F84298","title":"圆苑酒家(梅陇镇店)","lon":"121.45652866","lat":"31.229180824","category":"75","category_name":"浙江菜","address":"静安区南京西路1038号梅龙镇广场4楼(近江宁路)"},{"poiid":"B2094750D76CA5FD419D","title":"Awana满金香","lon":"121.454","lat":"31.2299","category":"110","category_name":"其他亚洲菜","address":"静安区北京西路1124号1楼(近陕西北路)"},{"poiid":"B2094757D06FA3FF4192","title":"Wagas沃歌斯(中信泰富店)","lon":"121.45568753","lat":"31.228491679","category":"94","category_name":"西餐厅","address":"静安区南京西路1168号中信泰富B1楼(近陕西北路)"},{"poiid":"B2094752D06CA5FD469D","title":"小辉哥火锅","lon":"121.455719","lat":"31.228485","category":"247","category_name":"餐饮美食","address":"梅龙镇广场南京西路1038号701室-709室"},{"poiid":"B2094757DA64AAFD4993","title":"梅陇镇伊势丹商场(Westgate Tower)","lon":"121.456645","lat":"31.229242","category":"252","category_name":"楼宇机构","address":"南京西路1038号"},{"poiid":"B2094654DA6CA1F5499F","title":"河河亭铁板烧日本料理(南京西路)","lon":"121.45678","lat":"31.22907","category":"269","category_name":"烧烤","address":"静安区南京西路1038号梅龙镇广场5楼(近江宁路)"},{"poiid":"B2094757DB69A1FC409E","title":"梅陇镇广场环艺影城","lon":"121.454393","lat":"31.230119","category":"248","category_name":"生活娱乐","address":"静安区"},{"poiid":"B2094750D76EABF44393","title":"味皇港式茶餐厅","lon":"121.456","lat":"31.2287","category":"72","category_name":"广东菜","address":"静安区南京西路1168号中信泰富广场B1楼(近陕西北路)"},{"poiid":"B2094757D06FA6FD489E","title":"花水木(食博汇店)","lon":"121.45474243","lat":"31.230369567","category":"95","category_name":"日本料理","address":"上海静安区北京西路1068号食博汇2楼"},{"poiid":"B2094757D06FA2FC449D","title":"感智盲人保健会所(北京西路店)","lon":"121.45529","lat":"31.22981","category":"149","category_name":"洗浴推拿场所","address":"静安区北京西路1065号-1(近江宁路)"},{"poiid":"B2094757D065A2FF479A","title":"美国领事馆签证处","lon":"121.456695138","lat":"31.2288976717","category":"252","category_name":"楼宇机构","address":"静安区南京西路1038号梅龙镇广场8楼(近江宁路)"},{"poiid":"B2094757D068A1F4409B","title":"美琪桂林米粉","lon":"121.45652887304","lat":"31.228560252955","category":"68","category_name":"快餐厅","address":"静安区江宁路66-1号(近奉贤路)"},{"poiid":"B2094654DA6CA1F5489F","title":"异人馆","lon":"121.456538054","lat":"31.228397793","category":"95","category_name":"日本料理","address":"静安区南京西路1038号梅龙镇广场7楼(近江宁路)"},{"poiid":"B2094750DB68A2F8499C","title":"陈渔落宴","lon":"121.455184","lat":"31.229986","category":"71","category_name":"四川菜","address":"静安区北京西路1068号食博汇2楼(近江宁路)"},{"poiid":"B2094757D068A2FF439B","title":"鸭王(江宁店)","lon":"121.45576","lat":"31.22903","category":"260","category_name":"其他","address":"静安区江宁路77号(近奉贤路)"},{"poiid":"B2094757D06FA7F54692","title":"御锅坊","lon":"121.455117938","lat":"31.2284299317","category":"86","category_name":"火锅店","address":"静安区江宁路77号恒顺大厦7楼(奉贤路口)"},{"poiid":"B2094655D269ABFD4598","title":"烈火游艺机","lon":"121.45597","lat":"31.22938","category":"247","category_name":"餐饮美食","address":"静安区江宁路77号美琪大戏院4楼(近奉贤路)"},{"poiid":"B2094757D068A6FA4398","title":"银亭 Gintei  teppanyaki","lon":"121.4580654395","lat":"31.230427698102","category":"95","category_name":"日本料理","address":"静安区南汇路75号(近北京西路)"},{"poiid":"B2094750D664A4F54792","title":"徐家庄千岛湖鱼头王","lon":"121.457","lat":"31.2298","category":"76","category_name":"上海菜","address":"静安区南汇路52号(近梅龙镇广场)"},{"poiid":"B2094757D464A7F8499A","title":"日本料理成田屋","lon":"121.454851054","lat":"31.230204793","category":"95","category_name":"日本料理","address":"静安区北京西路1068号食博汇2楼(近江宁路)"},{"poiid":"B2094757D165ABF9499B","title":"康道会馆","lon":"121.45458573","lat":"31.22976629","category":"500","category_name":"未知分类","address":"静安区江宁路167号食博汇2楼(近北京西路)"},{"poiid":"B2094757D068A4FE499F","title":"绿杨邨77坊","lon":"121.45566","lat":"31.22876","category":"72","category_name":"广东菜","address":"静安区奉贤路282号(近江宁路)"},{"poiid":"B2094751D465ABFE499F","title":"COSTA COFFEE(中信泰富店)","lon":"121.45587","lat":"31.22872","category":"65","category_name":"咖啡厅","address":"静安区南京西路1168号中信泰富广场501A单元(近江宁路)"},{"poiid":"B2094757D065AAFC439A","title":"兴业大厦","lon":"121.455293","lat":"31.230702","category":"252","category_name":"楼宇机构","address":"北京西路1028号,江宁路168号"},{"poiid":"B2094757D069A3FD479B","title":"藏乐汤坊(奉贤路店)","lon":"121.45448773","lat":"31.229040274","category":"72","category_name":"广东菜","address":"静安区奉贤路282号(美琪大戏院对面)"},{"poiid":"B2094750D26AA2FE489E","title":"枫日本料理","lon":"121.454406","lat":"31.230009","category":"95","category_name":"日本料理","address":"静安区北京西路1068号食博会2楼(近江宁路)"},{"poiid":"B2094757D465ABF8499B","title":"勝圆日本料理","lon":"121.456502","lat":"31.229761","category":"247","category_name":"餐饮美食","address":"静安区奉贤路286号(近江宁路)"},{"poiid":"B2094654DA6CA5F4449F","title":"亚盛大厦","lon":"121.45509","lat":"31.23098","category":"46","category_name":"楼宇","address":"江宁路188"},{"poiid":"B2094655D26FA3F5439E","title":"梅龙镇广场(三号门)","lon":"121.45617","lat":"31.22915","category":"119","category_name":"商场","address":"南京西路1038号"},{"poiid":"B2094752D76FAAF94799","title":"德克士（江宁路店）","lon":"121.455613","lat":"31.229652","category":"247","category_name":"餐饮美食","address":"江宁路奉贤路口"},{"poiid":"B2094757D064A5F94898","title":"石見日本料理","lon":"121.45568125","lat":"31.231307273","category":"95","category_name":"日本料理","address":"静安区北京西路991号(近江宁路)"},{"poiid":"B2094654DB69A7FD409D","title":"绿杨村酒家 江宁店","lon":"121.45604682298","lat":"31.229361757005","category":"247","category_name":"餐饮美食","address":"静安区江宁路77号美琪大戏院对面(近奉贤路)"},{"poiid":"B2094757D06EAAFD429A","title":"海底捞火锅店(北京西路店)","lon":"121.45505","lat":"31.23012","category":"86","category_name":"火锅店","address":"静安区北京西路1068号3楼(近江宁路)"},{"poiid":"B2094654DA6CA1F54793","title":"环艺电影城","lon":"121.45679","lat":"31.22907","category":"178","category_name":"电影院","address":"上海市静安区南京西路1038号梅龙镇广场10楼"},{"poiid":"B2094654DB6AA6FC4893","title":"星巴克(中信店)","lon":"121.4549","lat":"31.2286","category":"65","category_name":"咖啡厅","address":"静安区南京西路1168号中信泰富广场B1楼LG12单元(近陕西北路)"},{"poiid":"B2094753D76FAAFA449C","title":"上海滩国泰旗舰店","lon":"121.466011","lat":"31.216125","category":"249","category_name":"购物服务","address":"淮海中路868号"},{"poiid":"B209475CD564A7F84292","title":"上海滩新天地店","lon":"121.47463","lat":"31.22164","category":"119","category_name":"商场","address":"\"太仓路181弄新天地北里15号\r\n\""},{"poiid":"B2094655D26AA0FD449B","title":"好乐迪量贩式KTV（江宁路店）","lon":"121.45452","lat":"31.23065","category":"170","category_name":"KTV","address":"静安区江宁路167号食博汇4楼(近北京西路)"},{"poiid":"B2094757D06FA3FB449D","title":"蓝玛赫","lon":"121.455921","lat":"31.229122","category":"94","category_name":"西餐厅","address":"静安区南京西路1038号梅龙镇广场3楼319A(近江宁路)"},{"poiid":"B209475CD564A7F8439E","title":"上海滩中信泰富店","lon":"121.45602","lat":"31.22851","category":"119","category_name":"商场","address":"\"南京西路1168号中信泰富广场，店铺号221.\r\n\""},{"poiid":"B2094757D06FA3FC4698","title":"枣子树(江宁店)","lon":"121.456622771","lat":"31.2296432097","category":"89","category_name":"中式素餐馆","address":"静安区奉贤路258号(美琪剧院旁)"},{"poiid":"B2094654DB6BA6F54392","title":"梅龙镇商厦(南汇路)","lon":"121.45703","lat":"31.22942","category":"46","category_name":"楼宇","address":"南京西路1038号"},{"poiid":"B2094655D268A3FB4898","title":"麻辣诱惑 梅龙镇广场店 Spice Spirit","lon":"121.456538054","lat":"31.228397793","category":"71","category_name":"四川菜","address":"静安区南京西路1038号梅龙镇广场7楼(近江宁路)"},{"poiid":"B2094750D56EA1FD459F","title":"大牌小厨","lon":"121.454795","lat":"31.230346","category":"74","category_name":"江苏菜","address":"静安区江宁路167号新城大厦1楼"},{"poiid":"B2094757D068ABFC4093","title":"迈泰(江宁店)","lon":"121.455279838","lat":"31.2307829119","category":"99","category_name":"泰国／越南菜品餐厅","address":"静安区江宁路101号(北京西路口)"},{"poiid":"B2094655D268A6F84393","title":"台北吴记老锅底麻辣火锅(江宁路店)","lon":"121.45554","lat":"31.22933","category":"86","category_name":"火锅店","address":"上海静安区江宁路77号3楼(近中信泰富)"},{"poiid":"B2094752DB69AAF94292","title":"澳门肥仔文猪骨煲","lon":"121.456581","lat":"31.230287","category":"247","category_name":"餐饮美食","address":"上海市 上海市南汇路77号"},{"poiid":"B2094757D068A1FE4098","title":"上海爱莎金煦全套房酒店","lon":"121.454661","lat":"31.228642","category":"76","category_name":"上海菜","address":"静安区陕西北路288号爱莎金煦全套房酒店9楼(近南京西路)"},{"poiid":"B2094757D065A4F94993","title":"好乐迪","lon":"121.454527","lat":"31.230658","category":"500","category_name":"未知分类","address":"静安区江宁路167号食博汇4楼(近北京西路)"},{"poiid":"B2094757D06FA6FE4792","title":"瑞慈健康管理中心(凯迪克店)","lon":"121.45536","lat":"31.23056","category":"162","category_name":"医院","address":"上海静安区江宁路212号凯迪克大厦3楼(近北京西路)"},{"poiid":"B2094757D06FA0F84298","title":"圆苑酒家(梅陇镇店)","lon":"121.45652866","lat":"31.229180824","category":"75","category_name":"浙江菜","address":"静安区南京西路1038号梅龙镇广场4楼(近江宁路)"},{"poiid":"B2094750D76CA5FD419D","title":"Awana满金香","lon":"121.454","lat":"31.2299","category":"110","category_name":"其他亚洲菜","address":"静安区北京西路1124号1楼(近陕西北路)"},{"poiid":"B2094757D06FA3FF4192","title":"Wagas沃歌斯(中信泰富店)","lon":"121.45568753","lat":"31.228491679","category":"94","category_name":"西餐厅","address":"静安区南京西路1168号中信泰富B1楼(近陕西北路)"},{"poiid":"B2094752D06CA5FD469D","title":"小辉哥火锅","lon":"121.455719","lat":"31.228485","category":"247","category_name":"餐饮美食","address":"梅龙镇广场南京西路1038号701室-709室"},{"poiid":"B2094757DA64AAFD4993","title":"梅陇镇伊势丹商场(Westgate Tower)","lon":"121.456645","lat":"31.229242","category":"252","category_name":"楼宇机构","address":"南京西路1038号"},{"poiid":"B2094654DA6CA1F5499F","title":"河河亭铁板烧日本料理(南京西路)","lon":"121.45678","lat":"31.22907","category":"269","category_name":"烧烤","address":"静安区南京西路1038号梅龙镇广场5楼(近江宁路)"},{"poiid":"B2094757DB69A1FC409E","title":"梅陇镇广场环艺影城","lon":"121.454393","lat":"31.230119","category":"248","category_name":"生活娱乐","address":"静安区"},{"poiid":"B2094750D76EABF44393","title":"味皇港式茶餐厅","lon":"121.456","lat":"31.2287","category":"72","category_name":"广东菜","address":"静安区南京西路1168号中信泰富广场B1楼(近陕西北路)"},{"poiid":"B2094757D06FA6FD489E","title":"花水木(食博汇店)","lon":"121.45474243","lat":"31.230369567","category":"95","category_name":"日本料理","address":"上海静安区北京西路1068号食博汇2楼"},{"poiid":"B2094757D06FA2FC449D","title":"感智盲人保健会所(北京西路店)","lon":"121.45529","lat":"31.22981","category":"149","category_name":"洗浴推拿场所","address":"静安区北京西路1065号-1(近江宁路)"},{"poiid":"B2094757D065A2FF479A","title":"美国领事馆签证处","lon":"121.456695138","lat":"31.2288976717","category":"252","category_name":"楼宇机构","address":"静安区南京西路1038号梅龙镇广场8楼(近江宁路)"},{"poiid":"B2094757D068A1F4409B","title":"美琪桂林米粉","lon":"121.45652887304","lat":"31.228560252955","category":"68","category_name":"快餐厅","address":"静安区江宁路66-1号(近奉贤路)"},{"poiid":"B2094654DA6CA1F5489F","title":"异人馆","lon":"121.456538054","lat":"31.228397793","category":"95","category_name":"日本料理","address":"静安区南京西路1038号梅龙镇广场7楼(近江宁路)"},{"poiid":"B2094750DB68A2F8499C","title":"陈渔落宴","lon":"121.455184","lat":"31.229986","category":"71","category_name":"四川菜","address":"静安区北京西路1068号食博汇2楼(近江宁路)"},{"poiid":"B2094757D068A2FF439B","title":"鸭王(江宁店)","lon":"121.45576","lat":"31.22903","category":"260","category_name":"其他","address":"静安区江宁路77号(近奉贤路)"},{"poiid":"B2094757D06FA7F54692","title":"御锅坊","lon":"121.455117938","lat":"31.2284299317","category":"86","category_name":"火锅店","address":"静安区江宁路77号恒顺大厦7楼(奉贤路口)"},{"poiid":"B2094655D269ABFD4598","title":"烈火游艺机","lon":"121.45597","lat":"31.22938","category":"247","category_name":"餐饮美食","address":"静安区江宁路77号美琪大戏院4楼(近奉贤路)"},{"poiid":"B2094757D068A6FA4398","title":"银亭 Gintei  teppanyaki","lon":"121.4580654395","lat":"31.230427698102","category":"95","category_name":"日本料理","address":"静安区南汇路75号(近北京西路)"},{"poiid":"B2094750D664A4F54792","title":"徐家庄千岛湖鱼头王","lon":"121.457","lat":"31.2298","category":"76","category_name":"上海菜","address":"静安区南汇路52号(近梅龙镇广场)"},{"poiid":"B2094757D464A7F8499A","title":"日本料理成田屋","lon":"121.454851054","lat":"31.230204793","category":"95","category_name":"日本料理","address":"静安区北京西路1068号食博汇2楼(近江宁路)"},{"poiid":"B2094757D165ABF9499B","title":"康道会馆","lon":"121.45458573","lat":"31.22976629","category":"500","category_name":"未知分类","address":"静安区江宁路167号食博汇2楼(近北京西路)"},{"poiid":"B2094757D068A4FE499F","title":"绿杨邨77坊","lon":"121.45566","lat":"31.22876","category":"72","category_name":"广东菜","address":"静安区奉贤路282号(近江宁路)"},{"poiid":"B2094751D465ABFE499F","title":"COSTA COFFEE(中信泰富店)","lon":"121.45587","lat":"31.22872","category":"65","category_name":"咖啡厅","address":"静安区南京西路1168号中信泰富广场501A单元(近江宁路)"},{"poiid":"B2094757D065AAFC439A","title":"兴业大厦","lon":"121.455293","lat":"31.230702","category":"252","category_name":"楼宇机构","address":"北京西路1028号,江宁路168号"},{"poiid":"B2094757D069A3FD479B","title":"藏乐汤坊(奉贤路店)","lon":"121.45448773","lat":"31.229040274","category":"72","category_name":"广东菜","address":"静安区奉贤路282号(美琪大戏院对面)"},{"poiid":"B2094750D26AA2FE489E","title":"枫日本料理","lon":"121.454406","lat":"31.230009","category":"95","category_name":"日本料理","address":"静安区北京西路1068号食博会2楼(近江宁路)"},{"poiid":"B2094757D465ABF8499B","title":"勝圆日本料理","lon":"121.456502","lat":"31.229761","category":"247","category_name":"餐饮美食","address":"静安区奉贤路286号(近江宁路)"},{"poiid":"B2094654DA6CA5F4449F","title":"亚盛大厦","lon":"121.45509","lat":"31.23098","category":"46","category_name":"楼宇","address":"江宁路188"},{"poiid":"B2094655D26FA3F5439E","title":"梅龙镇广场(三号门)","lon":"121.45617","lat":"31.22915","category":"119","category_name":"商场","address":"南京西路1038号"},{"poiid":"B2094752D76FAAF94799","title":"德克士（江宁路店）","lon":"121.455613","lat":"31.229652","category":"247","category_name":"餐饮美食","address":"江宁路奉贤路口"},{"poiid":"B2094757D064A5F94898","title":"石見日本料理","lon":"121.45568125","lat":"31.231307273","category":"95","category_name":"日本料理","address":"静安区北京西路991号(近江宁路)"},{"poiid":"B2094654DB69A7FD409D","title":"绿杨村酒家 江宁店","lon":"121.45604682298","lat":"31.229361757005","category":"247","category_name":"餐饮美食","address":"静安区江宁路77号美琪大戏院对面(近奉贤路)"}]