[{"poiid":"B2094757D068A4FF419C","title":"梅陇镇广场","lon":"121.456631071","lat":"31.2264992206","category":"119","category_name":"商场","address":"松江区荣乐东路1133弄"},{"poiid":"B2094757D06EAAF84199","title":"梅龙镇伊势丹广场","lon":"121.45681952","lat":"31.228880108","category":"119","category_name":"商场","address":"上海静安区南京西路1038号梅龙镇广场(近江宁路)"},{"poiid":"B2094654DA6CA1F54793","title":"环艺电影城","lon":"121.45679","lat":"31.22907","category":"178","category_name":"电影院","address":"上海市静安区南京西路1038号梅龙镇广场10楼"},{"poiid":"B2094753D76FAAFA449C","title":"上海滩国泰旗舰店","lon":"121.466011","lat":"31.216125","category":"249","category_name":"购物服务","address":"淮海中路868号"},{"poiid":"B209475CD564A7F84292","title":"上海滩新天地店","lon":"121.47463","lat":"31.22164","category":"119","category_name":"商场","address":"\"太仓路181弄新天地北里15号\r\n\""},{"poiid":"B209475CD564A7F8439E","title":"上海滩中信泰富店","lon":"121.45602","lat":"31.22851","category":"119","category_name":"商场","address":"\"南京西路1168号中信泰富广场，店铺号221.\r\n\""},{"poiid":"B2094654DB69A6F44893","title":"金钱豹餐饮(中信店)","lon":"121.45568","lat":"31.22796","category":"247","category_name":"餐饮美食","address":"静安区南京西路1168号中信泰富广场4-5楼(近陕西北路)"},{"poiid":"B2094654DB64A7F94793","title":"玛满矿(中信泰富店)","lon":"121.45568","lat":"31.22796","category":"99","category_name":"泰国／越南菜品餐厅","address":"静安区南京西路1168号中信泰富广场4楼417号铺(近陕西北路)"},{"poiid":"B2094757D06FA3FB449D","title":"蓝玛赫","lon":"121.455921","lat":"31.229122","category":"94","category_name":"西餐厅","address":"静安区南京西路1038号梅龙镇广场3楼319A(近江宁路)"},{"poiid":"B2094655D268A3FB4898","title":"麻辣诱惑 梅龙镇广场店 Spice Spirit","lon":"121.456538054","lat":"31.228397793","category":"71","category_name":"四川菜","address":"静安区南京西路1038号梅龙镇广场7楼(近江宁路)"},{"poiid":"B2094654DB6BA6F54092","title":"俏江南(南京西路)","lon":"121.45569","lat":"31.22796","category":"71","category_name":"四川菜","address":"静安区南京西路1168号中信泰富广场3楼(近陕西北路)"},{"poiid":"B2094757D06FA1F44193","title":"翡翠酒家 梅龙镇店 Crystal Jade","lon":"121.45665764809","lat":"31.228605488824","category":"72","category_name":"广东菜","address":"静安区南京西路1038号梅龙镇广场7楼(近江宁路)"},{"poiid":"B2094654DA6CA1FF469C","title":"新镇江酒家","lon":"121.45673","lat":"31.22814","category":"74","category_name":"江苏菜","address":"静安区南京西路1111号(近江宁路)"},{"poiid":"B2094654DA6CA1FF4499","title":"麦当劳(南京西路)","lon":"121.45569","lat":"31.22796","category":"68","category_name":"快餐厅","address":"静安区南京西路1168号中信泰富广场B1楼(近陕西北路)"},{"poiid":"B2094757D06FA5FF4792","title":"美国驻上海总领事馆(Consulate General of the United States in Shanghai)","lon":"121.45674315","lat":"31.228797151","category":"46","category_name":"楼宇","address":"上海徐汇区淮海中路1469号(近乌鲁木齐南路)"},{"poiid":"B2094757D06FA6F44693","title":"哈根达斯(梅龙镇店)","lon":"121.45737","lat":"31.22847","category":"113","category_name":"冷饮店","address":"静安区南京西路1038号梅龙镇广场1楼109C-D(近江宁路)"},{"poiid":"B2094757D068A3FB469E","title":"梅龙镇酒家(总店)","lon":"121.4561979","lat":"31.228197746","category":"75","category_name":"浙江菜","address":"静安区南京西路1081弄22号(近江宁路)"},{"poiid":"B2094757D06FA6FD4598","title":"小南国(金鹰广场店)","lon":"121.45523","lat":"31.22788","category":"76","category_name":"上海菜","address":"静安区陕西北路278号金鹰国际购物中心7楼(近南京西路)"},{"poiid":"B2094757D06FA0F84298","title":"圆苑酒家(梅陇镇店)","lon":"121.45652866","lat":"31.229180824","category":"75","category_name":"浙江菜","address":"静安区南京西路1038号梅龙镇广场4楼(近江宁路)"},{"poiid":"B2094655D26DAAFB4999","title":"中信泰富广场(南门)","lon":"121.45568","lat":"31.22795","category":"656","category_name":"大门","address":""},{"poiid":"B2094757D06FA3FF4192","title":"Wagas沃歌斯(中信泰富店)","lon":"121.45568753","lat":"31.228491679","category":"94","category_name":"西餐厅","address":"静安区南京西路1168号中信泰富B1楼(近陕西北路)"},{"poiid":"B2094752D06CA5FD469D","title":"小辉哥火锅","lon":"121.455719","lat":"31.228485","category":"247","category_name":"餐饮美食","address":"梅龙镇广场南京西路1038号701室-709室"},{"poiid":"B2094654DA6CA1F5499F","title":"河河亭铁板烧日本料理(南京西路)","lon":"121.45678","lat":"31.22907","category":"269","category_name":"烧烤","address":"静安区南京西路1038号梅龙镇广场5楼(近江宁路)"},{"poiid":"B2094750D76EABF44393","title":"味皇港式茶餐厅","lon":"121.456","lat":"31.2287","category":"72","category_name":"广东菜","address":"静安区南京西路1168号中信泰富广场B1楼(近陕西北路)"},{"poiid":"B2094654DA6CA1FA489C","title":"上海民主党派大厦","lon":"121.45629","lat":"31.22603","category":"46","category_name":"楼宇","address":"上海市静安区陕西北路128号"},{"poiid":"B2094757D065A2FF479A","title":"美国领事馆签证处","lon":"121.456695138","lat":"31.2288976717","category":"252","category_name":"楼宇机构","address":"静安区南京西路1038号梅龙镇广场8楼(近江宁路)"},{"poiid":"B2094757D068A1F4409B","title":"美琪桂林米粉","lon":"121.45652887304","lat":"31.228560252955","category":"68","category_name":"快餐厅","address":"静安区江宁路66-1号(近奉贤路)"},{"poiid":"B2094654DA6CA1F5489F","title":"异人馆","lon":"121.456538054","lat":"31.228397793","category":"95","category_name":"日本料理","address":"静安区南京西路1038号梅龙镇广场7楼(近江宁路)"},{"poiid":"B2094757D068A2FF439B","title":"鸭王(江宁店)","lon":"121.45576","lat":"31.22903","category":"260","category_name":"其他","address":"静安区江宁路77号(近奉贤路)"},{"poiid":"B2094757D06FA7F54692","title":"御锅坊","lon":"121.455117938","lat":"31.2284299317","category":"86","category_name":"火锅店","address":"静安区江宁路77号恒顺大厦7楼(奉贤路口)"},{"poiid":"B2094757D06FA0FA459F","title":"1001原汁牛肉面(金鹰店)","lon":"121.45492","lat":"31.2283","category":"68","category_name":"快餐厅","address":"静安区陕西北路278号金鹰国际购物广场6B6号(近南京西路)"},{"poiid":"B2094757D06FA0FE4599","title":"寿司处武贞(梅龙镇店)","lon":"121.45699","lat":"31.22835","category":"95","category_name":"日本料理","address":"上海静安区南京西路1038号梅龙镇广场B1楼  "},{"poiid":"B2094757D06FA3F44792","title":"ZARA(南京西路店)","lon":"121.45491766","lat":"31.227113854","category":"141","category_name":"服装鞋帽皮具店","address":"静安区南京西路1201号(近陕西北路)"},{"poiid":"B2094757D06FA7FF4898","title":"吉惠日式料理(江宁路店)","lon":"121.45468873","lat":"31.227172234","category":"95","category_name":"日本料理","address":"上海市静安区江宁路77号三楼"},{"poiid":"B2094757D068A0FF4698","title":"wagas","lon":"121.45502473","lat":"31.227744247","category":"500","category_name":"未知分类","address":"常州中信泰富地下一樓"},{"poiid":"B2094752D665A0FE449E","title":"点点心","lon":"121.457295","lat":"31.227772","category":"247","category_name":"餐饮美食","address":"南京西路889号2楼"},{"poiid":"B2094757D06FA5FE459E","title":"Gucci(金鹰店)","lon":"121.45552","lat":"31.22787","category":"141","category_name":"服装鞋帽皮具店","address":"上海静安区陕西北路278号金鹰国际购物中心(近南京西路)  "},{"poiid":"B2094757D66CABFC439A","title":"麻辣誘惑","lon":"121.456319738","lat":"31.2284212615","category":"247","category_name":"餐饮美食","address":"上海梅龍鎮"},{"poiid":"B2094757D16CA4F4469F","title":"中兴泰富","lon":"121.455156738","lat":"31.2279352512","category":"500","category_name":"未知分类","address":"上海南京西路1168号"},{"poiid":"B2094757D068A4FE499F","title":"绿杨邨77坊","lon":"121.45566","lat":"31.22876","category":"72","category_name":"广东菜","address":"静安区奉贤路282号(近江宁路)"},{"poiid":"B2094757D06FA0F9479C","title":"McDonald Citic","lon":"121.45477327","lat":"31.227719613","category":"68","category_name":"快餐厅","address":"上海中信泰富1635"},{"poiid":"B2094655D26BA3FE439E","title":"汉堡王 梅龙镇店 Burger King","lon":"121.456526054","lat":"31.228408793","category":"68","category_name":"快餐厅","address":"静安区南京西路1038号梅龙镇广场B1楼(近江宁路)"},{"poiid":"B2094654DA6CA1FF449D","title":"鱼翅捞饭 静安店","lon":"121.455857054","lat":"31.227937793","category":"72","category_name":"广东菜","address":"静安区南京西路1168号中信泰富广场5楼(近陕西北路)"},{"poiid":"B2094654D564ABFF4192","title":"巨富大厦","lon":"121.45722681438","lat":"31.226610095807","category":"46","category_name":"楼宇","address":"越秀区环市东路362-366号"},{"poiid":"B2094757D06BA4F8499C","title":"榄香","lon":"121.45519373","lat":"31.226518221","category":"247","category_name":"餐饮美食","address":"上海金鹰"},{"poiid":"B2094751D465ABFE499F","title":"COSTA COFFEE(中信泰富店)","lon":"121.45587","lat":"31.22872","category":"65","category_name":"咖啡厅","address":"静安区南京西路1168号中信泰富广场501A单元(近江宁路)"},{"poiid":"B2094757D06BA3F54492","title":"Godiva(梅龙镇广场店)","lon":"121.45701","lat":"31.22834","category":"67","category_name":"甜品店","address":"静安区南京西路1038号梅龙镇广场1楼3号商铺(近江宁路)"},{"poiid":"B2094757D06AA0F84392","title":"威尔士健身会所(金鹰广场店)","lon":"121.4549","lat":"31.22828","category":"148","category_name":"美容美发店","address":"静安区陕西北路278号金鹰国际购物中心8楼(近南京西路)"},{"poiid":"B2094655D26FA3F5439E","title":"梅龙镇广场(三号门)","lon":"121.45617","lat":"31.22915","category":"119","category_name":"商场","address":"南京西路1038号"},{"poiid":"B2094751D56CA3FD469B","title":"COSTA COFFEE(环艺影城店)","lon":"121.45669","lat":"31.22864","category":"65","category_name":"咖啡厅","address":"静安区南京西路1038号梅龙镇广场10楼B区(近江宁路)"},{"poiid":"B2094757D068A4FF419C","title":"梅陇镇广场","lon":"121.456631071","lat":"31.2264992206","category":"119","category_name":"商场","address":"松江区荣乐东路1133弄"},{"poiid":"B2094757D06EAAF84199","title":"梅龙镇伊势丹广场","lon":"121.45681952","lat":"31.228880108","category":"119","category_name":"商场","address":"上海静安区南京西路1038号梅龙镇广场(近江宁路)"},{"poiid":"B2094654DA6CA1F54793","title":"环艺电影城","lon":"121.45679","lat":"31.22907","category":"178","category_name":"电影院","address":"上海市静安区南京西路1038号梅龙镇广场10楼"},{"poiid":"B2094753D76FAAFA449C","title":"上海滩国泰旗舰店","lon":"121.466011","lat":"31.216125","category":"249","category_name":"购物服务","address":"淮海中路868号"},{"poiid":"B209475CD564A7F84292","title":"上海滩新天地店","lon":"121.47463","lat":"31.22164","category":"119","category_name":"商场","address":"\"太仓路181弄新天地北里15号\r\n\""},{"poiid":"B209475CD564A7F8439E","title":"上海滩中信泰富店","lon":"121.45602","lat":"31.22851","category":"119","category_name":"商场","address":"\"南京西路1168号中信泰富广场，店铺号221.\r\n\""},{"poiid":"B2094654DB69A6F44893","title":"金钱豹餐饮(中信店)","lon":"121.45568","lat":"31.22796","category":"247","category_name":"餐饮美食","address":"静安区南京西路1168号中信泰富广场4-5楼(近陕西北路)"},{"poiid":"B2094654DB64A7F94793","title":"玛满矿(中信泰富店)","lon":"121.45568","lat":"31.22796","category":"99","category_name":"泰国／越南菜品餐厅","address":"静安区南京西路1168号中信泰富广场4楼417号铺(近陕西北路)"},{"poiid":"B2094757D06FA3FB449D","title":"蓝玛赫","lon":"121.455921","lat":"31.229122","category":"94","category_name":"西餐厅","address":"静安区南京西路1038号梅龙镇广场3楼319A(近江宁路)"},{"poiid":"B2094655D268A3FB4898","title":"麻辣诱惑 梅龙镇广场店 Spice Spirit","lon":"121.456538054","lat":"31.228397793","category":"71","category_name":"四川菜","address":"静安区南京西路1038号梅龙镇广场7楼(近江宁路)"},{"poiid":"B2094654DB6BA6F54092","title":"俏江南(南京西路)","lon":"121.45569","lat":"31.22796","category":"71","category_name":"四川菜","address":"静安区南京西路1168号中信泰富广场3楼(近陕西北路)"},{"poiid":"B2094757D06FA1F44193","title":"翡翠酒家 梅龙镇店 Crystal Jade","lon":"121.45665764809","lat":"31.228605488824","category":"72","category_name":"广东菜","address":"静安区南京西路1038号梅龙镇广场7楼(近江宁路)"},{"poiid":"B2094654DA6CA1FF469C","title":"新镇江酒家","lon":"121.45673","lat":"31.22814","category":"74","category_name":"江苏菜","address":"静安区南京西路1111号(近江宁路)"},{"poiid":"B2094654DA6CA1FF4499","title":"麦当劳(南京西路)","lon":"121.45569","lat":"31.22796","category":"68","category_name":"快餐厅","address":"静安区南京西路1168号中信泰富广场B1楼(近陕西北路)"},{"poiid":"B2094757D06FA5FF4792","title":"美国驻上海总领事馆(Consulate General of the United States in Shanghai)","lon":"121.45674315","lat":"31.228797151","category":"46","category_name":"楼宇","address":"上海徐汇区淮海中路1469号(近乌鲁木齐南路)"},{"poiid":"B2094757D06FA6F44693","title":"哈根达斯(梅龙镇店)","lon":"121.45737","lat":"31.22847","category":"113","category_name":"冷饮店","address":"静安区南京西路1038号梅龙镇广场1楼109C-D(近江宁路)"},{"poiid":"B2094757D068A3FB469E","title":"梅龙镇酒家(总店)","lon":"121.4561979","lat":"31.228197746","category":"75","category_name":"浙江菜","address":"静安区南京西路1081弄22号(近江宁路)"},{"poiid":"B2094757D06FA6FD4598","title":"小南国(金鹰广场店)","lon":"121.45523","lat":"31.22788","category":"76","category_name":"上海菜","address":"静安区陕西北路278号金鹰国际购物中心7楼(近南京西路)"},{"poiid":"B2094757D06FA0F84298","title":"圆苑酒家(梅陇镇店)","lon":"121.45652866","lat":"31.229180824","category":"75","category_name":"浙江菜","address":"静安区南京西路1038号梅龙镇广场4楼(近江宁路)"},{"poiid":"B2094655D26DAAFB4999","title":"中信泰富广场(南门)","lon":"121.45568","lat":"31.22795","category":"656","category_name":"大门","address":""},{"poiid":"B2094757D06FA3FF4192","title":"Wagas沃歌斯(中信泰富店)","lon":"121.45568753","lat":"31.228491679","category":"94","category_name":"西餐厅","address":"静安区南京西路1168号中信泰富B1楼(近陕西北路)"},{"poiid":"B2094752D06CA5FD469D","title":"小辉哥火锅","lon":"121.455719","lat":"31.228485","category":"247","category_name":"餐饮美食","address":"梅龙镇广场南京西路1038号701室-709室"},{"poiid":"B2094654DA6CA1F5499F","title":"河河亭铁板烧日本料理(南京西路)","lon":"121.45678","lat":"31.22907","category":"269","category_name":"烧烤","address":"静安区南京西路1038号梅龙镇广场5楼(近江宁路)"},{"poiid":"B2094750D76EABF44393","title":"味皇港式茶餐厅","lon":"121.456","lat":"31.2287","category":"72","category_name":"广东菜","address":"静安区南京西路1168号中信泰富广场B1楼(近陕西北路)"},{"poiid":"B2094654DA6CA1FA489C","title":"上海民主党派大厦","lon":"121.45629","lat":"31.22603","category":"46","category_name":"楼宇","address":"上海市静安区陕西北路128号"},{"poiid":"B2094757D065A2FF479A","title":"美国领事馆签证处","lon":"121.456695138","lat":"31.2288976717","category":"252","category_name":"楼宇机构","address":"静安区南京西路1038号梅龙镇广场8楼(近江宁路)"},{"poiid":"B2094757D068A1F4409B","title":"美琪桂林米粉","lon":"121.45652887304","lat":"31.228560252955","category":"68","category_name":"快餐厅","address":"静安区江宁路66-1号(近奉贤路)"},{"poiid":"B2094654DA6CA1F5489F","title":"异人馆","lon":"121.456538054","lat":"31.228397793","category":"95","category_name":"日本料理","address":"静安区南京西路1038号梅龙镇广场7楼(近江宁路)"},{"poiid":"B2094757D068A2FF439B","title":"鸭王(江宁店)","lon":"121.45576","lat":"31.22903","category":"260","category_name":"其他","address":"静安区江宁路77号(近奉贤路)"},{"poiid":"B2094757D06FA7F54692","title":"御锅坊","lon":"121.455117938","lat":"31.2284299317","category":"86","category_name":"火锅店","address":"静安区江宁路77号恒顺大厦7楼(奉贤路口)"},{"poiid":"B2094757D06FA0FA459F","title":"1001原汁牛肉面(金鹰店)","lon":"121.45492","lat":"31.2283","category":"68","category_name":"快餐厅","address":"静安区陕西北路278号金鹰国际购物广场6B6号(近南京西路)"},{"poiid":"B2094757D06FA0FE4599","title":"寿司处武贞(梅龙镇店)","lon":"121.45699","lat":"31.22835","category":"95","category_name":"日本料理","address":"上海静安区南京西路1038号梅龙镇广场B1楼  "},{"poiid":"B2094757D06FA3F44792","title":"ZARA(南京西路店)","lon":"121.45491766","lat":"31.227113854","category":"141","category_name":"服装鞋帽皮具店","address":"静安区南京西路1201号(近陕西北路)"},{"poiid":"B2094757D06FA7FF4898","title":"吉惠日式料理(江宁路店)","lon":"121.45468873","lat":"31.227172234","category":"95","category_name":"日本料理","address":"上海市静安区江宁路77号三楼"},{"poiid":"B2094757D068A0FF4698","title":"wagas","lon":"121.45502473","lat":"31.227744247","category":"500","category_name":"未知分类","address":"常州中信泰富地下一樓"},{"poiid":"B2094752D665A0FE449E","title":"点点心","lon":"121.457295","lat":"31.227772","category":"247","category_name":"餐饮美食","address":"南京西路889号2楼"},{"poiid":"B2094757D06FA5FE459E","title":"Gucci(金鹰店)","lon":"121.45552","lat":"31.22787","category":"141","category_name":"服装鞋帽皮具店","address":"上海静安区陕西北路278号金鹰国际购物中心(近南京西路)  "},{"poiid":"B2094757D66CABFC439A","title":"麻辣誘惑","lon":"121.456319738","lat":"31.2284212615","category":"247","category_name":"餐饮美食","address":"上海梅龍鎮"},{"poiid":"B2094757D16CA4F4469F","title":"中兴泰富","lon":"121.455156738","lat":"31.2279352512","category":"500","category_name":"未知分类","address":"上海南京西路1168号"},{"poiid":"B2094757D068A4FE499F","title":"绿杨邨77坊","lon":"121.45566","lat":"31.22876","category":"72","category_name":"广东菜","address":"静安区奉贤路282号(近江宁路)"},{"poiid":"B2094757D06FA0F9479C","title":"McDonald Citic","lon":"121.45477327","lat":"31.227719613","category":"68","category_name":"快餐厅","address":"上海中信泰富1635"},{"poiid":"B2094655D26BA3FE439E","title":"汉堡王 梅龙镇店 Burger King","lon":"121.456526054","lat":"31.228408793","category":"68","category_name":"快餐厅","address":"静安区南京西路1038号梅龙镇广场B1楼(近江宁路)"},{"poiid":"B2094654DA6CA1FF449D","title":"鱼翅捞饭 静安店","lon":"121.455857054","lat":"31.227937793","category":"72","category_name":"广东菜","address":"静安区南京西路1168号中信泰富广场5楼(近陕西北路)"},{"poiid":"B2094654D564ABFF4192","title":"巨富大厦","lon":"121.45722681438","lat":"31.226610095807","category":"46","category_name":"楼宇","address":"越秀区环市东路362-366号"},{"poiid":"B2094757D06BA4F8499C","title":"榄香","lon":"121.45519373","lat":"31.226518221","category":"247","category_name":"餐饮美食","address":"上海金鹰"},{"poiid":"B2094751D465ABFE499F","title":"COSTA COFFEE(中信泰富店)","lon":"121.45587","lat":"31.22872","category":"65","category_name":"咖啡厅","address":"静安区南京西路1168号中信泰富广场501A单元(近江宁路)"},{"poiid":"B2094757D06BA3F54492","title":"Godiva(梅龙镇广场店)","lon":"121.45701","lat":"31.22834","category":"67","category_name":"甜品店","address":"静安区南京西路1038号梅龙镇广场1楼3号商铺(近江宁路)"},{"poiid":"B2094757D06AA0F84392","title":"威尔士健身会所(金鹰广场店)","lon":"121.4549","lat":"31.22828","category":"148","category_name":"美容美发店","address":"静安区陕西北路278号金鹰国际购物中心8楼(近南京西路)"},{"poiid":"B2094655D26FA3F5439E","title":"梅龙镇广场(三号门)","lon":"121.45617","lat":"31.22915","category":"119","category_name":"商场","address":"南京西路1038号"},{"poiid":"B2094751D56CA3FD469B","title":"COSTA COFFEE(环艺影城店)","lon":"121.45669","lat":"31.22864","category":"65","category_name":"咖啡厅","address":"静安区南京西路1038号梅龙镇广场10楼B区(近江宁路)"},{"poiid":"B2094757D068A4FF419C","title":"梅陇镇广场","lon":"121.456631071","lat":"31.2264992206","category":"119","category_name":"商场","address":"松江区荣乐东路1133弄"},{"poiid":"B2094757D06EAAF84199","title":"梅龙镇伊势丹广场","lon":"121.45681952","lat":"31.228880108","category":"119","category_name":"商场","address":"上海静安区南京西路1038号梅龙镇广场(近江宁路)"},{"poiid":"B2094654DA6CA1F54793","title":"环艺电影城","lon":"121.45679","lat":"31.22907","category":"178","category_name":"电影院","address":"上海市静安区南京西路1038号梅龙镇广场10楼"},{"poiid":"B2094753D76FAAFA449C","title":"上海滩国泰旗舰店","lon":"121.466011","lat":"31.216125","category":"249","category_name":"购物服务","address":"淮海中路868号"},{"poiid":"B209475CD564A7F84292","title":"上海滩新天地店","lon":"121.47463","lat":"31.22164","category":"119","category_name":"商场","address":"\"太仓路181弄新天地北里15号\r\n\""},{"poiid":"B209475CD564A7F8439E","title":"上海滩中信泰富店","lon":"121.45602","lat":"31.22851","category":"119","category_name":"商场","address":"\"南京西路1168号中信泰富广场，店铺号221.\r\n\""},{"poiid":"B2094654DB69A6F44893","title":"金钱豹餐饮(中信店)","lon":"121.45568","lat":"31.22796","category":"247","category_name":"餐饮美食","address":"静安区南京西路1168号中信泰富广场4-5楼(近陕西北路)"},{"poiid":"B2094654DB64A7F94793","title":"玛满矿(中信泰富店)","lon":"121.45568","lat":"31.22796","category":"99","category_name":"泰国／越南菜品餐厅","address":"静安区南京西路1168号中信泰富广场4楼417号铺(近陕西北路)"},{"poiid":"B2094757D06FA3FB449D","title":"蓝玛赫","lon":"121.455921","lat":"31.229122","category":"94","category_name":"西餐厅","address":"静安区南京西路1038号梅龙镇广场3楼319A(近江宁路)"},{"poiid":"B2094655D268A3FB4898","title":"麻辣诱惑 梅龙镇广场店 Spice Spirit","lon":"121.456538054","lat":"31.228397793","category":"71","category_name":"四川菜","address":"静安区南京西路1038号梅龙镇广场7楼(近江宁路)"},{"poiid":"B2094654DB6BA6F54092","title":"俏江南(南京西路)","lon":"121.45569","lat":"31.22796","category":"71","category_name":"四川菜","address":"静安区南京西路1168号中信泰富广场3楼(近陕西北路)"},{"poiid":"B2094757D06FA1F44193","title":"翡翠酒家 梅龙镇店 Crystal Jade","lon":"121.45665764809","lat":"31.228605488824","category":"72","category_name":"广东菜","address":"静安区南京西路1038号梅龙镇广场7楼(近江宁路)"},{"poiid":"B2094654DA6CA1FF469C","title":"新镇江酒家","lon":"121.45673","lat":"31.22814","category":"74","category_name":"江苏菜","address":"静安区南京西路1111号(近江宁路)"},{"poiid":"B2094654DA6CA1FF4499","title":"麦当劳(南京西路)","lon":"121.45569","lat":"31.22796","category":"68","category_name":"快餐厅","address":"静安区南京西路1168号中信泰富广场B1楼(近陕西北路)"},{"poiid":"B2094757D06FA5FF4792","title":"美国驻上海总领事馆(Consulate General of the United States in Shanghai)","lon":"121.45674315","lat":"31.228797151","category":"46","category_name":"楼宇","address":"上海徐汇区淮海中路1469号(近乌鲁木齐南路)"},{"poiid":"B2094757D06FA6F44693","title":"哈根达斯(梅龙镇店)","lon":"121.45737","lat":"31.22847","category":"113","category_name":"冷饮店","address":"静安区南京西路1038号梅龙镇广场1楼109C-D(近江宁路)"},{"poiid":"B2094757D068A3FB469E","title":"梅龙镇酒家(总店)","lon":"121.4561979","lat":"31.228197746","category":"75","category_name":"浙江菜","address":"静安区南京西路1081弄22号(近江宁路)"},{"poiid":"B2094757D06FA6FD4598","title":"小南国(金鹰广场店)","lon":"121.45523","lat":"31.22788","category":"76","category_name":"上海菜","address":"静安区陕西北路278号金鹰国际购物中心7楼(近南京西路)"},{"poiid":"B2094757D06FA0F84298","title":"圆苑酒家(梅陇镇店)","lon":"121.45652866","lat":"31.229180824","category":"75","category_name":"浙江菜","address":"静安区南京西路1038号梅龙镇广场4楼(近江宁路)"},{"poiid":"B2094655D26DAAFB4999","title":"中信泰富广场(南门)","lon":"121.45568","lat":"31.22795","category":"656","category_name":"大门","address":""},{"poiid":"B2094757D06FA3FF4192","title":"Wagas沃歌斯(中信泰富店)","lon":"121.45568753","lat":"31.228491679","category":"94","category_name":"西餐厅","address":"静安区南京西路1168号中信泰富B1楼(近陕西北路)"},{"poiid":"B2094752D06CA5FD469D","title":"小辉哥火锅","lon":"121.455719","lat":"31.228485","category":"247","category_name":"餐饮美食","address":"梅龙镇广场南京西路1038号701室-709室"},{"poiid":"B2094654DA6CA1F5499F","title":"河河亭铁板烧日本料理(南京西路)","lon":"121.45678","lat":"31.22907","category":"269","category_name":"烧烤","address":"静安区南京西路1038号梅龙镇广场5楼(近江宁路)"},{"poiid":"B2094750D76EABF44393","title":"味皇港式茶餐厅","lon":"121.456","lat":"31.2287","category":"72","category_name":"广东菜","address":"静安区南京西路1168号中信泰富广场B1楼(近陕西北路)"},{"poiid":"B2094654DA6CA1FA489C","title":"上海民主党派大厦","lon":"121.45629","lat":"31.22603","category":"46","category_name":"楼宇","address":"上海市静安区陕西北路128号"},{"poiid":"B2094757D065A2FF479A","title":"美国领事馆签证处","lon":"121.456695138","lat":"31.2288976717","category":"252","category_name":"楼宇机构","address":"静安区南京西路1038号梅龙镇广场8楼(近江宁路)"},{"poiid":"B2094757D068A1F4409B","title":"美琪桂林米粉","lon":"121.45652887304","lat":"31.228560252955","category":"68","category_name":"快餐厅","address":"静安区江宁路66-1号(近奉贤路)"},{"poiid":"B2094654DA6CA1F5489F","title":"异人馆","lon":"121.456538054","lat":"31.228397793","category":"95","category_name":"日本料理","address":"静安区南京西路1038号梅龙镇广场7楼(近江宁路)"},{"poiid":"B2094757D068A2FF439B","title":"鸭王(江宁店)","lon":"121.45576","lat":"31.22903","category":"260","category_name":"其他","address":"静安区江宁路77号(近奉贤路)"},{"poiid":"B2094757D06FA7F54692","title":"御锅坊","lon":"121.455117938","lat":"31.2284299317","category":"86","category_name":"火锅店","address":"静安区江宁路77号恒顺大厦7楼(奉贤路口)"},{"poiid":"B2094757D06FA0FA459F","title":"1001原汁牛肉面(金鹰店)","lon":"121.45492","lat":"31.2283","category":"68","category_name":"快餐厅","address":"静安区陕西北路278号金鹰国际购物广场6B6号(近南京西路)"},{"poiid":"B2094757D06FA0FE4599","title":"寿司处武贞(梅龙镇店)","lon":"121.45699","lat":"31.22835","category":"95","category_name":"日本料理","address":"上海静安区南京西路1038号梅龙镇广场B1楼  "},{"poiid":"B2094757D06FA3F44792","title":"ZARA(南京西路店)","lon":"121.45491766","lat":"31.227113854","category":"141","category_name":"服装鞋帽皮具店","address":"静安区南京西路1201号(近陕西北路)"},{"poiid":"B2094757D06FA7FF4898","title":"吉惠日式料理(江宁路店)","lon":"121.45468873","lat":"31.227172234","category":"95","category_name":"日本料理","address":"上海市静安区江宁路77号三楼"},{"poiid":"B2094757D068A0FF4698","title":"wagas","lon":"121.45502473","lat":"31.227744247","category":"500","category_name":"未知分类","address":"常州中信泰富地下一樓"},{"poiid":"B2094752D665A0FE449E","title":"点点心","lon":"121.457295","lat":"31.227772","category":"247","category_name":"餐饮美食","address":"南京西路889号2楼"},{"poiid":"B2094757D06FA5FE459E","title":"Gucci(金鹰店)","lon":"121.45552","lat":"31.22787","category":"141","category_name":"服装鞋帽皮具店","address":"上海静安区陕西北路278号金鹰国际购物中心(近南京西路)  "},{"poiid":"B2094757D66CABFC439A","title":"麻辣誘惑","lon":"121.456319738","lat":"31.2284212615","category":"247","category_name":"餐饮美食","address":"上海梅龍鎮"},{"poiid":"B2094757D16CA4F4469F","title":"中兴泰富","lon":"121.455156738","lat":"31.2279352512","category":"500","category_name":"未知分类","address":"上海南京西路1168号"},{"poiid":"B2094757D068A4FE499F","title":"绿杨邨77坊","lon":"121.45566","lat":"31.22876","category":"72","category_name":"广东菜","address":"静安区奉贤路282号(近江宁路)"},{"poiid":"B2094757D06FA0F9479C","title":"McDonald Citic","lon":"121.45477327","lat":"31.227719613","category":"68","category_name":"快餐厅","address":"上海中信泰富1635"},{"poiid":"B2094655D26BA3FE439E","title":"汉堡王 梅龙镇店 Burger King","lon":"121.456526054","lat":"31.228408793","category":"68","category_name":"快餐厅","address":"静安区南京西路1038号梅龙镇广场B1楼(近江宁路)"},{"poiid":"B2094654DA6CA1FF449D","title":"鱼翅捞饭 静安店","lon":"121.455857054","lat":"31.227937793","category":"72","category_name":"广东菜","address":"静安区南京西路1168号中信泰富广场5楼(近陕西北路)"},{"poiid":"B2094654D564ABFF4192","title":"巨富大厦","lon":"121.45722681438","lat":"31.226610095807","category":"46","category_name":"楼宇","address":"越秀区环市东路362-366号"},{"poiid":"B2094757D06BA4F8499C","title":"榄香","lon":"121.45519373","lat":"31.226518221","category":"247","category_name":"餐饮美食","address":"上海金鹰"},{"poiid":"B2094751D465ABFE499F","title":"COSTA COFFEE(中信泰富店)","lon":"121.45587","lat":"31.22872","category":"65","category_name":"咖啡厅","address":"静安区南京西路1168号中信泰富广场501A单元(近江宁路)"},{"poiid":"B2094757D06BA3F54492","title":"Godiva(梅龙镇广场店)","lon":"121.45701","lat":"31.22834","category":"67","category_name":"甜品店","address":"静安区南京西路1038号梅龙镇广场1楼3号商铺(近江宁路)"},{"poiid":"B2094757D06AA0F84392","title":"威尔士健身会所(金鹰广场店)","lon":"121.4549","lat":"31.22828","category":"148","category_name":"美容美发店","address":"静安区陕西北路278号金鹰国际购物中心8楼(近南京西路)"},{"poiid":"B2094655D26FA3F5439E","title":"梅龙镇广场(三号门)","lon":"121.45617","lat":"31.22915","category":"119","category_name":"商场","address":"南京西路1038号"},{"poiid":"B2094751D56CA3FD469B","title":"COSTA COFFEE(环艺影城店)","lon":"121.45669","lat":"31.22864","category":"65","category_name":"咖啡厅","address":"静安区南京西路1038号梅龙镇广场10楼B区(近江宁路)"},{"poiid":"B2094757D068A4FF419C","title":"梅陇镇广场","lon":"121.456631071","lat":"31.2264992206","category":"119","category_name":"商场","address":"松江区荣乐东路1133弄"},{"poiid":"B2094757D06EAAF84199","title":"梅龙镇伊势丹广场","lon":"121.45681952","lat":"31.228880108","category":"119","category_name":"商场","address":"上海静安区南京西路1038号梅龙镇广场(近江宁路)"},{"poiid":"B2094654DA6CA1F54793","title":"环艺电影城","lon":"121.45679","lat":"31.22907","category":"178","category_name":"电影院","address":"上海市静安区南京西路1038号梅龙镇广场10楼"},{"poiid":"B2094753D76FAAFA449C","title":"上海滩国泰旗舰店","lon":"121.466011","lat":"31.216125","category":"249","category_name":"购物服务","address":"淮海中路868号"},{"poiid":"B209475CD564A7F84292","title":"上海滩新天地店","lon":"121.47463","lat":"31.22164","category":"119","category_name":"商场","address":"\"太仓路181弄新天地北里15号\r\n\""},{"poiid":"B209475CD564A7F8439E","title":"上海滩中信泰富店","lon":"121.45602","lat":"31.22851","category":"119","category_name":"商场","address":"\"南京西路1168号中信泰富广场，店铺号221.\r\n\""},{"poiid":"B2094654DB69A6F44893","title":"金钱豹餐饮(中信店)","lon":"121.45568","lat":"31.22796","category":"247","category_name":"餐饮美食","address":"静安区南京西路1168号中信泰富广场4-5楼(近陕西北路)"},{"poiid":"B2094654DB64A7F94793","title":"玛满矿(中信泰富店)","lon":"121.45568","lat":"31.22796","category":"99","category_name":"泰国／越南菜品餐厅","address":"静安区南京西路1168号中信泰富广场4楼417号铺(近陕西北路)"},{"poiid":"B2094757D06FA3FB449D","title":"蓝玛赫","lon":"121.455921","lat":"31.229122","category":"94","category_name":"西餐厅","address":"静安区南京西路1038号梅龙镇广场3楼319A(近江宁路)"},{"poiid":"B2094655D268A3FB4898","title":"麻辣诱惑 梅龙镇广场店 Spice Spirit","lon":"121.456538054","lat":"31.228397793","category":"71","category_name":"四川菜","address":"静安区南京西路1038号梅龙镇广场7楼(近江宁路)"},{"poiid":"B2094654DB6BA6F54092","title":"俏江南(南京西路)","lon":"121.45569","lat":"31.22796","category":"71","category_name":"四川菜","address":"静安区南京西路1168号中信泰富广场3楼(近陕西北路)"},{"poiid":"B2094757D06FA1F44193","title":"翡翠酒家 梅龙镇店 Crystal Jade","lon":"121.45665764809","lat":"31.228605488824","category":"72","category_name":"广东菜","address":"静安区南京西路1038号梅龙镇广场7楼(近江宁路)"},{"poiid":"B2094654DA6CA1FF469C","title":"新镇江酒家","lon":"121.45673","lat":"31.22814","category":"74","category_name":"江苏菜","address":"静安区南京西路1111号(近江宁路)"},{"poiid":"B2094654DA6CA1FF4499","title":"麦当劳(南京西路)","lon":"121.45569","lat":"31.22796","category":"68","category_name":"快餐厅","address":"静安区南京西路1168号中信泰富广场B1楼(近陕西北路)"},{"poiid":"B2094757D06FA5FF4792","title":"美国驻上海总领事馆(Consulate General of the United States in Shanghai)","lon":"121.45674315","lat":"31.228797151","category":"46","category_name":"楼宇","address":"上海徐汇区淮海中路1469号(近乌鲁木齐南路)"},{"poiid":"B2094757D06FA6F44693","title":"哈根达斯(梅龙镇店)","lon":"121.45737","lat":"31.22847","category":"113","category_name":"冷饮店","address":"静安区南京西路1038号梅龙镇广场1楼109C-D(近江宁路)"},{"poiid":"B2094757D068A3FB469E","title":"梅龙镇酒家(总店)","lon":"121.4561979","lat":"31.228197746","category":"75","category_name":"浙江菜","address":"静安区南京西路1081弄22号(近江宁路)"},{"poiid":"B2094757D06FA6FD4598","title":"小南国(金鹰广场店)","lon":"121.45523","lat":"31.22788","category":"76","category_name":"上海菜","address":"静安区陕西北路278号金鹰国际购物中心7楼(近南京西路)"},{"poiid":"B2094757D06FA0F84298","title":"圆苑酒家(梅陇镇店)","lon":"121.45652866","lat":"31.229180824","category":"75","category_name":"浙江菜","address":"静安区南京西路1038号梅龙镇广场4楼(近江宁路)"},{"poiid":"B2094655D26DAAFB4999","title":"中信泰富广场(南门)","lon":"121.45568","lat":"31.22795","category":"656","category_name":"大门","address":""},{"poiid":"B2094757D06FA3FF4192","title":"Wagas沃歌斯(中信泰富店)","lon":"121.45568753","lat":"31.228491679","category":"94","category_name":"西餐厅","address":"静安区南京西路1168号中信泰富B1楼(近陕西北路)"},{"poiid":"B2094752D06CA5FD469D","title":"小辉哥火锅","lon":"121.455719","lat":"31.228485","category":"247","category_name":"餐饮美食","address":"梅龙镇广场南京西路1038号701室-709室"},{"poiid":"B2094654DA6CA1F5499F","title":"河河亭铁板烧日本料理(南京西路)","lon":"121.45678","lat":"31.22907","category":"269","category_name":"烧烤","address":"静安区南京西路1038号梅龙镇广场5楼(近江宁路)"},{"poiid":"B2094750D76EABF44393","title":"味皇港式茶餐厅","lon":"121.456","lat":"31.2287","category":"72","category_name":"广东菜","address":"静安区南京西路1168号中信泰富广场B1楼(近陕西北路)"},{"poiid":"B2094654DA6CA1FA489C","title":"上海民主党派大厦","lon":"121.45629","lat":"31.22603","category":"46","category_name":"楼宇","address":"上海市静安区陕西北路128号"},{"poiid":"B2094757D065A2FF479A","title":"美国领事馆签证处","lon":"121.456695138","lat":"31.2288976717","category":"252","category_name":"楼宇机构","address":"静安区南京西路1038号梅龙镇广场8楼(近江宁路)"},{"poiid":"B2094757D068A1F4409B","title":"美琪桂林米粉","lon":"121.45652887304","lat":"31.228560252955","category":"68","category_name":"快餐厅","address":"静安区江宁路66-1号(近奉贤路)"},{"poiid":"B2094654DA6CA1F5489F","title":"异人馆","lon":"121.456538054","lat":"31.228397793","category":"95","category_name":"日本料理","address":"静安区南京西路1038号梅龙镇广场7楼(近江宁路)"},{"poiid":"B2094757D068A2FF439B","title":"鸭王(江宁店)","lon":"121.45576","lat":"31.22903","category":"260","category_name":"其他","address":"静安区江宁路77号(近奉贤路)"},{"poiid":"B2094757D06FA7F54692","title":"御锅坊","lon":"121.455117938","lat":"31.2284299317","category":"86","category_name":"火锅店","address":"静安区江宁路77号恒顺大厦7楼(奉贤路口)"},{"poiid":"B2094757D06FA0FA459F","title":"1001原汁牛肉面(金鹰店)","lon":"121.45492","lat":"31.2283","category":"68","category_name":"快餐厅","address":"静安区陕西北路278号金鹰国际购物广场6B6号(近南京西路)"},{"poiid":"B2094757D06FA0FE4599","title":"寿司处武贞(梅龙镇店)","lon":"121.45699","lat":"31.22835","category":"95","category_name":"日本料理","address":"上海静安区南京西路1038号梅龙镇广场B1楼  "},{"poiid":"B2094757D06FA3F44792","title":"ZARA(南京西路店)","lon":"121.45491766","lat":"31.227113854","category":"141","category_name":"服装鞋帽皮具店","address":"静安区南京西路1201号(近陕西北路)"},{"poiid":"B2094757D06FA7FF4898","title":"吉惠日式料理(江宁路店)","lon":"121.45468873","lat":"31.227172234","category":"95","category_name":"日本料理","address":"上海市静安区江宁路77号三楼"},{"poiid":"B2094757D068A0FF4698","title":"wagas","lon":"121.45502473","lat":"31.227744247","category":"500","category_name":"未知分类","address":"常州中信泰富地下一樓"},{"poiid":"B2094752D665A0FE449E","title":"点点心","lon":"121.457295","lat":"31.227772","category":"247","category_name":"餐饮美食","address":"南京西路889号2楼"},{"poiid":"B2094757D06FA5FE459E","title":"Gucci(金鹰店)","lon":"121.45552","lat":"31.22787","category":"141","category_name":"服装鞋帽皮具店","address":"上海静安区陕西北路278号金鹰国际购物中心(近南京西路)  "},{"poiid":"B2094757D66CABFC439A","title":"麻辣誘惑","lon":"121.456319738","lat":"31.2284212615","category":"247","category_name":"餐饮美食","address":"上海梅龍鎮"},{"poiid":"B2094757D16CA4F4469F","title":"中兴泰富","lon":"121.455156738","lat":"31.2279352512","category":"500","category_name":"未知分类","address":"上海南京西路1168号"},{"poiid":"B2094757D068A4FE499F","title":"绿杨邨77坊","lon":"121.45566","lat":"31.22876","category":"72","category_name":"广东菜","address":"静安区奉贤路282号(近江宁路)"},{"poiid":"B2094757D06FA0F9479C","title":"McDonald Citic","lon":"121.45477327","lat":"31.227719613","category":"68","category_name":"快餐厅","address":"上海中信泰富1635"},{"poiid":"B2094655D26BA3FE439E","title":"汉堡王 梅龙镇店 Burger King","lon":"121.456526054","lat":"31.228408793","category":"68","category_name":"快餐厅","address":"静安区南京西路1038号梅龙镇广场B1楼(近江宁路)"},{"poiid":"B2094654DA6CA1FF449D","title":"鱼翅捞饭 静安店","lon":"121.455857054","lat":"31.227937793","category":"72","category_name":"广东菜","address":"静安区南京西路1168号中信泰富广场5楼(近陕西北路)"},{"poiid":"B2094654D564ABFF4192","title":"巨富大厦","lon":"121.45722681438","lat":"31.226610095807","category":"46","category_name":"楼宇","address":"越秀区环市东路362-366号"},{"poiid":"B2094757D06BA4F8499C","title":"榄香","lon":"121.45519373","lat":"31.226518221","category":"247","category_name":"餐饮美食","address":"上海金鹰"},{"poiid":"B2094751D465ABFE499F","title":"COSTA COFFEE(中信泰富店)","lon":"121.45587","lat":"31.22872","category":"65","category_name":"咖啡厅","address":"静安区南京西路1168号中信泰富广场501A单元(近江宁路)"},{"poiid":"B2094757D06BA3F54492","title":"Godiva(梅龙镇广场店)","lon":"121.45701","lat":"31.22834","category":"67","category_name":"甜品店","address":"静安区南京西路1038号梅龙镇广场1楼3号商铺(近江宁路)"},{"poiid":"B2094757D06AA0F84392","title":"威尔士健身会所(金鹰广场店)","lon":"121.4549","lat":"31.22828","category":"148","category_name":"美容美发店","address":"静安区陕西北路278号金鹰国际购物中心8楼(近南京西路)"},{"poiid":"B2094655D26FA3F5439E","title":"梅龙镇广场(三号门)","lon":"121.45617","lat":"31.22915","category":"119","category_name":"商场","address":"南京西路1038号"},{"poiid":"B2094751D56CA3FD469B","title":"COSTA COFFEE(环艺影城店)","lon":"121.45669","lat":"31.22864","category":"65","category_name":"咖啡厅","address":"静安区南京西路1038号梅龙镇广场10楼B区(近江宁路)"},{"poiid":"B2094757D068A4FF419C","title":"梅陇镇广场","lon":"121.456631071","lat":"31.2264992206","category":"119","category_name":"商场","address":"松江区荣乐东路1133弄"},{"poiid":"B2094757D06EAAF84199","title":"梅龙镇伊势丹广场","lon":"121.45681952","lat":"31.228880108","category":"119","category_name":"商场","address":"上海静安区南京西路1038号梅龙镇广场(近江宁路)"},{"poiid":"B2094654DA6CA1F54793","title":"环艺电影城","lon":"121.45679","lat":"31.22907","category":"178","category_name":"电影院","address":"上海市静安区南京西路1038号梅龙镇广场10楼"},{"poiid":"B2094753D76FAAFA449C","title":"上海滩国泰旗舰店","lon":"121.466011","lat":"31.216125","category":"249","category_name":"购物服务","address":"淮海中路868号"},{"poiid":"B209475CD564A7F84292","title":"上海滩新天地店","lon":"121.47463","lat":"31.22164","category":"119","category_name":"商场","address":"\"太仓路181弄新天地北里15号\r\n\""},{"poiid":"B209475CD564A7F8439E","title":"上海滩中信泰富店","lon":"121.45602","lat":"31.22851","category":"119","category_name":"商场","address":"\"南京西路1168号中信泰富广场，店铺号221.\r\n\""},{"poiid":"B2094654DB69A6F44893","title":"金钱豹餐饮(中信店)","lon":"121.45568","lat":"31.22796","category":"247","category_name":"餐饮美食","address":"静安区南京西路1168号中信泰富广场4-5楼(近陕西北路)"},{"poiid":"B2094654DB64A7F94793","title":"玛满矿(中信泰富店)","lon":"121.45568","lat":"31.22796","category":"99","category_name":"泰国／越南菜品餐厅","address":"静安区南京西路1168号中信泰富广场4楼417号铺(近陕西北路)"},{"poiid":"B2094757D06FA3FB449D","title":"蓝玛赫","lon":"121.455921","lat":"31.229122","category":"94","category_name":"西餐厅","address":"静安区南京西路1038号梅龙镇广场3楼319A(近江宁路)"},{"poiid":"B2094655D268A3FB4898","title":"麻辣诱惑 梅龙镇广场店 Spice Spirit","lon":"121.456538054","lat":"31.228397793","category":"71","category_name":"四川菜","address":"静安区南京西路1038号梅龙镇广场7楼(近江宁路)"},{"poiid":"B2094654DB6BA6F54092","title":"俏江南(南京西路)","lon":"121.45569","lat":"31.22796","category":"71","category_name":"四川菜","address":"静安区南京西路1168号中信泰富广场3楼(近陕西北路)"},{"poiid":"B2094757D06FA1F44193","title":"翡翠酒家 梅龙镇店 Crystal Jade","lon":"121.45665764809","lat":"31.228605488824","category":"72","category_name":"广东菜","address":"静安区南京西路1038号梅龙镇广场7楼(近江宁路)"},{"poiid":"B2094654DA6CA1FF469C","title":"新镇江酒家","lon":"121.45673","lat":"31.22814","category":"74","category_name":"江苏菜","address":"静安区南京西路1111号(近江宁路)"},{"poiid":"B2094654DA6CA1FF4499","title":"麦当劳(南京西路)","lon":"121.45569","lat":"31.22796","category":"68","category_name":"快餐厅","address":"静安区南京西路1168号中信泰富广场B1楼(近陕西北路)"},{"poiid":"B2094757D06FA5FF4792","title":"美国驻上海总领事馆(Consulate General of the United States in Shanghai)","lon":"121.45674315","lat":"31.228797151","category":"46","category_name":"楼宇","address":"上海徐汇区淮海中路1469号(近乌鲁木齐南路)"},{"poiid":"B2094757D06FA6F44693","title":"哈根达斯(梅龙镇店)","lon":"121.45737","lat":"31.22847","category":"113","category_name":"冷饮店","address":"静安区南京西路1038号梅龙镇广场1楼109C-D(近江宁路)"},{"poiid":"B2094757D068A3FB469E","title":"梅龙镇酒家(总店)","lon":"121.4561979","lat":"31.228197746","category":"75","category_name":"浙江菜","address":"静安区南京西路1081弄22号(近江宁路)"},{"poiid":"B2094757D06FA6FD4598","title":"小南国(金鹰广场店)","lon":"121.45523","lat":"31.22788","category":"76","category_name":"上海菜","address":"静安区陕西北路278号金鹰国际购物中心7楼(近南京西路)"},{"poiid":"B2094757D06FA0F84298","title":"圆苑酒家(梅陇镇店)","lon":"121.45652866","lat":"31.229180824","category":"75","category_name":"浙江菜","address":"静安区南京西路1038号梅龙镇广场4楼(近江宁路)"},{"poiid":"B2094655D26DAAFB4999","title":"中信泰富广场(南门)","lon":"121.45568","lat":"31.22795","category":"656","category_name":"大门","address":""},{"poiid":"B2094757D06FA3FF4192","title":"Wagas沃歌斯(中信泰富店)","lon":"121.45568753","lat":"31.228491679","category":"94","category_name":"西餐厅","address":"静安区南京西路1168号中信泰富B1楼(近陕西北路)"},{"poiid":"B2094752D06CA5FD469D","title":"小辉哥火锅","lon":"121.455719","lat":"31.228485","category":"247","category_name":"餐饮美食","address":"梅龙镇广场南京西路1038号701室-709室"},{"poiid":"B2094654DA6CA1F5499F","title":"河河亭铁板烧日本料理(南京西路)","lon":"121.45678","lat":"31.22907","category":"269","category_name":"烧烤","address":"静安区南京西路1038号梅龙镇广场5楼(近江宁路)"},{"poiid":"B2094750D76EABF44393","title":"味皇港式茶餐厅","lon":"121.456","lat":"31.2287","category":"72","category_name":"广东菜","address":"静安区南京西路1168号中信泰富广场B1楼(近陕西北路)"},{"poiid":"B2094654DA6CA1FA489C","title":"上海民主党派大厦","lon":"121.45629","lat":"31.22603","category":"46","category_name":"楼宇","address":"上海市静安区陕西北路128号"},{"poiid":"B2094757D065A2FF479A","title":"美国领事馆签证处","lon":"121.456695138","lat":"31.2288976717","category":"252","category_name":"楼宇机构","address":"静安区南京西路1038号梅龙镇广场8楼(近江宁路)"},{"poiid":"B2094757D068A1F4409B","title":"美琪桂林米粉","lon":"121.45652887304","lat":"31.228560252955","category":"68","category_name":"快餐厅","address":"静安区江宁路66-1号(近奉贤路)"},{"poiid":"B2094654DA6CA1F5489F","title":"异人馆","lon":"121.456538054","lat":"31.228397793","category":"95","category_name":"日本料理","address":"静安区南京西路1038号梅龙镇广场7楼(近江宁路)"},{"poiid":"B2094757D068A2FF439B","title":"鸭王(江宁店)","lon":"121.45576","lat":"31.22903","category":"260","category_name":"其他","address":"静安区江宁路77号(近奉贤路)"},{"poiid":"B2094757D06FA7F54692","title":"御锅坊","lon":"121.455117938","lat":"31.2284299317","category":"86","category_name":"火锅店","address":"静安区江宁路77号恒顺大厦7楼(奉贤路口)"},{"poiid":"B2094757D06FA0FA459F","title":"1001原汁牛肉面(金鹰店)","lon":"121.45492","lat":"31.2283","category":"68","category_name":"快餐厅","address":"静安区陕西北路278号金鹰国际购物广场6B6号(近南京西路)"},{"poiid":"B2094757D06FA0FE4599","title":"寿司处武贞(梅龙镇店)","lon":"121.45699","lat":"31.22835","category":"95","category_name":"日本料理","address":"上海静安区南京西路1038号梅龙镇广场B1楼  "},{"poiid":"B2094757D06FA3F44792","title":"ZARA(南京西路店)","lon":"121.45491766","lat":"31.227113854","category":"141","category_name":"服装鞋帽皮具店","address":"静安区南京西路1201号(近陕西北路)"},{"poiid":"B2094757D06FA7FF4898","title":"吉惠日式料理(江宁路店)","lon":"121.45468873","lat":"31.227172234","category":"95","category_name":"日本料理","address":"上海市静安区江宁路77号三楼"},{"poiid":"B2094757D068A0FF4698","title":"wagas","lon":"121.45502473","lat":"31.227744247","category":"500","category_name":"未知分类","address":"常州中信泰富地下一樓"},{"poiid":"B2094752D665A0FE449E","title":"点点心","lon":"121.457295","lat":"31.227772","category":"247","category_name":"餐饮美食","address":"南京西路889号2楼"},{"poiid":"B2094757D06FA5FE459E","title":"Gucci(金鹰店)","lon":"121.45552","lat":"31.22787","category":"141","category_name":"服装鞋帽皮具店","address":"上海静安区陕西北路278号金鹰国际购物中心(近南京西路)  "},{"poiid":"B2094757D66CABFC439A","title":"麻辣誘惑","lon":"121.456319738","lat":"31.2284212615","category":"247","category_name":"餐饮美食","address":"上海梅龍鎮"},{"poiid":"B2094757D16CA4F4469F","title":"中兴泰富","lon":"121.455156738","lat":"31.2279352512","category":"500","category_name":"未知分类","address":"上海南京西路1168号"},{"poiid":"B2094757D068A4FE499F","title":"绿杨邨77坊","lon":"121.45566","lat":"31.22876","category":"72","category_name":"广东菜","address":"静安区奉贤路282号(近江宁路)"},{"poiid":"B2094757D06FA0F9479C","title":"McDonald Citic","lon":"121.45477327","lat":"31.227719613","category":"68","category_name":"快餐厅","address":"上海中信泰富1635"},{"poiid":"B2094655D26BA3FE439E","title":"汉堡王 梅龙镇店 Burger King","lon":"121.456526054","lat":"31.228408793","category":"68","category_name":"快餐厅","address":"静安区南京西路1038号梅龙镇广场B1楼(近江宁路)"},{"poiid":"B2094654DA6CA1FF449D","title":"鱼翅捞饭 静安店","lon":"121.455857054","lat":"31.227937793","category":"72","category_name":"广东菜","address":"静安区南京西路1168号中信泰富广场5楼(近陕西北路)"},{"poiid":"B2094654D564ABFF4192","title":"巨富大厦","lon":"121.45722681438","lat":"31.226610095807","category":"46","category_name":"楼宇","address":"越秀区环市东路362-366号"},{"poiid":"B2094757D06BA4F8499C","title":"榄香","lon":"121.45519373","lat":"31.226518221","category":"247","category_name":"餐饮美食","address":"上海金鹰"},{"poiid":"B2094751D465ABFE499F","title":"COSTA COFFEE(中信泰富店)","lon":"121.45587","lat":"31.22872","category":"65","category_name":"咖啡厅","address":"静安区南京西路1168号中信泰富广场501A单元(近江宁路)"},{"poiid":"B2094757D06BA3F54492","title":"Godiva(梅龙镇广场店)","lon":"121.45701","lat":"31.22834","category":"67","category_name":"甜品店","address":"静安区南京西路1038号梅龙镇广场1楼3号商铺(近江宁路)"},{"poiid":"B2094757D06AA0F84392","title":"威尔士健身会所(金鹰广场店)","lon":"121.4549","lat":"31.22828","category":"148","category_name":"美容美发店","address":"静安区陕西北路278号金鹰国际购物中心8楼(近南京西路)"},{"poiid":"B2094655D26FA3F5439E","title":"梅龙镇广场(三号门)","lon":"121.45617","lat":"31.22915","category":"119","category_name":"商场","address":"南京西路1038号"},{"poiid":"B2094751D56CA3FD469B","title":"COSTA COFFEE(环艺影城店)","lon":"121.45669","lat":"31.22864","category":"65","category_name":"咖啡厅","address":"静安区南京西路1038号梅龙镇广场10楼B区(近江宁路)"}]