[{"poiid":"B2094655D36CA2F44598","title":"上海火车站","lon":"121.455531","lat":"31.249498","category":"22","category_name":"火车站","address":"上海市闸北区秣陵路303号"},{"poiid":"B2094757D068A7FB4698","title":"上海火车站4-5号站台","lon":"121.45375295","lat":"31.2499646774","category":"22","category_name":"火车站","address":"上海市火车站"},{"poiid":"B2094654D564AAF44098","title":"上海站南广场","lon":"121.45486","lat":"31.2481","category":"22","category_name":"火车站","address":"闸北区秣陵路303号"},{"poiid":"B209475CD564A7F8439E","title":"上海滩中信泰富店","lon":"121.45602","lat":"31.22851","category":"119","category_name":"商场","address":"\"南京西路1168号中信泰富广场，店铺号221.\r\n\""},{"poiid":"B2094655D36CA2F44592","title":"上海火车站北广场","lon":"121.45576","lat":"31.25164","category":"38","category_name":"公交车站","address":"上海市闸北区大统路"},{"poiid":"B2094654D464A3F5489B","title":"上海长途汽车客运总站","lon":"121.45463","lat":"31.2528","category":"35","category_name":"长途汽车站","address":"闸北区中兴路1662号(近孔家木桥路)"},{"poiid":"B2094757D06FA3FB449F","title":"上海火车站 八号候车室","lon":"121.45572662","lat":"31.247543335","category":"22","category_name":"火车站","address":"上海火车站"},{"poiid":"B2094655D26EA2F9439C","title":"上海广场长城假日酒店","lon":"121.45368","lat":"31.24693","category":"214","category_name":"四星级宾馆","address":"上海市闸北区恒丰路585号(天目西路口)"},{"poiid":"B2094757D06BA2F5479B","title":"上海火车站九号候车室","lon":"121.4559591","lat":"31.249183978","category":"22","category_name":"火车站","address":"上海市闸北区恒丰路"},{"poiid":"B2094757D66DA4FA4198","title":"星巴克 STARBUCKS(恒汇国际店)","lon":"121.452896886","lat":"31.2460654409","category":"65","category_name":"咖啡厅","address":"闸北区天目西路437号恒汇国际大厦1楼(近恒丰路)"},{"poiid":"B2094757D06FA3FB489F","title":"恒汇国际大厦","lon":"121.45268046","lat":"31.246137006","category":"46","category_name":"楼宇","address":"黄浦中山南路、复兴路口"},{"poiid":"B2094655D36CA2F4469B","title":"上海火车站南广场","lon":"121.45448","lat":"31.24753","category":"38","category_name":"公交车站","address":""},{"poiid":"B2094757D06FA2F8489A","title":"麦当劳(火车站北广场店)","lon":"121.455468","lat":"31.251107","category":"68","category_name":"快餐厅","address":"闸北区中兴路1646号(近大统路)"},{"poiid":"B2094757D06EAAFB449B","title":"上海火车站七号候车室","lon":"121.455726624","lat":"31.247543335","category":"260","category_name":"其他","address":"上海火车站"},{"poiid":"B2094757D06FABFF4493","title":"上海北方智选假日酒店 Holiday Inn Express","lon":"121.452994","lat":"31.252272","category":"217","category_name":"旅馆招待所","address":"上海市闸北区中兴路1738号(近恒丰路)"},{"poiid":"B2094757D06FA3FD499C","title":"三叶眼镜批发市场(闸北店)","lon":"121.45654","lat":"31.24697","category":"132","category_name":"眼镜店","address":"闸北区梅园路360号环龙商厦4-5楼4008号(近秣陵路)"},{"poiid":"B2094757D168A2FF499B","title":"麦当劳","lon":"121.45557773","lat":"31.247067659","category":"500","category_name":"未知分类","address":"上海市火车站店"},{"poiid":"B2094757D068ABF44199","title":"肯德基 KFC (北广场店)","lon":"121.454561","lat":"31.247548","category":"68","category_name":"快餐厅","address":"梅园路360号环龙商厦内(近秣陵路)"},{"poiid":"B2094654D464A3F54693","title":"上海站北广场","lon":"121.45623","lat":"31.25081","category":"22","category_name":"火车站","address":"闸北区天目西路"},{"poiid":"B2094757D068A2F54292","title":"上海火车站普通候车室","lon":"121.4571","lat":"31.2505","category":"260","category_name":"其他","address":"闸北区上海火车站  "},{"poiid":"B2094757D06FA0FA4592","title":"味千拉面(火车站店)","lon":"121.45406","lat":"31.24734","category":"95","category_name":"日本料理","address":"上海闸北区梅园路360号环龙商厦1楼16号铺(近火车站南广场)"},{"poiid":"B2094757D06AA0FC4999","title":"上海沪铁长途客运站","lon":"121.451751983","lat":"31.2508245347","category":"35","category_name":"长途汽车站","address":"闸北区恒丰路783号(近远景路)"},{"poiid":"B2094654D464A2FD489B","title":"上海铁路大厦","lon":"121.45258","lat":"31.2497","category":"46","category_name":"楼宇","address":"浦东新区金湘路345号"},{"poiid":"B2094757D06FA7F54498","title":"友力国际大厦","lon":"121.452","lat":"31.2504","category":"46","category_name":"楼宇","address":"上海江宁路1158号"},{"poiid":"B2094757D068A1F5439F","title":"上海火车站世博钟楼","lon":"121.45478719","lat":"31.248411829","category":"46","category_name":"楼宇","address":"闸北区上海火车站南广场"},{"poiid":"B2094654DB6AA6FF469E","title":"上海亚繁龙门大酒店","lon":"121.45188","lat":"31.24962","category":"214","category_name":"四星级宾馆","address":"上海市闸北区恒丰路777号（近天目路）"},{"poiid":"B2094757D66DA2F54998","title":"苏河一号","lon":"121.45146058","lat":"31.247447768","category":"500","category_name":"未知分类","address":"上海市普陀区莫干山路"},{"poiid":"B2094757D06FA2F9479A","title":"麦当劳(秣陵路店)","lon":"121.45402","lat":"31.24713","category":"68","category_name":"快餐厅","address":"闸北区秣陵路258号友谊服饰商厦B1楼(近火车站南广场)"},{"poiid":"B2094757D068A3FB469C","title":"上海国际眼镜城","lon":"121.45453","lat":"31.25213","category":"132","category_name":"眼镜店","address":"闸北区中兴路1688号火车站北广场长途客运总站1-4楼(近恒丰路桥)"},{"poiid":"B2094654DB6AA6F8489D","title":"上海邮电大厦","lon":"121.45281","lat":"31.24796","category":"215","category_name":"三星级宾馆","address":"协和丽豪酒店式公寓位于静安南京西路2068号(镇宁路愚园路口)"},{"poiid":"B2094751D36FA3FC4792","title":"雍记大酒店(恒丰店)","lon":"121.45266","lat":"31.24672","category":"72","category_name":"广东菜","address":"闸北区恒丰路600号机电大厦1-2楼(近上海火车站)"},{"poiid":"B2094750DA6BA4F84298","title":"火车站","lon":"121.454513","lat":"31.247982","category":"500","category_name":"未知分类","address":null},{"poiid":"B2094757D164A5F9409C","title":"上海火车站贵宾休息室","lon":"121.4548221","lat":"31.248471963","category":"22","category_name":"火车站","address":"上海市闸北区恒丰路"},{"poiid":"B2094757D465A0F4459F","title":"回味鸭血粉丝汤 火车站店","lon":"121.45567","lat":"31.24861","category":"68","category_name":"快餐厅","address":"闸北区秣陵路198号环龙商场附近(近新客站南广场)"},{"poiid":"B2094757D064A5FE409B","title":"上海火车站十号候车室","lon":"121.45545165","lat":"31.248189457","category":"22","category_name":"火车站","address":"上海火车站新客站"},{"poiid":"B2094750D66DA4FD489D","title":"Singa星歌KTV","lon":"121.450927","lat":"31.24785","category":"170","category_name":"KTV","address":"恒丰路666号，靠近长安路"},{"poiid":"B2094655D26AABFE4499","title":"席家花园闸北店","lon":"121.45484","lat":"31.24659","category":"76","category_name":"上海菜","address":"闸北区天目西路285号广场假日酒店2楼(近民立路)"},{"poiid":"B2094757D06FA4FA4892","title":"环龙照相器材城","lon":"121.45618569","lat":"31.247277804","category":"138","category_name":"家电电子卖场","address":"闸北区梅园路360号环龙商厦内(近秣陵路)"},{"poiid":"B2094654D464A2FD469F","title":"上海站西南出口","lon":"121.45392","lat":"31.24905","category":"22","category_name":"火车站","address":""},{"poiid":"B2094655D26DA0F9489F","title":"新天大厦","lon":"121.45333272719","lat":"31.248797747141","category":"46","category_name":"楼宇","address":"上海市静安区安远路84号"},{"poiid":"B2094654D464A2FD4898","title":"上海铁路大厦酒店","lon":"121.45258","lat":"31.2497","category":"76","category_name":"上海菜","address":"闸北区秣陵路355号(恒丰路秣陵路)"},{"poiid":"B2094655D265A1FA4193","title":"纽约比萨 New York Pizza","lon":"121.452241054","lat":"31.248993793","category":"247","category_name":"餐饮美食","address":"秣陵路324号近恒丰路"},{"poiid":"B2094654D464A2FD469C","title":"上海站快餐世界","lon":"121.45683","lat":"31.25077","category":"68","category_name":"快餐厅","address":"闸北区上海火车站广场附近(交通路沈家宅路)"},{"poiid":"B2094757D068A4FB439B","title":"老娘舅(火车站店)","lon":"121.45512","lat":"31.24783","category":"68","category_name":"快餐厅","address":"闸北区秣陵路186号环龙商场1-2楼(近大娘水饺)"},{"poiid":"B2094654DB69A5FE419A","title":"肯德基(恒丰店)","lon":"121.45371","lat":"31.24669","category":"68","category_name":"快餐厅","address":"闸北区天目西路311号(近恒丰路)"},{"poiid":"B2094757D064A4F54393","title":"康师傅面馆","lon":"121.45863","lat":"31.25163","category":"68","category_name":"快餐厅","address":"闸北区秣陵路303号火车站北广场候车厅(近长途汽车站)"},{"poiid":"B2094757D064A0FA489C","title":"机场五线(上海火车站站)","lon":"121.45457358","lat":"31.247775774","category":"36","category_name":"地铁站","address":"上海火车站南广场"},{"poiid":"B2094757D068A1F54498","title":"麦当劳(梅园路店)","lon":"121.456129","lat":"31.247289","category":"68","category_name":"快餐厅","address":"闸北区秣陵路182号(梅园路口)"},{"poiid":"B2094757D16EA6FE479B","title":"喜年来(火车站候车室店)","lon":"121.455497103","lat":"31.2493089812","category":"68","category_name":"快餐厅","address":"闸北区秣陵路303号火车站候车室2楼"},{"poiid":"B2094757D169ABFE4498","title":"上海火車站東南出口","lon":"121.45302995","lat":"31.249982677","category":"500","category_name":"未知分类","address":"上海閘北區"},{"poiid":"B2094655D36CA2F44598","title":"上海火车站","lon":"121.455531","lat":"31.249498","category":"22","category_name":"火车站","address":"上海市闸北区秣陵路303号"},{"poiid":"B2094757D068A7FB4698","title":"上海火车站4-5号站台","lon":"121.45375295","lat":"31.2499646774","category":"22","category_name":"火车站","address":"上海市火车站"},{"poiid":"B2094654D564AAF44098","title":"上海站南广场","lon":"121.45486","lat":"31.2481","category":"22","category_name":"火车站","address":"闸北区秣陵路303号"},{"poiid":"B209475CD564A7F8439E","title":"上海滩中信泰富店","lon":"121.45602","lat":"31.22851","category":"119","category_name":"商场","address":"\"南京西路1168号中信泰富广场，店铺号221.\r\n\""},{"poiid":"B2094655D36CA2F44592","title":"上海火车站北广场","lon":"121.45576","lat":"31.25164","category":"38","category_name":"公交车站","address":"上海市闸北区大统路"},{"poiid":"B2094654D464A3F5489B","title":"上海长途汽车客运总站","lon":"121.45463","lat":"31.2528","category":"35","category_name":"长途汽车站","address":"闸北区中兴路1662号(近孔家木桥路)"},{"poiid":"B2094757D06FA3FB449F","title":"上海火车站 八号候车室","lon":"121.45572662","lat":"31.247543335","category":"22","category_name":"火车站","address":"上海火车站"},{"poiid":"B2094655D26EA2F9439C","title":"上海广场长城假日酒店","lon":"121.45368","lat":"31.24693","category":"214","category_name":"四星级宾馆","address":"上海市闸北区恒丰路585号(天目西路口)"},{"poiid":"B2094757D06BA2F5479B","title":"上海火车站九号候车室","lon":"121.4559591","lat":"31.249183978","category":"22","category_name":"火车站","address":"上海市闸北区恒丰路"},{"poiid":"B2094757D66DA4FA4198","title":"星巴克 STARBUCKS(恒汇国际店)","lon":"121.452896886","lat":"31.2460654409","category":"65","category_name":"咖啡厅","address":"闸北区天目西路437号恒汇国际大厦1楼(近恒丰路)"},{"poiid":"B2094757D06FA3FB489F","title":"恒汇国际大厦","lon":"121.45268046","lat":"31.246137006","category":"46","category_name":"楼宇","address":"黄浦中山南路、复兴路口"},{"poiid":"B2094655D36CA2F4469B","title":"上海火车站南广场","lon":"121.45448","lat":"31.24753","category":"38","category_name":"公交车站","address":""},{"poiid":"B2094757D06FA2F8489A","title":"麦当劳(火车站北广场店)","lon":"121.455468","lat":"31.251107","category":"68","category_name":"快餐厅","address":"闸北区中兴路1646号(近大统路)"},{"poiid":"B2094757D06EAAFB449B","title":"上海火车站七号候车室","lon":"121.455726624","lat":"31.247543335","category":"260","category_name":"其他","address":"上海火车站"},{"poiid":"B2094757D06FABFF4493","title":"上海北方智选假日酒店 Holiday Inn Express","lon":"121.452994","lat":"31.252272","category":"217","category_name":"旅馆招待所","address":"上海市闸北区中兴路1738号(近恒丰路)"},{"poiid":"B2094757D06FA3FD499C","title":"三叶眼镜批发市场(闸北店)","lon":"121.45654","lat":"31.24697","category":"132","category_name":"眼镜店","address":"闸北区梅园路360号环龙商厦4-5楼4008号(近秣陵路)"},{"poiid":"B2094757D168A2FF499B","title":"麦当劳","lon":"121.45557773","lat":"31.247067659","category":"500","category_name":"未知分类","address":"上海市火车站店"},{"poiid":"B2094757D068ABF44199","title":"肯德基 KFC (北广场店)","lon":"121.454561","lat":"31.247548","category":"68","category_name":"快餐厅","address":"梅园路360号环龙商厦内(近秣陵路)"},{"poiid":"B2094654D464A3F54693","title":"上海站北广场","lon":"121.45623","lat":"31.25081","category":"22","category_name":"火车站","address":"闸北区天目西路"},{"poiid":"B2094757D068A2F54292","title":"上海火车站普通候车室","lon":"121.4571","lat":"31.2505","category":"260","category_name":"其他","address":"闸北区上海火车站  "},{"poiid":"B2094757D06FA0FA4592","title":"味千拉面(火车站店)","lon":"121.45406","lat":"31.24734","category":"95","category_name":"日本料理","address":"上海闸北区梅园路360号环龙商厦1楼16号铺(近火车站南广场)"},{"poiid":"B2094757D06AA0FC4999","title":"上海沪铁长途客运站","lon":"121.451751983","lat":"31.2508245347","category":"35","category_name":"长途汽车站","address":"闸北区恒丰路783号(近远景路)"},{"poiid":"B2094654D464A2FD489B","title":"上海铁路大厦","lon":"121.45258","lat":"31.2497","category":"46","category_name":"楼宇","address":"浦东新区金湘路345号"},{"poiid":"B2094757D06FA7F54498","title":"友力国际大厦","lon":"121.452","lat":"31.2504","category":"46","category_name":"楼宇","address":"上海江宁路1158号"},{"poiid":"B2094757D068A1F5439F","title":"上海火车站世博钟楼","lon":"121.45478719","lat":"31.248411829","category":"46","category_name":"楼宇","address":"闸北区上海火车站南广场"},{"poiid":"B2094654DB6AA6FF469E","title":"上海亚繁龙门大酒店","lon":"121.45188","lat":"31.24962","category":"214","category_name":"四星级宾馆","address":"上海市闸北区恒丰路777号（近天目路）"},{"poiid":"B2094757D66DA2F54998","title":"苏河一号","lon":"121.45146058","lat":"31.247447768","category":"500","category_name":"未知分类","address":"上海市普陀区莫干山路"},{"poiid":"B2094757D06FA2F9479A","title":"麦当劳(秣陵路店)","lon":"121.45402","lat":"31.24713","category":"68","category_name":"快餐厅","address":"闸北区秣陵路258号友谊服饰商厦B1楼(近火车站南广场)"},{"poiid":"B2094757D068A3FB469C","title":"上海国际眼镜城","lon":"121.45453","lat":"31.25213","category":"132","category_name":"眼镜店","address":"闸北区中兴路1688号火车站北广场长途客运总站1-4楼(近恒丰路桥)"},{"poiid":"B2094654DB6AA6F8489D","title":"上海邮电大厦","lon":"121.45281","lat":"31.24796","category":"215","category_name":"三星级宾馆","address":"协和丽豪酒店式公寓位于静安南京西路2068号(镇宁路愚园路口)"},{"poiid":"B2094751D36FA3FC4792","title":"雍记大酒店(恒丰店)","lon":"121.45266","lat":"31.24672","category":"72","category_name":"广东菜","address":"闸北区恒丰路600号机电大厦1-2楼(近上海火车站)"},{"poiid":"B2094750DA6BA4F84298","title":"火车站","lon":"121.454513","lat":"31.247982","category":"500","category_name":"未知分类","address":null},{"poiid":"B2094757D164A5F9409C","title":"上海火车站贵宾休息室","lon":"121.4548221","lat":"31.248471963","category":"22","category_name":"火车站","address":"上海市闸北区恒丰路"},{"poiid":"B2094757D465A0F4459F","title":"回味鸭血粉丝汤 火车站店","lon":"121.45567","lat":"31.24861","category":"68","category_name":"快餐厅","address":"闸北区秣陵路198号环龙商场附近(近新客站南广场)"},{"poiid":"B2094757D064A5FE409B","title":"上海火车站十号候车室","lon":"121.45545165","lat":"31.248189457","category":"22","category_name":"火车站","address":"上海火车站新客站"},{"poiid":"B2094750D66DA4FD489D","title":"Singa星歌KTV","lon":"121.450927","lat":"31.24785","category":"170","category_name":"KTV","address":"恒丰路666号，靠近长安路"},{"poiid":"B2094655D26AABFE4499","title":"席家花园闸北店","lon":"121.45484","lat":"31.24659","category":"76","category_name":"上海菜","address":"闸北区天目西路285号广场假日酒店2楼(近民立路)"},{"poiid":"B2094757D06FA4FA4892","title":"环龙照相器材城","lon":"121.45618569","lat":"31.247277804","category":"138","category_name":"家电电子卖场","address":"闸北区梅园路360号环龙商厦内(近秣陵路)"},{"poiid":"B2094654D464A2FD469F","title":"上海站西南出口","lon":"121.45392","lat":"31.24905","category":"22","category_name":"火车站","address":""},{"poiid":"B2094655D26DA0F9489F","title":"新天大厦","lon":"121.45333272719","lat":"31.248797747141","category":"46","category_name":"楼宇","address":"上海市静安区安远路84号"},{"poiid":"B2094654D464A2FD4898","title":"上海铁路大厦酒店","lon":"121.45258","lat":"31.2497","category":"76","category_name":"上海菜","address":"闸北区秣陵路355号(恒丰路秣陵路)"},{"poiid":"B2094655D265A1FA4193","title":"纽约比萨 New York Pizza","lon":"121.452241054","lat":"31.248993793","category":"247","category_name":"餐饮美食","address":"秣陵路324号近恒丰路"},{"poiid":"B2094654D464A2FD469C","title":"上海站快餐世界","lon":"121.45683","lat":"31.25077","category":"68","category_name":"快餐厅","address":"闸北区上海火车站广场附近(交通路沈家宅路)"},{"poiid":"B2094757D068A4FB439B","title":"老娘舅(火车站店)","lon":"121.45512","lat":"31.24783","category":"68","category_name":"快餐厅","address":"闸北区秣陵路186号环龙商场1-2楼(近大娘水饺)"},{"poiid":"B2094654DB69A5FE419A","title":"肯德基(恒丰店)","lon":"121.45371","lat":"31.24669","category":"68","category_name":"快餐厅","address":"闸北区天目西路311号(近恒丰路)"},{"poiid":"B2094757D064A4F54393","title":"康师傅面馆","lon":"121.45863","lat":"31.25163","category":"68","category_name":"快餐厅","address":"闸北区秣陵路303号火车站北广场候车厅(近长途汽车站)"},{"poiid":"B2094757D064A0FA489C","title":"机场五线(上海火车站站)","lon":"121.45457358","lat":"31.247775774","category":"36","category_name":"地铁站","address":"上海火车站南广场"},{"poiid":"B2094757D068A1F54498","title":"麦当劳(梅园路店)","lon":"121.456129","lat":"31.247289","category":"68","category_name":"快餐厅","address":"闸北区秣陵路182号(梅园路口)"},{"poiid":"B2094757D16EA6FE479B","title":"喜年来(火车站候车室店)","lon":"121.455497103","lat":"31.2493089812","category":"68","category_name":"快餐厅","address":"闸北区秣陵路303号火车站候车室2楼"},{"poiid":"B2094757D169ABFE4498","title":"上海火車站東南出口","lon":"121.45302995","lat":"31.249982677","category":"500","category_name":"未知分类","address":"上海閘北區"},{"poiid":"B2094655D36CA2F44598","title":"上海火车站","lon":"121.455531","lat":"31.249498","category":"22","category_name":"火车站","address":"上海市闸北区秣陵路303号"},{"poiid":"B2094757D068A7FB4698","title":"上海火车站4-5号站台","lon":"121.45375295","lat":"31.2499646774","category":"22","category_name":"火车站","address":"上海市火车站"},{"poiid":"B2094654D564AAF44098","title":"上海站南广场","lon":"121.45486","lat":"31.2481","category":"22","category_name":"火车站","address":"闸北区秣陵路303号"},{"poiid":"B209475CD564A7F8439E","title":"上海滩中信泰富店","lon":"121.45602","lat":"31.22851","category":"119","category_name":"商场","address":"\"南京西路1168号中信泰富广场，店铺号221.\r\n\""},{"poiid":"B2094655D36CA2F44592","title":"上海火车站北广场","lon":"121.45576","lat":"31.25164","category":"38","category_name":"公交车站","address":"上海市闸北区大统路"},{"poiid":"B2094654D464A3F5489B","title":"上海长途汽车客运总站","lon":"121.45463","lat":"31.2528","category":"35","category_name":"长途汽车站","address":"闸北区中兴路1662号(近孔家木桥路)"},{"poiid":"B2094757D06FA3FB449F","title":"上海火车站 八号候车室","lon":"121.45572662","lat":"31.247543335","category":"22","category_name":"火车站","address":"上海火车站"},{"poiid":"B2094655D26EA2F9439C","title":"上海广场长城假日酒店","lon":"121.45368","lat":"31.24693","category":"214","category_name":"四星级宾馆","address":"上海市闸北区恒丰路585号(天目西路口)"},{"poiid":"B2094757D06BA2F5479B","title":"上海火车站九号候车室","lon":"121.4559591","lat":"31.249183978","category":"22","category_name":"火车站","address":"上海市闸北区恒丰路"},{"poiid":"B2094757D66DA4FA4198","title":"星巴克 STARBUCKS(恒汇国际店)","lon":"121.452896886","lat":"31.2460654409","category":"65","category_name":"咖啡厅","address":"闸北区天目西路437号恒汇国际大厦1楼(近恒丰路)"},{"poiid":"B2094757D06FA3FB489F","title":"恒汇国际大厦","lon":"121.45268046","lat":"31.246137006","category":"46","category_name":"楼宇","address":"黄浦中山南路、复兴路口"},{"poiid":"B2094655D36CA2F4469B","title":"上海火车站南广场","lon":"121.45448","lat":"31.24753","category":"38","category_name":"公交车站","address":""},{"poiid":"B2094757D06FA2F8489A","title":"麦当劳(火车站北广场店)","lon":"121.455468","lat":"31.251107","category":"68","category_name":"快餐厅","address":"闸北区中兴路1646号(近大统路)"},{"poiid":"B2094757D06EAAFB449B","title":"上海火车站七号候车室","lon":"121.455726624","lat":"31.247543335","category":"260","category_name":"其他","address":"上海火车站"},{"poiid":"B2094757D06FABFF4493","title":"上海北方智选假日酒店 Holiday Inn Express","lon":"121.452994","lat":"31.252272","category":"217","category_name":"旅馆招待所","address":"上海市闸北区中兴路1738号(近恒丰路)"},{"poiid":"B2094757D06FA3FD499C","title":"三叶眼镜批发市场(闸北店)","lon":"121.45654","lat":"31.24697","category":"132","category_name":"眼镜店","address":"闸北区梅园路360号环龙商厦4-5楼4008号(近秣陵路)"},{"poiid":"B2094757D168A2FF499B","title":"麦当劳","lon":"121.45557773","lat":"31.247067659","category":"500","category_name":"未知分类","address":"上海市火车站店"},{"poiid":"B2094757D068ABF44199","title":"肯德基 KFC (北广场店)","lon":"121.454561","lat":"31.247548","category":"68","category_name":"快餐厅","address":"梅园路360号环龙商厦内(近秣陵路)"},{"poiid":"B2094654D464A3F54693","title":"上海站北广场","lon":"121.45623","lat":"31.25081","category":"22","category_name":"火车站","address":"闸北区天目西路"},{"poiid":"B2094757D068A2F54292","title":"上海火车站普通候车室","lon":"121.4571","lat":"31.2505","category":"260","category_name":"其他","address":"闸北区上海火车站  "},{"poiid":"B2094757D06FA0FA4592","title":"味千拉面(火车站店)","lon":"121.45406","lat":"31.24734","category":"95","category_name":"日本料理","address":"上海闸北区梅园路360号环龙商厦1楼16号铺(近火车站南广场)"},{"poiid":"B2094757D06AA0FC4999","title":"上海沪铁长途客运站","lon":"121.451751983","lat":"31.2508245347","category":"35","category_name":"长途汽车站","address":"闸北区恒丰路783号(近远景路)"},{"poiid":"B2094654D464A2FD489B","title":"上海铁路大厦","lon":"121.45258","lat":"31.2497","category":"46","category_name":"楼宇","address":"浦东新区金湘路345号"},{"poiid":"B2094757D06FA7F54498","title":"友力国际大厦","lon":"121.452","lat":"31.2504","category":"46","category_name":"楼宇","address":"上海江宁路1158号"},{"poiid":"B2094757D068A1F5439F","title":"上海火车站世博钟楼","lon":"121.45478719","lat":"31.248411829","category":"46","category_name":"楼宇","address":"闸北区上海火车站南广场"},{"poiid":"B2094654DB6AA6FF469E","title":"上海亚繁龙门大酒店","lon":"121.45188","lat":"31.24962","category":"214","category_name":"四星级宾馆","address":"上海市闸北区恒丰路777号（近天目路）"},{"poiid":"B2094757D66DA2F54998","title":"苏河一号","lon":"121.45146058","lat":"31.247447768","category":"500","category_name":"未知分类","address":"上海市普陀区莫干山路"},{"poiid":"B2094757D06FA2F9479A","title":"麦当劳(秣陵路店)","lon":"121.45402","lat":"31.24713","category":"68","category_name":"快餐厅","address":"闸北区秣陵路258号友谊服饰商厦B1楼(近火车站南广场)"},{"poiid":"B2094757D068A3FB469C","title":"上海国际眼镜城","lon":"121.45453","lat":"31.25213","category":"132","category_name":"眼镜店","address":"闸北区中兴路1688号火车站北广场长途客运总站1-4楼(近恒丰路桥)"},{"poiid":"B2094654DB6AA6F8489D","title":"上海邮电大厦","lon":"121.45281","lat":"31.24796","category":"215","category_name":"三星级宾馆","address":"协和丽豪酒店式公寓位于静安南京西路2068号(镇宁路愚园路口)"},{"poiid":"B2094751D36FA3FC4792","title":"雍记大酒店(恒丰店)","lon":"121.45266","lat":"31.24672","category":"72","category_name":"广东菜","address":"闸北区恒丰路600号机电大厦1-2楼(近上海火车站)"},{"poiid":"B2094750DA6BA4F84298","title":"火车站","lon":"121.454513","lat":"31.247982","category":"500","category_name":"未知分类","address":null},{"poiid":"B2094757D164A5F9409C","title":"上海火车站贵宾休息室","lon":"121.4548221","lat":"31.248471963","category":"22","category_name":"火车站","address":"上海市闸北区恒丰路"},{"poiid":"B2094757D465A0F4459F","title":"回味鸭血粉丝汤 火车站店","lon":"121.45567","lat":"31.24861","category":"68","category_name":"快餐厅","address":"闸北区秣陵路198号环龙商场附近(近新客站南广场)"},{"poiid":"B2094757D064A5FE409B","title":"上海火车站十号候车室","lon":"121.45545165","lat":"31.248189457","category":"22","category_name":"火车站","address":"上海火车站新客站"},{"poiid":"B2094750D66DA4FD489D","title":"Singa星歌KTV","lon":"121.450927","lat":"31.24785","category":"170","category_name":"KTV","address":"恒丰路666号，靠近长安路"},{"poiid":"B2094655D26AABFE4499","title":"席家花园闸北店","lon":"121.45484","lat":"31.24659","category":"76","category_name":"上海菜","address":"闸北区天目西路285号广场假日酒店2楼(近民立路)"},{"poiid":"B2094757D06FA4FA4892","title":"环龙照相器材城","lon":"121.45618569","lat":"31.247277804","category":"138","category_name":"家电电子卖场","address":"闸北区梅园路360号环龙商厦内(近秣陵路)"},{"poiid":"B2094654D464A2FD469F","title":"上海站西南出口","lon":"121.45392","lat":"31.24905","category":"22","category_name":"火车站","address":""},{"poiid":"B2094655D26DA0F9489F","title":"新天大厦","lon":"121.45333272719","lat":"31.248797747141","category":"46","category_name":"楼宇","address":"上海市静安区安远路84号"},{"poiid":"B2094654D464A2FD4898","title":"上海铁路大厦酒店","lon":"121.45258","lat":"31.2497","category":"76","category_name":"上海菜","address":"闸北区秣陵路355号(恒丰路秣陵路)"},{"poiid":"B2094655D265A1FA4193","title":"纽约比萨 New York Pizza","lon":"121.452241054","lat":"31.248993793","category":"247","category_name":"餐饮美食","address":"秣陵路324号近恒丰路"},{"poiid":"B2094654D464A2FD469C","title":"上海站快餐世界","lon":"121.45683","lat":"31.25077","category":"68","category_name":"快餐厅","address":"闸北区上海火车站广场附近(交通路沈家宅路)"},{"poiid":"B2094757D068A4FB439B","title":"老娘舅(火车站店)","lon":"121.45512","lat":"31.24783","category":"68","category_name":"快餐厅","address":"闸北区秣陵路186号环龙商场1-2楼(近大娘水饺)"},{"poiid":"B2094654DB69A5FE419A","title":"肯德基(恒丰店)","lon":"121.45371","lat":"31.24669","category":"68","category_name":"快餐厅","address":"闸北区天目西路311号(近恒丰路)"},{"poiid":"B2094757D064A4F54393","title":"康师傅面馆","lon":"121.45863","lat":"31.25163","category":"68","category_name":"快餐厅","address":"闸北区秣陵路303号火车站北广场候车厅(近长途汽车站)"},{"poiid":"B2094757D064A0FA489C","title":"机场五线(上海火车站站)","lon":"121.45457358","lat":"31.247775774","category":"36","category_name":"地铁站","address":"上海火车站南广场"},{"poiid":"B2094757D068A1F54498","title":"麦当劳(梅园路店)","lon":"121.456129","lat":"31.247289","category":"68","category_name":"快餐厅","address":"闸北区秣陵路182号(梅园路口)"},{"poiid":"B2094757D16EA6FE479B","title":"喜年来(火车站候车室店)","lon":"121.455497103","lat":"31.2493089812","category":"68","category_name":"快餐厅","address":"闸北区秣陵路303号火车站候车室2楼"},{"poiid":"B2094757D169ABFE4498","title":"上海火車站東南出口","lon":"121.45302995","lat":"31.249982677","category":"500","category_name":"未知分类","address":"上海閘北區"},{"poiid":"B2094655D36CA2F44598","title":"上海火车站","lon":"121.455531","lat":"31.249498","category":"22","category_name":"火车站","address":"上海市闸北区秣陵路303号"},{"poiid":"B2094757D068A7FB4698","title":"上海火车站4-5号站台","lon":"121.45375295","lat":"31.2499646774","category":"22","category_name":"火车站","address":"上海市火车站"},{"poiid":"B2094654D564AAF44098","title":"上海站南广场","lon":"121.45486","lat":"31.2481","category":"22","category_name":"火车站","address":"闸北区秣陵路303号"},{"poiid":"B209475CD564A7F8439E","title":"上海滩中信泰富店","lon":"121.45602","lat":"31.22851","category":"119","category_name":"商场","address":"\"南京西路1168号中信泰富广场，店铺号221.\r\n\""},{"poiid":"B2094655D36CA2F44592","title":"上海火车站北广场","lon":"121.45576","lat":"31.25164","category":"38","category_name":"公交车站","address":"上海市闸北区大统路"},{"poiid":"B2094654D464A3F5489B","title":"上海长途汽车客运总站","lon":"121.45463","lat":"31.2528","category":"35","category_name":"长途汽车站","address":"闸北区中兴路1662号(近孔家木桥路)"},{"poiid":"B2094757D06FA3FB449F","title":"上海火车站 八号候车室","lon":"121.45572662","lat":"31.247543335","category":"22","category_name":"火车站","address":"上海火车站"},{"poiid":"B2094655D26EA2F9439C","title":"上海广场长城假日酒店","lon":"121.45368","lat":"31.24693","category":"214","category_name":"四星级宾馆","address":"上海市闸北区恒丰路585号(天目西路口)"},{"poiid":"B2094757D06BA2F5479B","title":"上海火车站九号候车室","lon":"121.4559591","lat":"31.249183978","category":"22","category_name":"火车站","address":"上海市闸北区恒丰路"},{"poiid":"B2094757D66DA4FA4198","title":"星巴克 STARBUCKS(恒汇国际店)","lon":"121.452896886","lat":"31.2460654409","category":"65","category_name":"咖啡厅","address":"闸北区天目西路437号恒汇国际大厦1楼(近恒丰路)"},{"poiid":"B2094757D06FA3FB489F","title":"恒汇国际大厦","lon":"121.45268046","lat":"31.246137006","category":"46","category_name":"楼宇","address":"黄浦中山南路、复兴路口"},{"poiid":"B2094655D36CA2F4469B","title":"上海火车站南广场","lon":"121.45448","lat":"31.24753","category":"38","category_name":"公交车站","address":""},{"poiid":"B2094757D06FA2F8489A","title":"麦当劳(火车站北广场店)","lon":"121.455468","lat":"31.251107","category":"68","category_name":"快餐厅","address":"闸北区中兴路1646号(近大统路)"},{"poiid":"B2094757D06EAAFB449B","title":"上海火车站七号候车室","lon":"121.455726624","lat":"31.247543335","category":"260","category_name":"其他","address":"上海火车站"},{"poiid":"B2094757D06FABFF4493","title":"上海北方智选假日酒店 Holiday Inn Express","lon":"121.452994","lat":"31.252272","category":"217","category_name":"旅馆招待所","address":"上海市闸北区中兴路1738号(近恒丰路)"},{"poiid":"B2094757D06FA3FD499C","title":"三叶眼镜批发市场(闸北店)","lon":"121.45654","lat":"31.24697","category":"132","category_name":"眼镜店","address":"闸北区梅园路360号环龙商厦4-5楼4008号(近秣陵路)"},{"poiid":"B2094757D168A2FF499B","title":"麦当劳","lon":"121.45557773","lat":"31.247067659","category":"500","category_name":"未知分类","address":"上海市火车站店"},{"poiid":"B2094757D068ABF44199","title":"肯德基 KFC (北广场店)","lon":"121.454561","lat":"31.247548","category":"68","category_name":"快餐厅","address":"梅园路360号环龙商厦内(近秣陵路)"},{"poiid":"B2094654D464A3F54693","title":"上海站北广场","lon":"121.45623","lat":"31.25081","category":"22","category_name":"火车站","address":"闸北区天目西路"},{"poiid":"B2094757D068A2F54292","title":"上海火车站普通候车室","lon":"121.4571","lat":"31.2505","category":"260","category_name":"其他","address":"闸北区上海火车站  "},{"poiid":"B2094757D06FA0FA4592","title":"味千拉面(火车站店)","lon":"121.45406","lat":"31.24734","category":"95","category_name":"日本料理","address":"上海闸北区梅园路360号环龙商厦1楼16号铺(近火车站南广场)"},{"poiid":"B2094757D06AA0FC4999","title":"上海沪铁长途客运站","lon":"121.451751983","lat":"31.2508245347","category":"35","category_name":"长途汽车站","address":"闸北区恒丰路783号(近远景路)"},{"poiid":"B2094654D464A2FD489B","title":"上海铁路大厦","lon":"121.45258","lat":"31.2497","category":"46","category_name":"楼宇","address":"浦东新区金湘路345号"},{"poiid":"B2094757D06FA7F54498","title":"友力国际大厦","lon":"121.452","lat":"31.2504","category":"46","category_name":"楼宇","address":"上海江宁路1158号"},{"poiid":"B2094757D068A1F5439F","title":"上海火车站世博钟楼","lon":"121.45478719","lat":"31.248411829","category":"46","category_name":"楼宇","address":"闸北区上海火车站南广场"},{"poiid":"B2094654DB6AA6FF469E","title":"上海亚繁龙门大酒店","lon":"121.45188","lat":"31.24962","category":"214","category_name":"四星级宾馆","address":"上海市闸北区恒丰路777号（近天目路）"},{"poiid":"B2094757D66DA2F54998","title":"苏河一号","lon":"121.45146058","lat":"31.247447768","category":"500","category_name":"未知分类","address":"上海市普陀区莫干山路"},{"poiid":"B2094757D06FA2F9479A","title":"麦当劳(秣陵路店)","lon":"121.45402","lat":"31.24713","category":"68","category_name":"快餐厅","address":"闸北区秣陵路258号友谊服饰商厦B1楼(近火车站南广场)"},{"poiid":"B2094757D068A3FB469C","title":"上海国际眼镜城","lon":"121.45453","lat":"31.25213","category":"132","category_name":"眼镜店","address":"闸北区中兴路1688号火车站北广场长途客运总站1-4楼(近恒丰路桥)"},{"poiid":"B2094654DB6AA6F8489D","title":"上海邮电大厦","lon":"121.45281","lat":"31.24796","category":"215","category_name":"三星级宾馆","address":"协和丽豪酒店式公寓位于静安南京西路2068号(镇宁路愚园路口)"},{"poiid":"B2094751D36FA3FC4792","title":"雍记大酒店(恒丰店)","lon":"121.45266","lat":"31.24672","category":"72","category_name":"广东菜","address":"闸北区恒丰路600号机电大厦1-2楼(近上海火车站)"},{"poiid":"B2094750DA6BA4F84298","title":"火车站","lon":"121.454513","lat":"31.247982","category":"500","category_name":"未知分类","address":null},{"poiid":"B2094757D164A5F9409C","title":"上海火车站贵宾休息室","lon":"121.4548221","lat":"31.248471963","category":"22","category_name":"火车站","address":"上海市闸北区恒丰路"},{"poiid":"B2094757D465A0F4459F","title":"回味鸭血粉丝汤 火车站店","lon":"121.45567","lat":"31.24861","category":"68","category_name":"快餐厅","address":"闸北区秣陵路198号环龙商场附近(近新客站南广场)"},{"poiid":"B2094757D064A5FE409B","title":"上海火车站十号候车室","lon":"121.45545165","lat":"31.248189457","category":"22","category_name":"火车站","address":"上海火车站新客站"},{"poiid":"B2094750D66DA4FD489D","title":"Singa星歌KTV","lon":"121.450927","lat":"31.24785","category":"170","category_name":"KTV","address":"恒丰路666号，靠近长安路"},{"poiid":"B2094655D26AABFE4499","title":"席家花园闸北店","lon":"121.45484","lat":"31.24659","category":"76","category_name":"上海菜","address":"闸北区天目西路285号广场假日酒店2楼(近民立路)"},{"poiid":"B2094757D06FA4FA4892","title":"环龙照相器材城","lon":"121.45618569","lat":"31.247277804","category":"138","category_name":"家电电子卖场","address":"闸北区梅园路360号环龙商厦内(近秣陵路)"},{"poiid":"B2094654D464A2FD469F","title":"上海站西南出口","lon":"121.45392","lat":"31.24905","category":"22","category_name":"火车站","address":""},{"poiid":"B2094655D26DA0F9489F","title":"新天大厦","lon":"121.45333272719","lat":"31.248797747141","category":"46","category_name":"楼宇","address":"上海市静安区安远路84号"},{"poiid":"B2094654D464A2FD4898","title":"上海铁路大厦酒店","lon":"121.45258","lat":"31.2497","category":"76","category_name":"上海菜","address":"闸北区秣陵路355号(恒丰路秣陵路)"},{"poiid":"B2094655D265A1FA4193","title":"纽约比萨 New York Pizza","lon":"121.452241054","lat":"31.248993793","category":"247","category_name":"餐饮美食","address":"秣陵路324号近恒丰路"},{"poiid":"B2094654D464A2FD469C","title":"上海站快餐世界","lon":"121.45683","lat":"31.25077","category":"68","category_name":"快餐厅","address":"闸北区上海火车站广场附近(交通路沈家宅路)"},{"poiid":"B2094757D068A4FB439B","title":"老娘舅(火车站店)","lon":"121.45512","lat":"31.24783","category":"68","category_name":"快餐厅","address":"闸北区秣陵路186号环龙商场1-2楼(近大娘水饺)"},{"poiid":"B2094654DB69A5FE419A","title":"肯德基(恒丰店)","lon":"121.45371","lat":"31.24669","category":"68","category_name":"快餐厅","address":"闸北区天目西路311号(近恒丰路)"},{"poiid":"B2094757D064A4F54393","title":"康师傅面馆","lon":"121.45863","lat":"31.25163","category":"68","category_name":"快餐厅","address":"闸北区秣陵路303号火车站北广场候车厅(近长途汽车站)"},{"poiid":"B2094757D064A0FA489C","title":"机场五线(上海火车站站)","lon":"121.45457358","lat":"31.247775774","category":"36","category_name":"地铁站","address":"上海火车站南广场"},{"poiid":"B2094757D068A1F54498","title":"麦当劳(梅园路店)","lon":"121.456129","lat":"31.247289","category":"68","category_name":"快餐厅","address":"闸北区秣陵路182号(梅园路口)"},{"poiid":"B2094757D16EA6FE479B","title":"喜年来(火车站候车室店)","lon":"121.455497103","lat":"31.2493089812","category":"68","category_name":"快餐厅","address":"闸北区秣陵路303号火车站候车室2楼"},{"poiid":"B2094757D169ABFE4498","title":"上海火車站東南出口","lon":"121.45302995","lat":"31.249982677","category":"500","category_name":"未知分类","address":"上海閘北區"}]