[{"poiid":"B2094757D06AA4FD439B","title":"COSTA COFFEE(徐家汇路店)","lon":"121.477546","lat":"31.209448","category":"65","category_name":"咖啡厅","address":"卢湾区徐家汇路203号(近马当路地铁3号出口)"},{"poiid":"B2094654DA6DA5FC459A","title":"宝鼎大厦","lon":"121.477","lat":"31.212","category":"46","category_name":"楼宇","address":"闸北区共和新路3703,3737号"},{"poiid":"B2094757D06AA6FE469C","title":"新天地style","lon":"121.47919464","lat":"31.214149475","category":"500","category_name":"未知分类","address":"上海复兴中路马当路"},{"poiid":"B2094753D76FAAFA449C","title":"上海滩国泰旗舰店","lon":"121.466011","lat":"31.216125","category":"249","category_name":"购物服务","address":"淮海中路868号"},{"poiid":"B209475CD564A7F84292","title":"上海滩新天地店","lon":"121.47463","lat":"31.22164","category":"119","category_name":"商场","address":"\"太仓路181弄新天地北里15号\r\n\""},{"poiid":"B209475CD564A7F8439E","title":"上海滩中信泰富店","lon":"121.45602","lat":"31.22851","category":"119","category_name":"商场","address":"\"南京西路1168号中信泰富广场，店铺号221.\r\n\""},{"poiid":"B2094655D26EA5F4429B","title":"夜上海(新天地店)","lon":"121.47749","lat":"31.21282","category":"248","category_name":"生活娱乐","address":"卢湾区黄陂南路338号"},{"poiid":"B2094757D16EA1FE4698","title":"马当路","lon":"121.47786373","lat":"31.209810865","category":"500","category_name":"未知分类","address":"上海市卢湾区"},{"poiid":"B2094757D068A1FD409A","title":"盛兴点心店","lon":"121.479443054","lat":"31.212018793","category":"87","category_name":"特色／地方风味餐厅","address":"卢湾区顺昌路528号(近永年路)"},{"poiid":"B2094654DA6EAAF54793","title":"上海社会科学院研究生部","lon":"121.47963","lat":"31.21081","category":"52","category_name":"高等院校","address":"顺昌路622"},{"poiid":"B2094757D069A7FC409A","title":"一品居热气羊肉馆(顺昌店)","lon":"121.47938","lat":"31.21213","category":"86","category_name":"火锅店","address":"卢湾区顺昌路512号(近永年路)"},{"poiid":"B2094757D06AA6FE479B","title":"黄陂南路徐家汇路","lon":"121.47800445","lat":"31.210878372","category":"500","category_name":"未知分类","address":"上海黄陂南路徐家汇路"},{"poiid":"B2094757D16EA4F44398","title":"黃陂南路751號創意園區","lon":"121.47749573","lat":"31.213613946","category":"500","category_name":"未知分类","address":"上海黃陂南路751"},{"poiid":"B2094757D068ABFB419A","title":"泰煌鸡 黄陂南路店","lon":"121.477455054","lat":"31.213034793","category":"72","category_name":"广东菜","address":"卢湾区黄陂南路807号(近永年路)"},{"poiid":"B2094757D06AA4F5499E","title":"central studios奂镜","lon":"121.477864","lat":"31.213331","category":"500","category_name":"未知分类","address":"上海市黄陂南路751号1号楼1楼"},{"poiid":"B2094654DB69A5F4409A","title":"重庆鸡公煲 顺昌路店","lon":"121.479501054","lat":"31.212284793","category":"71","category_name":"四川菜","address":"卢湾区顺昌路530号(近永年路)"},{"poiid":"B2094654DB6BA4FB469F","title":"卓维700上海创意产业集聚区","lon":"121.47692","lat":"31.21411","category":"45","category_name":"产业园区","address":"黄陂南路700"},{"poiid":"B2094757D769A4F94699","title":"上海砂锅饭店","lon":"121.47780999365","lat":"31.21249952881","category":"76","category_name":"上海菜","address":"卢湾区建国东路125号(顺昌路)"},{"poiid":"B2094752D66FAAFC4993","title":"必胜客","lon":"121.479057","lat":"31.211943","category":"500","category_name":"未知分类","address":"徐家汇路618号日月光中心广场B2楼(近瑞金二路)"},{"poiid":"B2094655D26CA4F54592","title":"建德坊","lon":"121.47675","lat":"31.212887","category":"47","category_name":"住宅区","address":"建国东路328弄1-22号"},{"poiid":"B2094654DB6BA4FF4898","title":"老北京涮锅(顺昌路)","lon":"121.47952","lat":"31.2125","category":"86","category_name":"火锅店","address":"卢湾区顺昌路531号(近永年路)"},{"poiid":"B2094655D265A7FF4499","title":"梦奇屋","lon":"121.47967","lat":"31.21183","category":"68","category_name":"快餐厅","address":"卢湾区顺昌路563号(近徐家汇路)"},{"poiid":"B2094750DB69A7FE419D","title":"9号线_马当路","lon":"121.478485","lat":"31.211101","category":"500","category_name":"未知分类","address":null},{"poiid":"B2094655D26CA4F9409C","title":"永年路149弄1-59号(永年路)","lon":"121.47874","lat":"31.21189","category":"47","category_name":"住宅区","address":""},{"poiid":"B2094757DA69A2FC449E","title":"esee英模","lon":"121.47759646043","lat":"31.21278052027","category":"180","category_name":"剧场","address":"黄陂南路751号1号楼502室"},{"poiid":"B2094654DB6BA4FF489B","title":"森绿温馨小吃(顺昌路)","lon":"121.47945","lat":"31.21288","category":"76","category_name":"上海菜","address":"卢湾区顺昌路503号(近建国东路)"},{"poiid":"B2094654DA6EAAF54493","title":"南京金陵汤包店","lon":"121.47932","lat":"31.21225","category":"87","category_name":"特色／地方风味餐厅","address":"卢湾区永年路114号(顺昌路口)"},{"poiid":"B2094654DA6FA3FF429A","title":"邦德造型设计","lon":"121.47606","lat":"31.21234","category":"148","category_name":"美容美发店","address":"卢湾区建国东路342号(近马当路)"},{"poiid":"B2094654DA6FA3FD439F","title":"光明便利No.109","lon":"121.47768","lat":"31.21239","category":"117","category_name":"便民商店/便利店","address":"黄陂南路783-2"},{"poiid":"B2094757D464ABF54098","title":"巴弟鸡排 顺昌路店","lon":"121.479773054","lat":"31.211614793","category":"68","category_name":"快餐厅","address":"卢湾区顺昌路563号(近徐家汇路)"},{"poiid":"B2094757D16DA1F54699","title":"京世造型","lon":"121.476757","lat":"31.212887","category":"148","category_name":"美容美发店","address":"上海卢湾区建国东路318号"},{"poiid":"B2094757D16AA6FC4298","title":"联华超市（永年路店）","lon":"121.47833252","lat":"31.2119827271","category":"249","category_name":"购物服务","address":"上海永年路162号"},{"poiid":"B2094654DA6EA7FA499D","title":"长顺来","lon":"121.4795","lat":"31.2126","category":"76","category_name":"上海菜","address":"卢湾区顺昌路517号(近建国东路)"},{"poiid":"B2094655D268A7F8429A","title":"顺昌路550弄小区","lon":"121.47929","lat":"31.21195","category":"47","category_name":"住宅区","address":"顺昌路550弄1-23号"},{"poiid":"B2094654DA6DA5FC459E","title":"富源公寓","lon":"121.477","lat":"31.2118","category":"47","category_name":"住宅区","address":"徐家汇路552弄"},{"poiid":"B2094655D36CA1FF4198","title":"顺昌路徐家汇路","lon":"121.47971","lat":"31.21123","category":"38","category_name":"公交车站","address":""},{"poiid":"B2094654DA6DA5FC469F","title":"天天花园","lon":"121.478","lat":"31.2133","category":"47","category_name":"住宅区","address":"徐家汇路518-528"},{"poiid":"B2094654DA6EAAF5419A","title":"红房子西点部","lon":"121.47787","lat":"31.21268","category":"67","category_name":"甜品店","address":"卢湾区建国东路179号(黄陂南路建国东路)"},{"poiid":"B2094655D268A2F94098","title":"好德No.3114","lon":"121.47818","lat":"31.21277","category":"117","category_name":"便民商店/便利店","address":"建国东路159"},{"poiid":"B2094655D268A7F8429B","title":"顺昌路550弄小区(东门)","lon":"121.47942","lat":"31.21198","category":"47","category_name":"住宅区","address":"顺昌路550弄1-23号"},{"poiid":"B2094757D66DA4F84192","title":"豪菜馆","lon":"121.47951697","lat":"31.211657584","category":"247","category_name":"餐饮美食","address":"上海顺昌路563弄1号"},{"poiid":"B2094655D265A6F94193","title":"光明牛奶","lon":"121.47958","lat":"31.21215","category":"117","category_name":"便民商店/便利店","address":"顺昌路543"},{"poiid":"B2094757D16AA4FD489E","title":"上海社科院","lon":"121.479635","lat":"31.210817","category":"500","category_name":"未知分类","address":"卢湾区顺昌路622号"},{"poiid":"B2094757D66AA4F44198","title":"鼎乐酒家","lon":"121.48018955369","lat":"31.212505124381","category":"76","category_name":"上海菜","address":"卢湾区永年路54号(永年路肇周路)"},{"poiid":"B2094757D16DA1FB469C","title":"顺昌路永年路","lon":"121.479267338","lat":"31.2105510808","category":"500","category_name":"未知分类","address":"上海顺昌路永年路"},{"poiid":"B2094750D665A3FE429E","title":"武记点心店","lon":"121.477","lat":"31.2124","category":"68","category_name":"快餐厅","address":"卢湾区黄陂南路802号(近建国东路)"},{"poiid":"B2094655D265A6FD459C","title":"东成饮食店","lon":"121.47938","lat":"31.21316","category":"68","category_name":"快餐厅","address":"卢湾区顺昌路485号"},{"poiid":"B2094757D46DA4F5489A","title":"屋里厢农家小菜","lon":"121.479457","lat":"31.212536","category":"87","category_name":"特色／地方风味餐厅","address":"卢湾区顺昌路500号(近建国东路路口)"},{"poiid":"B2094654DA6FA3FD4498","title":"卢湾都市型工业楼宇(黄陂南路)","lon":"121.47747","lat":"31.21319","category":"46","category_name":"楼宇","address":"黄陂南路751"},{"poiid":"B2094757D164A6F5479F","title":"Jay's 窝窝","lon":"121.47670073","lat":"31.211801907","category":"247","category_name":"餐饮美食","address":null},{"poiid":"B2094757D06AA4FD439B","title":"COSTA COFFEE(徐家汇路店)","lon":"121.477546","lat":"31.209448","category":"65","category_name":"咖啡厅","address":"卢湾区徐家汇路203号(近马当路地铁3号出口)"},{"poiid":"B2094654DA6DA5FC459A","title":"宝鼎大厦","lon":"121.477","lat":"31.212","category":"46","category_name":"楼宇","address":"闸北区共和新路3703,3737号"},{"poiid":"B2094757D06AA6FE469C","title":"新天地style","lon":"121.47919464","lat":"31.214149475","category":"500","category_name":"未知分类","address":"上海复兴中路马当路"},{"poiid":"B2094753D76FAAFA449C","title":"上海滩国泰旗舰店","lon":"121.466011","lat":"31.216125","category":"249","category_name":"购物服务","address":"淮海中路868号"},{"poiid":"B209475CD564A7F84292","title":"上海滩新天地店","lon":"121.47463","lat":"31.22164","category":"119","category_name":"商场","address":"\"太仓路181弄新天地北里15号\r\n\""},{"poiid":"B209475CD564A7F8439E","title":"上海滩中信泰富店","lon":"121.45602","lat":"31.22851","category":"119","category_name":"商场","address":"\"南京西路1168号中信泰富广场，店铺号221.\r\n\""},{"poiid":"B2094655D26EA5F4429B","title":"夜上海(新天地店)","lon":"121.47749","lat":"31.21282","category":"248","category_name":"生活娱乐","address":"卢湾区黄陂南路338号"},{"poiid":"B2094757D16EA1FE4698","title":"马当路","lon":"121.47786373","lat":"31.209810865","category":"500","category_name":"未知分类","address":"上海市卢湾区"},{"poiid":"B2094757D068A1FD409A","title":"盛兴点心店","lon":"121.479443054","lat":"31.212018793","category":"87","category_name":"特色／地方风味餐厅","address":"卢湾区顺昌路528号(近永年路)"},{"poiid":"B2094654DA6EAAF54793","title":"上海社会科学院研究生部","lon":"121.47963","lat":"31.21081","category":"52","category_name":"高等院校","address":"顺昌路622"},{"poiid":"B2094757D069A7FC409A","title":"一品居热气羊肉馆(顺昌店)","lon":"121.47938","lat":"31.21213","category":"86","category_name":"火锅店","address":"卢湾区顺昌路512号(近永年路)"},{"poiid":"B2094757D06AA6FE479B","title":"黄陂南路徐家汇路","lon":"121.47800445","lat":"31.210878372","category":"500","category_name":"未知分类","address":"上海黄陂南路徐家汇路"},{"poiid":"B2094757D16EA4F44398","title":"黃陂南路751號創意園區","lon":"121.47749573","lat":"31.213613946","category":"500","category_name":"未知分类","address":"上海黃陂南路751"},{"poiid":"B2094757D068ABFB419A","title":"泰煌鸡 黄陂南路店","lon":"121.477455054","lat":"31.213034793","category":"72","category_name":"广东菜","address":"卢湾区黄陂南路807号(近永年路)"},{"poiid":"B2094757D06AA4F5499E","title":"central studios奂镜","lon":"121.477864","lat":"31.213331","category":"500","category_name":"未知分类","address":"上海市黄陂南路751号1号楼1楼"},{"poiid":"B2094654DB69A5F4409A","title":"重庆鸡公煲 顺昌路店","lon":"121.479501054","lat":"31.212284793","category":"71","category_name":"四川菜","address":"卢湾区顺昌路530号(近永年路)"},{"poiid":"B2094654DB6BA4FB469F","title":"卓维700上海创意产业集聚区","lon":"121.47692","lat":"31.21411","category":"45","category_name":"产业园区","address":"黄陂南路700"},{"poiid":"B2094757D769A4F94699","title":"上海砂锅饭店","lon":"121.47780999365","lat":"31.21249952881","category":"76","category_name":"上海菜","address":"卢湾区建国东路125号(顺昌路)"},{"poiid":"B2094752D66FAAFC4993","title":"必胜客","lon":"121.479057","lat":"31.211943","category":"500","category_name":"未知分类","address":"徐家汇路618号日月光中心广场B2楼(近瑞金二路)"},{"poiid":"B2094655D26CA4F54592","title":"建德坊","lon":"121.47675","lat":"31.212887","category":"47","category_name":"住宅区","address":"建国东路328弄1-22号"},{"poiid":"B2094654DB6BA4FF4898","title":"老北京涮锅(顺昌路)","lon":"121.47952","lat":"31.2125","category":"86","category_name":"火锅店","address":"卢湾区顺昌路531号(近永年路)"},{"poiid":"B2094655D265A7FF4499","title":"梦奇屋","lon":"121.47967","lat":"31.21183","category":"68","category_name":"快餐厅","address":"卢湾区顺昌路563号(近徐家汇路)"},{"poiid":"B2094750DB69A7FE419D","title":"9号线_马当路","lon":"121.478485","lat":"31.211101","category":"500","category_name":"未知分类","address":null},{"poiid":"B2094655D26CA4F9409C","title":"永年路149弄1-59号(永年路)","lon":"121.47874","lat":"31.21189","category":"47","category_name":"住宅区","address":""},{"poiid":"B2094757DA69A2FC449E","title":"esee英模","lon":"121.47759646043","lat":"31.21278052027","category":"180","category_name":"剧场","address":"黄陂南路751号1号楼502室"},{"poiid":"B2094654DB6BA4FF489B","title":"森绿温馨小吃(顺昌路)","lon":"121.47945","lat":"31.21288","category":"76","category_name":"上海菜","address":"卢湾区顺昌路503号(近建国东路)"},{"poiid":"B2094654DA6EAAF54493","title":"南京金陵汤包店","lon":"121.47932","lat":"31.21225","category":"87","category_name":"特色／地方风味餐厅","address":"卢湾区永年路114号(顺昌路口)"},{"poiid":"B2094654DA6FA3FF429A","title":"邦德造型设计","lon":"121.47606","lat":"31.21234","category":"148","category_name":"美容美发店","address":"卢湾区建国东路342号(近马当路)"},{"poiid":"B2094654DA6FA3FD439F","title":"光明便利No.109","lon":"121.47768","lat":"31.21239","category":"117","category_name":"便民商店/便利店","address":"黄陂南路783-2"},{"poiid":"B2094757D464ABF54098","title":"巴弟鸡排 顺昌路店","lon":"121.479773054","lat":"31.211614793","category":"68","category_name":"快餐厅","address":"卢湾区顺昌路563号(近徐家汇路)"},{"poiid":"B2094757D16DA1F54699","title":"京世造型","lon":"121.476757","lat":"31.212887","category":"148","category_name":"美容美发店","address":"上海卢湾区建国东路318号"},{"poiid":"B2094757D16AA6FC4298","title":"联华超市（永年路店）","lon":"121.47833252","lat":"31.2119827271","category":"249","category_name":"购物服务","address":"上海永年路162号"},{"poiid":"B2094654DA6EA7FA499D","title":"长顺来","lon":"121.4795","lat":"31.2126","category":"76","category_name":"上海菜","address":"卢湾区顺昌路517号(近建国东路)"},{"poiid":"B2094655D268A7F8429A","title":"顺昌路550弄小区","lon":"121.47929","lat":"31.21195","category":"47","category_name":"住宅区","address":"顺昌路550弄1-23号"},{"poiid":"B2094654DA6DA5FC459E","title":"富源公寓","lon":"121.477","lat":"31.2118","category":"47","category_name":"住宅区","address":"徐家汇路552弄"},{"poiid":"B2094655D36CA1FF4198","title":"顺昌路徐家汇路","lon":"121.47971","lat":"31.21123","category":"38","category_name":"公交车站","address":""},{"poiid":"B2094654DA6DA5FC469F","title":"天天花园","lon":"121.478","lat":"31.2133","category":"47","category_name":"住宅区","address":"徐家汇路518-528"},{"poiid":"B2094654DA6EAAF5419A","title":"红房子西点部","lon":"121.47787","lat":"31.21268","category":"67","category_name":"甜品店","address":"卢湾区建国东路179号(黄陂南路建国东路)"},{"poiid":"B2094655D268A2F94098","title":"好德No.3114","lon":"121.47818","lat":"31.21277","category":"117","category_name":"便民商店/便利店","address":"建国东路159"},{"poiid":"B2094655D268A7F8429B","title":"顺昌路550弄小区(东门)","lon":"121.47942","lat":"31.21198","category":"47","category_name":"住宅区","address":"顺昌路550弄1-23号"},{"poiid":"B2094757D66DA4F84192","title":"豪菜馆","lon":"121.47951697","lat":"31.211657584","category":"247","category_name":"餐饮美食","address":"上海顺昌路563弄1号"},{"poiid":"B2094655D265A6F94193","title":"光明牛奶","lon":"121.47958","lat":"31.21215","category":"117","category_name":"便民商店/便利店","address":"顺昌路543"},{"poiid":"B2094757D16AA4FD489E","title":"上海社科院","lon":"121.479635","lat":"31.210817","category":"500","category_name":"未知分类","address":"卢湾区顺昌路622号"},{"poiid":"B2094757D66AA4F44198","title":"鼎乐酒家","lon":"121.48018955369","lat":"31.212505124381","category":"76","category_name":"上海菜","address":"卢湾区永年路54号(永年路肇周路)"},{"poiid":"B2094757D16DA1FB469C","title":"顺昌路永年路","lon":"121.479267338","lat":"31.2105510808","category":"500","category_name":"未知分类","address":"上海顺昌路永年路"},{"poiid":"B2094750D665A3FE429E","title":"武记点心店","lon":"121.477","lat":"31.2124","category":"68","category_name":"快餐厅","address":"卢湾区黄陂南路802号(近建国东路)"},{"poiid":"B2094655D265A6FD459C","title":"东成饮食店","lon":"121.47938","lat":"31.21316","category":"68","category_name":"快餐厅","address":"卢湾区顺昌路485号"},{"poiid":"B2094757D46DA4F5489A","title":"屋里厢农家小菜","lon":"121.479457","lat":"31.212536","category":"87","category_name":"特色／地方风味餐厅","address":"卢湾区顺昌路500号(近建国东路路口)"},{"poiid":"B2094654DA6FA3FD4498","title":"卢湾都市型工业楼宇(黄陂南路)","lon":"121.47747","lat":"31.21319","category":"46","category_name":"楼宇","address":"黄陂南路751"},{"poiid":"B2094757D164A6F5479F","title":"Jay's 窝窝","lon":"121.47670073","lat":"31.211801907","category":"247","category_name":"餐饮美食","address":null},{"poiid":"B2094757D06AA4FD439B","title":"COSTA COFFEE(徐家汇路店)","lon":"121.477546","lat":"31.209448","category":"65","category_name":"咖啡厅","address":"卢湾区徐家汇路203号(近马当路地铁3号出口)"},{"poiid":"B2094654DA6DA5FC459A","title":"宝鼎大厦","lon":"121.477","lat":"31.212","category":"46","category_name":"楼宇","address":"闸北区共和新路3703,3737号"},{"poiid":"B2094757D06AA6FE469C","title":"新天地style","lon":"121.47919464","lat":"31.214149475","category":"500","category_name":"未知分类","address":"上海复兴中路马当路"},{"poiid":"B2094753D76FAAFA449C","title":"上海滩国泰旗舰店","lon":"121.466011","lat":"31.216125","category":"249","category_name":"购物服务","address":"淮海中路868号"},{"poiid":"B209475CD564A7F84292","title":"上海滩新天地店","lon":"121.47463","lat":"31.22164","category":"119","category_name":"商场","address":"\"太仓路181弄新天地北里15号\r\n\""},{"poiid":"B209475CD564A7F8439E","title":"上海滩中信泰富店","lon":"121.45602","lat":"31.22851","category":"119","category_name":"商场","address":"\"南京西路1168号中信泰富广场，店铺号221.\r\n\""},{"poiid":"B2094655D26EA5F4429B","title":"夜上海(新天地店)","lon":"121.47749","lat":"31.21282","category":"248","category_name":"生活娱乐","address":"卢湾区黄陂南路338号"},{"poiid":"B2094757D16EA1FE4698","title":"马当路","lon":"121.47786373","lat":"31.209810865","category":"500","category_name":"未知分类","address":"上海市卢湾区"},{"poiid":"B2094757D068A1FD409A","title":"盛兴点心店","lon":"121.479443054","lat":"31.212018793","category":"87","category_name":"特色／地方风味餐厅","address":"卢湾区顺昌路528号(近永年路)"},{"poiid":"B2094654DA6EAAF54793","title":"上海社会科学院研究生部","lon":"121.47963","lat":"31.21081","category":"52","category_name":"高等院校","address":"顺昌路622"},{"poiid":"B2094757D069A7FC409A","title":"一品居热气羊肉馆(顺昌店)","lon":"121.47938","lat":"31.21213","category":"86","category_name":"火锅店","address":"卢湾区顺昌路512号(近永年路)"},{"poiid":"B2094757D06AA6FE479B","title":"黄陂南路徐家汇路","lon":"121.47800445","lat":"31.210878372","category":"500","category_name":"未知分类","address":"上海黄陂南路徐家汇路"},{"poiid":"B2094757D16EA4F44398","title":"黃陂南路751號創意園區","lon":"121.47749573","lat":"31.213613946","category":"500","category_name":"未知分类","address":"上海黃陂南路751"},{"poiid":"B2094757D068ABFB419A","title":"泰煌鸡 黄陂南路店","lon":"121.477455054","lat":"31.213034793","category":"72","category_name":"广东菜","address":"卢湾区黄陂南路807号(近永年路)"},{"poiid":"B2094757D06AA4F5499E","title":"central studios奂镜","lon":"121.477864","lat":"31.213331","category":"500","category_name":"未知分类","address":"上海市黄陂南路751号1号楼1楼"},{"poiid":"B2094654DB69A5F4409A","title":"重庆鸡公煲 顺昌路店","lon":"121.479501054","lat":"31.212284793","category":"71","category_name":"四川菜","address":"卢湾区顺昌路530号(近永年路)"},{"poiid":"B2094654DB6BA4FB469F","title":"卓维700上海创意产业集聚区","lon":"121.47692","lat":"31.21411","category":"45","category_name":"产业园区","address":"黄陂南路700"},{"poiid":"B2094757D769A4F94699","title":"上海砂锅饭店","lon":"121.47780999365","lat":"31.21249952881","category":"76","category_name":"上海菜","address":"卢湾区建国东路125号(顺昌路)"},{"poiid":"B2094752D66FAAFC4993","title":"必胜客","lon":"121.479057","lat":"31.211943","category":"500","category_name":"未知分类","address":"徐家汇路618号日月光中心广场B2楼(近瑞金二路)"},{"poiid":"B2094655D26CA4F54592","title":"建德坊","lon":"121.47675","lat":"31.212887","category":"47","category_name":"住宅区","address":"建国东路328弄1-22号"},{"poiid":"B2094654DB6BA4FF4898","title":"老北京涮锅(顺昌路)","lon":"121.47952","lat":"31.2125","category":"86","category_name":"火锅店","address":"卢湾区顺昌路531号(近永年路)"},{"poiid":"B2094655D265A7FF4499","title":"梦奇屋","lon":"121.47967","lat":"31.21183","category":"68","category_name":"快餐厅","address":"卢湾区顺昌路563号(近徐家汇路)"},{"poiid":"B2094750DB69A7FE419D","title":"9号线_马当路","lon":"121.478485","lat":"31.211101","category":"500","category_name":"未知分类","address":null},{"poiid":"B2094655D26CA4F9409C","title":"永年路149弄1-59号(永年路)","lon":"121.47874","lat":"31.21189","category":"47","category_name":"住宅区","address":""},{"poiid":"B2094757DA69A2FC449E","title":"esee英模","lon":"121.47759646043","lat":"31.21278052027","category":"180","category_name":"剧场","address":"黄陂南路751号1号楼502室"},{"poiid":"B2094654DB6BA4FF489B","title":"森绿温馨小吃(顺昌路)","lon":"121.47945","lat":"31.21288","category":"76","category_name":"上海菜","address":"卢湾区顺昌路503号(近建国东路)"},{"poiid":"B2094654DA6EAAF54493","title":"南京金陵汤包店","lon":"121.47932","lat":"31.21225","category":"87","category_name":"特色／地方风味餐厅","address":"卢湾区永年路114号(顺昌路口)"},{"poiid":"B2094654DA6FA3FF429A","title":"邦德造型设计","lon":"121.47606","lat":"31.21234","category":"148","category_name":"美容美发店","address":"卢湾区建国东路342号(近马当路)"},{"poiid":"B2094654DA6FA3FD439F","title":"光明便利No.109","lon":"121.47768","lat":"31.21239","category":"117","category_name":"便民商店/便利店","address":"黄陂南路783-2"},{"poiid":"B2094757D464ABF54098","title":"巴弟鸡排 顺昌路店","lon":"121.479773054","lat":"31.211614793","category":"68","category_name":"快餐厅","address":"卢湾区顺昌路563号(近徐家汇路)"},{"poiid":"B2094757D16DA1F54699","title":"京世造型","lon":"121.476757","lat":"31.212887","category":"148","category_name":"美容美发店","address":"上海卢湾区建国东路318号"},{"poiid":"B2094757D16AA6FC4298","title":"联华超市（永年路店）","lon":"121.47833252","lat":"31.2119827271","category":"249","category_name":"购物服务","address":"上海永年路162号"},{"poiid":"B2094654DA6EA7FA499D","title":"长顺来","lon":"121.4795","lat":"31.2126","category":"76","category_name":"上海菜","address":"卢湾区顺昌路517号(近建国东路)"},{"poiid":"B2094655D268A7F8429A","title":"顺昌路550弄小区","lon":"121.47929","lat":"31.21195","category":"47","category_name":"住宅区","address":"顺昌路550弄1-23号"},{"poiid":"B2094654DA6DA5FC459E","title":"富源公寓","lon":"121.477","lat":"31.2118","category":"47","category_name":"住宅区","address":"徐家汇路552弄"},{"poiid":"B2094655D36CA1FF4198","title":"顺昌路徐家汇路","lon":"121.47971","lat":"31.21123","category":"38","category_name":"公交车站","address":""},{"poiid":"B2094654DA6DA5FC469F","title":"天天花园","lon":"121.478","lat":"31.2133","category":"47","category_name":"住宅区","address":"徐家汇路518-528"},{"poiid":"B2094654DA6EAAF5419A","title":"红房子西点部","lon":"121.47787","lat":"31.21268","category":"67","category_name":"甜品店","address":"卢湾区建国东路179号(黄陂南路建国东路)"},{"poiid":"B2094655D268A2F94098","title":"好德No.3114","lon":"121.47818","lat":"31.21277","category":"117","category_name":"便民商店/便利店","address":"建国东路159"},{"poiid":"B2094655D268A7F8429B","title":"顺昌路550弄小区(东门)","lon":"121.47942","lat":"31.21198","category":"47","category_name":"住宅区","address":"顺昌路550弄1-23号"},{"poiid":"B2094757D66DA4F84192","title":"豪菜馆","lon":"121.47951697","lat":"31.211657584","category":"247","category_name":"餐饮美食","address":"上海顺昌路563弄1号"},{"poiid":"B2094655D265A6F94193","title":"光明牛奶","lon":"121.47958","lat":"31.21215","category":"117","category_name":"便民商店/便利店","address":"顺昌路543"},{"poiid":"B2094757D16AA4FD489E","title":"上海社科院","lon":"121.479635","lat":"31.210817","category":"500","category_name":"未知分类","address":"卢湾区顺昌路622号"},{"poiid":"B2094757D66AA4F44198","title":"鼎乐酒家","lon":"121.48018955369","lat":"31.212505124381","category":"76","category_name":"上海菜","address":"卢湾区永年路54号(永年路肇周路)"},{"poiid":"B2094757D16DA1FB469C","title":"顺昌路永年路","lon":"121.479267338","lat":"31.2105510808","category":"500","category_name":"未知分类","address":"上海顺昌路永年路"},{"poiid":"B2094750D665A3FE429E","title":"武记点心店","lon":"121.477","lat":"31.2124","category":"68","category_name":"快餐厅","address":"卢湾区黄陂南路802号(近建国东路)"},{"poiid":"B2094655D265A6FD459C","title":"东成饮食店","lon":"121.47938","lat":"31.21316","category":"68","category_name":"快餐厅","address":"卢湾区顺昌路485号"},{"poiid":"B2094757D46DA4F5489A","title":"屋里厢农家小菜","lon":"121.479457","lat":"31.212536","category":"87","category_name":"特色／地方风味餐厅","address":"卢湾区顺昌路500号(近建国东路路口)"},{"poiid":"B2094654DA6FA3FD4498","title":"卢湾都市型工业楼宇(黄陂南路)","lon":"121.47747","lat":"31.21319","category":"46","category_name":"楼宇","address":"黄陂南路751"},{"poiid":"B2094757D164A6F5479F","title":"Jay's 窝窝","lon":"121.47670073","lat":"31.211801907","category":"247","category_name":"餐饮美食","address":null},{"poiid":"B2094757D06AA4FD439B","title":"COSTA COFFEE(徐家汇路店)","lon":"121.477546","lat":"31.209448","category":"65","category_name":"咖啡厅","address":"卢湾区徐家汇路203号(近马当路地铁3号出口)"},{"poiid":"B2094654DA6DA5FC459A","title":"宝鼎大厦","lon":"121.477","lat":"31.212","category":"46","category_name":"楼宇","address":"闸北区共和新路3703,3737号"},{"poiid":"B2094757D06AA6FE469C","title":"新天地style","lon":"121.47919464","lat":"31.214149475","category":"500","category_name":"未知分类","address":"上海复兴中路马当路"},{"poiid":"B2094753D76FAAFA449C","title":"上海滩国泰旗舰店","lon":"121.466011","lat":"31.216125","category":"249","category_name":"购物服务","address":"淮海中路868号"},{"poiid":"B209475CD564A7F84292","title":"上海滩新天地店","lon":"121.47463","lat":"31.22164","category":"119","category_name":"商场","address":"\"太仓路181弄新天地北里15号\r\n\""},{"poiid":"B209475CD564A7F8439E","title":"上海滩中信泰富店","lon":"121.45602","lat":"31.22851","category":"119","category_name":"商场","address":"\"南京西路1168号中信泰富广场，店铺号221.\r\n\""},{"poiid":"B2094655D26EA5F4429B","title":"夜上海(新天地店)","lon":"121.47749","lat":"31.21282","category":"248","category_name":"生活娱乐","address":"卢湾区黄陂南路338号"},{"poiid":"B2094757D16EA1FE4698","title":"马当路","lon":"121.47786373","lat":"31.209810865","category":"500","category_name":"未知分类","address":"上海市卢湾区"},{"poiid":"B2094757D068A1FD409A","title":"盛兴点心店","lon":"121.479443054","lat":"31.212018793","category":"87","category_name":"特色／地方风味餐厅","address":"卢湾区顺昌路528号(近永年路)"},{"poiid":"B2094654DA6EAAF54793","title":"上海社会科学院研究生部","lon":"121.47963","lat":"31.21081","category":"52","category_name":"高等院校","address":"顺昌路622"},{"poiid":"B2094757D069A7FC409A","title":"一品居热气羊肉馆(顺昌店)","lon":"121.47938","lat":"31.21213","category":"86","category_name":"火锅店","address":"卢湾区顺昌路512号(近永年路)"},{"poiid":"B2094757D06AA6FE479B","title":"黄陂南路徐家汇路","lon":"121.47800445","lat":"31.210878372","category":"500","category_name":"未知分类","address":"上海黄陂南路徐家汇路"},{"poiid":"B2094757D16EA4F44398","title":"黃陂南路751號創意園區","lon":"121.47749573","lat":"31.213613946","category":"500","category_name":"未知分类","address":"上海黃陂南路751"},{"poiid":"B2094757D068ABFB419A","title":"泰煌鸡 黄陂南路店","lon":"121.477455054","lat":"31.213034793","category":"72","category_name":"广东菜","address":"卢湾区黄陂南路807号(近永年路)"},{"poiid":"B2094757D06AA4F5499E","title":"central studios奂镜","lon":"121.477864","lat":"31.213331","category":"500","category_name":"未知分类","address":"上海市黄陂南路751号1号楼1楼"},{"poiid":"B2094654DB69A5F4409A","title":"重庆鸡公煲 顺昌路店","lon":"121.479501054","lat":"31.212284793","category":"71","category_name":"四川菜","address":"卢湾区顺昌路530号(近永年路)"},{"poiid":"B2094654DB6BA4FB469F","title":"卓维700上海创意产业集聚区","lon":"121.47692","lat":"31.21411","category":"45","category_name":"产业园区","address":"黄陂南路700"},{"poiid":"B2094757D769A4F94699","title":"上海砂锅饭店","lon":"121.47780999365","lat":"31.21249952881","category":"76","category_name":"上海菜","address":"卢湾区建国东路125号(顺昌路)"},{"poiid":"B2094752D66FAAFC4993","title":"必胜客","lon":"121.479057","lat":"31.211943","category":"500","category_name":"未知分类","address":"徐家汇路618号日月光中心广场B2楼(近瑞金二路)"},{"poiid":"B2094655D26CA4F54592","title":"建德坊","lon":"121.47675","lat":"31.212887","category":"47","category_name":"住宅区","address":"建国东路328弄1-22号"},{"poiid":"B2094654DB6BA4FF4898","title":"老北京涮锅(顺昌路)","lon":"121.47952","lat":"31.2125","category":"86","category_name":"火锅店","address":"卢湾区顺昌路531号(近永年路)"},{"poiid":"B2094655D265A7FF4499","title":"梦奇屋","lon":"121.47967","lat":"31.21183","category":"68","category_name":"快餐厅","address":"卢湾区顺昌路563号(近徐家汇路)"},{"poiid":"B2094750DB69A7FE419D","title":"9号线_马当路","lon":"121.478485","lat":"31.211101","category":"500","category_name":"未知分类","address":null},{"poiid":"B2094655D26CA4F9409C","title":"永年路149弄1-59号(永年路)","lon":"121.47874","lat":"31.21189","category":"47","category_name":"住宅区","address":""},{"poiid":"B2094757DA69A2FC449E","title":"esee英模","lon":"121.47759646043","lat":"31.21278052027","category":"180","category_name":"剧场","address":"黄陂南路751号1号楼502室"},{"poiid":"B2094654DB6BA4FF489B","title":"森绿温馨小吃(顺昌路)","lon":"121.47945","lat":"31.21288","category":"76","category_name":"上海菜","address":"卢湾区顺昌路503号(近建国东路)"},{"poiid":"B2094654DA6EAAF54493","title":"南京金陵汤包店","lon":"121.47932","lat":"31.21225","category":"87","category_name":"特色／地方风味餐厅","address":"卢湾区永年路114号(顺昌路口)"},{"poiid":"B2094654DA6FA3FF429A","title":"邦德造型设计","lon":"121.47606","lat":"31.21234","category":"148","category_name":"美容美发店","address":"卢湾区建国东路342号(近马当路)"},{"poiid":"B2094654DA6FA3FD439F","title":"光明便利No.109","lon":"121.47768","lat":"31.21239","category":"117","category_name":"便民商店/便利店","address":"黄陂南路783-2"},{"poiid":"B2094757D464ABF54098","title":"巴弟鸡排 顺昌路店","lon":"121.479773054","lat":"31.211614793","category":"68","category_name":"快餐厅","address":"卢湾区顺昌路563号(近徐家汇路)"},{"poiid":"B2094757D16DA1F54699","title":"京世造型","lon":"121.476757","lat":"31.212887","category":"148","category_name":"美容美发店","address":"上海卢湾区建国东路318号"},{"poiid":"B2094757D16AA6FC4298","title":"联华超市（永年路店）","lon":"121.47833252","lat":"31.2119827271","category":"249","category_name":"购物服务","address":"上海永年路162号"},{"poiid":"B2094654DA6EA7FA499D","title":"长顺来","lon":"121.4795","lat":"31.2126","category":"76","category_name":"上海菜","address":"卢湾区顺昌路517号(近建国东路)"},{"poiid":"B2094655D268A7F8429A","title":"顺昌路550弄小区","lon":"121.47929","lat":"31.21195","category":"47","category_name":"住宅区","address":"顺昌路550弄1-23号"},{"poiid":"B2094654DA6DA5FC459E","title":"富源公寓","lon":"121.477","lat":"31.2118","category":"47","category_name":"住宅区","address":"徐家汇路552弄"},{"poiid":"B2094655D36CA1FF4198","title":"顺昌路徐家汇路","lon":"121.47971","lat":"31.21123","category":"38","category_name":"公交车站","address":""},{"poiid":"B2094654DA6DA5FC469F","title":"天天花园","lon":"121.478","lat":"31.2133","category":"47","category_name":"住宅区","address":"徐家汇路518-528"},{"poiid":"B2094654DA6EAAF5419A","title":"红房子西点部","lon":"121.47787","lat":"31.21268","category":"67","category_name":"甜品店","address":"卢湾区建国东路179号(黄陂南路建国东路)"},{"poiid":"B2094655D268A2F94098","title":"好德No.3114","lon":"121.47818","lat":"31.21277","category":"117","category_name":"便民商店/便利店","address":"建国东路159"},{"poiid":"B2094655D268A7F8429B","title":"顺昌路550弄小区(东门)","lon":"121.47942","lat":"31.21198","category":"47","category_name":"住宅区","address":"顺昌路550弄1-23号"},{"poiid":"B2094757D66DA4F84192","title":"豪菜馆","lon":"121.47951697","lat":"31.211657584","category":"247","category_name":"餐饮美食","address":"上海顺昌路563弄1号"},{"poiid":"B2094655D265A6F94193","title":"光明牛奶","lon":"121.47958","lat":"31.21215","category":"117","category_name":"便民商店/便利店","address":"顺昌路543"},{"poiid":"B2094757D16AA4FD489E","title":"上海社科院","lon":"121.479635","lat":"31.210817","category":"500","category_name":"未知分类","address":"卢湾区顺昌路622号"},{"poiid":"B2094757D66AA4F44198","title":"鼎乐酒家","lon":"121.48018955369","lat":"31.212505124381","category":"76","category_name":"上海菜","address":"卢湾区永年路54号(永年路肇周路)"},{"poiid":"B2094757D16DA1FB469C","title":"顺昌路永年路","lon":"121.479267338","lat":"31.2105510808","category":"500","category_name":"未知分类","address":"上海顺昌路永年路"},{"poiid":"B2094750D665A3FE429E","title":"武记点心店","lon":"121.477","lat":"31.2124","category":"68","category_name":"快餐厅","address":"卢湾区黄陂南路802号(近建国东路)"},{"poiid":"B2094655D265A6FD459C","title":"东成饮食店","lon":"121.47938","lat":"31.21316","category":"68","category_name":"快餐厅","address":"卢湾区顺昌路485号"},{"poiid":"B2094757D46DA4F5489A","title":"屋里厢农家小菜","lon":"121.479457","lat":"31.212536","category":"87","category_name":"特色／地方风味餐厅","address":"卢湾区顺昌路500号(近建国东路路口)"},{"poiid":"B2094654DA6FA3FD4498","title":"卢湾都市型工业楼宇(黄陂南路)","lon":"121.47747","lat":"31.21319","category":"46","category_name":"楼宇","address":"黄陂南路751"},{"poiid":"B2094757D164A6F5479F","title":"Jay's 窝窝","lon":"121.47670073","lat":"31.211801907","category":"247","category_name":"餐饮美食","address":null}]