[{"poiid":"B2094757D06FA1FE409B","title":"中侨学院","lon":"121.624334","lat":"31.144325","category":"52","category_name":"高等院校","address":"浦东新区川周公路2788号"},{"poiid":"B2094757D068AAFE459D","title":"华硕上海园区(pegatron)","lon":"121.61808206","lat":"31.137838843","category":"45","category_name":"产业园区","address":"上海市南汇区秀沿路3668号"},{"poiid":"B2094757D06FA7FA439F","title":"美特斯邦威集团","lon":"121.61739265","lat":"31.155516802","category":"46","category_name":"楼宇","address":"上海康桥东路800号"},{"poiid":"B2094757D16CAAFC469D","title":"疯人院","lon":"121.62086054","lat":"31.142437505","category":"500","category_name":"未知分类","address":"上海疯子居所升级版"},{"poiid":"B2094654DB64A1FF499F","title":"上海中侨职业技术学院(川周公路)","lon":"121.62335","lat":"31.14542","category":"671","category_name":"高校中心点","address":"川周公路2788号"},{"poiid":"B2094655D264A0FA4292","title":"墅外金柳湾","lon":"121.621567","lat":"31.145622","category":"47","category_name":"住宅区","address":"浦东新区康桥镇川周公路2828弄"},{"poiid":"B2094757D66AA6F9439C","title":"通海大酒店","lon":"121.60783","lat":"31.13763","category":"76","category_name":"上海菜","address":"浦东新区康桥镇秀沿路2533号(近川周公里)"},{"poiid":"B2094757D064A4FC4198","title":"外环线申江路出口","lon":"121.626492","lat":"31.153867","category":"500","category_name":"未知分类","address":"上海外环线申江路"},{"poiid":"B2094757DB6DA6FA479E","title":"上海康桥凯莱酒店","lon":"121.625645","lat":"31.144464","category":"215","category_name":"三星级宾馆","address":"浦东新区川周公路2689号(近高新路)"},{"poiid":"B2094757D66CA3FD4493","title":"太空舱","lon":"121.622850246","lat":"31.146467602","category":"500","category_name":"未知分类","address":null},{"poiid":"B2094757D168A0FF439E","title":"亲和源","lon":"121.61853724","lat":"31.142419505","category":"247","category_name":"餐饮美食","address":"萧山经济开发区青年路建设二路交界处东北侧"},{"poiid":"B2094655D36CA5FD459B","title":"川周公路申江路","lon":"121.62559","lat":"31.14469","category":"38","category_name":"公交车站","address":""},{"poiid":"B2094655D26DA6FD409B","title":"亲和源(秀沿路)","lon":"121.61763","lat":"31.13814","category":"47","category_name":"住宅区","address":"秀沿路2999弄"},{"poiid":"B2094654DB64A1F8499F","title":"沔溪苑","lon":"121.61697","lat":"31.143715","category":"47","category_name":"住宅区","address":"川周公路2828弄17-85号"},{"poiid":"B2094757D16CA0FF489B","title":"五德会","lon":"121.617786904","lat":"31.1428819521","category":"76","category_name":"上海菜","address":"浦东新区川周公路2832号"},{"poiid":"B2094757D06BA0FE429D","title":"和记小菜(孙桥农业开发区)","lon":"121.618694642","lat":"31.1659332243","category":"75","category_name":"浙江菜","address":"上海孙桥农业开发区"},{"poiid":"B2094753D46CA3F8449F","title":"东方体育中心","lon":"121.619651","lat":"31.148101","category":"500","category_name":"未知分类","address":"上海市 东方体育中心地铁站"},{"poiid":"B2094655D36CA2F5489A","title":"申江路秀浦路","lon":"121.63121","lat":"31.13404","category":"38","category_name":"公交车站","address":""},{"poiid":"B2094757D169A0FF4192","title":"小6长两米.宽90公分的床上","lon":"121.62206234","lat":"31.146286197","category":"253","category_name":"校园生活","address":null},{"poiid":"B2094654DB6DA6FD439D","title":"康桥工业区(康桥东路)","lon":"121.63565","lat":"31.16045","category":"45","category_name":"产业园区","address":"康桥东路1365弄1-32号"},{"poiid":"B2094655D36CA7F9429B","title":"横西桥","lon":"121.62608","lat":"31.14495","category":"38","category_name":"公交车站","address":""},{"poiid":"B2094654DB6DA1F8499B","title":"美特斯·邦威(康桥东路)","lon":"121.61742","lat":"31.15553","category":"141","category_name":"服装鞋帽皮具店","address":"浦东新区康桥东路800号"},{"poiid":"B2094757D169A6FA489F","title":"11路公交","lon":"121.622184246","lat":"31.1459365893","category":"500","category_name":"未知分类","address":"兰州到和平"},{"poiid":"B2094757D164A5FD4999","title":"罗森(中侨学院店)","lon":"121.625935","lat":"31.146775","category":"249","category_name":"购物服务","address":"上海浦东新区中侨学院"},{"poiid":"B2094655D36DA2FD4193","title":"申江路跨线桥","lon":"121.6245","lat":"31.15376","category":"250","category_name":"公园户外","address":""},{"poiid":"B2094757D16CA7F9479D","title":"康桥东路","lon":"121.62065124","lat":"31.153776168","category":"500","category_name":"未知分类","address":"上海康桥东路800"},{"poiid":"B2094757D169A2FE439A","title":"上海中侨学院2号楼","lon":"121.624069246","lat":"31.1451235699","category":"500","category_name":"未知分类","address":"上海川周公路2788号"},{"poiid":"B2094757D06BA0FF409A","title":"上海邦购信息科技有限公司","lon":"121.61717764","lat":"31.154522043","category":"46","category_name":"楼宇","address":"上海市浦东新区康桥东路700号"},{"poiid":"B2094654DB6DA2FF439C","title":"康桥水岸公社","lon":"121.62098","lat":"31.14318","category":"47","category_name":"住宅区","address":""},{"poiid":"B2094654DB6DA7F54993","title":"上海市第二精神病医院","lon":"121.63709","lat":"31.15025","category":"162","category_name":"医院","address":"南汇区川周公路"},{"poiid":"B2094654DB6DA2F84293","title":"复旦大学附属中学上海康桥学校","lon":"121.61602","lat":"31.14257","category":"55","category_name":"中学","address":""},{"poiid":"B2094757D168A5FD409C","title":"康城学校","lon":"121.61498324","lat":"31.139627438","category":"253","category_name":"校园生活","address":"浦东新区康佳路(近康宏路)"},{"poiid":"B2094655D36DA2FE459E","title":"沔青桥","lon":"121.63151","lat":"31.14659","category":"250","category_name":"公园户外","address":""},{"poiid":"B2094757D16DA3F44899","title":"汤巷中心村","lon":"121.60685324","lat":"31.14472356","category":"500","category_name":"未知分类","address":"上海浦东新区康桥镇创业路78弄"},{"poiid":"B2094654DB64ABFE429D","title":"亲和源美格菲健康会所","lon":"121.61873","lat":"31.13818","category":"221","category_name":"健身中心","address":""},{"poiid":"B2094757D16BAAFE4993","title":"中侨H楼寝室","lon":"121.625947146","lat":"31.1435732329","category":"249","category_name":"购物服务","address":"上海川周公路2788号"},{"poiid":"B2094654DB6DA1FF469C","title":"南汇区康桥镇社区卫生服务中心","lon":"121.61615","lat":"31.14049","category":"162","category_name":"医院","address":"康桥镇"},{"poiid":"B2094757D16AA4F9419B","title":"创研智造","lon":"121.62416403","lat":"31.133216745","category":"263","category_name":"公司","address":"碧云东壹栋位于浦东金藏路51号(浙桥路口)"},{"poiid":"B2094654DB6DA3FD4492","title":"上海神汇汽车转向器有限公司","lon":"121.62036","lat":"31.15463","category":"263","category_name":"公司","address":"康桥东路888"},{"poiid":"B2094757D06BAAF5489A","title":"美特斯邦威大学","lon":"121.61649097","lat":"31.155532314","category":"253","category_name":"校园生活","address":"上海市浦东新区康桥东路800号 一阶、二阶、三阶"},{"poiid":"B2094655D36DA0FF409B","title":"秀沿路申江路","lon":"121.62931","lat":"31.13839","category":"38","category_name":"公交车站","address":""},{"poiid":"B2094654DB6DA1F9419B","title":"高西村民营企业小区","lon":"121.62217","lat":"31.15803","category":"47","category_name":"住宅区","address":""},{"poiid":"B2094654DB64A1F94098","title":"康桥新苑","lon":"121.61301","lat":"31.143023","category":"47","category_name":"住宅区","address":"创业路87弄1-40号"},{"poiid":"B2094654DB69A7F9489F","title":"横沔派出所","lon":"121.61782","lat":"31.14283","category":"609","category_name":"警察局","address":"南汇区川周公路2858号"},{"poiid":"B2094654DB6DA2F9449B","title":"横沔新镇综合商店","lon":"121.61672","lat":"31.14232","category":"117","category_name":"便民商店/便利店","address":""},{"poiid":"B2094654DB6DA1FB499C","title":"红蜻蜓集团·上海鞋业","lon":"121.62834","lat":"31.15659","category":"263","category_name":"公司","address":"康桥东路1088号"},{"poiid":"B2094655D26DA6FC479A","title":"宁怡苑","lon":"121.61153","lat":"31.138317","category":"47","category_name":"住宅区","address":"秀沿路2875弄"},{"poiid":"B2094654DB6DA3FD449C","title":"上海善能机械有限公司","lon":"121.61991","lat":"31.15571","category":"263","category_name":"公司","address":"康桥东路889"},{"poiid":"B2094757D16FA3FD4799","title":"康庭苑","lon":"121.61406","lat":"31.142563","category":"252","category_name":"楼宇机构","address":"上海市南汇区川周公路2928弄"},{"poiid":"B2094757D66FA1F44892","title":"乐天幼儿园","lon":"121.63379995","lat":"31.151112474","category":"57","category_name":"幼儿园","address":"长沙德馨园"},{"poiid":"B2094757D06FA1FE409B","title":"中侨学院","lon":"121.624334","lat":"31.144325","category":"52","category_name":"高等院校","address":"浦东新区川周公路2788号"},{"poiid":"B2094757D068AAFE459D","title":"华硕上海园区(pegatron)","lon":"121.61808206","lat":"31.137838843","category":"45","category_name":"产业园区","address":"上海市南汇区秀沿路3668号"},{"poiid":"B2094757D06FA7FA439F","title":"美特斯邦威集团","lon":"121.61739265","lat":"31.155516802","category":"46","category_name":"楼宇","address":"上海康桥东路800号"},{"poiid":"B2094757D16CAAFC469D","title":"疯人院","lon":"121.62086054","lat":"31.142437505","category":"500","category_name":"未知分类","address":"上海疯子居所升级版"},{"poiid":"B2094654DB64A1FF499F","title":"上海中侨职业技术学院(川周公路)","lon":"121.62335","lat":"31.14542","category":"671","category_name":"高校中心点","address":"川周公路2788号"},{"poiid":"B2094655D264A0FA4292","title":"墅外金柳湾","lon":"121.621567","lat":"31.145622","category":"47","category_name":"住宅区","address":"浦东新区康桥镇川周公路2828弄"},{"poiid":"B2094757D66AA6F9439C","title":"通海大酒店","lon":"121.60783","lat":"31.13763","category":"76","category_name":"上海菜","address":"浦东新区康桥镇秀沿路2533号(近川周公里)"},{"poiid":"B2094757D064A4FC4198","title":"外环线申江路出口","lon":"121.626492","lat":"31.153867","category":"500","category_name":"未知分类","address":"上海外环线申江路"},{"poiid":"B2094757DB6DA6FA479E","title":"上海康桥凯莱酒店","lon":"121.625645","lat":"31.144464","category":"215","category_name":"三星级宾馆","address":"浦东新区川周公路2689号(近高新路)"},{"poiid":"B2094757D66CA3FD4493","title":"太空舱","lon":"121.622850246","lat":"31.146467602","category":"500","category_name":"未知分类","address":null},{"poiid":"B2094757D168A0FF439E","title":"亲和源","lon":"121.61853724","lat":"31.142419505","category":"247","category_name":"餐饮美食","address":"萧山经济开发区青年路建设二路交界处东北侧"},{"poiid":"B2094655D36CA5FD459B","title":"川周公路申江路","lon":"121.62559","lat":"31.14469","category":"38","category_name":"公交车站","address":""},{"poiid":"B2094655D26DA6FD409B","title":"亲和源(秀沿路)","lon":"121.61763","lat":"31.13814","category":"47","category_name":"住宅区","address":"秀沿路2999弄"},{"poiid":"B2094654DB64A1F8499F","title":"沔溪苑","lon":"121.61697","lat":"31.143715","category":"47","category_name":"住宅区","address":"川周公路2828弄17-85号"},{"poiid":"B2094757D16CA0FF489B","title":"五德会","lon":"121.617786904","lat":"31.1428819521","category":"76","category_name":"上海菜","address":"浦东新区川周公路2832号"},{"poiid":"B2094757D06BA0FE429D","title":"和记小菜(孙桥农业开发区)","lon":"121.618694642","lat":"31.1659332243","category":"75","category_name":"浙江菜","address":"上海孙桥农业开发区"},{"poiid":"B2094753D46CA3F8449F","title":"东方体育中心","lon":"121.619651","lat":"31.148101","category":"500","category_name":"未知分类","address":"上海市 东方体育中心地铁站"},{"poiid":"B2094655D36CA2F5489A","title":"申江路秀浦路","lon":"121.63121","lat":"31.13404","category":"38","category_name":"公交车站","address":""},{"poiid":"B2094757D169A0FF4192","title":"小6长两米.宽90公分的床上","lon":"121.62206234","lat":"31.146286197","category":"253","category_name":"校园生活","address":null},{"poiid":"B2094654DB6DA6FD439D","title":"康桥工业区(康桥东路)","lon":"121.63565","lat":"31.16045","category":"45","category_name":"产业园区","address":"康桥东路1365弄1-32号"},{"poiid":"B2094655D36CA7F9429B","title":"横西桥","lon":"121.62608","lat":"31.14495","category":"38","category_name":"公交车站","address":""},{"poiid":"B2094654DB6DA1F8499B","title":"美特斯·邦威(康桥东路)","lon":"121.61742","lat":"31.15553","category":"141","category_name":"服装鞋帽皮具店","address":"浦东新区康桥东路800号"},{"poiid":"B2094757D169A6FA489F","title":"11路公交","lon":"121.622184246","lat":"31.1459365893","category":"500","category_name":"未知分类","address":"兰州到和平"},{"poiid":"B2094757D164A5FD4999","title":"罗森(中侨学院店)","lon":"121.625935","lat":"31.146775","category":"249","category_name":"购物服务","address":"上海浦东新区中侨学院"},{"poiid":"B2094655D36DA2FD4193","title":"申江路跨线桥","lon":"121.6245","lat":"31.15376","category":"250","category_name":"公园户外","address":""},{"poiid":"B2094757D16CA7F9479D","title":"康桥东路","lon":"121.62065124","lat":"31.153776168","category":"500","category_name":"未知分类","address":"上海康桥东路800"},{"poiid":"B2094757D169A2FE439A","title":"上海中侨学院2号楼","lon":"121.624069246","lat":"31.1451235699","category":"500","category_name":"未知分类","address":"上海川周公路2788号"},{"poiid":"B2094757D06BA0FF409A","title":"上海邦购信息科技有限公司","lon":"121.61717764","lat":"31.154522043","category":"46","category_name":"楼宇","address":"上海市浦东新区康桥东路700号"},{"poiid":"B2094654DB6DA2FF439C","title":"康桥水岸公社","lon":"121.62098","lat":"31.14318","category":"47","category_name":"住宅区","address":""},{"poiid":"B2094654DB6DA7F54993","title":"上海市第二精神病医院","lon":"121.63709","lat":"31.15025","category":"162","category_name":"医院","address":"南汇区川周公路"},{"poiid":"B2094654DB6DA2F84293","title":"复旦大学附属中学上海康桥学校","lon":"121.61602","lat":"31.14257","category":"55","category_name":"中学","address":""},{"poiid":"B2094757D168A5FD409C","title":"康城学校","lon":"121.61498324","lat":"31.139627438","category":"253","category_name":"校园生活","address":"浦东新区康佳路(近康宏路)"},{"poiid":"B2094655D36DA2FE459E","title":"沔青桥","lon":"121.63151","lat":"31.14659","category":"250","category_name":"公园户外","address":""},{"poiid":"B2094757D16DA3F44899","title":"汤巷中心村","lon":"121.60685324","lat":"31.14472356","category":"500","category_name":"未知分类","address":"上海浦东新区康桥镇创业路78弄"},{"poiid":"B2094654DB64ABFE429D","title":"亲和源美格菲健康会所","lon":"121.61873","lat":"31.13818","category":"221","category_name":"健身中心","address":""},{"poiid":"B2094757D16BAAFE4993","title":"中侨H楼寝室","lon":"121.625947146","lat":"31.1435732329","category":"249","category_name":"购物服务","address":"上海川周公路2788号"},{"poiid":"B2094654DB6DA1FF469C","title":"南汇区康桥镇社区卫生服务中心","lon":"121.61615","lat":"31.14049","category":"162","category_name":"医院","address":"康桥镇"},{"poiid":"B2094757D16AA4F9419B","title":"创研智造","lon":"121.62416403","lat":"31.133216745","category":"263","category_name":"公司","address":"碧云东壹栋位于浦东金藏路51号(浙桥路口)"},{"poiid":"B2094654DB6DA3FD4492","title":"上海神汇汽车转向器有限公司","lon":"121.62036","lat":"31.15463","category":"263","category_name":"公司","address":"康桥东路888"},{"poiid":"B2094757D06BAAF5489A","title":"美特斯邦威大学","lon":"121.61649097","lat":"31.155532314","category":"253","category_name":"校园生活","address":"上海市浦东新区康桥东路800号 一阶、二阶、三阶"},{"poiid":"B2094655D36DA0FF409B","title":"秀沿路申江路","lon":"121.62931","lat":"31.13839","category":"38","category_name":"公交车站","address":""},{"poiid":"B2094654DB6DA1F9419B","title":"高西村民营企业小区","lon":"121.62217","lat":"31.15803","category":"47","category_name":"住宅区","address":""},{"poiid":"B2094654DB64A1F94098","title":"康桥新苑","lon":"121.61301","lat":"31.143023","category":"47","category_name":"住宅区","address":"创业路87弄1-40号"},{"poiid":"B2094654DB69A7F9489F","title":"横沔派出所","lon":"121.61782","lat":"31.14283","category":"609","category_name":"警察局","address":"南汇区川周公路2858号"},{"poiid":"B2094654DB6DA2F9449B","title":"横沔新镇综合商店","lon":"121.61672","lat":"31.14232","category":"117","category_name":"便民商店/便利店","address":""},{"poiid":"B2094654DB6DA1FB499C","title":"红蜻蜓集团·上海鞋业","lon":"121.62834","lat":"31.15659","category":"263","category_name":"公司","address":"康桥东路1088号"},{"poiid":"B2094655D26DA6FC479A","title":"宁怡苑","lon":"121.61153","lat":"31.138317","category":"47","category_name":"住宅区","address":"秀沿路2875弄"},{"poiid":"B2094654DB6DA3FD449C","title":"上海善能机械有限公司","lon":"121.61991","lat":"31.15571","category":"263","category_name":"公司","address":"康桥东路889"},{"poiid":"B2094757D16FA3FD4799","title":"康庭苑","lon":"121.61406","lat":"31.142563","category":"252","category_name":"楼宇机构","address":"上海市南汇区川周公路2928弄"},{"poiid":"B2094757D66FA1F44892","title":"乐天幼儿园","lon":"121.63379995","lat":"31.151112474","category":"57","category_name":"幼儿园","address":"长沙德馨园"},{"poiid":"B2094757D06FA1FE409B","title":"中侨学院","lon":"121.624334","lat":"31.144325","category":"52","category_name":"高等院校","address":"浦东新区川周公路2788号"},{"poiid":"B2094757D068AAFE459D","title":"华硕上海园区(pegatron)","lon":"121.61808206","lat":"31.137838843","category":"45","category_name":"产业园区","address":"上海市南汇区秀沿路3668号"},{"poiid":"B2094757D06FA7FA439F","title":"美特斯邦威集团","lon":"121.61739265","lat":"31.155516802","category":"46","category_name":"楼宇","address":"上海康桥东路800号"},{"poiid":"B2094757D16CAAFC469D","title":"疯人院","lon":"121.62086054","lat":"31.142437505","category":"500","category_name":"未知分类","address":"上海疯子居所升级版"},{"poiid":"B2094654DB64A1FF499F","title":"上海中侨职业技术学院(川周公路)","lon":"121.62335","lat":"31.14542","category":"671","category_name":"高校中心点","address":"川周公路2788号"},{"poiid":"B2094655D264A0FA4292","title":"墅外金柳湾","lon":"121.621567","lat":"31.145622","category":"47","category_name":"住宅区","address":"浦东新区康桥镇川周公路2828弄"},{"poiid":"B2094757D66AA6F9439C","title":"通海大酒店","lon":"121.60783","lat":"31.13763","category":"76","category_name":"上海菜","address":"浦东新区康桥镇秀沿路2533号(近川周公里)"},{"poiid":"B2094757D064A4FC4198","title":"外环线申江路出口","lon":"121.626492","lat":"31.153867","category":"500","category_name":"未知分类","address":"上海外环线申江路"},{"poiid":"B2094757DB6DA6FA479E","title":"上海康桥凯莱酒店","lon":"121.625645","lat":"31.144464","category":"215","category_name":"三星级宾馆","address":"浦东新区川周公路2689号(近高新路)"},{"poiid":"B2094757D66CA3FD4493","title":"太空舱","lon":"121.622850246","lat":"31.146467602","category":"500","category_name":"未知分类","address":null},{"poiid":"B2094757D168A0FF439E","title":"亲和源","lon":"121.61853724","lat":"31.142419505","category":"247","category_name":"餐饮美食","address":"萧山经济开发区青年路建设二路交界处东北侧"},{"poiid":"B2094655D36CA5FD459B","title":"川周公路申江路","lon":"121.62559","lat":"31.14469","category":"38","category_name":"公交车站","address":""},{"poiid":"B2094655D26DA6FD409B","title":"亲和源(秀沿路)","lon":"121.61763","lat":"31.13814","category":"47","category_name":"住宅区","address":"秀沿路2999弄"},{"poiid":"B2094654DB64A1F8499F","title":"沔溪苑","lon":"121.61697","lat":"31.143715","category":"47","category_name":"住宅区","address":"川周公路2828弄17-85号"},{"poiid":"B2094757D16CA0FF489B","title":"五德会","lon":"121.617786904","lat":"31.1428819521","category":"76","category_name":"上海菜","address":"浦东新区川周公路2832号"},{"poiid":"B2094757D06BA0FE429D","title":"和记小菜(孙桥农业开发区)","lon":"121.618694642","lat":"31.1659332243","category":"75","category_name":"浙江菜","address":"上海孙桥农业开发区"},{"poiid":"B2094753D46CA3F8449F","title":"东方体育中心","lon":"121.619651","lat":"31.148101","category":"500","category_name":"未知分类","address":"上海市 东方体育中心地铁站"},{"poiid":"B2094655D36CA2F5489A","title":"申江路秀浦路","lon":"121.63121","lat":"31.13404","category":"38","category_name":"公交车站","address":""},{"poiid":"B2094757D169A0FF4192","title":"小6长两米.宽90公分的床上","lon":"121.62206234","lat":"31.146286197","category":"253","category_name":"校园生活","address":null},{"poiid":"B2094654DB6DA6FD439D","title":"康桥工业区(康桥东路)","lon":"121.63565","lat":"31.16045","category":"45","category_name":"产业园区","address":"康桥东路1365弄1-32号"},{"poiid":"B2094655D36CA7F9429B","title":"横西桥","lon":"121.62608","lat":"31.14495","category":"38","category_name":"公交车站","address":""},{"poiid":"B2094654DB6DA1F8499B","title":"美特斯·邦威(康桥东路)","lon":"121.61742","lat":"31.15553","category":"141","category_name":"服装鞋帽皮具店","address":"浦东新区康桥东路800号"},{"poiid":"B2094757D169A6FA489F","title":"11路公交","lon":"121.622184246","lat":"31.1459365893","category":"500","category_name":"未知分类","address":"兰州到和平"},{"poiid":"B2094757D164A5FD4999","title":"罗森(中侨学院店)","lon":"121.625935","lat":"31.146775","category":"249","category_name":"购物服务","address":"上海浦东新区中侨学院"},{"poiid":"B2094655D36DA2FD4193","title":"申江路跨线桥","lon":"121.6245","lat":"31.15376","category":"250","category_name":"公园户外","address":""},{"poiid":"B2094757D16CA7F9479D","title":"康桥东路","lon":"121.62065124","lat":"31.153776168","category":"500","category_name":"未知分类","address":"上海康桥东路800"},{"poiid":"B2094757D169A2FE439A","title":"上海中侨学院2号楼","lon":"121.624069246","lat":"31.1451235699","category":"500","category_name":"未知分类","address":"上海川周公路2788号"},{"poiid":"B2094757D06BA0FF409A","title":"上海邦购信息科技有限公司","lon":"121.61717764","lat":"31.154522043","category":"46","category_name":"楼宇","address":"上海市浦东新区康桥东路700号"},{"poiid":"B2094654DB6DA2FF439C","title":"康桥水岸公社","lon":"121.62098","lat":"31.14318","category":"47","category_name":"住宅区","address":""},{"poiid":"B2094654DB6DA7F54993","title":"上海市第二精神病医院","lon":"121.63709","lat":"31.15025","category":"162","category_name":"医院","address":"南汇区川周公路"},{"poiid":"B2094654DB6DA2F84293","title":"复旦大学附属中学上海康桥学校","lon":"121.61602","lat":"31.14257","category":"55","category_name":"中学","address":""},{"poiid":"B2094757D168A5FD409C","title":"康城学校","lon":"121.61498324","lat":"31.139627438","category":"253","category_name":"校园生活","address":"浦东新区康佳路(近康宏路)"},{"poiid":"B2094655D36DA2FE459E","title":"沔青桥","lon":"121.63151","lat":"31.14659","category":"250","category_name":"公园户外","address":""},{"poiid":"B2094757D16DA3F44899","title":"汤巷中心村","lon":"121.60685324","lat":"31.14472356","category":"500","category_name":"未知分类","address":"上海浦东新区康桥镇创业路78弄"},{"poiid":"B2094654DB64ABFE429D","title":"亲和源美格菲健康会所","lon":"121.61873","lat":"31.13818","category":"221","category_name":"健身中心","address":""},{"poiid":"B2094757D16BAAFE4993","title":"中侨H楼寝室","lon":"121.625947146","lat":"31.1435732329","category":"249","category_name":"购物服务","address":"上海川周公路2788号"},{"poiid":"B2094654DB6DA1FF469C","title":"南汇区康桥镇社区卫生服务中心","lon":"121.61615","lat":"31.14049","category":"162","category_name":"医院","address":"康桥镇"},{"poiid":"B2094757D16AA4F9419B","title":"创研智造","lon":"121.62416403","lat":"31.133216745","category":"263","category_name":"公司","address":"碧云东壹栋位于浦东金藏路51号(浙桥路口)"},{"poiid":"B2094654DB6DA3FD4492","title":"上海神汇汽车转向器有限公司","lon":"121.62036","lat":"31.15463","category":"263","category_name":"公司","address":"康桥东路888"},{"poiid":"B2094757D06BAAF5489A","title":"美特斯邦威大学","lon":"121.61649097","lat":"31.155532314","category":"253","category_name":"校园生活","address":"上海市浦东新区康桥东路800号 一阶、二阶、三阶"},{"poiid":"B2094655D36DA0FF409B","title":"秀沿路申江路","lon":"121.62931","lat":"31.13839","category":"38","category_name":"公交车站","address":""},{"poiid":"B2094654DB6DA1F9419B","title":"高西村民营企业小区","lon":"121.62217","lat":"31.15803","category":"47","category_name":"住宅区","address":""},{"poiid":"B2094654DB64A1F94098","title":"康桥新苑","lon":"121.61301","lat":"31.143023","category":"47","category_name":"住宅区","address":"创业路87弄1-40号"},{"poiid":"B2094654DB69A7F9489F","title":"横沔派出所","lon":"121.61782","lat":"31.14283","category":"609","category_name":"警察局","address":"南汇区川周公路2858号"},{"poiid":"B2094654DB6DA2F9449B","title":"横沔新镇综合商店","lon":"121.61672","lat":"31.14232","category":"117","category_name":"便民商店/便利店","address":""},{"poiid":"B2094654DB6DA1FB499C","title":"红蜻蜓集团·上海鞋业","lon":"121.62834","lat":"31.15659","category":"263","category_name":"公司","address":"康桥东路1088号"},{"poiid":"B2094655D26DA6FC479A","title":"宁怡苑","lon":"121.61153","lat":"31.138317","category":"47","category_name":"住宅区","address":"秀沿路2875弄"},{"poiid":"B2094654DB6DA3FD449C","title":"上海善能机械有限公司","lon":"121.61991","lat":"31.15571","category":"263","category_name":"公司","address":"康桥东路889"},{"poiid":"B2094757D16FA3FD4799","title":"康庭苑","lon":"121.61406","lat":"31.142563","category":"252","category_name":"楼宇机构","address":"上海市南汇区川周公路2928弄"},{"poiid":"B2094757D66FA1F44892","title":"乐天幼儿园","lon":"121.63379995","lat":"31.151112474","category":"57","category_name":"幼儿园","address":"长沙德馨园"}]