[{"poiid":"B2094654D464A3F5489B","title":"上海长途汽车客运总站","lon":"121.45463","lat":"31.2528","category":"35","category_name":"长途汽车站","address":"闸北区中兴路1662号(近孔家木桥路)"},{"poiid":"B2094655D36CA2F44592","title":"上海火车站北广场","lon":"121.45576","lat":"31.25164","category":"38","category_name":"公交车站","address":"上海市闸北区大统路"},{"poiid":"B2094757D068A7FB4698","title":"上海火车站4-5号站台","lon":"121.45375295","lat":"31.2499646774","category":"22","category_name":"火车站","address":"上海市火车站"},{"poiid":"B209475CD564A7F8439E","title":"上海滩中信泰富店","lon":"121.45602","lat":"31.22851","category":"119","category_name":"商场","address":"\"南京西路1168号中信泰富广场，店铺号221.\r\n\""},{"poiid":"B2094655D36CA2F44598","title":"上海火车站","lon":"121.455531","lat":"31.249498","category":"22","category_name":"火车站","address":"上海市闸北区秣陵路303号"},{"poiid":"B2094654D564AAF44098","title":"上海站南广场","lon":"121.45486","lat":"31.2481","category":"22","category_name":"火车站","address":"闸北区秣陵路303号"},{"poiid":"B2094757D06FABFF4493","title":"上海北方智选假日酒店 Holiday Inn Express","lon":"121.452994","lat":"31.252272","category":"217","category_name":"旅馆招待所","address":"上海市闸北区中兴路1738号(近恒丰路)"},{"poiid":"B2094757D06BA2F5479B","title":"上海火车站九号候车室","lon":"121.4559591","lat":"31.249183978","category":"22","category_name":"火车站","address":"上海市闸北区恒丰路"},{"poiid":"B2094757D06FA2F8489A","title":"麦当劳(火车站北广场店)","lon":"121.455468","lat":"31.251107","category":"68","category_name":"快餐厅","address":"闸北区中兴路1646号(近大统路)"},{"poiid":"B2094655D36CA2F4469B","title":"上海火车站南广场","lon":"121.45448","lat":"31.24753","category":"38","category_name":"公交车站","address":""},{"poiid":"B2094757D068A2FD4098","title":"长安大厦","lon":"121.458","lat":"31.2508","category":"46","category_name":"楼宇","address":"闸北区长安路1001号"},{"poiid":"B2094654D464A3F54693","title":"上海站北广场","lon":"121.45623","lat":"31.25081","category":"22","category_name":"火车站","address":"闸北区天目西路"},{"poiid":"B2094757D06AA0FC4999","title":"上海沪铁长途客运站","lon":"121.451751983","lat":"31.2508245347","category":"35","category_name":"长途汽车站","address":"闸北区恒丰路783号(近远景路)"},{"poiid":"B2094757D068ABF44199","title":"肯德基 KFC (北广场店)","lon":"121.454561","lat":"31.247548","category":"68","category_name":"快餐厅","address":"梅园路360号环龙商厦内(近秣陵路)"},{"poiid":"B2094757D068A2F54292","title":"上海火车站普通候车室","lon":"121.4571","lat":"31.2505","category":"260","category_name":"其他","address":"闸北区上海火车站  "},{"poiid":"B2094757D06FA7F54498","title":"友力国际大厦","lon":"121.452","lat":"31.2504","category":"46","category_name":"楼宇","address":"上海江宁路1158号"},{"poiid":"B2094654D464A2FD489B","title":"上海铁路大厦","lon":"121.45258","lat":"31.2497","category":"46","category_name":"楼宇","address":"浦东新区金湘路345号"},{"poiid":"B2094757D068A3FB469C","title":"上海国际眼镜城","lon":"121.45453","lat":"31.25213","category":"132","category_name":"眼镜店","address":"闸北区中兴路1688号火车站北广场长途客运总站1-4楼(近恒丰路桥)"},{"poiid":"B2094757D06FA0FA4592","title":"味千拉面(火车站店)","lon":"121.45406","lat":"31.24734","category":"95","category_name":"日本料理","address":"上海闸北区梅园路360号环龙商厦1楼16号铺(近火车站南广场)"},{"poiid":"B2094654DB6AA6FF469E","title":"上海亚繁龙门大酒店","lon":"121.45188","lat":"31.24962","category":"214","category_name":"四星级宾馆","address":"上海市闸北区恒丰路777号（近天目路）"},{"poiid":"B2094757D06FA5FD4098","title":"锦程大厦","lon":"121.458","lat":"31.2526","category":"46","category_name":"楼宇","address":"上海天目西路511号"},{"poiid":"B2094654D464A3F5469E","title":"中祥戴斯大酒店","lon":"121.45731","lat":"31.2522","category":"214","category_name":"四星级宾馆","address":"上海市闸北区中兴路1558号(上海火车站地区,近大统路)"},{"poiid":"B2094757D068A7F94198","title":"世纪商务大厦","lon":"121.45","lat":"31.2495","category":"46","category_name":"楼宇","address":"上海市普陀区长寿路97号"},{"poiid":"B2094757D068A1F5439F","title":"上海火车站世博钟楼","lon":"121.45478719","lat":"31.248411829","category":"46","category_name":"楼宇","address":"闸北区上海火车站南广场"},{"poiid":"B2094757D06FA3F54499","title":"无印良品MUJI(大悦城店)","lon":"121.45269408","lat":"31.253671806","category":"123","category_name":"家具建材市场","address":"上海市闸北区西藏北路166号大悦城3楼(近曲阜路)"},{"poiid":"B2094654DB6AA6F8489D","title":"上海邮电大厦","lon":"121.45281","lat":"31.24796","category":"215","category_name":"三星级宾馆","address":"协和丽豪酒店式公寓位于静安南京西路2068号(镇宁路愚园路口)"},{"poiid":"B2094750DA6BA4F84298","title":"火车站","lon":"121.454513","lat":"31.247982","category":"500","category_name":"未知分类","address":null},{"poiid":"B2094655D36DA1FD4499","title":"恒丰路立交桥","lon":"121.45135","lat":"31.25165","category":"250","category_name":"公园户外","address":""},{"poiid":"B2094654D464A2FD4898","title":"上海铁路大厦酒店","lon":"121.45258","lat":"31.2497","category":"76","category_name":"上海菜","address":"闸北区秣陵路355号(恒丰路秣陵路)"},{"poiid":"B2094750D76CA4F8459F","title":"东方既白(火车站北广场店)","lon":"121.456","lat":"31.2524","category":"68","category_name":"快餐厅","address":"闸北区中兴路1600号火车站北广场入口西侧"},{"poiid":"B2094757D164A5F9409C","title":"上海火车站贵宾休息室","lon":"121.4548221","lat":"31.248471963","category":"22","category_name":"火车站","address":"上海市闸北区恒丰路"},{"poiid":"B2094757D76CAAF84099","title":"永和大王 中兴路店","lon":"121.45446","lat":"31.25236","category":"68","category_name":"快餐厅","address":"闸北区中兴路1666号(近长途汽车客运总站)"},{"poiid":"B2094757D465A0F4459F","title":"回味鸭血粉丝汤 火车站店","lon":"121.45567","lat":"31.24861","category":"68","category_name":"快餐厅","address":"闸北区秣陵路198号环龙商场附近(近新客站南广场)"},{"poiid":"B2094753D26EA6F9499E","title":"上海万达影城（江桥店）","lon":"121.453549","lat":"31.251508","category":"178","category_name":"电影院","address":"上海市 金沙江西路1075弄49号3楼"},{"poiid":"B2094654D464A3F54792","title":"大娘水饺美食城","lon":"121.4553","lat":"31.25198","category":"68","category_name":"快餐厅","address":"闸北区中兴路1638号"},{"poiid":"B2094757D064A5FE409B","title":"上海火车站十号候车室","lon":"121.45545165","lat":"31.248189457","category":"22","category_name":"火车站","address":"上海火车站新客站"},{"poiid":"B2094655D26AA0FE4092","title":"唐人眼镜三叶店","lon":"121.45417","lat":"31.25226","category":"247","category_name":"餐饮美食","address":"闸北区梅园路360号环龙商厦4楼59号铺"},{"poiid":"B2094757D16BA5FD419D","title":"莫干山路","lon":"121.45006565","lat":"31.2509608964","category":"500","category_name":"未知分类","address":"上海莫干山路"},{"poiid":"B2094655D26FA6F54092","title":"客运大厦","lon":"121.45261","lat":"31.25234","category":"46","category_name":"楼宇","address":"中兴路"},{"poiid":"B2094654D464A2F94793","title":"华舟大厦","lon":"121.45287","lat":"31.255368","category":"46","category_name":"楼宇","address":"华舟大厦位于闸北沪太路315弄"},{"poiid":"B2094757D16FA6FF419A","title":"老娘舅（上海长途汽车总站店)","lon":"121.4566547","lat":"31.252325944","category":"68","category_name":"快餐厅","address":"闸北区中兴路1642号(近汽车总站出口处)"},{"poiid":"B2094757D16CAAF9419D","title":"117终点站(上海火车站)","lon":"121.454864203","lat":"31.2521888413","category":"38","category_name":"公交车站","address":"上海火车站北广场"},{"poiid":"B2094757D065AAFC4799","title":"颂阁岚泰国美食屋","lon":"121.4546366","lat":"31.25166388","category":"247","category_name":"餐饮美食","address":"上海南京东路353广场4楼417"},{"poiid":"B2094753DA68A7F84092","title":"新国际博览中心","lon":"121.454002","lat":"31.251611","category":"500","category_name":"未知分类","address":"上海市 上海市花木路"},{"poiid":"B2094757DA65A6F4429F","title":"上海火车站五号候车室","lon":"121.450864680371","lat":"31.25141213843349","category":"500","category_name":"未知分类","address":"上海火车站"},{"poiid":"B2094654DB65A6F4459B","title":"圣天地商务楼","lon":"121.45","lat":"31.25","category":"46","category_name":"楼宇","address":"江宁路1165号"},{"poiid":"B2094655D26AA0FC449C","title":"唐人眼镜中兴路店","lon":"121.45417","lat":"31.25226","category":"247","category_name":"餐饮美食","address":"闸北区上海火车站北广场中兴路1688号3楼3050-3051(近长途汽车客运总站)"},{"poiid":"B2094654D464A2FD469F","title":"上海站西南出口","lon":"121.45392","lat":"31.24905","category":"22","category_name":"火车站","address":""},{"poiid":"B2094655D26DA0F9489F","title":"新天大厦","lon":"121.45333272719","lat":"31.248797747141","category":"46","category_name":"楼宇","address":"上海市静安区安远路84号"},{"poiid":"B2094752DA6CAAFC459A","title":"上海外滩茂悦大酒店黄浦区黄浦路199号","lon":"121.454697","lat":"31.250778","category":"500","category_name":"未知分类","address":null},{"poiid":"B2094654D464A3F5489B","title":"上海长途汽车客运总站","lon":"121.45463","lat":"31.2528","category":"35","category_name":"长途汽车站","address":"闸北区中兴路1662号(近孔家木桥路)"},{"poiid":"B2094655D36CA2F44592","title":"上海火车站北广场","lon":"121.45576","lat":"31.25164","category":"38","category_name":"公交车站","address":"上海市闸北区大统路"},{"poiid":"B2094757D068A7FB4698","title":"上海火车站4-5号站台","lon":"121.45375295","lat":"31.2499646774","category":"22","category_name":"火车站","address":"上海市火车站"},{"poiid":"B209475CD564A7F8439E","title":"上海滩中信泰富店","lon":"121.45602","lat":"31.22851","category":"119","category_name":"商场","address":"\"南京西路1168号中信泰富广场，店铺号221.\r\n\""},{"poiid":"B2094655D36CA2F44598","title":"上海火车站","lon":"121.455531","lat":"31.249498","category":"22","category_name":"火车站","address":"上海市闸北区秣陵路303号"},{"poiid":"B2094654D564AAF44098","title":"上海站南广场","lon":"121.45486","lat":"31.2481","category":"22","category_name":"火车站","address":"闸北区秣陵路303号"},{"poiid":"B2094757D06FABFF4493","title":"上海北方智选假日酒店 Holiday Inn Express","lon":"121.452994","lat":"31.252272","category":"217","category_name":"旅馆招待所","address":"上海市闸北区中兴路1738号(近恒丰路)"},{"poiid":"B2094757D06BA2F5479B","title":"上海火车站九号候车室","lon":"121.4559591","lat":"31.249183978","category":"22","category_name":"火车站","address":"上海市闸北区恒丰路"},{"poiid":"B2094757D06FA2F8489A","title":"麦当劳(火车站北广场店)","lon":"121.455468","lat":"31.251107","category":"68","category_name":"快餐厅","address":"闸北区中兴路1646号(近大统路)"},{"poiid":"B2094655D36CA2F4469B","title":"上海火车站南广场","lon":"121.45448","lat":"31.24753","category":"38","category_name":"公交车站","address":""},{"poiid":"B2094757D068A2FD4098","title":"长安大厦","lon":"121.458","lat":"31.2508","category":"46","category_name":"楼宇","address":"闸北区长安路1001号"},{"poiid":"B2094654D464A3F54693","title":"上海站北广场","lon":"121.45623","lat":"31.25081","category":"22","category_name":"火车站","address":"闸北区天目西路"},{"poiid":"B2094757D06AA0FC4999","title":"上海沪铁长途客运站","lon":"121.451751983","lat":"31.2508245347","category":"35","category_name":"长途汽车站","address":"闸北区恒丰路783号(近远景路)"},{"poiid":"B2094757D068ABF44199","title":"肯德基 KFC (北广场店)","lon":"121.454561","lat":"31.247548","category":"68","category_name":"快餐厅","address":"梅园路360号环龙商厦内(近秣陵路)"},{"poiid":"B2094757D068A2F54292","title":"上海火车站普通候车室","lon":"121.4571","lat":"31.2505","category":"260","category_name":"其他","address":"闸北区上海火车站  "},{"poiid":"B2094757D06FA7F54498","title":"友力国际大厦","lon":"121.452","lat":"31.2504","category":"46","category_name":"楼宇","address":"上海江宁路1158号"},{"poiid":"B2094654D464A2FD489B","title":"上海铁路大厦","lon":"121.45258","lat":"31.2497","category":"46","category_name":"楼宇","address":"浦东新区金湘路345号"},{"poiid":"B2094757D068A3FB469C","title":"上海国际眼镜城","lon":"121.45453","lat":"31.25213","category":"132","category_name":"眼镜店","address":"闸北区中兴路1688号火车站北广场长途客运总站1-4楼(近恒丰路桥)"},{"poiid":"B2094757D06FA0FA4592","title":"味千拉面(火车站店)","lon":"121.45406","lat":"31.24734","category":"95","category_name":"日本料理","address":"上海闸北区梅园路360号环龙商厦1楼16号铺(近火车站南广场)"},{"poiid":"B2094654DB6AA6FF469E","title":"上海亚繁龙门大酒店","lon":"121.45188","lat":"31.24962","category":"214","category_name":"四星级宾馆","address":"上海市闸北区恒丰路777号（近天目路）"},{"poiid":"B2094757D06FA5FD4098","title":"锦程大厦","lon":"121.458","lat":"31.2526","category":"46","category_name":"楼宇","address":"上海天目西路511号"},{"poiid":"B2094654D464A3F5469E","title":"中祥戴斯大酒店","lon":"121.45731","lat":"31.2522","category":"214","category_name":"四星级宾馆","address":"上海市闸北区中兴路1558号(上海火车站地区,近大统路)"},{"poiid":"B2094757D068A7F94198","title":"世纪商务大厦","lon":"121.45","lat":"31.2495","category":"46","category_name":"楼宇","address":"上海市普陀区长寿路97号"},{"poiid":"B2094757D068A1F5439F","title":"上海火车站世博钟楼","lon":"121.45478719","lat":"31.248411829","category":"46","category_name":"楼宇","address":"闸北区上海火车站南广场"},{"poiid":"B2094757D06FA3F54499","title":"无印良品MUJI(大悦城店)","lon":"121.45269408","lat":"31.253671806","category":"123","category_name":"家具建材市场","address":"上海市闸北区西藏北路166号大悦城3楼(近曲阜路)"},{"poiid":"B2094654DB6AA6F8489D","title":"上海邮电大厦","lon":"121.45281","lat":"31.24796","category":"215","category_name":"三星级宾馆","address":"协和丽豪酒店式公寓位于静安南京西路2068号(镇宁路愚园路口)"},{"poiid":"B2094750DA6BA4F84298","title":"火车站","lon":"121.454513","lat":"31.247982","category":"500","category_name":"未知分类","address":null},{"poiid":"B2094655D36DA1FD4499","title":"恒丰路立交桥","lon":"121.45135","lat":"31.25165","category":"250","category_name":"公园户外","address":""},{"poiid":"B2094654D464A2FD4898","title":"上海铁路大厦酒店","lon":"121.45258","lat":"31.2497","category":"76","category_name":"上海菜","address":"闸北区秣陵路355号(恒丰路秣陵路)"},{"poiid":"B2094750D76CA4F8459F","title":"东方既白(火车站北广场店)","lon":"121.456","lat":"31.2524","category":"68","category_name":"快餐厅","address":"闸北区中兴路1600号火车站北广场入口西侧"},{"poiid":"B2094757D164A5F9409C","title":"上海火车站贵宾休息室","lon":"121.4548221","lat":"31.248471963","category":"22","category_name":"火车站","address":"上海市闸北区恒丰路"},{"poiid":"B2094757D76CAAF84099","title":"永和大王 中兴路店","lon":"121.45446","lat":"31.25236","category":"68","category_name":"快餐厅","address":"闸北区中兴路1666号(近长途汽车客运总站)"},{"poiid":"B2094757D465A0F4459F","title":"回味鸭血粉丝汤 火车站店","lon":"121.45567","lat":"31.24861","category":"68","category_name":"快餐厅","address":"闸北区秣陵路198号环龙商场附近(近新客站南广场)"},{"poiid":"B2094753D26EA6F9499E","title":"上海万达影城（江桥店）","lon":"121.453549","lat":"31.251508","category":"178","category_name":"电影院","address":"上海市 金沙江西路1075弄49号3楼"},{"poiid":"B2094654D464A3F54792","title":"大娘水饺美食城","lon":"121.4553","lat":"31.25198","category":"68","category_name":"快餐厅","address":"闸北区中兴路1638号"},{"poiid":"B2094757D064A5FE409B","title":"上海火车站十号候车室","lon":"121.45545165","lat":"31.248189457","category":"22","category_name":"火车站","address":"上海火车站新客站"},{"poiid":"B2094655D26AA0FE4092","title":"唐人眼镜三叶店","lon":"121.45417","lat":"31.25226","category":"247","category_name":"餐饮美食","address":"闸北区梅园路360号环龙商厦4楼59号铺"},{"poiid":"B2094757D16BA5FD419D","title":"莫干山路","lon":"121.45006565","lat":"31.2509608964","category":"500","category_name":"未知分类","address":"上海莫干山路"},{"poiid":"B2094655D26FA6F54092","title":"客运大厦","lon":"121.45261","lat":"31.25234","category":"46","category_name":"楼宇","address":"中兴路"},{"poiid":"B2094654D464A2F94793","title":"华舟大厦","lon":"121.45287","lat":"31.255368","category":"46","category_name":"楼宇","address":"华舟大厦位于闸北沪太路315弄"},{"poiid":"B2094757D16FA6FF419A","title":"老娘舅（上海长途汽车总站店)","lon":"121.4566547","lat":"31.252325944","category":"68","category_name":"快餐厅","address":"闸北区中兴路1642号(近汽车总站出口处)"},{"poiid":"B2094757D16CAAF9419D","title":"117终点站(上海火车站)","lon":"121.454864203","lat":"31.2521888413","category":"38","category_name":"公交车站","address":"上海火车站北广场"},{"poiid":"B2094757D065AAFC4799","title":"颂阁岚泰国美食屋","lon":"121.4546366","lat":"31.25166388","category":"247","category_name":"餐饮美食","address":"上海南京东路353广场4楼417"},{"poiid":"B2094753DA68A7F84092","title":"新国际博览中心","lon":"121.454002","lat":"31.251611","category":"500","category_name":"未知分类","address":"上海市 上海市花木路"},{"poiid":"B2094757DA65A6F4429F","title":"上海火车站五号候车室","lon":"121.450864680371","lat":"31.25141213843349","category":"500","category_name":"未知分类","address":"上海火车站"},{"poiid":"B2094654DB65A6F4459B","title":"圣天地商务楼","lon":"121.45","lat":"31.25","category":"46","category_name":"楼宇","address":"江宁路1165号"},{"poiid":"B2094655D26AA0FC449C","title":"唐人眼镜中兴路店","lon":"121.45417","lat":"31.25226","category":"247","category_name":"餐饮美食","address":"闸北区上海火车站北广场中兴路1688号3楼3050-3051(近长途汽车客运总站)"},{"poiid":"B2094654D464A2FD469F","title":"上海站西南出口","lon":"121.45392","lat":"31.24905","category":"22","category_name":"火车站","address":""},{"poiid":"B2094655D26DA0F9489F","title":"新天大厦","lon":"121.45333272719","lat":"31.248797747141","category":"46","category_name":"楼宇","address":"上海市静安区安远路84号"},{"poiid":"B2094752DA6CAAFC459A","title":"上海外滩茂悦大酒店黄浦区黄浦路199号","lon":"121.454697","lat":"31.250778","category":"500","category_name":"未知分类","address":null},{"poiid":"B2094654D464A3F5489B","title":"上海长途汽车客运总站","lon":"121.45463","lat":"31.2528","category":"35","category_name":"长途汽车站","address":"闸北区中兴路1662号(近孔家木桥路)"},{"poiid":"B2094655D36CA2F44592","title":"上海火车站北广场","lon":"121.45576","lat":"31.25164","category":"38","category_name":"公交车站","address":"上海市闸北区大统路"},{"poiid":"B2094757D068A7FB4698","title":"上海火车站4-5号站台","lon":"121.45375295","lat":"31.2499646774","category":"22","category_name":"火车站","address":"上海市火车站"},{"poiid":"B209475CD564A7F8439E","title":"上海滩中信泰富店","lon":"121.45602","lat":"31.22851","category":"119","category_name":"商场","address":"\"南京西路1168号中信泰富广场，店铺号221.\r\n\""},{"poiid":"B2094655D36CA2F44598","title":"上海火车站","lon":"121.455531","lat":"31.249498","category":"22","category_name":"火车站","address":"上海市闸北区秣陵路303号"},{"poiid":"B2094654D564AAF44098","title":"上海站南广场","lon":"121.45486","lat":"31.2481","category":"22","category_name":"火车站","address":"闸北区秣陵路303号"},{"poiid":"B2094757D06FABFF4493","title":"上海北方智选假日酒店 Holiday Inn Express","lon":"121.452994","lat":"31.252272","category":"217","category_name":"旅馆招待所","address":"上海市闸北区中兴路1738号(近恒丰路)"},{"poiid":"B2094757D06BA2F5479B","title":"上海火车站九号候车室","lon":"121.4559591","lat":"31.249183978","category":"22","category_name":"火车站","address":"上海市闸北区恒丰路"},{"poiid":"B2094757D06FA2F8489A","title":"麦当劳(火车站北广场店)","lon":"121.455468","lat":"31.251107","category":"68","category_name":"快餐厅","address":"闸北区中兴路1646号(近大统路)"},{"poiid":"B2094655D36CA2F4469B","title":"上海火车站南广场","lon":"121.45448","lat":"31.24753","category":"38","category_name":"公交车站","address":""},{"poiid":"B2094757D068A2FD4098","title":"长安大厦","lon":"121.458","lat":"31.2508","category":"46","category_name":"楼宇","address":"闸北区长安路1001号"},{"poiid":"B2094654D464A3F54693","title":"上海站北广场","lon":"121.45623","lat":"31.25081","category":"22","category_name":"火车站","address":"闸北区天目西路"},{"poiid":"B2094757D06AA0FC4999","title":"上海沪铁长途客运站","lon":"121.451751983","lat":"31.2508245347","category":"35","category_name":"长途汽车站","address":"闸北区恒丰路783号(近远景路)"},{"poiid":"B2094757D068ABF44199","title":"肯德基 KFC (北广场店)","lon":"121.454561","lat":"31.247548","category":"68","category_name":"快餐厅","address":"梅园路360号环龙商厦内(近秣陵路)"},{"poiid":"B2094757D068A2F54292","title":"上海火车站普通候车室","lon":"121.4571","lat":"31.2505","category":"260","category_name":"其他","address":"闸北区上海火车站  "},{"poiid":"B2094757D06FA7F54498","title":"友力国际大厦","lon":"121.452","lat":"31.2504","category":"46","category_name":"楼宇","address":"上海江宁路1158号"},{"poiid":"B2094654D464A2FD489B","title":"上海铁路大厦","lon":"121.45258","lat":"31.2497","category":"46","category_name":"楼宇","address":"浦东新区金湘路345号"},{"poiid":"B2094757D068A3FB469C","title":"上海国际眼镜城","lon":"121.45453","lat":"31.25213","category":"132","category_name":"眼镜店","address":"闸北区中兴路1688号火车站北广场长途客运总站1-4楼(近恒丰路桥)"},{"poiid":"B2094757D06FA0FA4592","title":"味千拉面(火车站店)","lon":"121.45406","lat":"31.24734","category":"95","category_name":"日本料理","address":"上海闸北区梅园路360号环龙商厦1楼16号铺(近火车站南广场)"},{"poiid":"B2094654DB6AA6FF469E","title":"上海亚繁龙门大酒店","lon":"121.45188","lat":"31.24962","category":"214","category_name":"四星级宾馆","address":"上海市闸北区恒丰路777号（近天目路）"},{"poiid":"B2094757D06FA5FD4098","title":"锦程大厦","lon":"121.458","lat":"31.2526","category":"46","category_name":"楼宇","address":"上海天目西路511号"},{"poiid":"B2094654D464A3F5469E","title":"中祥戴斯大酒店","lon":"121.45731","lat":"31.2522","category":"214","category_name":"四星级宾馆","address":"上海市闸北区中兴路1558号(上海火车站地区,近大统路)"},{"poiid":"B2094757D068A7F94198","title":"世纪商务大厦","lon":"121.45","lat":"31.2495","category":"46","category_name":"楼宇","address":"上海市普陀区长寿路97号"},{"poiid":"B2094757D068A1F5439F","title":"上海火车站世博钟楼","lon":"121.45478719","lat":"31.248411829","category":"46","category_name":"楼宇","address":"闸北区上海火车站南广场"},{"poiid":"B2094757D06FA3F54499","title":"无印良品MUJI(大悦城店)","lon":"121.45269408","lat":"31.253671806","category":"123","category_name":"家具建材市场","address":"上海市闸北区西藏北路166号大悦城3楼(近曲阜路)"},{"poiid":"B2094654DB6AA6F8489D","title":"上海邮电大厦","lon":"121.45281","lat":"31.24796","category":"215","category_name":"三星级宾馆","address":"协和丽豪酒店式公寓位于静安南京西路2068号(镇宁路愚园路口)"},{"poiid":"B2094750DA6BA4F84298","title":"火车站","lon":"121.454513","lat":"31.247982","category":"500","category_name":"未知分类","address":null},{"poiid":"B2094655D36DA1FD4499","title":"恒丰路立交桥","lon":"121.45135","lat":"31.25165","category":"250","category_name":"公园户外","address":""},{"poiid":"B2094654D464A2FD4898","title":"上海铁路大厦酒店","lon":"121.45258","lat":"31.2497","category":"76","category_name":"上海菜","address":"闸北区秣陵路355号(恒丰路秣陵路)"},{"poiid":"B2094750D76CA4F8459F","title":"东方既白(火车站北广场店)","lon":"121.456","lat":"31.2524","category":"68","category_name":"快餐厅","address":"闸北区中兴路1600号火车站北广场入口西侧"},{"poiid":"B2094757D164A5F9409C","title":"上海火车站贵宾休息室","lon":"121.4548221","lat":"31.248471963","category":"22","category_name":"火车站","address":"上海市闸北区恒丰路"},{"poiid":"B2094757D76CAAF84099","title":"永和大王 中兴路店","lon":"121.45446","lat":"31.25236","category":"68","category_name":"快餐厅","address":"闸北区中兴路1666号(近长途汽车客运总站)"},{"poiid":"B2094757D465A0F4459F","title":"回味鸭血粉丝汤 火车站店","lon":"121.45567","lat":"31.24861","category":"68","category_name":"快餐厅","address":"闸北区秣陵路198号环龙商场附近(近新客站南广场)"},{"poiid":"B2094753D26EA6F9499E","title":"上海万达影城（江桥店）","lon":"121.453549","lat":"31.251508","category":"178","category_name":"电影院","address":"上海市 金沙江西路1075弄49号3楼"},{"poiid":"B2094654D464A3F54792","title":"大娘水饺美食城","lon":"121.4553","lat":"31.25198","category":"68","category_name":"快餐厅","address":"闸北区中兴路1638号"},{"poiid":"B2094757D064A5FE409B","title":"上海火车站十号候车室","lon":"121.45545165","lat":"31.248189457","category":"22","category_name":"火车站","address":"上海火车站新客站"},{"poiid":"B2094655D26AA0FE4092","title":"唐人眼镜三叶店","lon":"121.45417","lat":"31.25226","category":"247","category_name":"餐饮美食","address":"闸北区梅园路360号环龙商厦4楼59号铺"},{"poiid":"B2094757D16BA5FD419D","title":"莫干山路","lon":"121.45006565","lat":"31.2509608964","category":"500","category_name":"未知分类","address":"上海莫干山路"},{"poiid":"B2094655D26FA6F54092","title":"客运大厦","lon":"121.45261","lat":"31.25234","category":"46","category_name":"楼宇","address":"中兴路"},{"poiid":"B2094654D464A2F94793","title":"华舟大厦","lon":"121.45287","lat":"31.255368","category":"46","category_name":"楼宇","address":"华舟大厦位于闸北沪太路315弄"},{"poiid":"B2094757D16FA6FF419A","title":"老娘舅（上海长途汽车总站店)","lon":"121.4566547","lat":"31.252325944","category":"68","category_name":"快餐厅","address":"闸北区中兴路1642号(近汽车总站出口处)"},{"poiid":"B2094757D16CAAF9419D","title":"117终点站(上海火车站)","lon":"121.454864203","lat":"31.2521888413","category":"38","category_name":"公交车站","address":"上海火车站北广场"},{"poiid":"B2094757D065AAFC4799","title":"颂阁岚泰国美食屋","lon":"121.4546366","lat":"31.25166388","category":"247","category_name":"餐饮美食","address":"上海南京东路353广场4楼417"},{"poiid":"B2094753DA68A7F84092","title":"新国际博览中心","lon":"121.454002","lat":"31.251611","category":"500","category_name":"未知分类","address":"上海市 上海市花木路"},{"poiid":"B2094757DA65A6F4429F","title":"上海火车站五号候车室","lon":"121.450864680371","lat":"31.25141213843349","category":"500","category_name":"未知分类","address":"上海火车站"},{"poiid":"B2094654DB65A6F4459B","title":"圣天地商务楼","lon":"121.45","lat":"31.25","category":"46","category_name":"楼宇","address":"江宁路1165号"},{"poiid":"B2094655D26AA0FC449C","title":"唐人眼镜中兴路店","lon":"121.45417","lat":"31.25226","category":"247","category_name":"餐饮美食","address":"闸北区上海火车站北广场中兴路1688号3楼3050-3051(近长途汽车客运总站)"},{"poiid":"B2094654D464A2FD469F","title":"上海站西南出口","lon":"121.45392","lat":"31.24905","category":"22","category_name":"火车站","address":""},{"poiid":"B2094655D26DA0F9489F","title":"新天大厦","lon":"121.45333272719","lat":"31.248797747141","category":"46","category_name":"楼宇","address":"上海市静安区安远路84号"},{"poiid":"B2094752DA6CAAFC459A","title":"上海外滩茂悦大酒店黄浦区黄浦路199号","lon":"121.454697","lat":"31.250778","category":"500","category_name":"未知分类","address":null},{"poiid":"B2094654D464A3F5489B","title":"上海长途汽车客运总站","lon":"121.45463","lat":"31.2528","category":"35","category_name":"长途汽车站","address":"闸北区中兴路1662号(近孔家木桥路)"},{"poiid":"B2094655D36CA2F44592","title":"上海火车站北广场","lon":"121.45576","lat":"31.25164","category":"38","category_name":"公交车站","address":"上海市闸北区大统路"},{"poiid":"B2094757D068A7FB4698","title":"上海火车站4-5号站台","lon":"121.45375295","lat":"31.2499646774","category":"22","category_name":"火车站","address":"上海市火车站"},{"poiid":"B209475CD564A7F8439E","title":"上海滩中信泰富店","lon":"121.45602","lat":"31.22851","category":"119","category_name":"商场","address":"\"南京西路1168号中信泰富广场，店铺号221.\r\n\""},{"poiid":"B2094655D36CA2F44598","title":"上海火车站","lon":"121.455531","lat":"31.249498","category":"22","category_name":"火车站","address":"上海市闸北区秣陵路303号"},{"poiid":"B2094654D564AAF44098","title":"上海站南广场","lon":"121.45486","lat":"31.2481","category":"22","category_name":"火车站","address":"闸北区秣陵路303号"},{"poiid":"B2094757D06FABFF4493","title":"上海北方智选假日酒店 Holiday Inn Express","lon":"121.452994","lat":"31.252272","category":"217","category_name":"旅馆招待所","address":"上海市闸北区中兴路1738号(近恒丰路)"},{"poiid":"B2094757D06BA2F5479B","title":"上海火车站九号候车室","lon":"121.4559591","lat":"31.249183978","category":"22","category_name":"火车站","address":"上海市闸北区恒丰路"},{"poiid":"B2094757D06FA2F8489A","title":"麦当劳(火车站北广场店)","lon":"121.455468","lat":"31.251107","category":"68","category_name":"快餐厅","address":"闸北区中兴路1646号(近大统路)"},{"poiid":"B2094655D36CA2F4469B","title":"上海火车站南广场","lon":"121.45448","lat":"31.24753","category":"38","category_name":"公交车站","address":""},{"poiid":"B2094757D068A2FD4098","title":"长安大厦","lon":"121.458","lat":"31.2508","category":"46","category_name":"楼宇","address":"闸北区长安路1001号"},{"poiid":"B2094654D464A3F54693","title":"上海站北广场","lon":"121.45623","lat":"31.25081","category":"22","category_name":"火车站","address":"闸北区天目西路"},{"poiid":"B2094757D06AA0FC4999","title":"上海沪铁长途客运站","lon":"121.451751983","lat":"31.2508245347","category":"35","category_name":"长途汽车站","address":"闸北区恒丰路783号(近远景路)"},{"poiid":"B2094757D068ABF44199","title":"肯德基 KFC (北广场店)","lon":"121.454561","lat":"31.247548","category":"68","category_name":"快餐厅","address":"梅园路360号环龙商厦内(近秣陵路)"},{"poiid":"B2094757D068A2F54292","title":"上海火车站普通候车室","lon":"121.4571","lat":"31.2505","category":"260","category_name":"其他","address":"闸北区上海火车站  "},{"poiid":"B2094757D06FA7F54498","title":"友力国际大厦","lon":"121.452","lat":"31.2504","category":"46","category_name":"楼宇","address":"上海江宁路1158号"},{"poiid":"B2094654D464A2FD489B","title":"上海铁路大厦","lon":"121.45258","lat":"31.2497","category":"46","category_name":"楼宇","address":"浦东新区金湘路345号"},{"poiid":"B2094757D068A3FB469C","title":"上海国际眼镜城","lon":"121.45453","lat":"31.25213","category":"132","category_name":"眼镜店","address":"闸北区中兴路1688号火车站北广场长途客运总站1-4楼(近恒丰路桥)"},{"poiid":"B2094757D06FA0FA4592","title":"味千拉面(火车站店)","lon":"121.45406","lat":"31.24734","category":"95","category_name":"日本料理","address":"上海闸北区梅园路360号环龙商厦1楼16号铺(近火车站南广场)"},{"poiid":"B2094654DB6AA6FF469E","title":"上海亚繁龙门大酒店","lon":"121.45188","lat":"31.24962","category":"214","category_name":"四星级宾馆","address":"上海市闸北区恒丰路777号（近天目路）"},{"poiid":"B2094757D06FA5FD4098","title":"锦程大厦","lon":"121.458","lat":"31.2526","category":"46","category_name":"楼宇","address":"上海天目西路511号"},{"poiid":"B2094654D464A3F5469E","title":"中祥戴斯大酒店","lon":"121.45731","lat":"31.2522","category":"214","category_name":"四星级宾馆","address":"上海市闸北区中兴路1558号(上海火车站地区,近大统路)"},{"poiid":"B2094757D068A7F94198","title":"世纪商务大厦","lon":"121.45","lat":"31.2495","category":"46","category_name":"楼宇","address":"上海市普陀区长寿路97号"},{"poiid":"B2094757D068A1F5439F","title":"上海火车站世博钟楼","lon":"121.45478719","lat":"31.248411829","category":"46","category_name":"楼宇","address":"闸北区上海火车站南广场"},{"poiid":"B2094757D06FA3F54499","title":"无印良品MUJI(大悦城店)","lon":"121.45269408","lat":"31.253671806","category":"123","category_name":"家具建材市场","address":"上海市闸北区西藏北路166号大悦城3楼(近曲阜路)"},{"poiid":"B2094654DB6AA6F8489D","title":"上海邮电大厦","lon":"121.45281","lat":"31.24796","category":"215","category_name":"三星级宾馆","address":"协和丽豪酒店式公寓位于静安南京西路2068号(镇宁路愚园路口)"},{"poiid":"B2094750DA6BA4F84298","title":"火车站","lon":"121.454513","lat":"31.247982","category":"500","category_name":"未知分类","address":null},{"poiid":"B2094655D36DA1FD4499","title":"恒丰路立交桥","lon":"121.45135","lat":"31.25165","category":"250","category_name":"公园户外","address":""},{"poiid":"B2094654D464A2FD4898","title":"上海铁路大厦酒店","lon":"121.45258","lat":"31.2497","category":"76","category_name":"上海菜","address":"闸北区秣陵路355号(恒丰路秣陵路)"},{"poiid":"B2094750D76CA4F8459F","title":"东方既白(火车站北广场店)","lon":"121.456","lat":"31.2524","category":"68","category_name":"快餐厅","address":"闸北区中兴路1600号火车站北广场入口西侧"},{"poiid":"B2094757D164A5F9409C","title":"上海火车站贵宾休息室","lon":"121.4548221","lat":"31.248471963","category":"22","category_name":"火车站","address":"上海市闸北区恒丰路"},{"poiid":"B2094757D76CAAF84099","title":"永和大王 中兴路店","lon":"121.45446","lat":"31.25236","category":"68","category_name":"快餐厅","address":"闸北区中兴路1666号(近长途汽车客运总站)"},{"poiid":"B2094757D465A0F4459F","title":"回味鸭血粉丝汤 火车站店","lon":"121.45567","lat":"31.24861","category":"68","category_name":"快餐厅","address":"闸北区秣陵路198号环龙商场附近(近新客站南广场)"},{"poiid":"B2094753D26EA6F9499E","title":"上海万达影城（江桥店）","lon":"121.453549","lat":"31.251508","category":"178","category_name":"电影院","address":"上海市 金沙江西路1075弄49号3楼"},{"poiid":"B2094654D464A3F54792","title":"大娘水饺美食城","lon":"121.4553","lat":"31.25198","category":"68","category_name":"快餐厅","address":"闸北区中兴路1638号"},{"poiid":"B2094757D064A5FE409B","title":"上海火车站十号候车室","lon":"121.45545165","lat":"31.248189457","category":"22","category_name":"火车站","address":"上海火车站新客站"},{"poiid":"B2094655D26AA0FE4092","title":"唐人眼镜三叶店","lon":"121.45417","lat":"31.25226","category":"247","category_name":"餐饮美食","address":"闸北区梅园路360号环龙商厦4楼59号铺"},{"poiid":"B2094757D16BA5FD419D","title":"莫干山路","lon":"121.45006565","lat":"31.2509608964","category":"500","category_name":"未知分类","address":"上海莫干山路"},{"poiid":"B2094655D26FA6F54092","title":"客运大厦","lon":"121.45261","lat":"31.25234","category":"46","category_name":"楼宇","address":"中兴路"},{"poiid":"B2094654D464A2F94793","title":"华舟大厦","lon":"121.45287","lat":"31.255368","category":"46","category_name":"楼宇","address":"华舟大厦位于闸北沪太路315弄"},{"poiid":"B2094757D16FA6FF419A","title":"老娘舅（上海长途汽车总站店)","lon":"121.4566547","lat":"31.252325944","category":"68","category_name":"快餐厅","address":"闸北区中兴路1642号(近汽车总站出口处)"},{"poiid":"B2094757D16CAAF9419D","title":"117终点站(上海火车站)","lon":"121.454864203","lat":"31.2521888413","category":"38","category_name":"公交车站","address":"上海火车站北广场"},{"poiid":"B2094757D065AAFC4799","title":"颂阁岚泰国美食屋","lon":"121.4546366","lat":"31.25166388","category":"247","category_name":"餐饮美食","address":"上海南京东路353广场4楼417"},{"poiid":"B2094753DA68A7F84092","title":"新国际博览中心","lon":"121.454002","lat":"31.251611","category":"500","category_name":"未知分类","address":"上海市 上海市花木路"},{"poiid":"B2094757DA65A6F4429F","title":"上海火车站五号候车室","lon":"121.450864680371","lat":"31.25141213843349","category":"500","category_name":"未知分类","address":"上海火车站"},{"poiid":"B2094654DB65A6F4459B","title":"圣天地商务楼","lon":"121.45","lat":"31.25","category":"46","category_name":"楼宇","address":"江宁路1165号"},{"poiid":"B2094655D26AA0FC449C","title":"唐人眼镜中兴路店","lon":"121.45417","lat":"31.25226","category":"247","category_name":"餐饮美食","address":"闸北区上海火车站北广场中兴路1688号3楼3050-3051(近长途汽车客运总站)"},{"poiid":"B2094654D464A2FD469F","title":"上海站西南出口","lon":"121.45392","lat":"31.24905","category":"22","category_name":"火车站","address":""},{"poiid":"B2094655D26DA0F9489F","title":"新天大厦","lon":"121.45333272719","lat":"31.248797747141","category":"46","category_name":"楼宇","address":"上海市静安区安远路84号"},{"poiid":"B2094752DA6CAAFC459A","title":"上海外滩茂悦大酒店黄浦区黄浦路199号","lon":"121.454697","lat":"31.250778","category":"500","category_name":"未知分类","address":null}]