[{"poiid":"B2094757D068A2F8489F","title":"必胜客 松江申越店 Pizza Hut","lon":"121.23119","lat":"31.00668","category":"94","category_name":"西餐厅","address":"松江区中山中路265-283号申越广场1楼(近人民路)"},{"poiid":"B2094757D065ABFC4898","title":"华亭老街","lon":"121.22531202","lat":"31.006368324","category":"260","category_name":"其他","address":"上海市松江區中山中路"},{"poiid":"B2094757D065A1FE4998","title":"西林禅寺","lon":"121.224357","lat":"31.00692","category":"244","category_name":"寺庙道观","address":"上海松江区中山中路666号"},{"poiid":"B2094757D06AA1F9409D","title":"老盛昌汤包馆(松江店)","lon":"121.228561367","lat":"31.0104561697","category":"68","category_name":"快餐厅","address":"松江区人民北路175号(近中山二路)"},{"poiid":"B2094654DB6DABFB479C","title":"平高大厦","lon":"121.22939","lat":"31.01024","category":"46","category_name":"楼宇","address":"上海市黄浦区南京西路338号"},{"poiid":"B2094752D26BABFD4293","title":"樵村鱼浦","lon":"121.230888","lat":"31.007492","category":"247","category_name":"餐饮美食","address":"松江区松汇中路568号B座乐颂坊202室(近谷阳南路)"},{"poiid":"B2094757D068A5FC4299","title":"肯德基KFC(中山中路店)","lon":"121.229018","lat":"31.006703","category":"68","category_name":"快餐厅","address":"松江区中山中路99号"},{"poiid":"B2094757D068A3FB499D","title":"85度C(人民北店)","lon":"121.22847","lat":"31.01101","category":"67","category_name":"甜品店","address":"松江区人民北路100号(近招商银行)"},{"poiid":"B2094654DB69A5FD409E","title":"好乐迪(中山中路店)","lon":"121.22967","lat":"31.00662","category":"170","category_name":"KTV","address":"松江区中山中路320-338号3楼"},{"poiid":"B2094655D268A0FE429B","title":"上海市松江区市民服务中心","lon":"121.22818","lat":"31.00796","category":"248","category_name":"生活娱乐","address":"上海松江区人民北路73弄1号"},{"poiid":"B2094654DB64A1F4469B","title":"集集小镇 松江总店 Jijitown","lon":"121.22828782635","lat":"31.007343374244","category":"68","category_name":"快餐厅","address":"松江区人民北路23号(近中山中路)"},{"poiid":"B2094757D66CA2F5489D","title":"人乐小区","lon":"121.22643246","lat":"31.011346089","category":"47","category_name":"住宅区","address":"上海人民北路"},{"poiid":"B2094654DB6DABFE4398","title":"松石苑","lon":"121.22671","lat":"31.008522","category":"47","category_name":"住宅区","address":"人民北路71弄"},{"poiid":"B2094654DB6DABFE429C","title":"雷哲发型设计","lon":"121.22608","lat":"31.00695","category":"148","category_name":"美容美发店","address":"中山中路546号2层"},{"poiid":"B2094654DB6DABFB4692","title":"草庐酒家","lon":"121.22834","lat":"31.01036","category":"76","category_name":"上海菜","address":"松江区人民北路58号(近乐都路)"},{"poiid":"B2094757D168A6F4429F","title":"百味佳(人民南路店)","lon":"121.22948","lat":"31.00554","category":"76","category_name":"上海菜","address":"松江区人民南路77-79号(近中山中路)"},{"poiid":"B2094757D06AA4FB489B","title":"庙前街","lon":"121.22470646","lat":"31.007497004","category":"249","category_name":"购物服务","address":"松江区松江镇中山中路"},{"poiid":"B2094750D665A6F4479C","title":"芋贵人甜品店(人民北路店)","lon":"121.229","lat":"31.0078","category":"67","category_name":"甜品店","address":"松江区人民北路93号(近中山中路)"},{"poiid":"B2094757D068A0FF4598","title":"好乐迪量贩式KTV(松江店)","lon":"121.22612","lat":"31.00617","category":"170","category_name":"KTV","address":"上海松江区中山中路320-228号3F"},{"poiid":"B2094757D46EA4F8439B","title":"重庆鸡公煲 中山中路店","lon":"121.226682054","lat":"31.006929793","category":"71","category_name":"四川菜","address":"松江区中山中路596弄6号"},{"poiid":"B2094654DB6AA3F8429C","title":"彩蝶坊 中山中路店","lon":"121.23058271113","lat":"31.007324460136","category":"76","category_name":"上海菜","address":"松江区松江中山中路328号4楼"},{"poiid":"B2094757D06AABFA489C","title":"蜀香蛙王(松江店)","lon":"121.22793195","lat":"31.006683145","category":"71","category_name":"四川菜","address":"松江区中山中路265-283申越广场3楼(近人民路)"},{"poiid":"B2094757D168A4FA429F","title":"中国工商银行(上海市松江支行)","lon":"121.22924503","lat":"31.009720312","category":"150","category_name":"银行","address":"普陀区中山二路201号近人民路(人民北路中山二路)"},{"poiid":"B2094751DA6CA7FF4593","title":"沁韵渔火","lon":"121.224259","lat":"31.006569","category":"247","category_name":"餐饮美食","address":"华亭老街西林禅寺对面"},{"poiid":"B2094654DB6DAAFC4293","title":"余天成堂","lon":"121.23219","lat":"31.00689","category":"162","category_name":"医院","address":"松江区中山中路266-270号"},{"poiid":"B2094757D66DA3F44793","title":"程十发艺术馆","lon":"121.22746196","lat":"31.006930492","category":"179","category_name":"音乐厅","address":"松江区中山中路458号(近华亭老街东端)"},{"poiid":"B2094757D169A0FA479C","title":"申越广场","lon":"121.22685826","lat":"31.005070251","category":"119","category_name":"商场","address":"松江区中山中路279号(近人民南路)"},{"poiid":"B2094655D26BABF8469A","title":"台南风味馆","lon":"121.22338","lat":"31.00625","category":"91","category_name":"台湾菜","address":"松江区岳阳街道缸甏巷254号(中心医院斜对面)"},{"poiid":"B2094757D16BA4FB429E","title":"京世造型","lon":"121.231571467","lat":"31.0066719867","category":"148","category_name":"美容美发店","address":"上海市松江区人民南路92号(近中山中路)"},{"poiid":"B2094751D56CA6F9419C","title":"小杨生煎(乐颂坊店)","lon":"121.23084","lat":"31.00481","category":"68","category_name":"快餐厅","address":"松江区松汇中路568号乐颂坊B座106B单元(近沃尔玛)"},{"poiid":"B2094655D264A6FD469C","title":"苏宁电器松江中山中路店","lon":"121.22917","lat":"31.00652","category":"138","category_name":"家电电子卖场","address":"中山中路231号"},{"poiid":"B2094655D268A0FE4292","title":"江源道(松石苑西南)","lon":"121.22599","lat":"31.00735","category":"96","category_name":"韩国料理","address":"中山中路520弄15号"},{"poiid":"B2094654DB69A5FF429D","title":"莫泰168连锁旅店(松汇中路店)","lon":"121.23022","lat":"31.00457","category":"216","category_name":"经济型连锁酒店","address":"松江区松汇中路736弄1号楼(人民南路)"},{"poiid":"B2094750D268A3FA4499","title":"风波庄","lon":"121.226371","lat":"31.00679","category":"260","category_name":"其他","address":"松江区中山中路556弄22号(近华亭老街吴良才眼镜)"},{"poiid":"B2094757D16EA3F5409D","title":"棒约翰比萨(平高店)","lon":"121.231739467","lat":"31.0057279659","category":"94","category_name":"西餐厅","address":"松江区中山中路71号平高世贸中心B1楼(近谷阳北路)"},{"poiid":"B2094654DB6DABFF409A","title":"松江清真寺","lon":"121.2272","lat":"31.0058","category":"246","category_name":"回教寺","address":"松江区缸甏巷21号(近华亭老街)"},{"poiid":"B2094757D46AA0FC459D","title":"悠悠烧烤","lon":"121.22516","lat":"31.0065","category":"68","category_name":"快餐厅","address":"松江区华亭老街485弄5号(近永和豆浆)"},{"poiid":"B209475DD565A5F54292","title":"some coffee","lon":"121.226966","lat":"31.00432","category":"247","category_name":"餐饮美食","address":"上海市 华庭老街"},{"poiid":"B2094757D064A5FD419F","title":"招商银行(松江支行)","lon":"121.227870313","lat":"31.0121534678","category":"150","category_name":"银行","address":"松江区人民北路92-98号(近乐都路)"},{"poiid":"B2094655D36CA2F9439B","title":"人民北路中山中路","lon":"121.22863","lat":"31.00816","category":"38","category_name":"公交车站","address":""},{"poiid":"B2094757D06AAAF94298","title":"摸错门牛肚王","lon":"121.22795","lat":"31.01233","category":"86","category_name":"火锅店","address":"松江区人民北路110号"},{"poiid":"B2094655D36DA7F8459E","title":"中山二路人民北路","lon":"121.22681","lat":"31.00993","category":"38","category_name":"公交车站","address":""},{"poiid":"B2094757D16AA7FE469A","title":"中国移动松江营业厅","lon":"121.22829603","lat":"31.0095763154","category":"150","category_name":"银行","address":"上海松江区人民北路64号"},{"poiid":"B2094654DB6DAAF8499E","title":"松江区岳阳地段医院","lon":"121.23096","lat":"31.00575","category":"162","category_name":"医院","address":"松江区阔街21号"},{"poiid":"B2094757D468A6FC4892","title":"韩舍廊韩国料理","lon":"121.230085054","lat":"31.006790793","category":"96","category_name":"韩国料理","address":"松江区中山中路(近人民路)"},{"poiid":"B2094751DA6AA0F44693","title":"星巴克（乐颂坊店）","lon":"121.2306518","lat":"31.0083361","category":"247","category_name":"餐饮美食","address":null},{"poiid":"B2094654DB6DABF54998","title":"中国农业银行松江支行营业部","lon":"121.22901","lat":"31.00732","category":"150","category_name":"银行","address":"人民北路8号"},{"poiid":"B2094655D268A0FE439B","title":"马路桥绿林广场","lon":"121.2285","lat":"31.00766","category":"201","category_name":"城市广场","address":""},{"poiid":"B2094654DB6DABFE4092","title":"永琪美容美发(松江·人民北路)","lon":"121.22861","lat":"31.00707","category":"148","category_name":"美容美发店","address":""},{"poiid":"B2094654DB6DABF5499F","title":"松江大厦","lon":"121.22924","lat":"31.00696","category":"46","category_name":"楼宇","address":"人民北路2号"},{"poiid":"B2094757D068A2F8489F","title":"必胜客 松江申越店 Pizza Hut","lon":"121.23119","lat":"31.00668","category":"94","category_name":"西餐厅","address":"松江区中山中路265-283号申越广场1楼(近人民路)"},{"poiid":"B2094757D065ABFC4898","title":"华亭老街","lon":"121.22531202","lat":"31.006368324","category":"260","category_name":"其他","address":"上海市松江區中山中路"},{"poiid":"B2094757D065A1FE4998","title":"西林禅寺","lon":"121.224357","lat":"31.00692","category":"244","category_name":"寺庙道观","address":"上海松江区中山中路666号"},{"poiid":"B2094757D06AA1F9409D","title":"老盛昌汤包馆(松江店)","lon":"121.228561367","lat":"31.0104561697","category":"68","category_name":"快餐厅","address":"松江区人民北路175号(近中山二路)"},{"poiid":"B2094654DB6DABFB479C","title":"平高大厦","lon":"121.22939","lat":"31.01024","category":"46","category_name":"楼宇","address":"上海市黄浦区南京西路338号"},{"poiid":"B2094752D26BABFD4293","title":"樵村鱼浦","lon":"121.230888","lat":"31.007492","category":"247","category_name":"餐饮美食","address":"松江区松汇中路568号B座乐颂坊202室(近谷阳南路)"},{"poiid":"B2094757D068A5FC4299","title":"肯德基KFC(中山中路店)","lon":"121.229018","lat":"31.006703","category":"68","category_name":"快餐厅","address":"松江区中山中路99号"},{"poiid":"B2094757D068A3FB499D","title":"85度C(人民北店)","lon":"121.22847","lat":"31.01101","category":"67","category_name":"甜品店","address":"松江区人民北路100号(近招商银行)"},{"poiid":"B2094654DB69A5FD409E","title":"好乐迪(中山中路店)","lon":"121.22967","lat":"31.00662","category":"170","category_name":"KTV","address":"松江区中山中路320-338号3楼"},{"poiid":"B2094655D268A0FE429B","title":"上海市松江区市民服务中心","lon":"121.22818","lat":"31.00796","category":"248","category_name":"生活娱乐","address":"上海松江区人民北路73弄1号"},{"poiid":"B2094654DB64A1F4469B","title":"集集小镇 松江总店 Jijitown","lon":"121.22828782635","lat":"31.007343374244","category":"68","category_name":"快餐厅","address":"松江区人民北路23号(近中山中路)"},{"poiid":"B2094757D66CA2F5489D","title":"人乐小区","lon":"121.22643246","lat":"31.011346089","category":"47","category_name":"住宅区","address":"上海人民北路"},{"poiid":"B2094654DB6DABFE4398","title":"松石苑","lon":"121.22671","lat":"31.008522","category":"47","category_name":"住宅区","address":"人民北路71弄"},{"poiid":"B2094654DB6DABFE429C","title":"雷哲发型设计","lon":"121.22608","lat":"31.00695","category":"148","category_name":"美容美发店","address":"中山中路546号2层"},{"poiid":"B2094654DB6DABFB4692","title":"草庐酒家","lon":"121.22834","lat":"31.01036","category":"76","category_name":"上海菜","address":"松江区人民北路58号(近乐都路)"},{"poiid":"B2094757D168A6F4429F","title":"百味佳(人民南路店)","lon":"121.22948","lat":"31.00554","category":"76","category_name":"上海菜","address":"松江区人民南路77-79号(近中山中路)"},{"poiid":"B2094757D06AA4FB489B","title":"庙前街","lon":"121.22470646","lat":"31.007497004","category":"249","category_name":"购物服务","address":"松江区松江镇中山中路"},{"poiid":"B2094750D665A6F4479C","title":"芋贵人甜品店(人民北路店)","lon":"121.229","lat":"31.0078","category":"67","category_name":"甜品店","address":"松江区人民北路93号(近中山中路)"},{"poiid":"B2094757D068A0FF4598","title":"好乐迪量贩式KTV(松江店)","lon":"121.22612","lat":"31.00617","category":"170","category_name":"KTV","address":"上海松江区中山中路320-228号3F"},{"poiid":"B2094757D46EA4F8439B","title":"重庆鸡公煲 中山中路店","lon":"121.226682054","lat":"31.006929793","category":"71","category_name":"四川菜","address":"松江区中山中路596弄6号"},{"poiid":"B2094654DB6AA3F8429C","title":"彩蝶坊 中山中路店","lon":"121.23058271113","lat":"31.007324460136","category":"76","category_name":"上海菜","address":"松江区松江中山中路328号4楼"},{"poiid":"B2094757D06AABFA489C","title":"蜀香蛙王(松江店)","lon":"121.22793195","lat":"31.006683145","category":"71","category_name":"四川菜","address":"松江区中山中路265-283申越广场3楼(近人民路)"},{"poiid":"B2094757D168A4FA429F","title":"中国工商银行(上海市松江支行)","lon":"121.22924503","lat":"31.009720312","category":"150","category_name":"银行","address":"普陀区中山二路201号近人民路(人民北路中山二路)"},{"poiid":"B2094751DA6CA7FF4593","title":"沁韵渔火","lon":"121.224259","lat":"31.006569","category":"247","category_name":"餐饮美食","address":"华亭老街西林禅寺对面"},{"poiid":"B2094654DB6DAAFC4293","title":"余天成堂","lon":"121.23219","lat":"31.00689","category":"162","category_name":"医院","address":"松江区中山中路266-270号"},{"poiid":"B2094757D66DA3F44793","title":"程十发艺术馆","lon":"121.22746196","lat":"31.006930492","category":"179","category_name":"音乐厅","address":"松江区中山中路458号(近华亭老街东端)"},{"poiid":"B2094757D169A0FA479C","title":"申越广场","lon":"121.22685826","lat":"31.005070251","category":"119","category_name":"商场","address":"松江区中山中路279号(近人民南路)"},{"poiid":"B2094655D26BABF8469A","title":"台南风味馆","lon":"121.22338","lat":"31.00625","category":"91","category_name":"台湾菜","address":"松江区岳阳街道缸甏巷254号(中心医院斜对面)"},{"poiid":"B2094757D16BA4FB429E","title":"京世造型","lon":"121.231571467","lat":"31.0066719867","category":"148","category_name":"美容美发店","address":"上海市松江区人民南路92号(近中山中路)"},{"poiid":"B2094751D56CA6F9419C","title":"小杨生煎(乐颂坊店)","lon":"121.23084","lat":"31.00481","category":"68","category_name":"快餐厅","address":"松江区松汇中路568号乐颂坊B座106B单元(近沃尔玛)"},{"poiid":"B2094655D264A6FD469C","title":"苏宁电器松江中山中路店","lon":"121.22917","lat":"31.00652","category":"138","category_name":"家电电子卖场","address":"中山中路231号"},{"poiid":"B2094655D268A0FE4292","title":"江源道(松石苑西南)","lon":"121.22599","lat":"31.00735","category":"96","category_name":"韩国料理","address":"中山中路520弄15号"},{"poiid":"B2094654DB69A5FF429D","title":"莫泰168连锁旅店(松汇中路店)","lon":"121.23022","lat":"31.00457","category":"216","category_name":"经济型连锁酒店","address":"松江区松汇中路736弄1号楼(人民南路)"},{"poiid":"B2094750D268A3FA4499","title":"风波庄","lon":"121.226371","lat":"31.00679","category":"260","category_name":"其他","address":"松江区中山中路556弄22号(近华亭老街吴良才眼镜)"},{"poiid":"B2094757D16EA3F5409D","title":"棒约翰比萨(平高店)","lon":"121.231739467","lat":"31.0057279659","category":"94","category_name":"西餐厅","address":"松江区中山中路71号平高世贸中心B1楼(近谷阳北路)"},{"poiid":"B2094654DB6DABFF409A","title":"松江清真寺","lon":"121.2272","lat":"31.0058","category":"246","category_name":"回教寺","address":"松江区缸甏巷21号(近华亭老街)"},{"poiid":"B2094757D46AA0FC459D","title":"悠悠烧烤","lon":"121.22516","lat":"31.0065","category":"68","category_name":"快餐厅","address":"松江区华亭老街485弄5号(近永和豆浆)"},{"poiid":"B209475DD565A5F54292","title":"some coffee","lon":"121.226966","lat":"31.00432","category":"247","category_name":"餐饮美食","address":"上海市 华庭老街"},{"poiid":"B2094757D064A5FD419F","title":"招商银行(松江支行)","lon":"121.227870313","lat":"31.0121534678","category":"150","category_name":"银行","address":"松江区人民北路92-98号(近乐都路)"},{"poiid":"B2094655D36CA2F9439B","title":"人民北路中山中路","lon":"121.22863","lat":"31.00816","category":"38","category_name":"公交车站","address":""},{"poiid":"B2094757D06AAAF94298","title":"摸错门牛肚王","lon":"121.22795","lat":"31.01233","category":"86","category_name":"火锅店","address":"松江区人民北路110号"},{"poiid":"B2094655D36DA7F8459E","title":"中山二路人民北路","lon":"121.22681","lat":"31.00993","category":"38","category_name":"公交车站","address":""},{"poiid":"B2094757D16AA7FE469A","title":"中国移动松江营业厅","lon":"121.22829603","lat":"31.0095763154","category":"150","category_name":"银行","address":"上海松江区人民北路64号"},{"poiid":"B2094654DB6DAAF8499E","title":"松江区岳阳地段医院","lon":"121.23096","lat":"31.00575","category":"162","category_name":"医院","address":"松江区阔街21号"},{"poiid":"B2094757D468A6FC4892","title":"韩舍廊韩国料理","lon":"121.230085054","lat":"31.006790793","category":"96","category_name":"韩国料理","address":"松江区中山中路(近人民路)"},{"poiid":"B2094751DA6AA0F44693","title":"星巴克（乐颂坊店）","lon":"121.2306518","lat":"31.0083361","category":"247","category_name":"餐饮美食","address":null},{"poiid":"B2094654DB6DABF54998","title":"中国农业银行松江支行营业部","lon":"121.22901","lat":"31.00732","category":"150","category_name":"银行","address":"人民北路8号"},{"poiid":"B2094655D268A0FE439B","title":"马路桥绿林广场","lon":"121.2285","lat":"31.00766","category":"201","category_name":"城市广场","address":""},{"poiid":"B2094654DB6DABFE4092","title":"永琪美容美发(松江·人民北路)","lon":"121.22861","lat":"31.00707","category":"148","category_name":"美容美发店","address":""},{"poiid":"B2094654DB6DABF5499F","title":"松江大厦","lon":"121.22924","lat":"31.00696","category":"46","category_name":"楼宇","address":"人民北路2号"},{"poiid":"B2094757D068A2F8489F","title":"必胜客 松江申越店 Pizza Hut","lon":"121.23119","lat":"31.00668","category":"94","category_name":"西餐厅","address":"松江区中山中路265-283号申越广场1楼(近人民路)"},{"poiid":"B2094757D065ABFC4898","title":"华亭老街","lon":"121.22531202","lat":"31.006368324","category":"260","category_name":"其他","address":"上海市松江區中山中路"},{"poiid":"B2094757D065A1FE4998","title":"西林禅寺","lon":"121.224357","lat":"31.00692","category":"244","category_name":"寺庙道观","address":"上海松江区中山中路666号"},{"poiid":"B2094757D06AA1F9409D","title":"老盛昌汤包馆(松江店)","lon":"121.228561367","lat":"31.0104561697","category":"68","category_name":"快餐厅","address":"松江区人民北路175号(近中山二路)"},{"poiid":"B2094654DB6DABFB479C","title":"平高大厦","lon":"121.22939","lat":"31.01024","category":"46","category_name":"楼宇","address":"上海市黄浦区南京西路338号"},{"poiid":"B2094752D26BABFD4293","title":"樵村鱼浦","lon":"121.230888","lat":"31.007492","category":"247","category_name":"餐饮美食","address":"松江区松汇中路568号B座乐颂坊202室(近谷阳南路)"},{"poiid":"B2094757D068A5FC4299","title":"肯德基KFC(中山中路店)","lon":"121.229018","lat":"31.006703","category":"68","category_name":"快餐厅","address":"松江区中山中路99号"},{"poiid":"B2094757D068A3FB499D","title":"85度C(人民北店)","lon":"121.22847","lat":"31.01101","category":"67","category_name":"甜品店","address":"松江区人民北路100号(近招商银行)"},{"poiid":"B2094654DB69A5FD409E","title":"好乐迪(中山中路店)","lon":"121.22967","lat":"31.00662","category":"170","category_name":"KTV","address":"松江区中山中路320-338号3楼"},{"poiid":"B2094655D268A0FE429B","title":"上海市松江区市民服务中心","lon":"121.22818","lat":"31.00796","category":"248","category_name":"生活娱乐","address":"上海松江区人民北路73弄1号"},{"poiid":"B2094654DB64A1F4469B","title":"集集小镇 松江总店 Jijitown","lon":"121.22828782635","lat":"31.007343374244","category":"68","category_name":"快餐厅","address":"松江区人民北路23号(近中山中路)"},{"poiid":"B2094757D66CA2F5489D","title":"人乐小区","lon":"121.22643246","lat":"31.011346089","category":"47","category_name":"住宅区","address":"上海人民北路"},{"poiid":"B2094654DB6DABFE4398","title":"松石苑","lon":"121.22671","lat":"31.008522","category":"47","category_name":"住宅区","address":"人民北路71弄"},{"poiid":"B2094654DB6DABFE429C","title":"雷哲发型设计","lon":"121.22608","lat":"31.00695","category":"148","category_name":"美容美发店","address":"中山中路546号2层"},{"poiid":"B2094654DB6DABFB4692","title":"草庐酒家","lon":"121.22834","lat":"31.01036","category":"76","category_name":"上海菜","address":"松江区人民北路58号(近乐都路)"},{"poiid":"B2094757D168A6F4429F","title":"百味佳(人民南路店)","lon":"121.22948","lat":"31.00554","category":"76","category_name":"上海菜","address":"松江区人民南路77-79号(近中山中路)"},{"poiid":"B2094757D06AA4FB489B","title":"庙前街","lon":"121.22470646","lat":"31.007497004","category":"249","category_name":"购物服务","address":"松江区松江镇中山中路"},{"poiid":"B2094750D665A6F4479C","title":"芋贵人甜品店(人民北路店)","lon":"121.229","lat":"31.0078","category":"67","category_name":"甜品店","address":"松江区人民北路93号(近中山中路)"},{"poiid":"B2094757D068A0FF4598","title":"好乐迪量贩式KTV(松江店)","lon":"121.22612","lat":"31.00617","category":"170","category_name":"KTV","address":"上海松江区中山中路320-228号3F"},{"poiid":"B2094757D46EA4F8439B","title":"重庆鸡公煲 中山中路店","lon":"121.226682054","lat":"31.006929793","category":"71","category_name":"四川菜","address":"松江区中山中路596弄6号"},{"poiid":"B2094654DB6AA3F8429C","title":"彩蝶坊 中山中路店","lon":"121.23058271113","lat":"31.007324460136","category":"76","category_name":"上海菜","address":"松江区松江中山中路328号4楼"},{"poiid":"B2094757D06AABFA489C","title":"蜀香蛙王(松江店)","lon":"121.22793195","lat":"31.006683145","category":"71","category_name":"四川菜","address":"松江区中山中路265-283申越广场3楼(近人民路)"},{"poiid":"B2094757D168A4FA429F","title":"中国工商银行(上海市松江支行)","lon":"121.22924503","lat":"31.009720312","category":"150","category_name":"银行","address":"普陀区中山二路201号近人民路(人民北路中山二路)"},{"poiid":"B2094751DA6CA7FF4593","title":"沁韵渔火","lon":"121.224259","lat":"31.006569","category":"247","category_name":"餐饮美食","address":"华亭老街西林禅寺对面"},{"poiid":"B2094654DB6DAAFC4293","title":"余天成堂","lon":"121.23219","lat":"31.00689","category":"162","category_name":"医院","address":"松江区中山中路266-270号"},{"poiid":"B2094757D66DA3F44793","title":"程十发艺术馆","lon":"121.22746196","lat":"31.006930492","category":"179","category_name":"音乐厅","address":"松江区中山中路458号(近华亭老街东端)"},{"poiid":"B2094757D169A0FA479C","title":"申越广场","lon":"121.22685826","lat":"31.005070251","category":"119","category_name":"商场","address":"松江区中山中路279号(近人民南路)"},{"poiid":"B2094655D26BABF8469A","title":"台南风味馆","lon":"121.22338","lat":"31.00625","category":"91","category_name":"台湾菜","address":"松江区岳阳街道缸甏巷254号(中心医院斜对面)"},{"poiid":"B2094757D16BA4FB429E","title":"京世造型","lon":"121.231571467","lat":"31.0066719867","category":"148","category_name":"美容美发店","address":"上海市松江区人民南路92号(近中山中路)"},{"poiid":"B2094751D56CA6F9419C","title":"小杨生煎(乐颂坊店)","lon":"121.23084","lat":"31.00481","category":"68","category_name":"快餐厅","address":"松江区松汇中路568号乐颂坊B座106B单元(近沃尔玛)"},{"poiid":"B2094655D264A6FD469C","title":"苏宁电器松江中山中路店","lon":"121.22917","lat":"31.00652","category":"138","category_name":"家电电子卖场","address":"中山中路231号"},{"poiid":"B2094655D268A0FE4292","title":"江源道(松石苑西南)","lon":"121.22599","lat":"31.00735","category":"96","category_name":"韩国料理","address":"中山中路520弄15号"},{"poiid":"B2094654DB69A5FF429D","title":"莫泰168连锁旅店(松汇中路店)","lon":"121.23022","lat":"31.00457","category":"216","category_name":"经济型连锁酒店","address":"松江区松汇中路736弄1号楼(人民南路)"},{"poiid":"B2094750D268A3FA4499","title":"风波庄","lon":"121.226371","lat":"31.00679","category":"260","category_name":"其他","address":"松江区中山中路556弄22号(近华亭老街吴良才眼镜)"},{"poiid":"B2094757D16EA3F5409D","title":"棒约翰比萨(平高店)","lon":"121.231739467","lat":"31.0057279659","category":"94","category_name":"西餐厅","address":"松江区中山中路71号平高世贸中心B1楼(近谷阳北路)"},{"poiid":"B2094654DB6DABFF409A","title":"松江清真寺","lon":"121.2272","lat":"31.0058","category":"246","category_name":"回教寺","address":"松江区缸甏巷21号(近华亭老街)"},{"poiid":"B2094757D46AA0FC459D","title":"悠悠烧烤","lon":"121.22516","lat":"31.0065","category":"68","category_name":"快餐厅","address":"松江区华亭老街485弄5号(近永和豆浆)"},{"poiid":"B209475DD565A5F54292","title":"some coffee","lon":"121.226966","lat":"31.00432","category":"247","category_name":"餐饮美食","address":"上海市 华庭老街"},{"poiid":"B2094757D064A5FD419F","title":"招商银行(松江支行)","lon":"121.227870313","lat":"31.0121534678","category":"150","category_name":"银行","address":"松江区人民北路92-98号(近乐都路)"},{"poiid":"B2094655D36CA2F9439B","title":"人民北路中山中路","lon":"121.22863","lat":"31.00816","category":"38","category_name":"公交车站","address":""},{"poiid":"B2094757D06AAAF94298","title":"摸错门牛肚王","lon":"121.22795","lat":"31.01233","category":"86","category_name":"火锅店","address":"松江区人民北路110号"},{"poiid":"B2094655D36DA7F8459E","title":"中山二路人民北路","lon":"121.22681","lat":"31.00993","category":"38","category_name":"公交车站","address":""},{"poiid":"B2094757D16AA7FE469A","title":"中国移动松江营业厅","lon":"121.22829603","lat":"31.0095763154","category":"150","category_name":"银行","address":"上海松江区人民北路64号"},{"poiid":"B2094654DB6DAAF8499E","title":"松江区岳阳地段医院","lon":"121.23096","lat":"31.00575","category":"162","category_name":"医院","address":"松江区阔街21号"},{"poiid":"B2094757D468A6FC4892","title":"韩舍廊韩国料理","lon":"121.230085054","lat":"31.006790793","category":"96","category_name":"韩国料理","address":"松江区中山中路(近人民路)"},{"poiid":"B2094751DA6AA0F44693","title":"星巴克（乐颂坊店）","lon":"121.2306518","lat":"31.0083361","category":"247","category_name":"餐饮美食","address":null},{"poiid":"B2094654DB6DABF54998","title":"中国农业银行松江支行营业部","lon":"121.22901","lat":"31.00732","category":"150","category_name":"银行","address":"人民北路8号"},{"poiid":"B2094655D268A0FE439B","title":"马路桥绿林广场","lon":"121.2285","lat":"31.00766","category":"201","category_name":"城市广场","address":""},{"poiid":"B2094654DB6DABFE4092","title":"永琪美容美发(松江·人民北路)","lon":"121.22861","lat":"31.00707","category":"148","category_name":"美容美发店","address":""},{"poiid":"B2094654DB6DABF5499F","title":"松江大厦","lon":"121.22924","lat":"31.00696","category":"46","category_name":"楼宇","address":"人民北路2号"},{"poiid":"B2094757D068A2F8489F","title":"必胜客 松江申越店 Pizza Hut","lon":"121.23119","lat":"31.00668","category":"94","category_name":"西餐厅","address":"松江区中山中路265-283号申越广场1楼(近人民路)"},{"poiid":"B2094757D065ABFC4898","title":"华亭老街","lon":"121.22531202","lat":"31.006368324","category":"260","category_name":"其他","address":"上海市松江區中山中路"},{"poiid":"B2094757D065A1FE4998","title":"西林禅寺","lon":"121.224357","lat":"31.00692","category":"244","category_name":"寺庙道观","address":"上海松江区中山中路666号"},{"poiid":"B2094757D06AA1F9409D","title":"老盛昌汤包馆(松江店)","lon":"121.228561367","lat":"31.0104561697","category":"68","category_name":"快餐厅","address":"松江区人民北路175号(近中山二路)"},{"poiid":"B2094654DB6DABFB479C","title":"平高大厦","lon":"121.22939","lat":"31.01024","category":"46","category_name":"楼宇","address":"上海市黄浦区南京西路338号"},{"poiid":"B2094752D26BABFD4293","title":"樵村鱼浦","lon":"121.230888","lat":"31.007492","category":"247","category_name":"餐饮美食","address":"松江区松汇中路568号B座乐颂坊202室(近谷阳南路)"},{"poiid":"B2094757D068A5FC4299","title":"肯德基KFC(中山中路店)","lon":"121.229018","lat":"31.006703","category":"68","category_name":"快餐厅","address":"松江区中山中路99号"},{"poiid":"B2094757D068A3FB499D","title":"85度C(人民北店)","lon":"121.22847","lat":"31.01101","category":"67","category_name":"甜品店","address":"松江区人民北路100号(近招商银行)"},{"poiid":"B2094654DB69A5FD409E","title":"好乐迪(中山中路店)","lon":"121.22967","lat":"31.00662","category":"170","category_name":"KTV","address":"松江区中山中路320-338号3楼"},{"poiid":"B2094655D268A0FE429B","title":"上海市松江区市民服务中心","lon":"121.22818","lat":"31.00796","category":"248","category_name":"生活娱乐","address":"上海松江区人民北路73弄1号"},{"poiid":"B2094654DB64A1F4469B","title":"集集小镇 松江总店 Jijitown","lon":"121.22828782635","lat":"31.007343374244","category":"68","category_name":"快餐厅","address":"松江区人民北路23号(近中山中路)"},{"poiid":"B2094757D66CA2F5489D","title":"人乐小区","lon":"121.22643246","lat":"31.011346089","category":"47","category_name":"住宅区","address":"上海人民北路"},{"poiid":"B2094654DB6DABFE4398","title":"松石苑","lon":"121.22671","lat":"31.008522","category":"47","category_name":"住宅区","address":"人民北路71弄"},{"poiid":"B2094654DB6DABFE429C","title":"雷哲发型设计","lon":"121.22608","lat":"31.00695","category":"148","category_name":"美容美发店","address":"中山中路546号2层"},{"poiid":"B2094654DB6DABFB4692","title":"草庐酒家","lon":"121.22834","lat":"31.01036","category":"76","category_name":"上海菜","address":"松江区人民北路58号(近乐都路)"},{"poiid":"B2094757D168A6F4429F","title":"百味佳(人民南路店)","lon":"121.22948","lat":"31.00554","category":"76","category_name":"上海菜","address":"松江区人民南路77-79号(近中山中路)"},{"poiid":"B2094757D06AA4FB489B","title":"庙前街","lon":"121.22470646","lat":"31.007497004","category":"249","category_name":"购物服务","address":"松江区松江镇中山中路"},{"poiid":"B2094750D665A6F4479C","title":"芋贵人甜品店(人民北路店)","lon":"121.229","lat":"31.0078","category":"67","category_name":"甜品店","address":"松江区人民北路93号(近中山中路)"},{"poiid":"B2094757D068A0FF4598","title":"好乐迪量贩式KTV(松江店)","lon":"121.22612","lat":"31.00617","category":"170","category_name":"KTV","address":"上海松江区中山中路320-228号3F"},{"poiid":"B2094757D46EA4F8439B","title":"重庆鸡公煲 中山中路店","lon":"121.226682054","lat":"31.006929793","category":"71","category_name":"四川菜","address":"松江区中山中路596弄6号"},{"poiid":"B2094654DB6AA3F8429C","title":"彩蝶坊 中山中路店","lon":"121.23058271113","lat":"31.007324460136","category":"76","category_name":"上海菜","address":"松江区松江中山中路328号4楼"},{"poiid":"B2094757D06AABFA489C","title":"蜀香蛙王(松江店)","lon":"121.22793195","lat":"31.006683145","category":"71","category_name":"四川菜","address":"松江区中山中路265-283申越广场3楼(近人民路)"},{"poiid":"B2094757D168A4FA429F","title":"中国工商银行(上海市松江支行)","lon":"121.22924503","lat":"31.009720312","category":"150","category_name":"银行","address":"普陀区中山二路201号近人民路(人民北路中山二路)"},{"poiid":"B2094751DA6CA7FF4593","title":"沁韵渔火","lon":"121.224259","lat":"31.006569","category":"247","category_name":"餐饮美食","address":"华亭老街西林禅寺对面"},{"poiid":"B2094654DB6DAAFC4293","title":"余天成堂","lon":"121.23219","lat":"31.00689","category":"162","category_name":"医院","address":"松江区中山中路266-270号"},{"poiid":"B2094757D66DA3F44793","title":"程十发艺术馆","lon":"121.22746196","lat":"31.006930492","category":"179","category_name":"音乐厅","address":"松江区中山中路458号(近华亭老街东端)"},{"poiid":"B2094757D169A0FA479C","title":"申越广场","lon":"121.22685826","lat":"31.005070251","category":"119","category_name":"商场","address":"松江区中山中路279号(近人民南路)"},{"poiid":"B2094655D26BABF8469A","title":"台南风味馆","lon":"121.22338","lat":"31.00625","category":"91","category_name":"台湾菜","address":"松江区岳阳街道缸甏巷254号(中心医院斜对面)"},{"poiid":"B2094757D16BA4FB429E","title":"京世造型","lon":"121.231571467","lat":"31.0066719867","category":"148","category_name":"美容美发店","address":"上海市松江区人民南路92号(近中山中路)"},{"poiid":"B2094751D56CA6F9419C","title":"小杨生煎(乐颂坊店)","lon":"121.23084","lat":"31.00481","category":"68","category_name":"快餐厅","address":"松江区松汇中路568号乐颂坊B座106B单元(近沃尔玛)"},{"poiid":"B2094655D264A6FD469C","title":"苏宁电器松江中山中路店","lon":"121.22917","lat":"31.00652","category":"138","category_name":"家电电子卖场","address":"中山中路231号"},{"poiid":"B2094655D268A0FE4292","title":"江源道(松石苑西南)","lon":"121.22599","lat":"31.00735","category":"96","category_name":"韩国料理","address":"中山中路520弄15号"},{"poiid":"B2094654DB69A5FF429D","title":"莫泰168连锁旅店(松汇中路店)","lon":"121.23022","lat":"31.00457","category":"216","category_name":"经济型连锁酒店","address":"松江区松汇中路736弄1号楼(人民南路)"},{"poiid":"B2094750D268A3FA4499","title":"风波庄","lon":"121.226371","lat":"31.00679","category":"260","category_name":"其他","address":"松江区中山中路556弄22号(近华亭老街吴良才眼镜)"},{"poiid":"B2094757D16EA3F5409D","title":"棒约翰比萨(平高店)","lon":"121.231739467","lat":"31.0057279659","category":"94","category_name":"西餐厅","address":"松江区中山中路71号平高世贸中心B1楼(近谷阳北路)"},{"poiid":"B2094654DB6DABFF409A","title":"松江清真寺","lon":"121.2272","lat":"31.0058","category":"246","category_name":"回教寺","address":"松江区缸甏巷21号(近华亭老街)"},{"poiid":"B2094757D46AA0FC459D","title":"悠悠烧烤","lon":"121.22516","lat":"31.0065","category":"68","category_name":"快餐厅","address":"松江区华亭老街485弄5号(近永和豆浆)"},{"poiid":"B209475DD565A5F54292","title":"some coffee","lon":"121.226966","lat":"31.00432","category":"247","category_name":"餐饮美食","address":"上海市 华庭老街"},{"poiid":"B2094757D064A5FD419F","title":"招商银行(松江支行)","lon":"121.227870313","lat":"31.0121534678","category":"150","category_name":"银行","address":"松江区人民北路92-98号(近乐都路)"},{"poiid":"B2094655D36CA2F9439B","title":"人民北路中山中路","lon":"121.22863","lat":"31.00816","category":"38","category_name":"公交车站","address":""},{"poiid":"B2094757D06AAAF94298","title":"摸错门牛肚王","lon":"121.22795","lat":"31.01233","category":"86","category_name":"火锅店","address":"松江区人民北路110号"},{"poiid":"B2094655D36DA7F8459E","title":"中山二路人民北路","lon":"121.22681","lat":"31.00993","category":"38","category_name":"公交车站","address":""},{"poiid":"B2094757D16AA7FE469A","title":"中国移动松江营业厅","lon":"121.22829603","lat":"31.0095763154","category":"150","category_name":"银行","address":"上海松江区人民北路64号"},{"poiid":"B2094654DB6DAAF8499E","title":"松江区岳阳地段医院","lon":"121.23096","lat":"31.00575","category":"162","category_name":"医院","address":"松江区阔街21号"},{"poiid":"B2094757D468A6FC4892","title":"韩舍廊韩国料理","lon":"121.230085054","lat":"31.006790793","category":"96","category_name":"韩国料理","address":"松江区中山中路(近人民路)"},{"poiid":"B2094751DA6AA0F44693","title":"星巴克（乐颂坊店）","lon":"121.2306518","lat":"31.0083361","category":"247","category_name":"餐饮美食","address":null},{"poiid":"B2094654DB6DABF54998","title":"中国农业银行松江支行营业部","lon":"121.22901","lat":"31.00732","category":"150","category_name":"银行","address":"人民北路8号"},{"poiid":"B2094655D268A0FE439B","title":"马路桥绿林广场","lon":"121.2285","lat":"31.00766","category":"201","category_name":"城市广场","address":""},{"poiid":"B2094654DB6DABFE4092","title":"永琪美容美发(松江·人民北路)","lon":"121.22861","lat":"31.00707","category":"148","category_name":"美容美发店","address":""},{"poiid":"B2094654DB6DABF5499F","title":"松江大厦","lon":"121.22924","lat":"31.00696","category":"46","category_name":"楼宇","address":"人民北路2号"}]