[{"poiid":"B2094757D06EAAFA449D","title":"IMAGO我格广场","lon":"121.398373","lat":"31.251173","category":"119","category_name":"商场","address":"普陀区武宁路101号(普雄路口)"},{"poiid":"B2094757D06FA3FE419B","title":"普陀区图书馆","lon":"121.39705524842736","lat":"31.251366379011127","category":"181","category_name":"图书馆","address":"普陀区铜川路1280号(近大渡河路)"},{"poiid":"B2094757D06FA1FE499D","title":"上海市体育宫","lon":"121.39738","lat":"31.25243","category":"224","category_name":"综合体育馆","address":"普陀区大渡河路1860号沪西体育宫内(近铜川路)"},{"poiid":"B2094757D06FA0FB4999","title":"普陀区人民政府","lon":"121.396481784","lat":"31.2495622802","category":"252","category_name":"楼宇机构","address":"上海普陀区大渡河路1668号"},{"poiid":"B2094757D06EABF54898","title":"武宁路大渡河路","lon":"121.396488","lat":"31.246277","category":"38","category_name":"公交车站","address":"上海武宁路大渡河路"},{"poiid":"B2094757D06FA5F94798","title":"苏武牧羊(普陀店)","lon":"121.39745","lat":"31.24777","category":"86","category_name":"火锅店","address":"普陀区大渡河路1558号(近北石路)"},{"poiid":"B2094655D26AA7F4419A","title":"索福德足球世界体育宫中心","lon":"121.39697","lat":"31.25246","category":"247","category_name":"餐饮美食","address":"普陀区大渡河路1860号沪西体育宫内(近铜川路)"},{"poiid":"B2094655D36CA5FC479D","title":"大渡河路北石路","lon":"121.39721","lat":"31.24791","category":"38","category_name":"公交车站","address":"上海大渡河路北石路"},{"poiid":"B2094757D068A1FF4192","title":"普陀区税务局","lon":"121.394380281","lat":"31.2493238773","category":"252","category_name":"楼宇机构","address":"上海普陀区北石路579号"},{"poiid":"B2094757D068AAFE4899","title":"上海市普陀区人民法院","lon":"121.392296","lat":"31.251391","category":"608","category_name":"法院","address":"上海市普陀区铜川路1472号"},{"poiid":"B2094757D06AA4F54099","title":"潮汕庄","lon":"121.397329","lat":"31.248326","category":"86","category_name":"火锅店","address":"普陀区大渡河路1625号(近北石路)"},{"poiid":"B2094757D168A6FA429F","title":"别克名流4S店","lon":"121.39515795","lat":"31.251129699","category":"500","category_name":"未知分类","address":"上海市普陀区真北路1366号"},{"poiid":"B2094757D06FA5F4499D","title":"绿洲公寓","lon":"121.39385","lat":"31.252184","category":"47","category_name":"住宅区","address":"上海市普陀区铜川路1422弄44号"},{"poiid":"B2094654D464AAF8469B","title":"上海安吉名世凯迪拉克","lon":"121.39595","lat":"31.25106","category":"158","category_name":"汽车销售","address":"普陀区铜川路1288号(靖边路铜川路)"},{"poiid":"B2094654D465A6FD4193","title":"海棠苑","lon":"121.39087","lat":"31.24982","category":"47","category_name":"住宅区","address":"棕榈路300弄1-75"},{"poiid":"B2094654D465A3FC429E","title":"真如中学","lon":"121.39847","lat":"31.2503","category":"55","category_name":"中学","address":"普陀区铜川路1189号(近大渡河路)"},{"poiid":"B2094757D16DABFD409F","title":"普陀公安分局","lon":"121.39789765","lat":"31.250883694","category":"500","category_name":"未知分类","address":"上海普陀区大渡河路1895号"},{"poiid":"B2094654DB6AA6F94093","title":"上海西上海奥杰汽车销售服务有限公司","lon":"121.39274","lat":"31.25377","category":"159","category_name":"汽车维修","address":"普陀区真北路2158号(金鼎路真北路)"},{"poiid":"B2094654D465A6FC4593","title":"阳光商务大厦","lon":"121.39682","lat":"31.2502","category":"46","category_name":"楼宇","address":"闵行区七莘路联明路"},{"poiid":"B2094757D069A0FE4199","title":"上海通用雪佛兰安吉名门汽车服务有限公司","lon":"121.395959","lat":"31.251062","category":"500","category_name":"未知分类","address":"上海铜川路1288号"},{"poiid":"B2094654DB6AABFF4398","title":"锦江之星(真北店)","lon":"121.39112","lat":"31.25214","category":"216","category_name":"经济型连锁酒店","address":"普陀区真北路2051号(近铜川路)"},{"poiid":"B2094757DB6DA5FC479B","title":"上海映像戴斯大酒店\\t","lon":"121.391724","lat":"31.251577","category":"214","category_name":"四星级宾馆","address":"上海市普陀区真北路2022号(近铜川路)。"},{"poiid":"B2094757D068A1FB439D","title":"婚姻登记处(普陀区登记处)","lon":"121.394677406","lat":"31.2506676482","category":"46","category_name":"楼宇","address":"普陀区曹杨路510号(近白玉路)查看地图"},{"poiid":"B2094757D069A1FD479C","title":"上海市工商局行政管理局普陀分局","lon":"121.394478","lat":"31.250374","category":"260","category_name":"其他","address":"上海北石路631号"},{"poiid":"B2094757D069AAFC479E","title":"铜川路北石路","lon":"121.3943993","lat":"31.250796583","category":"500","category_name":"未知分类","address":"上海铜川路北石路"},{"poiid":"B2094757D164A0F9449B","title":"普陀区","lon":"121.397421354","lat":"31.2510039354","category":"250","category_name":"公园户外","address":"上海普陀区区域"},{"poiid":"B2094751D56AA1FD449D","title":"谈阿姨炸猪排","lon":"121.3921658502795","lat":"31.24863703506036","category":"247","category_name":"餐饮美食","address":"铜川路万镇路"},{"poiid":"B2094654D465A6FC4499","title":"樱花苑","lon":"121.39289","lat":"31.24876","category":"47","category_name":"住宅区","address":"静安区陕西南路(复兴中路陕西南路)"},{"poiid":"B2094757D069A5F84292","title":"真如体育场","lon":"121.399510261","lat":"31.2481169398","category":"220","category_name":"运动场所","address":"普陀区北石路208号(近兰溪路)"},{"poiid":"B2094757D06AA6FC4099","title":"上海市体育宫羽毛球场","lon":"121.396973151","lat":"31.2524595545","category":"220","category_name":"运动场所","address":"普陀区大渡河路1860号沪西体育宫内(近铜川路)"},{"poiid":"B2094757D068A6F84393","title":"索福德足球世界(沪西体育宫店)","lon":"121.39667","lat":"31.24928","category":"220","category_name":"运动场所","address":"普陀区大渡河路1860号沪西体育宫内(近铜川路)"},{"poiid":"B2094655D269A4F9419B","title":"上海安吉名流汽车服务有限公司","lon":"121.39555","lat":"31.25138","category":"158","category_name":"汽车销售","address":"普陀区铜川路1366号(近普陀区政府)"},{"poiid":"B2094654D465A6FC499B","title":"铜川学校","lon":"121.39197","lat":"31.25077","category":"56","category_name":"小学","address":"普陀区北石路610弄28号(近铜川路)"},{"poiid":"B2094757DA69A3F4489C","title":"驴妈妈旅游网","lon":"121.3964","lat":"31.24955","category":"630","category_name":"电子商务公司","address":"普陀区金沙江路1759号圣诺亚大厦B座7-12楼(近真北路)"},{"poiid":"B2094757D16DAAFE479F","title":"上海市普陀区图书馆7楼玩具图书馆","lon":"121.39707695","lat":"31.251306703","category":"181","category_name":"图书馆","address":"上海市普陀区大渡河路1800号"},{"poiid":"B2094757D068AAF54999","title":"重庆德庄火锅(普陀店)","lon":"121.39715","lat":"31.24742","category":"86","category_name":"火锅店","address":"上海普陀区大渡河路1603号久良财富广场1楼(近北石路)  "},{"poiid":"B2094757D16BABF8469B","title":"安吉名流铜川路4S店","lon":"121.394821","lat":"31.250825","category":"500","category_name":"未知分类","address":"上海铜川路"},{"poiid":"B2094655D36CA5F4489F","title":"北石路铜川路","lon":"121.39419","lat":"31.25023","category":"38","category_name":"公交车站","address":""},{"poiid":"B2094654D56BA3F94092","title":"上海申普宠物医院","lon":"121.39752","lat":"31.24627","category":"162","category_name":"医院","address":"普陀区大渡河路1545号(近武宁路)"},{"poiid":"B2094757D06BABF8459B","title":"安吉名流售后服务","lon":"121.39473313","lat":"31.251009477","category":"500","category_name":"未知分类","address":"上海铜川路1366号"},{"poiid":"B2094757D06BA5F4439A","title":"阳光西班牙","lon":"121.39922","lat":"31.251915","category":"47","category_name":"住宅区","address":"上海市普陀区铜川路1168弄"},{"poiid":"B2094757D06AA4FF4498","title":"花园鱼庄（原四川花园）(大渡河路店)","lon":"121.39785","lat":"31.2486","category":"71","category_name":"四川菜","address":"普陀区大渡河路1653号(近北石路)"},{"poiid":"B2094757D069A4FB459F","title":"铜川路吃海鲜","lon":"121.3919819","lat":"31.2513085","category":"500","category_name":"未知分类","address":"上海铜川路"},{"poiid":"B2094757D16FA4FE439F","title":"上海市普陀区人力资源和社会保障中心","lon":"121.39788","lat":"31.250321","category":"46","category_name":"楼宇","address":"上海市普陀区大渡河路1717号"},{"poiid":"B2094757D06BA2F4419B","title":"西堤牛排(天钥桥店)","lon":"121.39460821","lat":"31.249345565","category":"247","category_name":"餐饮美食","address":"上海徐汇区天钥桥路315号4楼(近南丹东路)"},{"poiid":"B2094757D065A3FF4198","title":"海鹰小学","lon":"121.39453125","lat":"31.2501468658","category":"56","category_name":"小学","address":"上海场中路少年村路"},{"poiid":"B2094757D569A2FA499B","title":"普陀区政府三期","lon":"121.3963825","lat":"31.2495541","category":"46","category_name":"楼宇","address":"大渡河路1668号"},{"poiid":"B2094757D06BA3F8479B","title":"真博花鸟市场","lon":"121.39296865","lat":"31.251799579","category":"249","category_name":"购物服务","address":"普陀区真北路2299号(近乐购)"},{"poiid":"B2094750DA65A4FF419D","title":"勝记龙凤村","lon":"121.39593","lat":"31.24907","category":"68","category_name":"快餐厅","address":"普陀区北石路158号(近兰溪路)"},{"poiid":"B2094757D06BA5FD419B","title":"全家便利","lon":"121.396994","lat":"31.24991","category":"117","category_name":"便民商店/便利店","address":"上海大渡河路1718号"},{"poiid":"B2094757D06EAAFA449D","title":"IMAGO我格广场","lon":"121.398373","lat":"31.251173","category":"119","category_name":"商场","address":"普陀区武宁路101号(普雄路口)"},{"poiid":"B2094757D06FA3FE419B","title":"普陀区图书馆","lon":"121.39705524842736","lat":"31.251366379011127","category":"181","category_name":"图书馆","address":"普陀区铜川路1280号(近大渡河路)"},{"poiid":"B2094757D06FA1FE499D","title":"上海市体育宫","lon":"121.39738","lat":"31.25243","category":"224","category_name":"综合体育馆","address":"普陀区大渡河路1860号沪西体育宫内(近铜川路)"},{"poiid":"B2094757D06FA0FB4999","title":"普陀区人民政府","lon":"121.396481784","lat":"31.2495622802","category":"252","category_name":"楼宇机构","address":"上海普陀区大渡河路1668号"},{"poiid":"B2094757D06EABF54898","title":"武宁路大渡河路","lon":"121.396488","lat":"31.246277","category":"38","category_name":"公交车站","address":"上海武宁路大渡河路"},{"poiid":"B2094757D06FA5F94798","title":"苏武牧羊(普陀店)","lon":"121.39745","lat":"31.24777","category":"86","category_name":"火锅店","address":"普陀区大渡河路1558号(近北石路)"},{"poiid":"B2094655D26AA7F4419A","title":"索福德足球世界体育宫中心","lon":"121.39697","lat":"31.25246","category":"247","category_name":"餐饮美食","address":"普陀区大渡河路1860号沪西体育宫内(近铜川路)"},{"poiid":"B2094655D36CA5FC479D","title":"大渡河路北石路","lon":"121.39721","lat":"31.24791","category":"38","category_name":"公交车站","address":"上海大渡河路北石路"},{"poiid":"B2094757D068A1FF4192","title":"普陀区税务局","lon":"121.394380281","lat":"31.2493238773","category":"252","category_name":"楼宇机构","address":"上海普陀区北石路579号"},{"poiid":"B2094757D068AAFE4899","title":"上海市普陀区人民法院","lon":"121.392296","lat":"31.251391","category":"608","category_name":"法院","address":"上海市普陀区铜川路1472号"},{"poiid":"B2094757D06AA4F54099","title":"潮汕庄","lon":"121.397329","lat":"31.248326","category":"86","category_name":"火锅店","address":"普陀区大渡河路1625号(近北石路)"},{"poiid":"B2094757D168A6FA429F","title":"别克名流4S店","lon":"121.39515795","lat":"31.251129699","category":"500","category_name":"未知分类","address":"上海市普陀区真北路1366号"},{"poiid":"B2094757D06FA5F4499D","title":"绿洲公寓","lon":"121.39385","lat":"31.252184","category":"47","category_name":"住宅区","address":"上海市普陀区铜川路1422弄44号"},{"poiid":"B2094654D464AAF8469B","title":"上海安吉名世凯迪拉克","lon":"121.39595","lat":"31.25106","category":"158","category_name":"汽车销售","address":"普陀区铜川路1288号(靖边路铜川路)"},{"poiid":"B2094654D465A6FD4193","title":"海棠苑","lon":"121.39087","lat":"31.24982","category":"47","category_name":"住宅区","address":"棕榈路300弄1-75"},{"poiid":"B2094654D465A3FC429E","title":"真如中学","lon":"121.39847","lat":"31.2503","category":"55","category_name":"中学","address":"普陀区铜川路1189号(近大渡河路)"},{"poiid":"B2094757D16DABFD409F","title":"普陀公安分局","lon":"121.39789765","lat":"31.250883694","category":"500","category_name":"未知分类","address":"上海普陀区大渡河路1895号"},{"poiid":"B2094654DB6AA6F94093","title":"上海西上海奥杰汽车销售服务有限公司","lon":"121.39274","lat":"31.25377","category":"159","category_name":"汽车维修","address":"普陀区真北路2158号(金鼎路真北路)"},{"poiid":"B2094654D465A6FC4593","title":"阳光商务大厦","lon":"121.39682","lat":"31.2502","category":"46","category_name":"楼宇","address":"闵行区七莘路联明路"},{"poiid":"B2094757D069A0FE4199","title":"上海通用雪佛兰安吉名门汽车服务有限公司","lon":"121.395959","lat":"31.251062","category":"500","category_name":"未知分类","address":"上海铜川路1288号"},{"poiid":"B2094654DB6AABFF4398","title":"锦江之星(真北店)","lon":"121.39112","lat":"31.25214","category":"216","category_name":"经济型连锁酒店","address":"普陀区真北路2051号(近铜川路)"},{"poiid":"B2094757DB6DA5FC479B","title":"上海映像戴斯大酒店\\t","lon":"121.391724","lat":"31.251577","category":"214","category_name":"四星级宾馆","address":"上海市普陀区真北路2022号(近铜川路)。"},{"poiid":"B2094757D068A1FB439D","title":"婚姻登记处(普陀区登记处)","lon":"121.394677406","lat":"31.2506676482","category":"46","category_name":"楼宇","address":"普陀区曹杨路510号(近白玉路)查看地图"},{"poiid":"B2094757D069A1FD479C","title":"上海市工商局行政管理局普陀分局","lon":"121.394478","lat":"31.250374","category":"260","category_name":"其他","address":"上海北石路631号"},{"poiid":"B2094757D069AAFC479E","title":"铜川路北石路","lon":"121.3943993","lat":"31.250796583","category":"500","category_name":"未知分类","address":"上海铜川路北石路"},{"poiid":"B2094757D164A0F9449B","title":"普陀区","lon":"121.397421354","lat":"31.2510039354","category":"250","category_name":"公园户外","address":"上海普陀区区域"},{"poiid":"B2094751D56AA1FD449D","title":"谈阿姨炸猪排","lon":"121.3921658502795","lat":"31.24863703506036","category":"247","category_name":"餐饮美食","address":"铜川路万镇路"},{"poiid":"B2094654D465A6FC4499","title":"樱花苑","lon":"121.39289","lat":"31.24876","category":"47","category_name":"住宅区","address":"静安区陕西南路(复兴中路陕西南路)"},{"poiid":"B2094757D069A5F84292","title":"真如体育场","lon":"121.399510261","lat":"31.2481169398","category":"220","category_name":"运动场所","address":"普陀区北石路208号(近兰溪路)"},{"poiid":"B2094757D06AA6FC4099","title":"上海市体育宫羽毛球场","lon":"121.396973151","lat":"31.2524595545","category":"220","category_name":"运动场所","address":"普陀区大渡河路1860号沪西体育宫内(近铜川路)"},{"poiid":"B2094757D068A6F84393","title":"索福德足球世界(沪西体育宫店)","lon":"121.39667","lat":"31.24928","category":"220","category_name":"运动场所","address":"普陀区大渡河路1860号沪西体育宫内(近铜川路)"},{"poiid":"B2094655D269A4F9419B","title":"上海安吉名流汽车服务有限公司","lon":"121.39555","lat":"31.25138","category":"158","category_name":"汽车销售","address":"普陀区铜川路1366号(近普陀区政府)"},{"poiid":"B2094654D465A6FC499B","title":"铜川学校","lon":"121.39197","lat":"31.25077","category":"56","category_name":"小学","address":"普陀区北石路610弄28号(近铜川路)"},{"poiid":"B2094757DA69A3F4489C","title":"驴妈妈旅游网","lon":"121.3964","lat":"31.24955","category":"630","category_name":"电子商务公司","address":"普陀区金沙江路1759号圣诺亚大厦B座7-12楼(近真北路)"},{"poiid":"B2094757D16DAAFE479F","title":"上海市普陀区图书馆7楼玩具图书馆","lon":"121.39707695","lat":"31.251306703","category":"181","category_name":"图书馆","address":"上海市普陀区大渡河路1800号"},{"poiid":"B2094757D068AAF54999","title":"重庆德庄火锅(普陀店)","lon":"121.39715","lat":"31.24742","category":"86","category_name":"火锅店","address":"上海普陀区大渡河路1603号久良财富广场1楼(近北石路)  "},{"poiid":"B2094757D16BABF8469B","title":"安吉名流铜川路4S店","lon":"121.394821","lat":"31.250825","category":"500","category_name":"未知分类","address":"上海铜川路"},{"poiid":"B2094655D36CA5F4489F","title":"北石路铜川路","lon":"121.39419","lat":"31.25023","category":"38","category_name":"公交车站","address":""},{"poiid":"B2094654D56BA3F94092","title":"上海申普宠物医院","lon":"121.39752","lat":"31.24627","category":"162","category_name":"医院","address":"普陀区大渡河路1545号(近武宁路)"},{"poiid":"B2094757D06BABF8459B","title":"安吉名流售后服务","lon":"121.39473313","lat":"31.251009477","category":"500","category_name":"未知分类","address":"上海铜川路1366号"},{"poiid":"B2094757D06BA5F4439A","title":"阳光西班牙","lon":"121.39922","lat":"31.251915","category":"47","category_name":"住宅区","address":"上海市普陀区铜川路1168弄"},{"poiid":"B2094757D06AA4FF4498","title":"花园鱼庄（原四川花园）(大渡河路店)","lon":"121.39785","lat":"31.2486","category":"71","category_name":"四川菜","address":"普陀区大渡河路1653号(近北石路)"},{"poiid":"B2094757D069A4FB459F","title":"铜川路吃海鲜","lon":"121.3919819","lat":"31.2513085","category":"500","category_name":"未知分类","address":"上海铜川路"},{"poiid":"B2094757D16FA4FE439F","title":"上海市普陀区人力资源和社会保障中心","lon":"121.39788","lat":"31.250321","category":"46","category_name":"楼宇","address":"上海市普陀区大渡河路1717号"},{"poiid":"B2094757D06BA2F4419B","title":"西堤牛排(天钥桥店)","lon":"121.39460821","lat":"31.249345565","category":"247","category_name":"餐饮美食","address":"上海徐汇区天钥桥路315号4楼(近南丹东路)"},{"poiid":"B2094757D065A3FF4198","title":"海鹰小学","lon":"121.39453125","lat":"31.2501468658","category":"56","category_name":"小学","address":"上海场中路少年村路"},{"poiid":"B2094757D569A2FA499B","title":"普陀区政府三期","lon":"121.3963825","lat":"31.2495541","category":"46","category_name":"楼宇","address":"大渡河路1668号"},{"poiid":"B2094757D06BA3F8479B","title":"真博花鸟市场","lon":"121.39296865","lat":"31.251799579","category":"249","category_name":"购物服务","address":"普陀区真北路2299号(近乐购)"},{"poiid":"B2094750DA65A4FF419D","title":"勝记龙凤村","lon":"121.39593","lat":"31.24907","category":"68","category_name":"快餐厅","address":"普陀区北石路158号(近兰溪路)"},{"poiid":"B2094757D06BA5FD419B","title":"全家便利","lon":"121.396994","lat":"31.24991","category":"117","category_name":"便民商店/便利店","address":"上海大渡河路1718号"},{"poiid":"B2094757D06EAAFA449D","title":"IMAGO我格广场","lon":"121.398373","lat":"31.251173","category":"119","category_name":"商场","address":"普陀区武宁路101号(普雄路口)"},{"poiid":"B2094757D06FA3FE419B","title":"普陀区图书馆","lon":"121.39705524842736","lat":"31.251366379011127","category":"181","category_name":"图书馆","address":"普陀区铜川路1280号(近大渡河路)"},{"poiid":"B2094757D06FA1FE499D","title":"上海市体育宫","lon":"121.39738","lat":"31.25243","category":"224","category_name":"综合体育馆","address":"普陀区大渡河路1860号沪西体育宫内(近铜川路)"},{"poiid":"B2094757D06FA0FB4999","title":"普陀区人民政府","lon":"121.396481784","lat":"31.2495622802","category":"252","category_name":"楼宇机构","address":"上海普陀区大渡河路1668号"},{"poiid":"B2094757D06EABF54898","title":"武宁路大渡河路","lon":"121.396488","lat":"31.246277","category":"38","category_name":"公交车站","address":"上海武宁路大渡河路"},{"poiid":"B2094757D06FA5F94798","title":"苏武牧羊(普陀店)","lon":"121.39745","lat":"31.24777","category":"86","category_name":"火锅店","address":"普陀区大渡河路1558号(近北石路)"},{"poiid":"B2094655D26AA7F4419A","title":"索福德足球世界体育宫中心","lon":"121.39697","lat":"31.25246","category":"247","category_name":"餐饮美食","address":"普陀区大渡河路1860号沪西体育宫内(近铜川路)"},{"poiid":"B2094655D36CA5FC479D","title":"大渡河路北石路","lon":"121.39721","lat":"31.24791","category":"38","category_name":"公交车站","address":"上海大渡河路北石路"},{"poiid":"B2094757D068A1FF4192","title":"普陀区税务局","lon":"121.394380281","lat":"31.2493238773","category":"252","category_name":"楼宇机构","address":"上海普陀区北石路579号"},{"poiid":"B2094757D068AAFE4899","title":"上海市普陀区人民法院","lon":"121.392296","lat":"31.251391","category":"608","category_name":"法院","address":"上海市普陀区铜川路1472号"},{"poiid":"B2094757D06AA4F54099","title":"潮汕庄","lon":"121.397329","lat":"31.248326","category":"86","category_name":"火锅店","address":"普陀区大渡河路1625号(近北石路)"},{"poiid":"B2094757D168A6FA429F","title":"别克名流4S店","lon":"121.39515795","lat":"31.251129699","category":"500","category_name":"未知分类","address":"上海市普陀区真北路1366号"},{"poiid":"B2094757D06FA5F4499D","title":"绿洲公寓","lon":"121.39385","lat":"31.252184","category":"47","category_name":"住宅区","address":"上海市普陀区铜川路1422弄44号"},{"poiid":"B2094654D464AAF8469B","title":"上海安吉名世凯迪拉克","lon":"121.39595","lat":"31.25106","category":"158","category_name":"汽车销售","address":"普陀区铜川路1288号(靖边路铜川路)"},{"poiid":"B2094654D465A6FD4193","title":"海棠苑","lon":"121.39087","lat":"31.24982","category":"47","category_name":"住宅区","address":"棕榈路300弄1-75"},{"poiid":"B2094654D465A3FC429E","title":"真如中学","lon":"121.39847","lat":"31.2503","category":"55","category_name":"中学","address":"普陀区铜川路1189号(近大渡河路)"},{"poiid":"B2094757D16DABFD409F","title":"普陀公安分局","lon":"121.39789765","lat":"31.250883694","category":"500","category_name":"未知分类","address":"上海普陀区大渡河路1895号"},{"poiid":"B2094654DB6AA6F94093","title":"上海西上海奥杰汽车销售服务有限公司","lon":"121.39274","lat":"31.25377","category":"159","category_name":"汽车维修","address":"普陀区真北路2158号(金鼎路真北路)"},{"poiid":"B2094654D465A6FC4593","title":"阳光商务大厦","lon":"121.39682","lat":"31.2502","category":"46","category_name":"楼宇","address":"闵行区七莘路联明路"},{"poiid":"B2094757D069A0FE4199","title":"上海通用雪佛兰安吉名门汽车服务有限公司","lon":"121.395959","lat":"31.251062","category":"500","category_name":"未知分类","address":"上海铜川路1288号"},{"poiid":"B2094654DB6AABFF4398","title":"锦江之星(真北店)","lon":"121.39112","lat":"31.25214","category":"216","category_name":"经济型连锁酒店","address":"普陀区真北路2051号(近铜川路)"},{"poiid":"B2094757DB6DA5FC479B","title":"上海映像戴斯大酒店\\t","lon":"121.391724","lat":"31.251577","category":"214","category_name":"四星级宾馆","address":"上海市普陀区真北路2022号(近铜川路)。"},{"poiid":"B2094757D068A1FB439D","title":"婚姻登记处(普陀区登记处)","lon":"121.394677406","lat":"31.2506676482","category":"46","category_name":"楼宇","address":"普陀区曹杨路510号(近白玉路)查看地图"},{"poiid":"B2094757D069A1FD479C","title":"上海市工商局行政管理局普陀分局","lon":"121.394478","lat":"31.250374","category":"260","category_name":"其他","address":"上海北石路631号"},{"poiid":"B2094757D069AAFC479E","title":"铜川路北石路","lon":"121.3943993","lat":"31.250796583","category":"500","category_name":"未知分类","address":"上海铜川路北石路"},{"poiid":"B2094757D164A0F9449B","title":"普陀区","lon":"121.397421354","lat":"31.2510039354","category":"250","category_name":"公园户外","address":"上海普陀区区域"},{"poiid":"B2094751D56AA1FD449D","title":"谈阿姨炸猪排","lon":"121.3921658502795","lat":"31.24863703506036","category":"247","category_name":"餐饮美食","address":"铜川路万镇路"},{"poiid":"B2094654D465A6FC4499","title":"樱花苑","lon":"121.39289","lat":"31.24876","category":"47","category_name":"住宅区","address":"静安区陕西南路(复兴中路陕西南路)"},{"poiid":"B2094757D069A5F84292","title":"真如体育场","lon":"121.399510261","lat":"31.2481169398","category":"220","category_name":"运动场所","address":"普陀区北石路208号(近兰溪路)"},{"poiid":"B2094757D06AA6FC4099","title":"上海市体育宫羽毛球场","lon":"121.396973151","lat":"31.2524595545","category":"220","category_name":"运动场所","address":"普陀区大渡河路1860号沪西体育宫内(近铜川路)"},{"poiid":"B2094757D068A6F84393","title":"索福德足球世界(沪西体育宫店)","lon":"121.39667","lat":"31.24928","category":"220","category_name":"运动场所","address":"普陀区大渡河路1860号沪西体育宫内(近铜川路)"},{"poiid":"B2094655D269A4F9419B","title":"上海安吉名流汽车服务有限公司","lon":"121.39555","lat":"31.25138","category":"158","category_name":"汽车销售","address":"普陀区铜川路1366号(近普陀区政府)"},{"poiid":"B2094654D465A6FC499B","title":"铜川学校","lon":"121.39197","lat":"31.25077","category":"56","category_name":"小学","address":"普陀区北石路610弄28号(近铜川路)"},{"poiid":"B2094757DA69A3F4489C","title":"驴妈妈旅游网","lon":"121.3964","lat":"31.24955","category":"630","category_name":"电子商务公司","address":"普陀区金沙江路1759号圣诺亚大厦B座7-12楼(近真北路)"},{"poiid":"B2094757D16DAAFE479F","title":"上海市普陀区图书馆7楼玩具图书馆","lon":"121.39707695","lat":"31.251306703","category":"181","category_name":"图书馆","address":"上海市普陀区大渡河路1800号"},{"poiid":"B2094757D068AAF54999","title":"重庆德庄火锅(普陀店)","lon":"121.39715","lat":"31.24742","category":"86","category_name":"火锅店","address":"上海普陀区大渡河路1603号久良财富广场1楼(近北石路)  "},{"poiid":"B2094757D16BABF8469B","title":"安吉名流铜川路4S店","lon":"121.394821","lat":"31.250825","category":"500","category_name":"未知分类","address":"上海铜川路"},{"poiid":"B2094655D36CA5F4489F","title":"北石路铜川路","lon":"121.39419","lat":"31.25023","category":"38","category_name":"公交车站","address":""},{"poiid":"B2094654D56BA3F94092","title":"上海申普宠物医院","lon":"121.39752","lat":"31.24627","category":"162","category_name":"医院","address":"普陀区大渡河路1545号(近武宁路)"},{"poiid":"B2094757D06BABF8459B","title":"安吉名流售后服务","lon":"121.39473313","lat":"31.251009477","category":"500","category_name":"未知分类","address":"上海铜川路1366号"},{"poiid":"B2094757D06BA5F4439A","title":"阳光西班牙","lon":"121.39922","lat":"31.251915","category":"47","category_name":"住宅区","address":"上海市普陀区铜川路1168弄"},{"poiid":"B2094757D06AA4FF4498","title":"花园鱼庄（原四川花园）(大渡河路店)","lon":"121.39785","lat":"31.2486","category":"71","category_name":"四川菜","address":"普陀区大渡河路1653号(近北石路)"},{"poiid":"B2094757D069A4FB459F","title":"铜川路吃海鲜","lon":"121.3919819","lat":"31.2513085","category":"500","category_name":"未知分类","address":"上海铜川路"},{"poiid":"B2094757D16FA4FE439F","title":"上海市普陀区人力资源和社会保障中心","lon":"121.39788","lat":"31.250321","category":"46","category_name":"楼宇","address":"上海市普陀区大渡河路1717号"},{"poiid":"B2094757D06BA2F4419B","title":"西堤牛排(天钥桥店)","lon":"121.39460821","lat":"31.249345565","category":"247","category_name":"餐饮美食","address":"上海徐汇区天钥桥路315号4楼(近南丹东路)"},{"poiid":"B2094757D065A3FF4198","title":"海鹰小学","lon":"121.39453125","lat":"31.2501468658","category":"56","category_name":"小学","address":"上海场中路少年村路"},{"poiid":"B2094757D569A2FA499B","title":"普陀区政府三期","lon":"121.3963825","lat":"31.2495541","category":"46","category_name":"楼宇","address":"大渡河路1668号"},{"poiid":"B2094757D06BA3F8479B","title":"真博花鸟市场","lon":"121.39296865","lat":"31.251799579","category":"249","category_name":"购物服务","address":"普陀区真北路2299号(近乐购)"},{"poiid":"B2094750DA65A4FF419D","title":"勝记龙凤村","lon":"121.39593","lat":"31.24907","category":"68","category_name":"快餐厅","address":"普陀区北石路158号(近兰溪路)"},{"poiid":"B2094757D06BA5FD419B","title":"全家便利","lon":"121.396994","lat":"31.24991","category":"117","category_name":"便民商店/便利店","address":"上海大渡河路1718号"},{"poiid":"B2094757D06EAAFA449D","title":"IMAGO我格广场","lon":"121.398373","lat":"31.251173","category":"119","category_name":"商场","address":"普陀区武宁路101号(普雄路口)"},{"poiid":"B2094757D06FA3FE419B","title":"普陀区图书馆","lon":"121.39705524842736","lat":"31.251366379011127","category":"181","category_name":"图书馆","address":"普陀区铜川路1280号(近大渡河路)"},{"poiid":"B2094757D06FA1FE499D","title":"上海市体育宫","lon":"121.39738","lat":"31.25243","category":"224","category_name":"综合体育馆","address":"普陀区大渡河路1860号沪西体育宫内(近铜川路)"},{"poiid":"B2094757D06FA0FB4999","title":"普陀区人民政府","lon":"121.396481784","lat":"31.2495622802","category":"252","category_name":"楼宇机构","address":"上海普陀区大渡河路1668号"},{"poiid":"B2094757D06EABF54898","title":"武宁路大渡河路","lon":"121.396488","lat":"31.246277","category":"38","category_name":"公交车站","address":"上海武宁路大渡河路"},{"poiid":"B2094757D06FA5F94798","title":"苏武牧羊(普陀店)","lon":"121.39745","lat":"31.24777","category":"86","category_name":"火锅店","address":"普陀区大渡河路1558号(近北石路)"},{"poiid":"B2094655D26AA7F4419A","title":"索福德足球世界体育宫中心","lon":"121.39697","lat":"31.25246","category":"247","category_name":"餐饮美食","address":"普陀区大渡河路1860号沪西体育宫内(近铜川路)"},{"poiid":"B2094655D36CA5FC479D","title":"大渡河路北石路","lon":"121.39721","lat":"31.24791","category":"38","category_name":"公交车站","address":"上海大渡河路北石路"},{"poiid":"B2094757D068A1FF4192","title":"普陀区税务局","lon":"121.394380281","lat":"31.2493238773","category":"252","category_name":"楼宇机构","address":"上海普陀区北石路579号"},{"poiid":"B2094757D068AAFE4899","title":"上海市普陀区人民法院","lon":"121.392296","lat":"31.251391","category":"608","category_name":"法院","address":"上海市普陀区铜川路1472号"},{"poiid":"B2094757D06AA4F54099","title":"潮汕庄","lon":"121.397329","lat":"31.248326","category":"86","category_name":"火锅店","address":"普陀区大渡河路1625号(近北石路)"},{"poiid":"B2094757D168A6FA429F","title":"别克名流4S店","lon":"121.39515795","lat":"31.251129699","category":"500","category_name":"未知分类","address":"上海市普陀区真北路1366号"},{"poiid":"B2094757D06FA5F4499D","title":"绿洲公寓","lon":"121.39385","lat":"31.252184","category":"47","category_name":"住宅区","address":"上海市普陀区铜川路1422弄44号"},{"poiid":"B2094654D464AAF8469B","title":"上海安吉名世凯迪拉克","lon":"121.39595","lat":"31.25106","category":"158","category_name":"汽车销售","address":"普陀区铜川路1288号(靖边路铜川路)"},{"poiid":"B2094654D465A6FD4193","title":"海棠苑","lon":"121.39087","lat":"31.24982","category":"47","category_name":"住宅区","address":"棕榈路300弄1-75"},{"poiid":"B2094654D465A3FC429E","title":"真如中学","lon":"121.39847","lat":"31.2503","category":"55","category_name":"中学","address":"普陀区铜川路1189号(近大渡河路)"},{"poiid":"B2094757D16DABFD409F","title":"普陀公安分局","lon":"121.39789765","lat":"31.250883694","category":"500","category_name":"未知分类","address":"上海普陀区大渡河路1895号"},{"poiid":"B2094654DB6AA6F94093","title":"上海西上海奥杰汽车销售服务有限公司","lon":"121.39274","lat":"31.25377","category":"159","category_name":"汽车维修","address":"普陀区真北路2158号(金鼎路真北路)"},{"poiid":"B2094654D465A6FC4593","title":"阳光商务大厦","lon":"121.39682","lat":"31.2502","category":"46","category_name":"楼宇","address":"闵行区七莘路联明路"},{"poiid":"B2094757D069A0FE4199","title":"上海通用雪佛兰安吉名门汽车服务有限公司","lon":"121.395959","lat":"31.251062","category":"500","category_name":"未知分类","address":"上海铜川路1288号"},{"poiid":"B2094654DB6AABFF4398","title":"锦江之星(真北店)","lon":"121.39112","lat":"31.25214","category":"216","category_name":"经济型连锁酒店","address":"普陀区真北路2051号(近铜川路)"},{"poiid":"B2094757DB6DA5FC479B","title":"上海映像戴斯大酒店\\t","lon":"121.391724","lat":"31.251577","category":"214","category_name":"四星级宾馆","address":"上海市普陀区真北路2022号(近铜川路)。"},{"poiid":"B2094757D068A1FB439D","title":"婚姻登记处(普陀区登记处)","lon":"121.394677406","lat":"31.2506676482","category":"46","category_name":"楼宇","address":"普陀区曹杨路510号(近白玉路)查看地图"},{"poiid":"B2094757D069A1FD479C","title":"上海市工商局行政管理局普陀分局","lon":"121.394478","lat":"31.250374","category":"260","category_name":"其他","address":"上海北石路631号"},{"poiid":"B2094757D069AAFC479E","title":"铜川路北石路","lon":"121.3943993","lat":"31.250796583","category":"500","category_name":"未知分类","address":"上海铜川路北石路"},{"poiid":"B2094757D164A0F9449B","title":"普陀区","lon":"121.397421354","lat":"31.2510039354","category":"250","category_name":"公园户外","address":"上海普陀区区域"},{"poiid":"B2094751D56AA1FD449D","title":"谈阿姨炸猪排","lon":"121.3921658502795","lat":"31.24863703506036","category":"247","category_name":"餐饮美食","address":"铜川路万镇路"},{"poiid":"B2094654D465A6FC4499","title":"樱花苑","lon":"121.39289","lat":"31.24876","category":"47","category_name":"住宅区","address":"静安区陕西南路(复兴中路陕西南路)"},{"poiid":"B2094757D069A5F84292","title":"真如体育场","lon":"121.399510261","lat":"31.2481169398","category":"220","category_name":"运动场所","address":"普陀区北石路208号(近兰溪路)"},{"poiid":"B2094757D06AA6FC4099","title":"上海市体育宫羽毛球场","lon":"121.396973151","lat":"31.2524595545","category":"220","category_name":"运动场所","address":"普陀区大渡河路1860号沪西体育宫内(近铜川路)"},{"poiid":"B2094757D068A6F84393","title":"索福德足球世界(沪西体育宫店)","lon":"121.39667","lat":"31.24928","category":"220","category_name":"运动场所","address":"普陀区大渡河路1860号沪西体育宫内(近铜川路)"},{"poiid":"B2094655D269A4F9419B","title":"上海安吉名流汽车服务有限公司","lon":"121.39555","lat":"31.25138","category":"158","category_name":"汽车销售","address":"普陀区铜川路1366号(近普陀区政府)"},{"poiid":"B2094654D465A6FC499B","title":"铜川学校","lon":"121.39197","lat":"31.25077","category":"56","category_name":"小学","address":"普陀区北石路610弄28号(近铜川路)"},{"poiid":"B2094757DA69A3F4489C","title":"驴妈妈旅游网","lon":"121.3964","lat":"31.24955","category":"630","category_name":"电子商务公司","address":"普陀区金沙江路1759号圣诺亚大厦B座7-12楼(近真北路)"},{"poiid":"B2094757D16DAAFE479F","title":"上海市普陀区图书馆7楼玩具图书馆","lon":"121.39707695","lat":"31.251306703","category":"181","category_name":"图书馆","address":"上海市普陀区大渡河路1800号"},{"poiid":"B2094757D068AAF54999","title":"重庆德庄火锅(普陀店)","lon":"121.39715","lat":"31.24742","category":"86","category_name":"火锅店","address":"上海普陀区大渡河路1603号久良财富广场1楼(近北石路)  "},{"poiid":"B2094757D16BABF8469B","title":"安吉名流铜川路4S店","lon":"121.394821","lat":"31.250825","category":"500","category_name":"未知分类","address":"上海铜川路"},{"poiid":"B2094655D36CA5F4489F","title":"北石路铜川路","lon":"121.39419","lat":"31.25023","category":"38","category_name":"公交车站","address":""},{"poiid":"B2094654D56BA3F94092","title":"上海申普宠物医院","lon":"121.39752","lat":"31.24627","category":"162","category_name":"医院","address":"普陀区大渡河路1545号(近武宁路)"},{"poiid":"B2094757D06BABF8459B","title":"安吉名流售后服务","lon":"121.39473313","lat":"31.251009477","category":"500","category_name":"未知分类","address":"上海铜川路1366号"},{"poiid":"B2094757D06BA5F4439A","title":"阳光西班牙","lon":"121.39922","lat":"31.251915","category":"47","category_name":"住宅区","address":"上海市普陀区铜川路1168弄"},{"poiid":"B2094757D06AA4FF4498","title":"花园鱼庄（原四川花园）(大渡河路店)","lon":"121.39785","lat":"31.2486","category":"71","category_name":"四川菜","address":"普陀区大渡河路1653号(近北石路)"},{"poiid":"B2094757D069A4FB459F","title":"铜川路吃海鲜","lon":"121.3919819","lat":"31.2513085","category":"500","category_name":"未知分类","address":"上海铜川路"},{"poiid":"B2094757D16FA4FE439F","title":"上海市普陀区人力资源和社会保障中心","lon":"121.39788","lat":"31.250321","category":"46","category_name":"楼宇","address":"上海市普陀区大渡河路1717号"},{"poiid":"B2094757D06BA2F4419B","title":"西堤牛排(天钥桥店)","lon":"121.39460821","lat":"31.249345565","category":"247","category_name":"餐饮美食","address":"上海徐汇区天钥桥路315号4楼(近南丹东路)"},{"poiid":"B2094757D065A3FF4198","title":"海鹰小学","lon":"121.39453125","lat":"31.2501468658","category":"56","category_name":"小学","address":"上海场中路少年村路"},{"poiid":"B2094757D569A2FA499B","title":"普陀区政府三期","lon":"121.3963825","lat":"31.2495541","category":"46","category_name":"楼宇","address":"大渡河路1668号"},{"poiid":"B2094757D06BA3F8479B","title":"真博花鸟市场","lon":"121.39296865","lat":"31.251799579","category":"249","category_name":"购物服务","address":"普陀区真北路2299号(近乐购)"},{"poiid":"B2094750DA65A4FF419D","title":"勝记龙凤村","lon":"121.39593","lat":"31.24907","category":"68","category_name":"快餐厅","address":"普陀区北石路158号(近兰溪路)"},{"poiid":"B2094757D06BA5FD419B","title":"全家便利","lon":"121.396994","lat":"31.24991","category":"117","category_name":"便民商店/便利店","address":"上海大渡河路1718号"}]