[{"poiid":"B2094750D268A1FF4599","title":"虹桥机场1号航站楼","lon":"121.374694","lat":"31.194229","category":"21","category_name":"飞机场","address":"长宁区虹桥路2550号"},{"poiid":"B2094757D06FA7FA4699","title":"上海市交通警察总队车辆管理所(一分所)","lon":"121.366082","lat":"31.2012371","category":"252","category_name":"楼宇机构","address":"上海长宁区哈密路1330号"},{"poiid":"B2094757D068A5F9469D","title":"上海国际旅行卫生保健中心","lon":"121.36435699","lat":"31.198169708","category":"162","category_name":"医院","address":"长宁区金浜路15号(近哈密路)"},{"poiid":"B2094757D068A0FB4892","title":"鼎邦俪池","lon":"121.37372","lat":"31.19683","category":"500","category_name":"未知分类","address":"上海长宁区青溪路288弄(近龙溪路)  "},{"poiid":"B2094757D068A7FA419A","title":"绿谷别墅","lon":"121.365924","lat":"31.198598","category":"47","category_name":"住宅区","address":"上海哈密路1500号"},{"poiid":"B2094757D069A3FE419A","title":"上海出入境检验检疫局/上海国际旅行卫生保健中心","lon":"121.36445758","lat":"31.197729795","category":"162","category_name":"医院","address":"上海市长宁区金浜路15号"},{"poiid":"B2094655D26EA3FA4593","title":"格林豪泰(上海虹桥机场酒店公寓)","lon":"121.36744","lat":"31.19583","category":"216","category_name":"经济型连锁酒店","address":"长宁区哈密路1721号(近虹桥路)"},{"poiid":"B2094757D069ABFA4498","title":"中国人民解放军第四五五医院(哈密路分院)","lon":"121.36747","lat":"31.19587","category":"162","category_name":"医院","address":"长宁区哈密路1713号(近虹桥路)"},{"poiid":"B2094757D069A3F94898","title":"特警总队","lon":"121.366982","lat":"31.202182","category":"500","category_name":"未知分类","address":"上海哈密路1330号"},{"poiid":"B2094757D068A1FC459E","title":"天鹅轩","lon":"121.36951","lat":"31.1903","category":"75","category_name":"浙江菜","address":"长宁区虹桥路2395号(近虹井路)查看地图"},{"poiid":"B2094750D66FA6FB4092","title":"医院","lon":"121.364761","lat":"31.195802","category":"162","category_name":"医院","address":"哈密路青溪路"},{"poiid":"B2094654D569AAFD4293","title":"张泾小区","lon":"121.37108","lat":"31.194754","category":"47","category_name":"住宅区","address":"上海剑河路2001弄"},{"poiid":"B2094757D06AA0FB4099","title":"人民公社农家菜","lon":"121.37031","lat":"31.19103","category":"87","category_name":"特色／地方风味餐厅","address":"长宁区哈密路2028号(近虹桥路)"},{"poiid":"B2094757D66BA0FD4598","title":"鼎邦俪池私人会所","lon":"121.375898054","lat":"31.197669793","category":"268","category_name":"自助","address":"长宁区青溪路288弄(近龙溪路)查看地图"},{"poiid":"B2094757D16EA3F5469B","title":"名颂人家","lon":"121.36799","lat":"31.19575","category":"76","category_name":"上海菜","address":"长宁区哈密路1799号(近青溪路)"},{"poiid":"B2094757D16FA1F9409A","title":"锦江之星(哈密路店)","lon":"121.36583","lat":"31.19993","category":"500","category_name":"未知分类","address":"上海长宁区哈密路1358号(近金滨路)  "},{"poiid":"B2094655D26AA4FD459A","title":"海立阁哈密路店","lon":"121.36662","lat":"31.19685","category":"247","category_name":"餐饮美食","address":"长宁区哈密路2010号(近虹桥路)"},{"poiid":"B2094751DA65A4FD4399","title":"酒藏","lon":"121.371378","lat":"31.192276","category":"247","category_name":"餐饮美食","address":"长宁区剑河路(近延安西路)"},{"poiid":"B2094752D36DABFF4599","title":"Geneva","lon":"121.364115","lat":"31.196543","category":"247","category_name":"餐饮美食","address":"哈密路1876弄6号"},{"poiid":"B2094654D569AAFB4193","title":"北顾小区","lon":"121.37067","lat":"31.19923","category":"47","category_name":"住宅区","address":"上海剑河路998弄"},{"poiid":"B2094757D568A5F5479C","title":"御笼坊(哈密路店)","lon":"121.3692931","lat":"31.19420806","category":"68","category_name":"快餐厅","address":"长宁区哈密路1896弄(近青溪路)"},{"poiid":"B2094654DB6BA0FD499C","title":"竹园餐厅(舟山海鲜坊)","lon":"121.36894","lat":"31.19466","category":"257","category_name":"中餐厅","address":"长宁区哈密路1896号"},{"poiid":"B2094757D16DA6F54293","title":"虹桥中园","lon":"121.36947258","lat":"31.194007722","category":"500","category_name":"未知分类","address":"上海市长宁区哈密路1999弄"},{"poiid":"B2094654DB6BA1F4419C","title":"虹桥龙柏公寓","lon":"121.36544851952","lat":"31.193572126218","category":"47","category_name":"住宅区","address":"绿苑路21弄识别"},{"poiid":"B2094757DA64A5F4489E","title":"虹桥机场T2航站楼71登记口","lon":"121.3745983338356","lat":"31.19463270098341","category":"500","category_name":"未知分类","address":"虹桥机场"},{"poiid":"B2094655D36CA0FA4092","title":"剑河路青溪路","lon":"121.36955","lat":"31.19904","category":"38","category_name":"公交车站","address":""},{"poiid":"B2094655D26DA4FD4692","title":"王满小区(北门)","lon":"121.3702","lat":"31.19597","category":"47","category_name":"住宅区","address":"哈密路1800弄1-23号"},{"poiid":"B2094654D569AAFE429B","title":"长青公寓","lon":"121.36961","lat":"31.195154","category":"47","category_name":"住宅区","address":"长青公寓位于长宁哈密路1896号16号楼"},{"poiid":"B2094655D26CA4FC4792","title":"王满小区","lon":"121.37051","lat":"31.195459","category":"47","category_name":"住宅区","address":"哈密路1800弄1-23号"},{"poiid":"B2094757D465A4FA4392","title":"万豪虹桥大酒店 宴会厅","lon":"121.375667054","lat":"31.191734793","category":"76","category_name":"上海菜","address":"长宁区虹桥路2270号万豪虹桥大酒店(近剑河路)"},{"poiid":"B2094757D069A1F84898","title":"车管所一分所","lon":"121.36568521","lat":"31.202140621","category":"500","category_name":"未知分类","address":"上海哈密路"},{"poiid":"B2094654D569AAFE439C","title":"新律花园","lon":"121.3684","lat":"31.196394","category":"47","category_name":"住宅区","address":"哈密路1680号"},{"poiid":"B2094655D269A4F5439A","title":"宝隆居家酒店哈密路店","lon":"121.36978","lat":"31.19221","category":"247","category_name":"餐饮美食","address":"上海市长宁区哈密路2010号（近虹桥路）"},{"poiid":"B2094654D569AAFC449A","title":"琥珀别墅","lon":"121.371","lat":"31.1952","category":"47","category_name":"住宅区","address":"虹桥路2384弄"},{"poiid":"B2094655D26FA7FC4398","title":"鼎邦俪池(北门)","lon":"121.37258","lat":"31.19724","category":"47","category_name":"住宅区","address":"青溪路288号"},{"poiid":"B2094757D16BA5FE4592","title":"申德医院","lon":"121.37451","lat":"31.19124","category":"162","category_name":"医院","address":"长宁区虹桥路2281号(近剑河路)"},{"poiid":"B2094757D569A7FB469C","title":"绿谷餐厅","lon":"121.3695794","lat":"31.19295667","category":"247","category_name":"餐饮美食","address":"长宁区哈密路1500号(近虹桥路)"},{"poiid":"B2094654D569AAFB429A","title":"北顾小区(西门)","lon":"121.36986","lat":"31.19907","category":"47","category_name":"住宅区","address":"剑河路998弄"},{"poiid":"B2094655D26CA4FE499C","title":"松坊商场","lon":"121.36979","lat":"31.20003","category":"119","category_name":"商场","address":""},{"poiid":"B2094757D164A7FF419C","title":"慕光日本料理","lon":"121.372366386","lat":"31.1971500842","category":"500","category_name":"未知分类","address":"上海虹梅路Soho3911"},{"poiid":"B2094655D36CA0FA409D","title":"剑河路平溪路","lon":"121.37246","lat":"31.19443","category":"38","category_name":"公交车站","address":""},{"poiid":"B2094654D569AAF54092","title":"夏都花园","lon":"121.37456","lat":"31.195242","category":"47","category_name":"住宅区","address":"夏都花园位于长宁剑河路2000号"},{"poiid":"B2094654D569AAFE449B","title":"快客No.1252","lon":"121.36711","lat":"31.19632","category":"117","category_name":"便民商店/便利店","address":"哈密路1713-7识别"},{"poiid":"B2094654D569AAFD4398","title":"绿谷别墅(东门)","lon":"121.36998","lat":"31.1972","category":"656","category_name":"大门","address":"剑河路999"},{"poiid":"B2094654D569AAFE439D","title":"春花苑(东门)","lon":"121.36726","lat":"31.19614","category":"47","category_name":"住宅区","address":"哈密路1719"},{"poiid":"B2094757D068A6FD4692","title":"檀宫","lon":"121.373368383","lat":"31.2023260816","category":"47","category_name":"住宅区","address":"檀宫位于长宁清溪路555号"},{"poiid":"B2094655D26AA2F9459E","title":"飞蛋超市哈密路店","lon":"121.36929","lat":"31.1942","category":"247","category_name":"餐饮美食","address":"长宁区哈密路1896号(近青溪路)"},{"poiid":"B2094654D569AAFC479F","title":"锦程小区","lon":"121.37035","lat":"31.193632","category":"47","category_name":"住宅区","address":"哈密路2004弄1-12号"},{"poiid":"B2094750D464A5F94499","title":"鼎邦俪池私人俱乐部","lon":"121.372802","lat":"31.197538","category":"500","category_name":"未知分类","address":null},{"poiid":"B2094757D064A3F9499E","title":"剑河路2001弄小区","lon":"121.371079","lat":"31.194754","category":"252","category_name":"楼宇机构","address":"上海剑河路2001弄"},{"poiid":"B2094750D268A1FF4599","title":"虹桥机场1号航站楼","lon":"121.374694","lat":"31.194229","category":"21","category_name":"飞机场","address":"长宁区虹桥路2550号"},{"poiid":"B2094757D06FA7FA4699","title":"上海市交通警察总队车辆管理所(一分所)","lon":"121.366082","lat":"31.2012371","category":"252","category_name":"楼宇机构","address":"上海长宁区哈密路1330号"},{"poiid":"B2094757D068A5F9469D","title":"上海国际旅行卫生保健中心","lon":"121.36435699","lat":"31.198169708","category":"162","category_name":"医院","address":"长宁区金浜路15号(近哈密路)"},{"poiid":"B2094757D068A0FB4892","title":"鼎邦俪池","lon":"121.37372","lat":"31.19683","category":"500","category_name":"未知分类","address":"上海长宁区青溪路288弄(近龙溪路)  "},{"poiid":"B2094757D068A7FA419A","title":"绿谷别墅","lon":"121.365924","lat":"31.198598","category":"47","category_name":"住宅区","address":"上海哈密路1500号"},{"poiid":"B2094757D069A3FE419A","title":"上海出入境检验检疫局/上海国际旅行卫生保健中心","lon":"121.36445758","lat":"31.197729795","category":"162","category_name":"医院","address":"上海市长宁区金浜路15号"},{"poiid":"B2094655D26EA3FA4593","title":"格林豪泰(上海虹桥机场酒店公寓)","lon":"121.36744","lat":"31.19583","category":"216","category_name":"经济型连锁酒店","address":"长宁区哈密路1721号(近虹桥路)"},{"poiid":"B2094757D069ABFA4498","title":"中国人民解放军第四五五医院(哈密路分院)","lon":"121.36747","lat":"31.19587","category":"162","category_name":"医院","address":"长宁区哈密路1713号(近虹桥路)"},{"poiid":"B2094757D069A3F94898","title":"特警总队","lon":"121.366982","lat":"31.202182","category":"500","category_name":"未知分类","address":"上海哈密路1330号"},{"poiid":"B2094757D068A1FC459E","title":"天鹅轩","lon":"121.36951","lat":"31.1903","category":"75","category_name":"浙江菜","address":"长宁区虹桥路2395号(近虹井路)查看地图"},{"poiid":"B2094750D66FA6FB4092","title":"医院","lon":"121.364761","lat":"31.195802","category":"162","category_name":"医院","address":"哈密路青溪路"},{"poiid":"B2094654D569AAFD4293","title":"张泾小区","lon":"121.37108","lat":"31.194754","category":"47","category_name":"住宅区","address":"上海剑河路2001弄"},{"poiid":"B2094757D06AA0FB4099","title":"人民公社农家菜","lon":"121.37031","lat":"31.19103","category":"87","category_name":"特色／地方风味餐厅","address":"长宁区哈密路2028号(近虹桥路)"},{"poiid":"B2094757D66BA0FD4598","title":"鼎邦俪池私人会所","lon":"121.375898054","lat":"31.197669793","category":"268","category_name":"自助","address":"长宁区青溪路288弄(近龙溪路)查看地图"},{"poiid":"B2094757D16EA3F5469B","title":"名颂人家","lon":"121.36799","lat":"31.19575","category":"76","category_name":"上海菜","address":"长宁区哈密路1799号(近青溪路)"},{"poiid":"B2094757D16FA1F9409A","title":"锦江之星(哈密路店)","lon":"121.36583","lat":"31.19993","category":"500","category_name":"未知分类","address":"上海长宁区哈密路1358号(近金滨路)  "},{"poiid":"B2094655D26AA4FD459A","title":"海立阁哈密路店","lon":"121.36662","lat":"31.19685","category":"247","category_name":"餐饮美食","address":"长宁区哈密路2010号(近虹桥路)"},{"poiid":"B2094751DA65A4FD4399","title":"酒藏","lon":"121.371378","lat":"31.192276","category":"247","category_name":"餐饮美食","address":"长宁区剑河路(近延安西路)"},{"poiid":"B2094752D36DABFF4599","title":"Geneva","lon":"121.364115","lat":"31.196543","category":"247","category_name":"餐饮美食","address":"哈密路1876弄6号"},{"poiid":"B2094654D569AAFB4193","title":"北顾小区","lon":"121.37067","lat":"31.19923","category":"47","category_name":"住宅区","address":"上海剑河路998弄"},{"poiid":"B2094757D568A5F5479C","title":"御笼坊(哈密路店)","lon":"121.3692931","lat":"31.19420806","category":"68","category_name":"快餐厅","address":"长宁区哈密路1896弄(近青溪路)"},{"poiid":"B2094654DB6BA0FD499C","title":"竹园餐厅(舟山海鲜坊)","lon":"121.36894","lat":"31.19466","category":"257","category_name":"中餐厅","address":"长宁区哈密路1896号"},{"poiid":"B2094757D16DA6F54293","title":"虹桥中园","lon":"121.36947258","lat":"31.194007722","category":"500","category_name":"未知分类","address":"上海市长宁区哈密路1999弄"},{"poiid":"B2094654DB6BA1F4419C","title":"虹桥龙柏公寓","lon":"121.36544851952","lat":"31.193572126218","category":"47","category_name":"住宅区","address":"绿苑路21弄识别"},{"poiid":"B2094757DA64A5F4489E","title":"虹桥机场T2航站楼71登记口","lon":"121.3745983338356","lat":"31.19463270098341","category":"500","category_name":"未知分类","address":"虹桥机场"},{"poiid":"B2094655D36CA0FA4092","title":"剑河路青溪路","lon":"121.36955","lat":"31.19904","category":"38","category_name":"公交车站","address":""},{"poiid":"B2094655D26DA4FD4692","title":"王满小区(北门)","lon":"121.3702","lat":"31.19597","category":"47","category_name":"住宅区","address":"哈密路1800弄1-23号"},{"poiid":"B2094654D569AAFE429B","title":"长青公寓","lon":"121.36961","lat":"31.195154","category":"47","category_name":"住宅区","address":"长青公寓位于长宁哈密路1896号16号楼"},{"poiid":"B2094655D26CA4FC4792","title":"王满小区","lon":"121.37051","lat":"31.195459","category":"47","category_name":"住宅区","address":"哈密路1800弄1-23号"},{"poiid":"B2094757D465A4FA4392","title":"万豪虹桥大酒店 宴会厅","lon":"121.375667054","lat":"31.191734793","category":"76","category_name":"上海菜","address":"长宁区虹桥路2270号万豪虹桥大酒店(近剑河路)"},{"poiid":"B2094757D069A1F84898","title":"车管所一分所","lon":"121.36568521","lat":"31.202140621","category":"500","category_name":"未知分类","address":"上海哈密路"},{"poiid":"B2094654D569AAFE439C","title":"新律花园","lon":"121.3684","lat":"31.196394","category":"47","category_name":"住宅区","address":"哈密路1680号"},{"poiid":"B2094655D269A4F5439A","title":"宝隆居家酒店哈密路店","lon":"121.36978","lat":"31.19221","category":"247","category_name":"餐饮美食","address":"上海市长宁区哈密路2010号（近虹桥路）"},{"poiid":"B2094654D569AAFC449A","title":"琥珀别墅","lon":"121.371","lat":"31.1952","category":"47","category_name":"住宅区","address":"虹桥路2384弄"},{"poiid":"B2094655D26FA7FC4398","title":"鼎邦俪池(北门)","lon":"121.37258","lat":"31.19724","category":"47","category_name":"住宅区","address":"青溪路288号"},{"poiid":"B2094757D16BA5FE4592","title":"申德医院","lon":"121.37451","lat":"31.19124","category":"162","category_name":"医院","address":"长宁区虹桥路2281号(近剑河路)"},{"poiid":"B2094757D569A7FB469C","title":"绿谷餐厅","lon":"121.3695794","lat":"31.19295667","category":"247","category_name":"餐饮美食","address":"长宁区哈密路1500号(近虹桥路)"},{"poiid":"B2094654D569AAFB429A","title":"北顾小区(西门)","lon":"121.36986","lat":"31.19907","category":"47","category_name":"住宅区","address":"剑河路998弄"},{"poiid":"B2094655D26CA4FE499C","title":"松坊商场","lon":"121.36979","lat":"31.20003","category":"119","category_name":"商场","address":""},{"poiid":"B2094757D164A7FF419C","title":"慕光日本料理","lon":"121.372366386","lat":"31.1971500842","category":"500","category_name":"未知分类","address":"上海虹梅路Soho3911"},{"poiid":"B2094655D36CA0FA409D","title":"剑河路平溪路","lon":"121.37246","lat":"31.19443","category":"38","category_name":"公交车站","address":""},{"poiid":"B2094654D569AAF54092","title":"夏都花园","lon":"121.37456","lat":"31.195242","category":"47","category_name":"住宅区","address":"夏都花园位于长宁剑河路2000号"},{"poiid":"B2094654D569AAFE449B","title":"快客No.1252","lon":"121.36711","lat":"31.19632","category":"117","category_name":"便民商店/便利店","address":"哈密路1713-7识别"},{"poiid":"B2094654D569AAFD4398","title":"绿谷别墅(东门)","lon":"121.36998","lat":"31.1972","category":"656","category_name":"大门","address":"剑河路999"},{"poiid":"B2094654D569AAFE439D","title":"春花苑(东门)","lon":"121.36726","lat":"31.19614","category":"47","category_name":"住宅区","address":"哈密路1719"},{"poiid":"B2094757D068A6FD4692","title":"檀宫","lon":"121.373368383","lat":"31.2023260816","category":"47","category_name":"住宅区","address":"檀宫位于长宁清溪路555号"},{"poiid":"B2094655D26AA2F9459E","title":"飞蛋超市哈密路店","lon":"121.36929","lat":"31.1942","category":"247","category_name":"餐饮美食","address":"长宁区哈密路1896号(近青溪路)"},{"poiid":"B2094654D569AAFC479F","title":"锦程小区","lon":"121.37035","lat":"31.193632","category":"47","category_name":"住宅区","address":"哈密路2004弄1-12号"},{"poiid":"B2094750D464A5F94499","title":"鼎邦俪池私人俱乐部","lon":"121.372802","lat":"31.197538","category":"500","category_name":"未知分类","address":null},{"poiid":"B2094757D064A3F9499E","title":"剑河路2001弄小区","lon":"121.371079","lat":"31.194754","category":"252","category_name":"楼宇机构","address":"上海剑河路2001弄"},{"poiid":"B2094750D268A1FF4599","title":"虹桥机场1号航站楼","lon":"121.374694","lat":"31.194229","category":"21","category_name":"飞机场","address":"长宁区虹桥路2550号"},{"poiid":"B2094757D06FA7FA4699","title":"上海市交通警察总队车辆管理所(一分所)","lon":"121.366082","lat":"31.2012371","category":"252","category_name":"楼宇机构","address":"上海长宁区哈密路1330号"},{"poiid":"B2094757D068A5F9469D","title":"上海国际旅行卫生保健中心","lon":"121.36435699","lat":"31.198169708","category":"162","category_name":"医院","address":"长宁区金浜路15号(近哈密路)"},{"poiid":"B2094757D068A0FB4892","title":"鼎邦俪池","lon":"121.37372","lat":"31.19683","category":"500","category_name":"未知分类","address":"上海长宁区青溪路288弄(近龙溪路)  "},{"poiid":"B2094757D068A7FA419A","title":"绿谷别墅","lon":"121.365924","lat":"31.198598","category":"47","category_name":"住宅区","address":"上海哈密路1500号"},{"poiid":"B2094757D069A3FE419A","title":"上海出入境检验检疫局/上海国际旅行卫生保健中心","lon":"121.36445758","lat":"31.197729795","category":"162","category_name":"医院","address":"上海市长宁区金浜路15号"},{"poiid":"B2094655D26EA3FA4593","title":"格林豪泰(上海虹桥机场酒店公寓)","lon":"121.36744","lat":"31.19583","category":"216","category_name":"经济型连锁酒店","address":"长宁区哈密路1721号(近虹桥路)"},{"poiid":"B2094757D069ABFA4498","title":"中国人民解放军第四五五医院(哈密路分院)","lon":"121.36747","lat":"31.19587","category":"162","category_name":"医院","address":"长宁区哈密路1713号(近虹桥路)"},{"poiid":"B2094757D069A3F94898","title":"特警总队","lon":"121.366982","lat":"31.202182","category":"500","category_name":"未知分类","address":"上海哈密路1330号"},{"poiid":"B2094757D068A1FC459E","title":"天鹅轩","lon":"121.36951","lat":"31.1903","category":"75","category_name":"浙江菜","address":"长宁区虹桥路2395号(近虹井路)查看地图"},{"poiid":"B2094750D66FA6FB4092","title":"医院","lon":"121.364761","lat":"31.195802","category":"162","category_name":"医院","address":"哈密路青溪路"},{"poiid":"B2094654D569AAFD4293","title":"张泾小区","lon":"121.37108","lat":"31.194754","category":"47","category_name":"住宅区","address":"上海剑河路2001弄"},{"poiid":"B2094757D06AA0FB4099","title":"人民公社农家菜","lon":"121.37031","lat":"31.19103","category":"87","category_name":"特色／地方风味餐厅","address":"长宁区哈密路2028号(近虹桥路)"},{"poiid":"B2094757D66BA0FD4598","title":"鼎邦俪池私人会所","lon":"121.375898054","lat":"31.197669793","category":"268","category_name":"自助","address":"长宁区青溪路288弄(近龙溪路)查看地图"},{"poiid":"B2094757D16EA3F5469B","title":"名颂人家","lon":"121.36799","lat":"31.19575","category":"76","category_name":"上海菜","address":"长宁区哈密路1799号(近青溪路)"},{"poiid":"B2094757D16FA1F9409A","title":"锦江之星(哈密路店)","lon":"121.36583","lat":"31.19993","category":"500","category_name":"未知分类","address":"上海长宁区哈密路1358号(近金滨路)  "},{"poiid":"B2094655D26AA4FD459A","title":"海立阁哈密路店","lon":"121.36662","lat":"31.19685","category":"247","category_name":"餐饮美食","address":"长宁区哈密路2010号(近虹桥路)"},{"poiid":"B2094751DA65A4FD4399","title":"酒藏","lon":"121.371378","lat":"31.192276","category":"247","category_name":"餐饮美食","address":"长宁区剑河路(近延安西路)"},{"poiid":"B2094752D36DABFF4599","title":"Geneva","lon":"121.364115","lat":"31.196543","category":"247","category_name":"餐饮美食","address":"哈密路1876弄6号"},{"poiid":"B2094654D569AAFB4193","title":"北顾小区","lon":"121.37067","lat":"31.19923","category":"47","category_name":"住宅区","address":"上海剑河路998弄"},{"poiid":"B2094757D568A5F5479C","title":"御笼坊(哈密路店)","lon":"121.3692931","lat":"31.19420806","category":"68","category_name":"快餐厅","address":"长宁区哈密路1896弄(近青溪路)"},{"poiid":"B2094654DB6BA0FD499C","title":"竹园餐厅(舟山海鲜坊)","lon":"121.36894","lat":"31.19466","category":"257","category_name":"中餐厅","address":"长宁区哈密路1896号"},{"poiid":"B2094757D16DA6F54293","title":"虹桥中园","lon":"121.36947258","lat":"31.194007722","category":"500","category_name":"未知分类","address":"上海市长宁区哈密路1999弄"},{"poiid":"B2094654DB6BA1F4419C","title":"虹桥龙柏公寓","lon":"121.36544851952","lat":"31.193572126218","category":"47","category_name":"住宅区","address":"绿苑路21弄识别"},{"poiid":"B2094757DA64A5F4489E","title":"虹桥机场T2航站楼71登记口","lon":"121.3745983338356","lat":"31.19463270098341","category":"500","category_name":"未知分类","address":"虹桥机场"},{"poiid":"B2094655D36CA0FA4092","title":"剑河路青溪路","lon":"121.36955","lat":"31.19904","category":"38","category_name":"公交车站","address":""},{"poiid":"B2094655D26DA4FD4692","title":"王满小区(北门)","lon":"121.3702","lat":"31.19597","category":"47","category_name":"住宅区","address":"哈密路1800弄1-23号"},{"poiid":"B2094654D569AAFE429B","title":"长青公寓","lon":"121.36961","lat":"31.195154","category":"47","category_name":"住宅区","address":"长青公寓位于长宁哈密路1896号16号楼"},{"poiid":"B2094655D26CA4FC4792","title":"王满小区","lon":"121.37051","lat":"31.195459","category":"47","category_name":"住宅区","address":"哈密路1800弄1-23号"},{"poiid":"B2094757D465A4FA4392","title":"万豪虹桥大酒店 宴会厅","lon":"121.375667054","lat":"31.191734793","category":"76","category_name":"上海菜","address":"长宁区虹桥路2270号万豪虹桥大酒店(近剑河路)"},{"poiid":"B2094757D069A1F84898","title":"车管所一分所","lon":"121.36568521","lat":"31.202140621","category":"500","category_name":"未知分类","address":"上海哈密路"},{"poiid":"B2094654D569AAFE439C","title":"新律花园","lon":"121.3684","lat":"31.196394","category":"47","category_name":"住宅区","address":"哈密路1680号"},{"poiid":"B2094655D269A4F5439A","title":"宝隆居家酒店哈密路店","lon":"121.36978","lat":"31.19221","category":"247","category_name":"餐饮美食","address":"上海市长宁区哈密路2010号（近虹桥路）"},{"poiid":"B2094654D569AAFC449A","title":"琥珀别墅","lon":"121.371","lat":"31.1952","category":"47","category_name":"住宅区","address":"虹桥路2384弄"},{"poiid":"B2094655D26FA7FC4398","title":"鼎邦俪池(北门)","lon":"121.37258","lat":"31.19724","category":"47","category_name":"住宅区","address":"青溪路288号"},{"poiid":"B2094757D16BA5FE4592","title":"申德医院","lon":"121.37451","lat":"31.19124","category":"162","category_name":"医院","address":"长宁区虹桥路2281号(近剑河路)"},{"poiid":"B2094757D569A7FB469C","title":"绿谷餐厅","lon":"121.3695794","lat":"31.19295667","category":"247","category_name":"餐饮美食","address":"长宁区哈密路1500号(近虹桥路)"},{"poiid":"B2094654D569AAFB429A","title":"北顾小区(西门)","lon":"121.36986","lat":"31.19907","category":"47","category_name":"住宅区","address":"剑河路998弄"},{"poiid":"B2094655D26CA4FE499C","title":"松坊商场","lon":"121.36979","lat":"31.20003","category":"119","category_name":"商场","address":""},{"poiid":"B2094757D164A7FF419C","title":"慕光日本料理","lon":"121.372366386","lat":"31.1971500842","category":"500","category_name":"未知分类","address":"上海虹梅路Soho3911"},{"poiid":"B2094655D36CA0FA409D","title":"剑河路平溪路","lon":"121.37246","lat":"31.19443","category":"38","category_name":"公交车站","address":""},{"poiid":"B2094654D569AAF54092","title":"夏都花园","lon":"121.37456","lat":"31.195242","category":"47","category_name":"住宅区","address":"夏都花园位于长宁剑河路2000号"},{"poiid":"B2094654D569AAFE449B","title":"快客No.1252","lon":"121.36711","lat":"31.19632","category":"117","category_name":"便民商店/便利店","address":"哈密路1713-7识别"},{"poiid":"B2094654D569AAFD4398","title":"绿谷别墅(东门)","lon":"121.36998","lat":"31.1972","category":"656","category_name":"大门","address":"剑河路999"},{"poiid":"B2094654D569AAFE439D","title":"春花苑(东门)","lon":"121.36726","lat":"31.19614","category":"47","category_name":"住宅区","address":"哈密路1719"},{"poiid":"B2094757D068A6FD4692","title":"檀宫","lon":"121.373368383","lat":"31.2023260816","category":"47","category_name":"住宅区","address":"檀宫位于长宁清溪路555号"},{"poiid":"B2094655D26AA2F9459E","title":"飞蛋超市哈密路店","lon":"121.36929","lat":"31.1942","category":"247","category_name":"餐饮美食","address":"长宁区哈密路1896号(近青溪路)"},{"poiid":"B2094654D569AAFC479F","title":"锦程小区","lon":"121.37035","lat":"31.193632","category":"47","category_name":"住宅区","address":"哈密路2004弄1-12号"},{"poiid":"B2094750D464A5F94499","title":"鼎邦俪池私人俱乐部","lon":"121.372802","lat":"31.197538","category":"500","category_name":"未知分类","address":null},{"poiid":"B2094757D064A3F9499E","title":"剑河路2001弄小区","lon":"121.371079","lat":"31.194754","category":"252","category_name":"楼宇机构","address":"上海剑河路2001弄"},{"poiid":"B2094750D268A1FF4599","title":"虹桥机场1号航站楼","lon":"121.374694","lat":"31.194229","category":"21","category_name":"飞机场","address":"长宁区虹桥路2550号"},{"poiid":"B2094757D06FA7FA4699","title":"上海市交通警察总队车辆管理所(一分所)","lon":"121.366082","lat":"31.2012371","category":"252","category_name":"楼宇机构","address":"上海长宁区哈密路1330号"},{"poiid":"B2094757D068A5F9469D","title":"上海国际旅行卫生保健中心","lon":"121.36435699","lat":"31.198169708","category":"162","category_name":"医院","address":"长宁区金浜路15号(近哈密路)"},{"poiid":"B2094757D068A0FB4892","title":"鼎邦俪池","lon":"121.37372","lat":"31.19683","category":"500","category_name":"未知分类","address":"上海长宁区青溪路288弄(近龙溪路)  "},{"poiid":"B2094757D068A7FA419A","title":"绿谷别墅","lon":"121.365924","lat":"31.198598","category":"47","category_name":"住宅区","address":"上海哈密路1500号"},{"poiid":"B2094757D069A3FE419A","title":"上海出入境检验检疫局/上海国际旅行卫生保健中心","lon":"121.36445758","lat":"31.197729795","category":"162","category_name":"医院","address":"上海市长宁区金浜路15号"},{"poiid":"B2094655D26EA3FA4593","title":"格林豪泰(上海虹桥机场酒店公寓)","lon":"121.36744","lat":"31.19583","category":"216","category_name":"经济型连锁酒店","address":"长宁区哈密路1721号(近虹桥路)"},{"poiid":"B2094757D069ABFA4498","title":"中国人民解放军第四五五医院(哈密路分院)","lon":"121.36747","lat":"31.19587","category":"162","category_name":"医院","address":"长宁区哈密路1713号(近虹桥路)"},{"poiid":"B2094757D069A3F94898","title":"特警总队","lon":"121.366982","lat":"31.202182","category":"500","category_name":"未知分类","address":"上海哈密路1330号"},{"poiid":"B2094757D068A1FC459E","title":"天鹅轩","lon":"121.36951","lat":"31.1903","category":"75","category_name":"浙江菜","address":"长宁区虹桥路2395号(近虹井路)查看地图"},{"poiid":"B2094750D66FA6FB4092","title":"医院","lon":"121.364761","lat":"31.195802","category":"162","category_name":"医院","address":"哈密路青溪路"},{"poiid":"B2094654D569AAFD4293","title":"张泾小区","lon":"121.37108","lat":"31.194754","category":"47","category_name":"住宅区","address":"上海剑河路2001弄"},{"poiid":"B2094757D06AA0FB4099","title":"人民公社农家菜","lon":"121.37031","lat":"31.19103","category":"87","category_name":"特色／地方风味餐厅","address":"长宁区哈密路2028号(近虹桥路)"},{"poiid":"B2094757D66BA0FD4598","title":"鼎邦俪池私人会所","lon":"121.375898054","lat":"31.197669793","category":"268","category_name":"自助","address":"长宁区青溪路288弄(近龙溪路)查看地图"},{"poiid":"B2094757D16EA3F5469B","title":"名颂人家","lon":"121.36799","lat":"31.19575","category":"76","category_name":"上海菜","address":"长宁区哈密路1799号(近青溪路)"},{"poiid":"B2094757D16FA1F9409A","title":"锦江之星(哈密路店)","lon":"121.36583","lat":"31.19993","category":"500","category_name":"未知分类","address":"上海长宁区哈密路1358号(近金滨路)  "},{"poiid":"B2094655D26AA4FD459A","title":"海立阁哈密路店","lon":"121.36662","lat":"31.19685","category":"247","category_name":"餐饮美食","address":"长宁区哈密路2010号(近虹桥路)"},{"poiid":"B2094751DA65A4FD4399","title":"酒藏","lon":"121.371378","lat":"31.192276","category":"247","category_name":"餐饮美食","address":"长宁区剑河路(近延安西路)"},{"poiid":"B2094752D36DABFF4599","title":"Geneva","lon":"121.364115","lat":"31.196543","category":"247","category_name":"餐饮美食","address":"哈密路1876弄6号"},{"poiid":"B2094654D569AAFB4193","title":"北顾小区","lon":"121.37067","lat":"31.19923","category":"47","category_name":"住宅区","address":"上海剑河路998弄"},{"poiid":"B2094757D568A5F5479C","title":"御笼坊(哈密路店)","lon":"121.3692931","lat":"31.19420806","category":"68","category_name":"快餐厅","address":"长宁区哈密路1896弄(近青溪路)"},{"poiid":"B2094654DB6BA0FD499C","title":"竹园餐厅(舟山海鲜坊)","lon":"121.36894","lat":"31.19466","category":"257","category_name":"中餐厅","address":"长宁区哈密路1896号"},{"poiid":"B2094757D16DA6F54293","title":"虹桥中园","lon":"121.36947258","lat":"31.194007722","category":"500","category_name":"未知分类","address":"上海市长宁区哈密路1999弄"},{"poiid":"B2094654DB6BA1F4419C","title":"虹桥龙柏公寓","lon":"121.36544851952","lat":"31.193572126218","category":"47","category_name":"住宅区","address":"绿苑路21弄识别"},{"poiid":"B2094757DA64A5F4489E","title":"虹桥机场T2航站楼71登记口","lon":"121.3745983338356","lat":"31.19463270098341","category":"500","category_name":"未知分类","address":"虹桥机场"},{"poiid":"B2094655D36CA0FA4092","title":"剑河路青溪路","lon":"121.36955","lat":"31.19904","category":"38","category_name":"公交车站","address":""},{"poiid":"B2094655D26DA4FD4692","title":"王满小区(北门)","lon":"121.3702","lat":"31.19597","category":"47","category_name":"住宅区","address":"哈密路1800弄1-23号"},{"poiid":"B2094654D569AAFE429B","title":"长青公寓","lon":"121.36961","lat":"31.195154","category":"47","category_name":"住宅区","address":"长青公寓位于长宁哈密路1896号16号楼"},{"poiid":"B2094655D26CA4FC4792","title":"王满小区","lon":"121.37051","lat":"31.195459","category":"47","category_name":"住宅区","address":"哈密路1800弄1-23号"},{"poiid":"B2094757D465A4FA4392","title":"万豪虹桥大酒店 宴会厅","lon":"121.375667054","lat":"31.191734793","category":"76","category_name":"上海菜","address":"长宁区虹桥路2270号万豪虹桥大酒店(近剑河路)"},{"poiid":"B2094757D069A1F84898","title":"车管所一分所","lon":"121.36568521","lat":"31.202140621","category":"500","category_name":"未知分类","address":"上海哈密路"},{"poiid":"B2094654D569AAFE439C","title":"新律花园","lon":"121.3684","lat":"31.196394","category":"47","category_name":"住宅区","address":"哈密路1680号"},{"poiid":"B2094655D269A4F5439A","title":"宝隆居家酒店哈密路店","lon":"121.36978","lat":"31.19221","category":"247","category_name":"餐饮美食","address":"上海市长宁区哈密路2010号（近虹桥路）"},{"poiid":"B2094654D569AAFC449A","title":"琥珀别墅","lon":"121.371","lat":"31.1952","category":"47","category_name":"住宅区","address":"虹桥路2384弄"},{"poiid":"B2094655D26FA7FC4398","title":"鼎邦俪池(北门)","lon":"121.37258","lat":"31.19724","category":"47","category_name":"住宅区","address":"青溪路288号"},{"poiid":"B2094757D16BA5FE4592","title":"申德医院","lon":"121.37451","lat":"31.19124","category":"162","category_name":"医院","address":"长宁区虹桥路2281号(近剑河路)"},{"poiid":"B2094757D569A7FB469C","title":"绿谷餐厅","lon":"121.3695794","lat":"31.19295667","category":"247","category_name":"餐饮美食","address":"长宁区哈密路1500号(近虹桥路)"},{"poiid":"B2094654D569AAFB429A","title":"北顾小区(西门)","lon":"121.36986","lat":"31.19907","category":"47","category_name":"住宅区","address":"剑河路998弄"},{"poiid":"B2094655D26CA4FE499C","title":"松坊商场","lon":"121.36979","lat":"31.20003","category":"119","category_name":"商场","address":""},{"poiid":"B2094757D164A7FF419C","title":"慕光日本料理","lon":"121.372366386","lat":"31.1971500842","category":"500","category_name":"未知分类","address":"上海虹梅路Soho3911"},{"poiid":"B2094655D36CA0FA409D","title":"剑河路平溪路","lon":"121.37246","lat":"31.19443","category":"38","category_name":"公交车站","address":""},{"poiid":"B2094654D569AAF54092","title":"夏都花园","lon":"121.37456","lat":"31.195242","category":"47","category_name":"住宅区","address":"夏都花园位于长宁剑河路2000号"},{"poiid":"B2094654D569AAFE449B","title":"快客No.1252","lon":"121.36711","lat":"31.19632","category":"117","category_name":"便民商店/便利店","address":"哈密路1713-7识别"},{"poiid":"B2094654D569AAFD4398","title":"绿谷别墅(东门)","lon":"121.36998","lat":"31.1972","category":"656","category_name":"大门","address":"剑河路999"},{"poiid":"B2094654D569AAFE439D","title":"春花苑(东门)","lon":"121.36726","lat":"31.19614","category":"47","category_name":"住宅区","address":"哈密路1719"},{"poiid":"B2094757D068A6FD4692","title":"檀宫","lon":"121.373368383","lat":"31.2023260816","category":"47","category_name":"住宅区","address":"檀宫位于长宁清溪路555号"},{"poiid":"B2094655D26AA2F9459E","title":"飞蛋超市哈密路店","lon":"121.36929","lat":"31.1942","category":"247","category_name":"餐饮美食","address":"长宁区哈密路1896号(近青溪路)"},{"poiid":"B2094654D569AAFC479F","title":"锦程小区","lon":"121.37035","lat":"31.193632","category":"47","category_name":"住宅区","address":"哈密路2004弄1-12号"},{"poiid":"B2094750D464A5F94499","title":"鼎邦俪池私人俱乐部","lon":"121.372802","lat":"31.197538","category":"500","category_name":"未知分类","address":null},{"poiid":"B2094757D064A3F9499E","title":"剑河路2001弄小区","lon":"121.371079","lat":"31.194754","category":"252","category_name":"楼宇机构","address":"上海剑河路2001弄"}]