[{"poiid":"B2094757D06FA2FA489D","title":"上海应用技术学院(奉贤校区)","lon":"121.5169754","lat":"30.845203399","category":"52","category_name":"高等院校","address":"近郊奉贤区奉炮公路1225号(奉炮公路海阔路)"},{"poiid":"B2094757D068A7F44493","title":"上海师范大学(奉贤校区)学生宿舍区","lon":"121.511986339","lat":"30.8360213012","category":"253","category_name":"校园生活","address":"上海市奉贤区海思路500号"},{"poiid":"B2094757D06FAAF5479E","title":"上海应用技术学院图书馆","lon":"121.51285502","lat":"30.843731089","category":"253","category_name":"校园生活","address":"奉贤区奉炮公路1255号上海应用技术学院内"},{"poiid":"B2094757D06FA0FF459E","title":"上海应用技术学院第二教学楼","lon":"121.50916697","lat":"30.84306324","category":"253","category_name":"校园生活","address":"上海市奉贤区奉炮公路1255号"},{"poiid":"B2094757D068A4FD4099","title":"上海师范大学剧院(奉贤校区)","lon":"121.517351","lat":"30.838204","category":"179","category_name":"音乐厅","address":"上海奉贤区海思路100号上海师范大学内"},{"poiid":"B2094757D06FA6FE4892","title":"上海师范大学三教(奉贤校区)","lon":"121.51912117","lat":"30.839838485","category":"253","category_name":"校园生活","address":"上海市奉贤区海思路100号"},{"poiid":"B2094757D069A1FE459B","title":"上海旅游高等专科学校(奉贤校区)","lon":"121.513297187","lat":"30.837675898","category":"671","category_name":"高校中心点","address":"上海市奉贤区海思路500号"},{"poiid":"B2094757D068AAFB449E","title":"上海师范大学 男人村","lon":"121.51053689","lat":"30.8424930698","category":"500","category_name":"未知分类","address":"上海市奉贤区海思路100号西北角"},{"poiid":"B2094757D16EAAFC499D","title":"上海师范大学奉贤校区月亮湖畔","lon":"121.51510547","lat":"30.838152913","category":"500","category_name":"未知分类","address":"上海海思路100号"},{"poiid":"B2094757D568AAF4439A","title":"上海应用技术学院奉贤校区","lon":"121.4999","lat":"30.8598","category":"52","category_name":"高等院校","address":"奉拓公路3721号"},{"poiid":"B2094757D16AA4F8439A","title":"上海应用技术学院15号楼","lon":"121.51108388","lat":"30.847100618","category":"500","category_name":"未知分类","address":"上海奉贤区奉炮公路1255号"},{"poiid":"B2094750D768A0F4469F","title":"香豪小镇农家乐","lon":"121.514","lat":"30.8498","category":"87","category_name":"特色／地方风味餐厅","address":"近郊奉贤区海湾旅游区金海公路8号"},{"poiid":"B2094757D06AA2FB4192","title":"上师大剧院","lon":"121.51988811","lat":"30.839748446","category":"260","category_name":"其他","address":"上海奉炮公路"},{"poiid":"B2094757D068AAF44398","title":"S4沪金高速海湾路收费站","lon":"121.49505698","lat":"30.856445713","category":"267","category_name":"收费站","address":"上海奉贤区S4沪金高速出口"},{"poiid":"B2094757D06AA1FE439B","title":"上海应用技术学院奉贤校区11号楼","lon":"121.51121503","lat":"30.845317276","category":"500","category_name":"未知分类","address":"上海近郊奉贤区奉炮公路1225号"},{"poiid":"B2094757D06AA6FE479E","title":"上海应用技术学院8号楼","lon":"121.510715187","lat":"30.8456920854","category":"500","category_name":"未知分类","address":"上海市奉贤区奉炮公路1255号"},{"poiid":"B2094757D66DA7F94499","title":"海湾路","lon":"121.505868774","lat":"30.8372098431","category":"260","category_name":"其他","address":"上海市奉贤区海湾路"},{"poiid":"B2094757D16AA6FE4198","title":"上海应用技术学院奉贤校区23号楼","lon":"121.50525418","lat":"30.842318006","category":"500","category_name":"未知分类","address":"上海大学西路"},{"poiid":"B2094757D16FA2FE499A","title":"大学生活动中心","lon":"121.50502973","lat":"30.840630357","category":"500","category_name":"未知分类","address":"上海应用技术学院"},{"poiid":"B2094655D36CA6F84099","title":"奉海村","lon":"121.51379","lat":"30.84842","category":"38","category_name":"公交车站","address":""},{"poiid":"B2094655D36DA0FB449D","title":"应用技术学院","lon":"121.51636","lat":"30.84194","category":"38","category_name":"公交车站","address":""},{"poiid":"B2094757D068A0FA469E","title":"上海应用技术学院 九号楼","lon":"121.50982143","lat":"30.845769527","category":"500","category_name":"未知分类","address":"上海奉炮公路1255号"},{"poiid":"B2094757D06BA5FE429D","title":"上海应用技术学院 5号寝室楼","lon":"121.51261148","lat":"30.847558129","category":"500","category_name":"未知分类","address":"上海应用技术学院奉贤校区"},{"poiid":"B2094757D16EABFC4793","title":"奉贤校区6号楼","lon":"121.511143987","lat":"30.8469703153","category":"500","category_name":"未知分类","address":"上海应用技术学院"},{"poiid":"B2094757D16BA5FD4798","title":"上海市应用技术学院11号楼女生浴室","lon":"121.51117943","lat":"30.845935831","category":"500","category_name":"未知分类","address":"上海应用技术学院"},{"poiid":"B2094654DB69A6FD409B","title":"上海棕榈滩海景酒店","lon":"121.50759","lat":"30.84435","category":"214","category_name":"四星级宾馆","address":"奉贤区莘奉公路4999号"},{"poiid":"B2094655D36CA6F84092","title":"奉海","lon":"121.51505","lat":"30.84761","category":"38","category_name":"公交车站","address":""},{"poiid":"B2094757D569A2FF4298","title":"海尚墅林苑","lon":"121.514","lat":"30.8426","category":"47","category_name":"住宅区","address":"奉贤海泉路555号"},{"poiid":"B2094757D16EA1FE459E","title":"上海应用技术学院东体育场","lon":"121.51251718","lat":"30.846269098","category":"500","category_name":"未知分类","address":"奉贤区奉炮公路1255号上海应用技术学院奉贤校区"},{"poiid":"B2094757D16DA6FD469D","title":"第二食堂","lon":"121.49752389","lat":"30.857644484","category":"247","category_name":"餐饮美食","address":"上海应用技术学院"},{"poiid":"B2094757D165A7F44692","title":"妓院14#","lon":"121.50695638","lat":"30.842424409","category":"500","category_name":"未知分类","address":null},{"poiid":"B2094757D06AA6FE439B","title":"上海应用技术学院奉贤校区5号楼","lon":"121.506097154","lat":"30.844775864","category":"500","category_name":"未知分类","address":"上海奉炮公路1255号"},{"poiid":"B2094757D065A7F5419B","title":"上海应用技术学院第一学科楼","lon":"121.51524918","lat":"30.843878043","category":"500","category_name":"未知分类","address":"上海市奉炮公路1255号"},{"poiid":"B2094757D069A6F84993","title":"上海应用技术学院第一食堂","lon":"121.51400618","lat":"30.843283029","category":"253","category_name":"校园生活","address":"上海奉贤区奉炮公路1255号上海应用技术学院内"},{"poiid":"B2094757D16FA5F54098","title":"上海应用技术学院第三学科楼","lon":"121.509399487","lat":"30.8420138994","category":"253","category_name":"校园生活","address":"上海应用技术学院奉贤校区"},{"poiid":"B2094757D569A1F84698","title":"S4海湾路收费站","lon":"121.494906","lat":"30.856519","category":"267","category_name":"收费站","address":"中国上海市奉贤区A4"},{"poiid":"B2094757DA6EA7F5489B","title":"香豪小镇","lon":"121.516799999997","lat":"30.845361","category":"250","category_name":"公园户外","address":"近郊奉贤区海湾旅游区金海路8号(近奉柘公路)"},{"poiid":"B209475CD76CA2FB4593","title":"皇家应用技术学院","lon":"121.507629","lat":"30.843841","category":"500","category_name":"未知分类","address":"上海市 海泉路100号"},{"poiid":"B2094750D665A2FB449E","title":"重庆鸡公煲(师范大学奉贤店)","lon":"121.503","lat":"30.8405","category":"71","category_name":"四川菜","address":"近郊奉贤海湾路100号上海师范大学奉贤校区金桂苑2楼"},{"poiid":"B2094757D068A6F8479C","title":"上海师范大学 玉兰苑（奉贤校区）","lon":"121.515324621","lat":"30.8436968791","category":"260","category_name":"其他","address":"上海市奉贤区海湾镇海思路100号"},{"poiid":"B2094654DB69A7F9499E","title":"LACALA阳光海岸","lon":"121.50141","lat":"30.84207","category":"47","category_name":"住宅区","address":"奉贤区莘奉公路4588弄"},{"poiid":"B2094757D66AA5F94092","title":"哈尔滨风味馆","lon":"121.518165054","lat":"30.842664793","category":"82","category_name":"东北菜","address":"近郊奉贤区奉炮路521号(近上师大东门)"},{"poiid":"B2094757D665A4FA489C","title":"大鱼寿司","lon":"121.50801","lat":"30.83916","category":"95","category_name":"日本料理","address":"近郊奉贤区海思路999号华东理工大学北门小吃广场"},{"poiid":"B2094757D665A4FA499E","title":"海思路章鱼小丸子","lon":"121.50664","lat":"30.83798","category":"68","category_name":"快餐厅","address":"近郊奉贤区海思路999号华东理工大学北侧门(海泉路海湾路)"},{"poiid":"B2094757D16CA6F9469A","title":"第三学科楼E308","lon":"121.50939948","lat":"30.842013899","category":"253","category_name":"校园生活","address":null},{"poiid":"B2094757D16CABF94899","title":"巴迪乐","lon":"121.510828954","lat":"30.8373395235","category":"68","category_name":"快餐厅","address":"近郊奉贤区海思路100号上海师范大学紫藤苑2楼"},{"poiid":"B2094757D064A3F5489F","title":"上海应用技术学院 黑暗料理街","lon":"121.51732838","lat":"30.846046821","category":"500","category_name":"未知分类","address":"上海应用技术学院奉贤校区 奉炮公路"},{"poiid":"B2094757D16DA4FB419C","title":"上海应用技术学院13号寝室楼1524室","lon":"121.515537","lat":"30.843773","category":"500","category_name":"未知分类","address":"上海奉炮公路1225号"},{"poiid":"B2094750DB6AA3FA4798","title":"伊卡斯特大学","lon":"121.504547","lat":"30.833803","category":"253","category_name":"校园生活","address":null},{"poiid":"B2094757D16DAAFA419E","title":"心情摩天轮","lon":"121.49657278","lat":"30.843334419","category":"500","category_name":"未知分类","address":null},{"poiid":"B2094757D06FA2FA489D","title":"上海应用技术学院(奉贤校区)","lon":"121.5169754","lat":"30.845203399","category":"52","category_name":"高等院校","address":"近郊奉贤区奉炮公路1225号(奉炮公路海阔路)"},{"poiid":"B2094757D068A7F44493","title":"上海师范大学(奉贤校区)学生宿舍区","lon":"121.511986339","lat":"30.8360213012","category":"253","category_name":"校园生活","address":"上海市奉贤区海思路500号"},{"poiid":"B2094757D06FAAF5479E","title":"上海应用技术学院图书馆","lon":"121.51285502","lat":"30.843731089","category":"253","category_name":"校园生活","address":"奉贤区奉炮公路1255号上海应用技术学院内"},{"poiid":"B2094757D06FA0FF459E","title":"上海应用技术学院第二教学楼","lon":"121.50916697","lat":"30.84306324","category":"253","category_name":"校园生活","address":"上海市奉贤区奉炮公路1255号"},{"poiid":"B2094757D068A4FD4099","title":"上海师范大学剧院(奉贤校区)","lon":"121.517351","lat":"30.838204","category":"179","category_name":"音乐厅","address":"上海奉贤区海思路100号上海师范大学内"},{"poiid":"B2094757D06FA6FE4892","title":"上海师范大学三教(奉贤校区)","lon":"121.51912117","lat":"30.839838485","category":"253","category_name":"校园生活","address":"上海市奉贤区海思路100号"},{"poiid":"B2094757D069A1FE459B","title":"上海旅游高等专科学校(奉贤校区)","lon":"121.513297187","lat":"30.837675898","category":"671","category_name":"高校中心点","address":"上海市奉贤区海思路500号"},{"poiid":"B2094757D068AAFB449E","title":"上海师范大学 男人村","lon":"121.51053689","lat":"30.8424930698","category":"500","category_name":"未知分类","address":"上海市奉贤区海思路100号西北角"},{"poiid":"B2094757D16EAAFC499D","title":"上海师范大学奉贤校区月亮湖畔","lon":"121.51510547","lat":"30.838152913","category":"500","category_name":"未知分类","address":"上海海思路100号"},{"poiid":"B2094757D568AAF4439A","title":"上海应用技术学院奉贤校区","lon":"121.4999","lat":"30.8598","category":"52","category_name":"高等院校","address":"奉拓公路3721号"},{"poiid":"B2094757D16AA4F8439A","title":"上海应用技术学院15号楼","lon":"121.51108388","lat":"30.847100618","category":"500","category_name":"未知分类","address":"上海奉贤区奉炮公路1255号"},{"poiid":"B2094750D768A0F4469F","title":"香豪小镇农家乐","lon":"121.514","lat":"30.8498","category":"87","category_name":"特色／地方风味餐厅","address":"近郊奉贤区海湾旅游区金海公路8号"},{"poiid":"B2094757D06AA2FB4192","title":"上师大剧院","lon":"121.51988811","lat":"30.839748446","category":"260","category_name":"其他","address":"上海奉炮公路"},{"poiid":"B2094757D068AAF44398","title":"S4沪金高速海湾路收费站","lon":"121.49505698","lat":"30.856445713","category":"267","category_name":"收费站","address":"上海奉贤区S4沪金高速出口"},{"poiid":"B2094757D06AA1FE439B","title":"上海应用技术学院奉贤校区11号楼","lon":"121.51121503","lat":"30.845317276","category":"500","category_name":"未知分类","address":"上海近郊奉贤区奉炮公路1225号"},{"poiid":"B2094757D06AA6FE479E","title":"上海应用技术学院8号楼","lon":"121.510715187","lat":"30.8456920854","category":"500","category_name":"未知分类","address":"上海市奉贤区奉炮公路1255号"},{"poiid":"B2094757D66DA7F94499","title":"海湾路","lon":"121.505868774","lat":"30.8372098431","category":"260","category_name":"其他","address":"上海市奉贤区海湾路"},{"poiid":"B2094757D16AA6FE4198","title":"上海应用技术学院奉贤校区23号楼","lon":"121.50525418","lat":"30.842318006","category":"500","category_name":"未知分类","address":"上海大学西路"},{"poiid":"B2094757D16FA2FE499A","title":"大学生活动中心","lon":"121.50502973","lat":"30.840630357","category":"500","category_name":"未知分类","address":"上海应用技术学院"},{"poiid":"B2094655D36CA6F84099","title":"奉海村","lon":"121.51379","lat":"30.84842","category":"38","category_name":"公交车站","address":""},{"poiid":"B2094655D36DA0FB449D","title":"应用技术学院","lon":"121.51636","lat":"30.84194","category":"38","category_name":"公交车站","address":""},{"poiid":"B2094757D068A0FA469E","title":"上海应用技术学院 九号楼","lon":"121.50982143","lat":"30.845769527","category":"500","category_name":"未知分类","address":"上海奉炮公路1255号"},{"poiid":"B2094757D06BA5FE429D","title":"上海应用技术学院 5号寝室楼","lon":"121.51261148","lat":"30.847558129","category":"500","category_name":"未知分类","address":"上海应用技术学院奉贤校区"},{"poiid":"B2094757D16EABFC4793","title":"奉贤校区6号楼","lon":"121.511143987","lat":"30.8469703153","category":"500","category_name":"未知分类","address":"上海应用技术学院"},{"poiid":"B2094757D16BA5FD4798","title":"上海市应用技术学院11号楼女生浴室","lon":"121.51117943","lat":"30.845935831","category":"500","category_name":"未知分类","address":"上海应用技术学院"},{"poiid":"B2094654DB69A6FD409B","title":"上海棕榈滩海景酒店","lon":"121.50759","lat":"30.84435","category":"214","category_name":"四星级宾馆","address":"奉贤区莘奉公路4999号"},{"poiid":"B2094655D36CA6F84092","title":"奉海","lon":"121.51505","lat":"30.84761","category":"38","category_name":"公交车站","address":""},{"poiid":"B2094757D569A2FF4298","title":"海尚墅林苑","lon":"121.514","lat":"30.8426","category":"47","category_name":"住宅区","address":"奉贤海泉路555号"},{"poiid":"B2094757D16EA1FE459E","title":"上海应用技术学院东体育场","lon":"121.51251718","lat":"30.846269098","category":"500","category_name":"未知分类","address":"奉贤区奉炮公路1255号上海应用技术学院奉贤校区"},{"poiid":"B2094757D16DA6FD469D","title":"第二食堂","lon":"121.49752389","lat":"30.857644484","category":"247","category_name":"餐饮美食","address":"上海应用技术学院"},{"poiid":"B2094757D165A7F44692","title":"妓院14#","lon":"121.50695638","lat":"30.842424409","category":"500","category_name":"未知分类","address":null},{"poiid":"B2094757D06AA6FE439B","title":"上海应用技术学院奉贤校区5号楼","lon":"121.506097154","lat":"30.844775864","category":"500","category_name":"未知分类","address":"上海奉炮公路1255号"},{"poiid":"B2094757D065A7F5419B","title":"上海应用技术学院第一学科楼","lon":"121.51524918","lat":"30.843878043","category":"500","category_name":"未知分类","address":"上海市奉炮公路1255号"},{"poiid":"B2094757D069A6F84993","title":"上海应用技术学院第一食堂","lon":"121.51400618","lat":"30.843283029","category":"253","category_name":"校园生活","address":"上海奉贤区奉炮公路1255号上海应用技术学院内"},{"poiid":"B2094757D16FA5F54098","title":"上海应用技术学院第三学科楼","lon":"121.509399487","lat":"30.8420138994","category":"253","category_name":"校园生活","address":"上海应用技术学院奉贤校区"},{"poiid":"B2094757D569A1F84698","title":"S4海湾路收费站","lon":"121.494906","lat":"30.856519","category":"267","category_name":"收费站","address":"中国上海市奉贤区A4"},{"poiid":"B2094757DA6EA7F5489B","title":"香豪小镇","lon":"121.516799999997","lat":"30.845361","category":"250","category_name":"公园户外","address":"近郊奉贤区海湾旅游区金海路8号(近奉柘公路)"},{"poiid":"B209475CD76CA2FB4593","title":"皇家应用技术学院","lon":"121.507629","lat":"30.843841","category":"500","category_name":"未知分类","address":"上海市 海泉路100号"},{"poiid":"B2094750D665A2FB449E","title":"重庆鸡公煲(师范大学奉贤店)","lon":"121.503","lat":"30.8405","category":"71","category_name":"四川菜","address":"近郊奉贤海湾路100号上海师范大学奉贤校区金桂苑2楼"},{"poiid":"B2094757D068A6F8479C","title":"上海师范大学 玉兰苑（奉贤校区）","lon":"121.515324621","lat":"30.8436968791","category":"260","category_name":"其他","address":"上海市奉贤区海湾镇海思路100号"},{"poiid":"B2094654DB69A7F9499E","title":"LACALA阳光海岸","lon":"121.50141","lat":"30.84207","category":"47","category_name":"住宅区","address":"奉贤区莘奉公路4588弄"},{"poiid":"B2094757D66AA5F94092","title":"哈尔滨风味馆","lon":"121.518165054","lat":"30.842664793","category":"82","category_name":"东北菜","address":"近郊奉贤区奉炮路521号(近上师大东门)"},{"poiid":"B2094757D665A4FA489C","title":"大鱼寿司","lon":"121.50801","lat":"30.83916","category":"95","category_name":"日本料理","address":"近郊奉贤区海思路999号华东理工大学北门小吃广场"},{"poiid":"B2094757D665A4FA499E","title":"海思路章鱼小丸子","lon":"121.50664","lat":"30.83798","category":"68","category_name":"快餐厅","address":"近郊奉贤区海思路999号华东理工大学北侧门(海泉路海湾路)"},{"poiid":"B2094757D16CA6F9469A","title":"第三学科楼E308","lon":"121.50939948","lat":"30.842013899","category":"253","category_name":"校园生活","address":null},{"poiid":"B2094757D16CABF94899","title":"巴迪乐","lon":"121.510828954","lat":"30.8373395235","category":"68","category_name":"快餐厅","address":"近郊奉贤区海思路100号上海师范大学紫藤苑2楼"},{"poiid":"B2094757D064A3F5489F","title":"上海应用技术学院 黑暗料理街","lon":"121.51732838","lat":"30.846046821","category":"500","category_name":"未知分类","address":"上海应用技术学院奉贤校区 奉炮公路"},{"poiid":"B2094757D16DA4FB419C","title":"上海应用技术学院13号寝室楼1524室","lon":"121.515537","lat":"30.843773","category":"500","category_name":"未知分类","address":"上海奉炮公路1225号"},{"poiid":"B2094750DB6AA3FA4798","title":"伊卡斯特大学","lon":"121.504547","lat":"30.833803","category":"253","category_name":"校园生活","address":null},{"poiid":"B2094757D16DAAFA419E","title":"心情摩天轮","lon":"121.49657278","lat":"30.843334419","category":"500","category_name":"未知分类","address":null}]