[{"poiid":"B2094655D26AABFD459A","title":"渝信川菜(招商局店)","lon":"121.46672","lat":"31.22781","category":"71","category_name":"四川菜","address":"静安区成都北路333号招商局广场3楼(近威海路)"},{"poiid":"B2094753D36EA1FC409D","title":"啡你啡思,faneeface,coffee","lon":"121.466694","lat":"31.225741","category":"113","category_name":"冷饮店","address":"大沽路396号"},{"poiid":"B2094757D06FA0FD4999","title":"上海大剧院-大剧场(Shanghai Grand Theatre - Lyric Theatre)","lon":"121.46956921","lat":"31.225844356","category":"260","category_name":"其他","address":"黄浦区人民大道300号大剧院内(近黄陂南路)"},{"poiid":"B2094753D76FAAFA449C","title":"上海滩国泰旗舰店","lon":"121.466011","lat":"31.216125","category":"249","category_name":"购物服务","address":"淮海中路868号"},{"poiid":"B209475CD564A7F84292","title":"上海滩新天地店","lon":"121.47463","lat":"31.22164","category":"119","category_name":"商场","address":"\"太仓路181弄新天地北里15号\r\n\""},{"poiid":"B209475CD564A7F8439E","title":"上海滩中信泰富店","lon":"121.45602","lat":"31.22851","category":"119","category_name":"商场","address":"\"南京西路1168号中信泰富广场，店铺号221.\r\n\""},{"poiid":"B2094654DA6CA2F5419D","title":"上海招商局广场","lon":"121.46674","lat":"31.22779","category":"46","category_name":"楼宇","address":"丰台学城海鹰路1号，3号"},{"poiid":"B2094757D06FABFF459F","title":"Masala art香料艺术 印度餐厅","lon":"121.46685028","lat":"31.225439071","category":"260","category_name":"其他","address":"静安区大沽路401号(近成都北路)"},{"poiid":"B2094757D06EAAFE489B","title":"延安路高架","lon":"121.4677124","lat":"31.227724075","category":"260","category_name":"其他","address":"上海延安高架路"},{"poiid":"B2094757D064A0F54893","title":"大沽路","lon":"121.467274","lat":"31.225619","category":"500","category_name":"未知分类","address":"上海静安区大沽路"},{"poiid":"B2094757D068A0FD4798","title":"威海路成都北路","lon":"121.467233","lat":"31.226509","category":"500","category_name":"未知分类","address":"上海威海路成都北路"},{"poiid":"B2094757D06FA5FA439F","title":"泰厨(成都北路店)","lon":"121.46785","lat":"31.22847","category":"99","category_name":"泰国／越南菜品餐厅","address":"静安区成都北路288号(近威海路)"},{"poiid":"B2094757D068A3FA459B","title":"Nova","lon":"121.46588897","lat":"31.225524902","category":"172","category_name":"酒吧","address":"静安区大沽路418号(近石门一路)"},{"poiid":"B2094757D06FAAF4419C","title":"舒友海鲜大酒楼(静安店)","lon":"121.46697","lat":"31.2276","category":"260","category_name":"其他","address":"静安区成都北路333号招商局广场4楼(近威海路)"},{"poiid":"B2094757D56CA1FE429D","title":"星巴克 力宝广场店 Starbucks Cafe","lon":"121.47456367878","lat":"31.223538465013","category":"247","category_name":"餐饮美食","address":"淮海中路222号力宝广场1楼近嵩山路"},{"poiid":"B2094757D06FAAF5489B","title":"东泰祥生煎馒头馆 重庆北路店","lon":"121.47016","lat":"31.226474","category":"68","category_name":"快餐厅","address":"黄浦区重庆北路188号(近大沽路)"},{"poiid":"B2094757D06AA6FA469D","title":"爸爸马里奥比萨","lon":"121.46684","lat":"31.22544","category":"94","category_name":"西餐厅","address":"静安区大沽路370号-1(近成都北路)"},{"poiid":"B2094655D268ABFF409F","title":"延安东路立交桥","lon":"121.469","lat":"31.22467","category":"250","category_name":"公园户外","address":""},{"poiid":"B2094752D069A4FB489A","title":"鸿星荟","lon":"121.468619","lat":"31.225721","category":"247","category_name":"餐饮美食","address":"淮海中路300号K11购物艺术中心"},{"poiid":"B2094752D16CAAF94893","title":"ABC Cooking Studio（K11店）","lon":"121.469221","lat":"31.225111","category":"247","category_name":"餐饮美食","address":null},{"poiid":"B2094757D06FA5F44293","title":"招商局广场南楼","lon":"121.46630318","lat":"31.227698843","category":"46","category_name":"楼宇","address":"上海威海路258号"},{"poiid":"B2094752D66CAAFB4393","title":"K11","lon":"121.467514","lat":"31.227783","category":"500","category_name":"未知分类","address":"淮海中路300号"},{"poiid":"B2094757D069A5F4449F","title":"中凯城市之光","lon":"121.46649849","lat":"31.2264034314","category":"500","category_name":"未知分类","address":"大沽路368弄大沽路398弄威海路333弄"},{"poiid":"B2094750D664A3FA469C","title":"Twins日本料理","lon":"121.467","lat":"31.2255","category":"95","category_name":"日本料理","address":"大沽路393号近大沽路成都北路东北角"},{"poiid":"B2094757DB6FA4FA439A","title":"揽香","lon":"121.469027","lat":"31.224747","category":"247","category_name":"餐饮美食","address":"卢湾区中环广场"},{"poiid":"B2094655D26DABFD429F","title":"丽池(上海CEO)会所","lon":"121.4666","lat":"31.22806","category":"149","category_name":"洗浴推拿场所","address":"成都北路333上海招商局广场东楼"},{"poiid":"B2094757D064A1FD4193","title":"哈亚地中海餐厅(大沽路店)","lon":"121.46621","lat":"31.22525","category":"94","category_name":"西餐厅","address":"静安区大沽路415号(近成都北路)"},{"poiid":"B2094757D16FA1F5449E","title":"A-ONE造型","lon":"121.469784","lat":"31.227877","category":"148","category_name":"美容美发店","address":"黄浦区威海路82号"},{"poiid":"B2094752D06EA5F44092","title":"Pizza Marzano（披萨马上诺）","lon":"121.46927","lat":"31.225073","category":"247","category_name":"餐饮美食","address":null},{"poiid":"B2094750D26EAAF4409F","title":"Y-in Lounge","lon":"121.465675","lat":"31.225568","category":"260","category_name":"其他","address":"静安区大沽路392号(近中凯城市之光)"},{"poiid":"B2094757D16DA1FB409B","title":"新天地好乐迪","lon":"121.467468738","lat":"31.2277242467","category":"500","category_name":"未知分类","address":"上海市卢湾区"},{"poiid":"B2094757D064A5FF429E","title":"荣府","lon":"121.46617","lat":"31.22708","category":"72","category_name":"广东菜","address":"静安区威海路289弄12号(近上海电视台)"},{"poiid":"B2094757D068A4FD489C","title":"招商局广场东楼","lon":"121.46661694","lat":"31.228478073","category":"46","category_name":"楼宇","address":"上海静安区成都北路333号"},{"poiid":"B2094757D064A5FD439A","title":"Little Huia","lon":"121.466433738","lat":"31.2255882012","category":"500","category_name":"未知分类","address":"上海市静安区大沽路403号"},{"poiid":"B2094757D16CA3F84398","title":"上海锦江饭店锦北楼","lon":"121.46745773","lat":"31.227646245","category":"500","category_name":"未知分类","address":"上海卢湾区茂名南路59号"},{"poiid":"B2094757D068A4F9419D","title":"长发大厦","lon":"121.46834971","lat":"31.228058438","category":"46","category_name":"楼宇","address":"卫清西路139_149号等"},{"poiid":"B2094654DB65A4FA409C","title":"延安中路大型公共绿地","lon":"121.46636","lat":"31.22469","category":"196","category_name":"公园","address":""},{"poiid":"B2094757D76AA0F54593","title":"贝庭奶酪 成都北路店 palace desserts","lon":"121.46729452911","lat":"31.228190985701","category":"67","category_name":"甜品店","address":"静安区成都北路151号(近威海路)"},{"poiid":"B2094654DA68A2FC4792","title":"24K国际连锁酒店","lon":"121.46858","lat":"31.22738","category":"216","category_name":"经济型连锁酒店","address":"上海市威海路155弄20号（近成都北路口）"},{"poiid":"B2094757D169A7FA429B","title":"重庆北路大沽路","lon":"121.47001933","lat":"31.227480141","category":"500","category_name":"未知分类","address":"上海重庆北路大沽路口"},{"poiid":"B2094752D16DAAFE4898","title":"合点寿司","lon":"121.469321","lat":"31.225022","category":"247","category_name":"餐饮美食","address":"淮海中路300号K11购物艺术中心302号铺(近黄陂南路)"},{"poiid":"B2094654DA6CA1FC4093","title":"上海第九人民医院上海交通大学医学院","lon":"121.46572","lat":"31.22563","category":"52","category_name":"高等院校","address":"静安区大沽路388-390"},{"poiid":"B2094757D06FA7F5409D","title":"肯德基 KFC (迪美店)","lon":"121.46754071","lat":"31.228699136","category":"68","category_name":"快餐厅","address":"黄浦区人民大道221号迪美购物中心B1楼(近武胜路)"},{"poiid":"B2094752D06FA3FC4999","title":"淮海中路300号K11购物艺术中心301-307号铺(近黄陂南路地铁站)","lon":"121.470142","lat":"31.226922","category":"247","category_name":"餐饮美食","address":"淮海中路300号K11购物艺术中心301-307号铺(近黄陂南路地铁站)"},{"poiid":"B2094757D16FA7FC4492","title":"科瓦齿科(恒利店)","lon":"121.466587","lat":"31.227404","category":"162","category_name":"医院","address":"静安区成都北路199号恒利国际大厦11楼(威海路口)"},{"poiid":"B2094757D16EA7FB479D","title":"品味新西兰","lon":"121.46634073","lat":"31.225462998","category":"94","category_name":"西餐厅","address":"静安区大沽路403号(近成都北路)"},{"poiid":"B2094757D064A0FF499E","title":"上島咖啡","lon":"121.46844482","lat":"31.228721618","category":"65","category_name":"咖啡厅","address":"静安区南京西路696号(上海电视台对面)"},{"poiid":"B2094757D068A0FF4993","title":"储能中学(北校)","lon":"121.46921","lat":"31.22784","category":"55","category_name":"中学","address":"黄浦区重庆北路270号(威海路重庆北路)"},{"poiid":"B2094654DA68A2FC4898","title":"上海市储能中学(重庆北路)","lon":"121.46801","lat":"31.22679","category":"55","category_name":"中学","address":"成都北路200"},{"poiid":"B2094757D66AAAF9409A","title":"满腹满足","lon":"121.4672441875","lat":"31.225639359331","category":"95","category_name":"日本料理","address":"静安区大沽路395号(近成都北路)"},{"poiid":"B2094655D26AABFD459A","title":"渝信川菜(招商局店)","lon":"121.46672","lat":"31.22781","category":"71","category_name":"四川菜","address":"静安区成都北路333号招商局广场3楼(近威海路)"},{"poiid":"B2094753D36EA1FC409D","title":"啡你啡思,faneeface,coffee","lon":"121.466694","lat":"31.225741","category":"113","category_name":"冷饮店","address":"大沽路396号"},{"poiid":"B2094757D06FA0FD4999","title":"上海大剧院-大剧场(Shanghai Grand Theatre - Lyric Theatre)","lon":"121.46956921","lat":"31.225844356","category":"260","category_name":"其他","address":"黄浦区人民大道300号大剧院内(近黄陂南路)"},{"poiid":"B2094753D76FAAFA449C","title":"上海滩国泰旗舰店","lon":"121.466011","lat":"31.216125","category":"249","category_name":"购物服务","address":"淮海中路868号"},{"poiid":"B209475CD564A7F84292","title":"上海滩新天地店","lon":"121.47463","lat":"31.22164","category":"119","category_name":"商场","address":"\"太仓路181弄新天地北里15号\r\n\""},{"poiid":"B209475CD564A7F8439E","title":"上海滩中信泰富店","lon":"121.45602","lat":"31.22851","category":"119","category_name":"商场","address":"\"南京西路1168号中信泰富广场，店铺号221.\r\n\""},{"poiid":"B2094654DA6CA2F5419D","title":"上海招商局广场","lon":"121.46674","lat":"31.22779","category":"46","category_name":"楼宇","address":"丰台学城海鹰路1号，3号"},{"poiid":"B2094757D06FABFF459F","title":"Masala art香料艺术 印度餐厅","lon":"121.46685028","lat":"31.225439071","category":"260","category_name":"其他","address":"静安区大沽路401号(近成都北路)"},{"poiid":"B2094757D06EAAFE489B","title":"延安路高架","lon":"121.4677124","lat":"31.227724075","category":"260","category_name":"其他","address":"上海延安高架路"},{"poiid":"B2094757D064A0F54893","title":"大沽路","lon":"121.467274","lat":"31.225619","category":"500","category_name":"未知分类","address":"上海静安区大沽路"},{"poiid":"B2094757D068A0FD4798","title":"威海路成都北路","lon":"121.467233","lat":"31.226509","category":"500","category_name":"未知分类","address":"上海威海路成都北路"},{"poiid":"B2094757D06FA5FA439F","title":"泰厨(成都北路店)","lon":"121.46785","lat":"31.22847","category":"99","category_name":"泰国／越南菜品餐厅","address":"静安区成都北路288号(近威海路)"},{"poiid":"B2094757D068A3FA459B","title":"Nova","lon":"121.46588897","lat":"31.225524902","category":"172","category_name":"酒吧","address":"静安区大沽路418号(近石门一路)"},{"poiid":"B2094757D06FAAF4419C","title":"舒友海鲜大酒楼(静安店)","lon":"121.46697","lat":"31.2276","category":"260","category_name":"其他","address":"静安区成都北路333号招商局广场4楼(近威海路)"},{"poiid":"B2094757D56CA1FE429D","title":"星巴克 力宝广场店 Starbucks Cafe","lon":"121.47456367878","lat":"31.223538465013","category":"247","category_name":"餐饮美食","address":"淮海中路222号力宝广场1楼近嵩山路"},{"poiid":"B2094757D06FAAF5489B","title":"东泰祥生煎馒头馆 重庆北路店","lon":"121.47016","lat":"31.226474","category":"68","category_name":"快餐厅","address":"黄浦区重庆北路188号(近大沽路)"},{"poiid":"B2094757D06AA6FA469D","title":"爸爸马里奥比萨","lon":"121.46684","lat":"31.22544","category":"94","category_name":"西餐厅","address":"静安区大沽路370号-1(近成都北路)"},{"poiid":"B2094655D268ABFF409F","title":"延安东路立交桥","lon":"121.469","lat":"31.22467","category":"250","category_name":"公园户外","address":""},{"poiid":"B2094752D069A4FB489A","title":"鸿星荟","lon":"121.468619","lat":"31.225721","category":"247","category_name":"餐饮美食","address":"淮海中路300号K11购物艺术中心"},{"poiid":"B2094752D16CAAF94893","title":"ABC Cooking Studio（K11店）","lon":"121.469221","lat":"31.225111","category":"247","category_name":"餐饮美食","address":null},{"poiid":"B2094757D06FA5F44293","title":"招商局广场南楼","lon":"121.46630318","lat":"31.227698843","category":"46","category_name":"楼宇","address":"上海威海路258号"},{"poiid":"B2094752D66CAAFB4393","title":"K11","lon":"121.467514","lat":"31.227783","category":"500","category_name":"未知分类","address":"淮海中路300号"},{"poiid":"B2094757D069A5F4449F","title":"中凯城市之光","lon":"121.46649849","lat":"31.2264034314","category":"500","category_name":"未知分类","address":"大沽路368弄大沽路398弄威海路333弄"},{"poiid":"B2094750D664A3FA469C","title":"Twins日本料理","lon":"121.467","lat":"31.2255","category":"95","category_name":"日本料理","address":"大沽路393号近大沽路成都北路东北角"},{"poiid":"B2094757DB6FA4FA439A","title":"揽香","lon":"121.469027","lat":"31.224747","category":"247","category_name":"餐饮美食","address":"卢湾区中环广场"},{"poiid":"B2094655D26DABFD429F","title":"丽池(上海CEO)会所","lon":"121.4666","lat":"31.22806","category":"149","category_name":"洗浴推拿场所","address":"成都北路333上海招商局广场东楼"},{"poiid":"B2094757D064A1FD4193","title":"哈亚地中海餐厅(大沽路店)","lon":"121.46621","lat":"31.22525","category":"94","category_name":"西餐厅","address":"静安区大沽路415号(近成都北路)"},{"poiid":"B2094757D16FA1F5449E","title":"A-ONE造型","lon":"121.469784","lat":"31.227877","category":"148","category_name":"美容美发店","address":"黄浦区威海路82号"},{"poiid":"B2094752D06EA5F44092","title":"Pizza Marzano（披萨马上诺）","lon":"121.46927","lat":"31.225073","category":"247","category_name":"餐饮美食","address":null},{"poiid":"B2094750D26EAAF4409F","title":"Y-in Lounge","lon":"121.465675","lat":"31.225568","category":"260","category_name":"其他","address":"静安区大沽路392号(近中凯城市之光)"},{"poiid":"B2094757D16DA1FB409B","title":"新天地好乐迪","lon":"121.467468738","lat":"31.2277242467","category":"500","category_name":"未知分类","address":"上海市卢湾区"},{"poiid":"B2094757D064A5FF429E","title":"荣府","lon":"121.46617","lat":"31.22708","category":"72","category_name":"广东菜","address":"静安区威海路289弄12号(近上海电视台)"},{"poiid":"B2094757D068A4FD489C","title":"招商局广场东楼","lon":"121.46661694","lat":"31.228478073","category":"46","category_name":"楼宇","address":"上海静安区成都北路333号"},{"poiid":"B2094757D064A5FD439A","title":"Little Huia","lon":"121.466433738","lat":"31.2255882012","category":"500","category_name":"未知分类","address":"上海市静安区大沽路403号"},{"poiid":"B2094757D16CA3F84398","title":"上海锦江饭店锦北楼","lon":"121.46745773","lat":"31.227646245","category":"500","category_name":"未知分类","address":"上海卢湾区茂名南路59号"},{"poiid":"B2094757D068A4F9419D","title":"长发大厦","lon":"121.46834971","lat":"31.228058438","category":"46","category_name":"楼宇","address":"卫清西路139_149号等"},{"poiid":"B2094654DB65A4FA409C","title":"延安中路大型公共绿地","lon":"121.46636","lat":"31.22469","category":"196","category_name":"公园","address":""},{"poiid":"B2094757D76AA0F54593","title":"贝庭奶酪 成都北路店 palace desserts","lon":"121.46729452911","lat":"31.228190985701","category":"67","category_name":"甜品店","address":"静安区成都北路151号(近威海路)"},{"poiid":"B2094654DA68A2FC4792","title":"24K国际连锁酒店","lon":"121.46858","lat":"31.22738","category":"216","category_name":"经济型连锁酒店","address":"上海市威海路155弄20号（近成都北路口）"},{"poiid":"B2094757D169A7FA429B","title":"重庆北路大沽路","lon":"121.47001933","lat":"31.227480141","category":"500","category_name":"未知分类","address":"上海重庆北路大沽路口"},{"poiid":"B2094752D16DAAFE4898","title":"合点寿司","lon":"121.469321","lat":"31.225022","category":"247","category_name":"餐饮美食","address":"淮海中路300号K11购物艺术中心302号铺(近黄陂南路)"},{"poiid":"B2094654DA6CA1FC4093","title":"上海第九人民医院上海交通大学医学院","lon":"121.46572","lat":"31.22563","category":"52","category_name":"高等院校","address":"静安区大沽路388-390"},{"poiid":"B2094757D06FA7F5409D","title":"肯德基 KFC (迪美店)","lon":"121.46754071","lat":"31.228699136","category":"68","category_name":"快餐厅","address":"黄浦区人民大道221号迪美购物中心B1楼(近武胜路)"},{"poiid":"B2094752D06FA3FC4999","title":"淮海中路300号K11购物艺术中心301-307号铺(近黄陂南路地铁站)","lon":"121.470142","lat":"31.226922","category":"247","category_name":"餐饮美食","address":"淮海中路300号K11购物艺术中心301-307号铺(近黄陂南路地铁站)"},{"poiid":"B2094757D16FA7FC4492","title":"科瓦齿科(恒利店)","lon":"121.466587","lat":"31.227404","category":"162","category_name":"医院","address":"静安区成都北路199号恒利国际大厦11楼(威海路口)"},{"poiid":"B2094757D16EA7FB479D","title":"品味新西兰","lon":"121.46634073","lat":"31.225462998","category":"94","category_name":"西餐厅","address":"静安区大沽路403号(近成都北路)"},{"poiid":"B2094757D064A0FF499E","title":"上島咖啡","lon":"121.46844482","lat":"31.228721618","category":"65","category_name":"咖啡厅","address":"静安区南京西路696号(上海电视台对面)"},{"poiid":"B2094757D068A0FF4993","title":"储能中学(北校)","lon":"121.46921","lat":"31.22784","category":"55","category_name":"中学","address":"黄浦区重庆北路270号(威海路重庆北路)"},{"poiid":"B2094654DA68A2FC4898","title":"上海市储能中学(重庆北路)","lon":"121.46801","lat":"31.22679","category":"55","category_name":"中学","address":"成都北路200"},{"poiid":"B2094757D66AAAF9409A","title":"满腹满足","lon":"121.4672441875","lat":"31.225639359331","category":"95","category_name":"日本料理","address":"静安区大沽路395号(近成都北路)"},{"poiid":"B2094655D26AABFD459A","title":"渝信川菜(招商局店)","lon":"121.46672","lat":"31.22781","category":"71","category_name":"四川菜","address":"静安区成都北路333号招商局广场3楼(近威海路)"},{"poiid":"B2094753D36EA1FC409D","title":"啡你啡思,faneeface,coffee","lon":"121.466694","lat":"31.225741","category":"113","category_name":"冷饮店","address":"大沽路396号"},{"poiid":"B2094757D06FA0FD4999","title":"上海大剧院-大剧场(Shanghai Grand Theatre - Lyric Theatre)","lon":"121.46956921","lat":"31.225844356","category":"260","category_name":"其他","address":"黄浦区人民大道300号大剧院内(近黄陂南路)"},{"poiid":"B2094753D76FAAFA449C","title":"上海滩国泰旗舰店","lon":"121.466011","lat":"31.216125","category":"249","category_name":"购物服务","address":"淮海中路868号"},{"poiid":"B209475CD564A7F84292","title":"上海滩新天地店","lon":"121.47463","lat":"31.22164","category":"119","category_name":"商场","address":"\"太仓路181弄新天地北里15号\r\n\""},{"poiid":"B209475CD564A7F8439E","title":"上海滩中信泰富店","lon":"121.45602","lat":"31.22851","category":"119","category_name":"商场","address":"\"南京西路1168号中信泰富广场，店铺号221.\r\n\""},{"poiid":"B2094654DA6CA2F5419D","title":"上海招商局广场","lon":"121.46674","lat":"31.22779","category":"46","category_name":"楼宇","address":"丰台学城海鹰路1号，3号"},{"poiid":"B2094757D06FABFF459F","title":"Masala art香料艺术 印度餐厅","lon":"121.46685028","lat":"31.225439071","category":"260","category_name":"其他","address":"静安区大沽路401号(近成都北路)"},{"poiid":"B2094757D06EAAFE489B","title":"延安路高架","lon":"121.4677124","lat":"31.227724075","category":"260","category_name":"其他","address":"上海延安高架路"},{"poiid":"B2094757D064A0F54893","title":"大沽路","lon":"121.467274","lat":"31.225619","category":"500","category_name":"未知分类","address":"上海静安区大沽路"},{"poiid":"B2094757D068A0FD4798","title":"威海路成都北路","lon":"121.467233","lat":"31.226509","category":"500","category_name":"未知分类","address":"上海威海路成都北路"},{"poiid":"B2094757D06FA5FA439F","title":"泰厨(成都北路店)","lon":"121.46785","lat":"31.22847","category":"99","category_name":"泰国／越南菜品餐厅","address":"静安区成都北路288号(近威海路)"},{"poiid":"B2094757D068A3FA459B","title":"Nova","lon":"121.46588897","lat":"31.225524902","category":"172","category_name":"酒吧","address":"静安区大沽路418号(近石门一路)"},{"poiid":"B2094757D06FAAF4419C","title":"舒友海鲜大酒楼(静安店)","lon":"121.46697","lat":"31.2276","category":"260","category_name":"其他","address":"静安区成都北路333号招商局广场4楼(近威海路)"},{"poiid":"B2094757D56CA1FE429D","title":"星巴克 力宝广场店 Starbucks Cafe","lon":"121.47456367878","lat":"31.223538465013","category":"247","category_name":"餐饮美食","address":"淮海中路222号力宝广场1楼近嵩山路"},{"poiid":"B2094757D06FAAF5489B","title":"东泰祥生煎馒头馆 重庆北路店","lon":"121.47016","lat":"31.226474","category":"68","category_name":"快餐厅","address":"黄浦区重庆北路188号(近大沽路)"},{"poiid":"B2094757D06AA6FA469D","title":"爸爸马里奥比萨","lon":"121.46684","lat":"31.22544","category":"94","category_name":"西餐厅","address":"静安区大沽路370号-1(近成都北路)"},{"poiid":"B2094655D268ABFF409F","title":"延安东路立交桥","lon":"121.469","lat":"31.22467","category":"250","category_name":"公园户外","address":""},{"poiid":"B2094752D069A4FB489A","title":"鸿星荟","lon":"121.468619","lat":"31.225721","category":"247","category_name":"餐饮美食","address":"淮海中路300号K11购物艺术中心"},{"poiid":"B2094752D16CAAF94893","title":"ABC Cooking Studio（K11店）","lon":"121.469221","lat":"31.225111","category":"247","category_name":"餐饮美食","address":null},{"poiid":"B2094757D06FA5F44293","title":"招商局广场南楼","lon":"121.46630318","lat":"31.227698843","category":"46","category_name":"楼宇","address":"上海威海路258号"},{"poiid":"B2094752D66CAAFB4393","title":"K11","lon":"121.467514","lat":"31.227783","category":"500","category_name":"未知分类","address":"淮海中路300号"},{"poiid":"B2094757D069A5F4449F","title":"中凯城市之光","lon":"121.46649849","lat":"31.2264034314","category":"500","category_name":"未知分类","address":"大沽路368弄大沽路398弄威海路333弄"},{"poiid":"B2094750D664A3FA469C","title":"Twins日本料理","lon":"121.467","lat":"31.2255","category":"95","category_name":"日本料理","address":"大沽路393号近大沽路成都北路东北角"},{"poiid":"B2094757DB6FA4FA439A","title":"揽香","lon":"121.469027","lat":"31.224747","category":"247","category_name":"餐饮美食","address":"卢湾区中环广场"},{"poiid":"B2094655D26DABFD429F","title":"丽池(上海CEO)会所","lon":"121.4666","lat":"31.22806","category":"149","category_name":"洗浴推拿场所","address":"成都北路333上海招商局广场东楼"},{"poiid":"B2094757D064A1FD4193","title":"哈亚地中海餐厅(大沽路店)","lon":"121.46621","lat":"31.22525","category":"94","category_name":"西餐厅","address":"静安区大沽路415号(近成都北路)"},{"poiid":"B2094757D16FA1F5449E","title":"A-ONE造型","lon":"121.469784","lat":"31.227877","category":"148","category_name":"美容美发店","address":"黄浦区威海路82号"},{"poiid":"B2094752D06EA5F44092","title":"Pizza Marzano（披萨马上诺）","lon":"121.46927","lat":"31.225073","category":"247","category_name":"餐饮美食","address":null},{"poiid":"B2094750D26EAAF4409F","title":"Y-in Lounge","lon":"121.465675","lat":"31.225568","category":"260","category_name":"其他","address":"静安区大沽路392号(近中凯城市之光)"},{"poiid":"B2094757D16DA1FB409B","title":"新天地好乐迪","lon":"121.467468738","lat":"31.2277242467","category":"500","category_name":"未知分类","address":"上海市卢湾区"},{"poiid":"B2094757D064A5FF429E","title":"荣府","lon":"121.46617","lat":"31.22708","category":"72","category_name":"广东菜","address":"静安区威海路289弄12号(近上海电视台)"},{"poiid":"B2094757D068A4FD489C","title":"招商局广场东楼","lon":"121.46661694","lat":"31.228478073","category":"46","category_name":"楼宇","address":"上海静安区成都北路333号"},{"poiid":"B2094757D064A5FD439A","title":"Little Huia","lon":"121.466433738","lat":"31.2255882012","category":"500","category_name":"未知分类","address":"上海市静安区大沽路403号"},{"poiid":"B2094757D16CA3F84398","title":"上海锦江饭店锦北楼","lon":"121.46745773","lat":"31.227646245","category":"500","category_name":"未知分类","address":"上海卢湾区茂名南路59号"},{"poiid":"B2094757D068A4F9419D","title":"长发大厦","lon":"121.46834971","lat":"31.228058438","category":"46","category_name":"楼宇","address":"卫清西路139_149号等"},{"poiid":"B2094654DB65A4FA409C","title":"延安中路大型公共绿地","lon":"121.46636","lat":"31.22469","category":"196","category_name":"公园","address":""},{"poiid":"B2094757D76AA0F54593","title":"贝庭奶酪 成都北路店 palace desserts","lon":"121.46729452911","lat":"31.228190985701","category":"67","category_name":"甜品店","address":"静安区成都北路151号(近威海路)"},{"poiid":"B2094654DA68A2FC4792","title":"24K国际连锁酒店","lon":"121.46858","lat":"31.22738","category":"216","category_name":"经济型连锁酒店","address":"上海市威海路155弄20号（近成都北路口）"},{"poiid":"B2094757D169A7FA429B","title":"重庆北路大沽路","lon":"121.47001933","lat":"31.227480141","category":"500","category_name":"未知分类","address":"上海重庆北路大沽路口"},{"poiid":"B2094752D16DAAFE4898","title":"合点寿司","lon":"121.469321","lat":"31.225022","category":"247","category_name":"餐饮美食","address":"淮海中路300号K11购物艺术中心302号铺(近黄陂南路)"},{"poiid":"B2094654DA6CA1FC4093","title":"上海第九人民医院上海交通大学医学院","lon":"121.46572","lat":"31.22563","category":"52","category_name":"高等院校","address":"静安区大沽路388-390"},{"poiid":"B2094757D06FA7F5409D","title":"肯德基 KFC (迪美店)","lon":"121.46754071","lat":"31.228699136","category":"68","category_name":"快餐厅","address":"黄浦区人民大道221号迪美购物中心B1楼(近武胜路)"},{"poiid":"B2094752D06FA3FC4999","title":"淮海中路300号K11购物艺术中心301-307号铺(近黄陂南路地铁站)","lon":"121.470142","lat":"31.226922","category":"247","category_name":"餐饮美食","address":"淮海中路300号K11购物艺术中心301-307号铺(近黄陂南路地铁站)"},{"poiid":"B2094757D16FA7FC4492","title":"科瓦齿科(恒利店)","lon":"121.466587","lat":"31.227404","category":"162","category_name":"医院","address":"静安区成都北路199号恒利国际大厦11楼(威海路口)"},{"poiid":"B2094757D16EA7FB479D","title":"品味新西兰","lon":"121.46634073","lat":"31.225462998","category":"94","category_name":"西餐厅","address":"静安区大沽路403号(近成都北路)"},{"poiid":"B2094757D064A0FF499E","title":"上島咖啡","lon":"121.46844482","lat":"31.228721618","category":"65","category_name":"咖啡厅","address":"静安区南京西路696号(上海电视台对面)"},{"poiid":"B2094757D068A0FF4993","title":"储能中学(北校)","lon":"121.46921","lat":"31.22784","category":"55","category_name":"中学","address":"黄浦区重庆北路270号(威海路重庆北路)"},{"poiid":"B2094654DA68A2FC4898","title":"上海市储能中学(重庆北路)","lon":"121.46801","lat":"31.22679","category":"55","category_name":"中学","address":"成都北路200"},{"poiid":"B2094757D66AAAF9409A","title":"满腹满足","lon":"121.4672441875","lat":"31.225639359331","category":"95","category_name":"日本料理","address":"静安区大沽路395号(近成都北路)"},{"poiid":"B2094655D26AABFD459A","title":"渝信川菜(招商局店)","lon":"121.46672","lat":"31.22781","category":"71","category_name":"四川菜","address":"静安区成都北路333号招商局广场3楼(近威海路)"},{"poiid":"B2094753D36EA1FC409D","title":"啡你啡思,faneeface,coffee","lon":"121.466694","lat":"31.225741","category":"113","category_name":"冷饮店","address":"大沽路396号"},{"poiid":"B2094757D06FA0FD4999","title":"上海大剧院-大剧场(Shanghai Grand Theatre - Lyric Theatre)","lon":"121.46956921","lat":"31.225844356","category":"260","category_name":"其他","address":"黄浦区人民大道300号大剧院内(近黄陂南路)"},{"poiid":"B2094753D76FAAFA449C","title":"上海滩国泰旗舰店","lon":"121.466011","lat":"31.216125","category":"249","category_name":"购物服务","address":"淮海中路868号"},{"poiid":"B209475CD564A7F84292","title":"上海滩新天地店","lon":"121.47463","lat":"31.22164","category":"119","category_name":"商场","address":"\"太仓路181弄新天地北里15号\r\n\""},{"poiid":"B209475CD564A7F8439E","title":"上海滩中信泰富店","lon":"121.45602","lat":"31.22851","category":"119","category_name":"商场","address":"\"南京西路1168号中信泰富广场，店铺号221.\r\n\""},{"poiid":"B2094654DA6CA2F5419D","title":"上海招商局广场","lon":"121.46674","lat":"31.22779","category":"46","category_name":"楼宇","address":"丰台学城海鹰路1号，3号"},{"poiid":"B2094757D06FABFF459F","title":"Masala art香料艺术 印度餐厅","lon":"121.46685028","lat":"31.225439071","category":"260","category_name":"其他","address":"静安区大沽路401号(近成都北路)"},{"poiid":"B2094757D06EAAFE489B","title":"延安路高架","lon":"121.4677124","lat":"31.227724075","category":"260","category_name":"其他","address":"上海延安高架路"},{"poiid":"B2094757D064A0F54893","title":"大沽路","lon":"121.467274","lat":"31.225619","category":"500","category_name":"未知分类","address":"上海静安区大沽路"},{"poiid":"B2094757D068A0FD4798","title":"威海路成都北路","lon":"121.467233","lat":"31.226509","category":"500","category_name":"未知分类","address":"上海威海路成都北路"},{"poiid":"B2094757D06FA5FA439F","title":"泰厨(成都北路店)","lon":"121.46785","lat":"31.22847","category":"99","category_name":"泰国／越南菜品餐厅","address":"静安区成都北路288号(近威海路)"},{"poiid":"B2094757D068A3FA459B","title":"Nova","lon":"121.46588897","lat":"31.225524902","category":"172","category_name":"酒吧","address":"静安区大沽路418号(近石门一路)"},{"poiid":"B2094757D06FAAF4419C","title":"舒友海鲜大酒楼(静安店)","lon":"121.46697","lat":"31.2276","category":"260","category_name":"其他","address":"静安区成都北路333号招商局广场4楼(近威海路)"},{"poiid":"B2094757D56CA1FE429D","title":"星巴克 力宝广场店 Starbucks Cafe","lon":"121.47456367878","lat":"31.223538465013","category":"247","category_name":"餐饮美食","address":"淮海中路222号力宝广场1楼近嵩山路"},{"poiid":"B2094757D06FAAF5489B","title":"东泰祥生煎馒头馆 重庆北路店","lon":"121.47016","lat":"31.226474","category":"68","category_name":"快餐厅","address":"黄浦区重庆北路188号(近大沽路)"},{"poiid":"B2094757D06AA6FA469D","title":"爸爸马里奥比萨","lon":"121.46684","lat":"31.22544","category":"94","category_name":"西餐厅","address":"静安区大沽路370号-1(近成都北路)"},{"poiid":"B2094655D268ABFF409F","title":"延安东路立交桥","lon":"121.469","lat":"31.22467","category":"250","category_name":"公园户外","address":""},{"poiid":"B2094752D069A4FB489A","title":"鸿星荟","lon":"121.468619","lat":"31.225721","category":"247","category_name":"餐饮美食","address":"淮海中路300号K11购物艺术中心"},{"poiid":"B2094752D16CAAF94893","title":"ABC Cooking Studio（K11店）","lon":"121.469221","lat":"31.225111","category":"247","category_name":"餐饮美食","address":null},{"poiid":"B2094757D06FA5F44293","title":"招商局广场南楼","lon":"121.46630318","lat":"31.227698843","category":"46","category_name":"楼宇","address":"上海威海路258号"},{"poiid":"B2094752D66CAAFB4393","title":"K11","lon":"121.467514","lat":"31.227783","category":"500","category_name":"未知分类","address":"淮海中路300号"},{"poiid":"B2094757D069A5F4449F","title":"中凯城市之光","lon":"121.46649849","lat":"31.2264034314","category":"500","category_name":"未知分类","address":"大沽路368弄大沽路398弄威海路333弄"},{"poiid":"B2094750D664A3FA469C","title":"Twins日本料理","lon":"121.467","lat":"31.2255","category":"95","category_name":"日本料理","address":"大沽路393号近大沽路成都北路东北角"},{"poiid":"B2094757DB6FA4FA439A","title":"揽香","lon":"121.469027","lat":"31.224747","category":"247","category_name":"餐饮美食","address":"卢湾区中环广场"},{"poiid":"B2094655D26DABFD429F","title":"丽池(上海CEO)会所","lon":"121.4666","lat":"31.22806","category":"149","category_name":"洗浴推拿场所","address":"成都北路333上海招商局广场东楼"},{"poiid":"B2094757D064A1FD4193","title":"哈亚地中海餐厅(大沽路店)","lon":"121.46621","lat":"31.22525","category":"94","category_name":"西餐厅","address":"静安区大沽路415号(近成都北路)"},{"poiid":"B2094757D16FA1F5449E","title":"A-ONE造型","lon":"121.469784","lat":"31.227877","category":"148","category_name":"美容美发店","address":"黄浦区威海路82号"},{"poiid":"B2094752D06EA5F44092","title":"Pizza Marzano（披萨马上诺）","lon":"121.46927","lat":"31.225073","category":"247","category_name":"餐饮美食","address":null},{"poiid":"B2094750D26EAAF4409F","title":"Y-in Lounge","lon":"121.465675","lat":"31.225568","category":"260","category_name":"其他","address":"静安区大沽路392号(近中凯城市之光)"},{"poiid":"B2094757D16DA1FB409B","title":"新天地好乐迪","lon":"121.467468738","lat":"31.2277242467","category":"500","category_name":"未知分类","address":"上海市卢湾区"},{"poiid":"B2094757D064A5FF429E","title":"荣府","lon":"121.46617","lat":"31.22708","category":"72","category_name":"广东菜","address":"静安区威海路289弄12号(近上海电视台)"},{"poiid":"B2094757D068A4FD489C","title":"招商局广场东楼","lon":"121.46661694","lat":"31.228478073","category":"46","category_name":"楼宇","address":"上海静安区成都北路333号"},{"poiid":"B2094757D064A5FD439A","title":"Little Huia","lon":"121.466433738","lat":"31.2255882012","category":"500","category_name":"未知分类","address":"上海市静安区大沽路403号"},{"poiid":"B2094757D16CA3F84398","title":"上海锦江饭店锦北楼","lon":"121.46745773","lat":"31.227646245","category":"500","category_name":"未知分类","address":"上海卢湾区茂名南路59号"},{"poiid":"B2094757D068A4F9419D","title":"长发大厦","lon":"121.46834971","lat":"31.228058438","category":"46","category_name":"楼宇","address":"卫清西路139_149号等"},{"poiid":"B2094654DB65A4FA409C","title":"延安中路大型公共绿地","lon":"121.46636","lat":"31.22469","category":"196","category_name":"公园","address":""},{"poiid":"B2094757D76AA0F54593","title":"贝庭奶酪 成都北路店 palace desserts","lon":"121.46729452911","lat":"31.228190985701","category":"67","category_name":"甜品店","address":"静安区成都北路151号(近威海路)"},{"poiid":"B2094654DA68A2FC4792","title":"24K国际连锁酒店","lon":"121.46858","lat":"31.22738","category":"216","category_name":"经济型连锁酒店","address":"上海市威海路155弄20号（近成都北路口）"},{"poiid":"B2094757D169A7FA429B","title":"重庆北路大沽路","lon":"121.47001933","lat":"31.227480141","category":"500","category_name":"未知分类","address":"上海重庆北路大沽路口"},{"poiid":"B2094752D16DAAFE4898","title":"合点寿司","lon":"121.469321","lat":"31.225022","category":"247","category_name":"餐饮美食","address":"淮海中路300号K11购物艺术中心302号铺(近黄陂南路)"},{"poiid":"B2094654DA6CA1FC4093","title":"上海第九人民医院上海交通大学医学院","lon":"121.46572","lat":"31.22563","category":"52","category_name":"高等院校","address":"静安区大沽路388-390"},{"poiid":"B2094757D06FA7F5409D","title":"肯德基 KFC (迪美店)","lon":"121.46754071","lat":"31.228699136","category":"68","category_name":"快餐厅","address":"黄浦区人民大道221号迪美购物中心B1楼(近武胜路)"},{"poiid":"B2094752D06FA3FC4999","title":"淮海中路300号K11购物艺术中心301-307号铺(近黄陂南路地铁站)","lon":"121.470142","lat":"31.226922","category":"247","category_name":"餐饮美食","address":"淮海中路300号K11购物艺术中心301-307号铺(近黄陂南路地铁站)"},{"poiid":"B2094757D16FA7FC4492","title":"科瓦齿科(恒利店)","lon":"121.466587","lat":"31.227404","category":"162","category_name":"医院","address":"静安区成都北路199号恒利国际大厦11楼(威海路口)"},{"poiid":"B2094757D16EA7FB479D","title":"品味新西兰","lon":"121.46634073","lat":"31.225462998","category":"94","category_name":"西餐厅","address":"静安区大沽路403号(近成都北路)"},{"poiid":"B2094757D064A0FF499E","title":"上島咖啡","lon":"121.46844482","lat":"31.228721618","category":"65","category_name":"咖啡厅","address":"静安区南京西路696号(上海电视台对面)"},{"poiid":"B2094757D068A0FF4993","title":"储能中学(北校)","lon":"121.46921","lat":"31.22784","category":"55","category_name":"中学","address":"黄浦区重庆北路270号(威海路重庆北路)"},{"poiid":"B2094654DA68A2FC4898","title":"上海市储能中学(重庆北路)","lon":"121.46801","lat":"31.22679","category":"55","category_name":"中学","address":"成都北路200"},{"poiid":"B2094757D66AAAF9409A","title":"满腹满足","lon":"121.4672441875","lat":"31.225639359331","category":"95","category_name":"日本料理","address":"静安区大沽路395号(近成都北路)"},{"poiid":"B2094655D26AABFD459A","title":"渝信川菜(招商局店)","lon":"121.46672","lat":"31.22781","category":"71","category_name":"四川菜","address":"静安区成都北路333号招商局广场3楼(近威海路)"},{"poiid":"B2094753D36EA1FC409D","title":"啡你啡思,faneeface,coffee","lon":"121.466694","lat":"31.225741","category":"113","category_name":"冷饮店","address":"大沽路396号"},{"poiid":"B2094757D06FA0FD4999","title":"上海大剧院-大剧场(Shanghai Grand Theatre - Lyric Theatre)","lon":"121.46956921","lat":"31.225844356","category":"260","category_name":"其他","address":"黄浦区人民大道300号大剧院内(近黄陂南路)"},{"poiid":"B2094753D76FAAFA449C","title":"上海滩国泰旗舰店","lon":"121.466011","lat":"31.216125","category":"249","category_name":"购物服务","address":"淮海中路868号"},{"poiid":"B209475CD564A7F84292","title":"上海滩新天地店","lon":"121.47463","lat":"31.22164","category":"119","category_name":"商场","address":"\"太仓路181弄新天地北里15号\r\n\""},{"poiid":"B209475CD564A7F8439E","title":"上海滩中信泰富店","lon":"121.45602","lat":"31.22851","category":"119","category_name":"商场","address":"\"南京西路1168号中信泰富广场，店铺号221.\r\n\""},{"poiid":"B2094654DA6CA2F5419D","title":"上海招商局广场","lon":"121.46674","lat":"31.22779","category":"46","category_name":"楼宇","address":"丰台学城海鹰路1号，3号"},{"poiid":"B2094757D06FABFF459F","title":"Masala art香料艺术 印度餐厅","lon":"121.46685028","lat":"31.225439071","category":"260","category_name":"其他","address":"静安区大沽路401号(近成都北路)"},{"poiid":"B2094757D06EAAFE489B","title":"延安路高架","lon":"121.4677124","lat":"31.227724075","category":"260","category_name":"其他","address":"上海延安高架路"},{"poiid":"B2094757D064A0F54893","title":"大沽路","lon":"121.467274","lat":"31.225619","category":"500","category_name":"未知分类","address":"上海静安区大沽路"},{"poiid":"B2094757D068A0FD4798","title":"威海路成都北路","lon":"121.467233","lat":"31.226509","category":"500","category_name":"未知分类","address":"上海威海路成都北路"},{"poiid":"B2094757D06FA5FA439F","title":"泰厨(成都北路店)","lon":"121.46785","lat":"31.22847","category":"99","category_name":"泰国／越南菜品餐厅","address":"静安区成都北路288号(近威海路)"},{"poiid":"B2094757D068A3FA459B","title":"Nova","lon":"121.46588897","lat":"31.225524902","category":"172","category_name":"酒吧","address":"静安区大沽路418号(近石门一路)"},{"poiid":"B2094757D06FAAF4419C","title":"舒友海鲜大酒楼(静安店)","lon":"121.46697","lat":"31.2276","category":"260","category_name":"其他","address":"静安区成都北路333号招商局广场4楼(近威海路)"},{"poiid":"B2094757D56CA1FE429D","title":"星巴克 力宝广场店 Starbucks Cafe","lon":"121.47456367878","lat":"31.223538465013","category":"247","category_name":"餐饮美食","address":"淮海中路222号力宝广场1楼近嵩山路"},{"poiid":"B2094757D06FAAF5489B","title":"东泰祥生煎馒头馆 重庆北路店","lon":"121.47016","lat":"31.226474","category":"68","category_name":"快餐厅","address":"黄浦区重庆北路188号(近大沽路)"},{"poiid":"B2094757D06AA6FA469D","title":"爸爸马里奥比萨","lon":"121.46684","lat":"31.22544","category":"94","category_name":"西餐厅","address":"静安区大沽路370号-1(近成都北路)"},{"poiid":"B2094655D268ABFF409F","title":"延安东路立交桥","lon":"121.469","lat":"31.22467","category":"250","category_name":"公园户外","address":""},{"poiid":"B2094752D069A4FB489A","title":"鸿星荟","lon":"121.468619","lat":"31.225721","category":"247","category_name":"餐饮美食","address":"淮海中路300号K11购物艺术中心"},{"poiid":"B2094752D16CAAF94893","title":"ABC Cooking Studio（K11店）","lon":"121.469221","lat":"31.225111","category":"247","category_name":"餐饮美食","address":null},{"poiid":"B2094757D06FA5F44293","title":"招商局广场南楼","lon":"121.46630318","lat":"31.227698843","category":"46","category_name":"楼宇","address":"上海威海路258号"},{"poiid":"B2094752D66CAAFB4393","title":"K11","lon":"121.467514","lat":"31.227783","category":"500","category_name":"未知分类","address":"淮海中路300号"},{"poiid":"B2094757D069A5F4449F","title":"中凯城市之光","lon":"121.46649849","lat":"31.2264034314","category":"500","category_name":"未知分类","address":"大沽路368弄大沽路398弄威海路333弄"},{"poiid":"B2094750D664A3FA469C","title":"Twins日本料理","lon":"121.467","lat":"31.2255","category":"95","category_name":"日本料理","address":"大沽路393号近大沽路成都北路东北角"},{"poiid":"B2094757DB6FA4FA439A","title":"揽香","lon":"121.469027","lat":"31.224747","category":"247","category_name":"餐饮美食","address":"卢湾区中环广场"},{"poiid":"B2094655D26DABFD429F","title":"丽池(上海CEO)会所","lon":"121.4666","lat":"31.22806","category":"149","category_name":"洗浴推拿场所","address":"成都北路333上海招商局广场东楼"},{"poiid":"B2094757D064A1FD4193","title":"哈亚地中海餐厅(大沽路店)","lon":"121.46621","lat":"31.22525","category":"94","category_name":"西餐厅","address":"静安区大沽路415号(近成都北路)"},{"poiid":"B2094757D16FA1F5449E","title":"A-ONE造型","lon":"121.469784","lat":"31.227877","category":"148","category_name":"美容美发店","address":"黄浦区威海路82号"},{"poiid":"B2094752D06EA5F44092","title":"Pizza Marzano（披萨马上诺）","lon":"121.46927","lat":"31.225073","category":"247","category_name":"餐饮美食","address":null},{"poiid":"B2094750D26EAAF4409F","title":"Y-in Lounge","lon":"121.465675","lat":"31.225568","category":"260","category_name":"其他","address":"静安区大沽路392号(近中凯城市之光)"},{"poiid":"B2094757D16DA1FB409B","title":"新天地好乐迪","lon":"121.467468738","lat":"31.2277242467","category":"500","category_name":"未知分类","address":"上海市卢湾区"},{"poiid":"B2094757D064A5FF429E","title":"荣府","lon":"121.46617","lat":"31.22708","category":"72","category_name":"广东菜","address":"静安区威海路289弄12号(近上海电视台)"},{"poiid":"B2094757D068A4FD489C","title":"招商局广场东楼","lon":"121.46661694","lat":"31.228478073","category":"46","category_name":"楼宇","address":"上海静安区成都北路333号"},{"poiid":"B2094757D064A5FD439A","title":"Little Huia","lon":"121.466433738","lat":"31.2255882012","category":"500","category_name":"未知分类","address":"上海市静安区大沽路403号"},{"poiid":"B2094757D16CA3F84398","title":"上海锦江饭店锦北楼","lon":"121.46745773","lat":"31.227646245","category":"500","category_name":"未知分类","address":"上海卢湾区茂名南路59号"},{"poiid":"B2094757D068A4F9419D","title":"长发大厦","lon":"121.46834971","lat":"31.228058438","category":"46","category_name":"楼宇","address":"卫清西路139_149号等"},{"poiid":"B2094654DB65A4FA409C","title":"延安中路大型公共绿地","lon":"121.46636","lat":"31.22469","category":"196","category_name":"公园","address":""},{"poiid":"B2094757D76AA0F54593","title":"贝庭奶酪 成都北路店 palace desserts","lon":"121.46729452911","lat":"31.228190985701","category":"67","category_name":"甜品店","address":"静安区成都北路151号(近威海路)"},{"poiid":"B2094654DA68A2FC4792","title":"24K国际连锁酒店","lon":"121.46858","lat":"31.22738","category":"216","category_name":"经济型连锁酒店","address":"上海市威海路155弄20号（近成都北路口）"},{"poiid":"B2094757D169A7FA429B","title":"重庆北路大沽路","lon":"121.47001933","lat":"31.227480141","category":"500","category_name":"未知分类","address":"上海重庆北路大沽路口"},{"poiid":"B2094752D16DAAFE4898","title":"合点寿司","lon":"121.469321","lat":"31.225022","category":"247","category_name":"餐饮美食","address":"淮海中路300号K11购物艺术中心302号铺(近黄陂南路)"},{"poiid":"B2094654DA6CA1FC4093","title":"上海第九人民医院上海交通大学医学院","lon":"121.46572","lat":"31.22563","category":"52","category_name":"高等院校","address":"静安区大沽路388-390"},{"poiid":"B2094757D06FA7F5409D","title":"肯德基 KFC (迪美店)","lon":"121.46754071","lat":"31.228699136","category":"68","category_name":"快餐厅","address":"黄浦区人民大道221号迪美购物中心B1楼(近武胜路)"},{"poiid":"B2094752D06FA3FC4999","title":"淮海中路300号K11购物艺术中心301-307号铺(近黄陂南路地铁站)","lon":"121.470142","lat":"31.226922","category":"247","category_name":"餐饮美食","address":"淮海中路300号K11购物艺术中心301-307号铺(近黄陂南路地铁站)"},{"poiid":"B2094757D16FA7FC4492","title":"科瓦齿科(恒利店)","lon":"121.466587","lat":"31.227404","category":"162","category_name":"医院","address":"静安区成都北路199号恒利国际大厦11楼(威海路口)"},{"poiid":"B2094757D16EA7FB479D","title":"品味新西兰","lon":"121.46634073","lat":"31.225462998","category":"94","category_name":"西餐厅","address":"静安区大沽路403号(近成都北路)"},{"poiid":"B2094757D064A0FF499E","title":"上島咖啡","lon":"121.46844482","lat":"31.228721618","category":"65","category_name":"咖啡厅","address":"静安区南京西路696号(上海电视台对面)"},{"poiid":"B2094757D068A0FF4993","title":"储能中学(北校)","lon":"121.46921","lat":"31.22784","category":"55","category_name":"中学","address":"黄浦区重庆北路270号(威海路重庆北路)"},{"poiid":"B2094654DA68A2FC4898","title":"上海市储能中学(重庆北路)","lon":"121.46801","lat":"31.22679","category":"55","category_name":"中学","address":"成都北路200"},{"poiid":"B2094757D66AAAF9409A","title":"满腹满足","lon":"121.4672441875","lat":"31.225639359331","category":"95","category_name":"日本料理","address":"静安区大沽路395号(近成都北路)"}]