[{"poiid":"B2094757D06EAAFC449B","title":"串串香麻辣烫(襄阳路店)","lon":"121.45859","lat":"31.20867","category":"68","category_name":"快餐厅","address":"徐汇区襄阳南路311号(近永嘉路)"},{"poiid":"B2094655D36DA1F44793","title":"襄阳南路永嘉路","lon":"121.45791","lat":"31.20864","category":"38","category_name":"公交车站","address":""},{"poiid":"B2094757D068A1F8429A","title":"熠盛粤味","lon":"121.457178","lat":"31.210503","category":"72","category_name":"广东菜","address":"徐汇区永康路132号(近襄阳南路)"},{"poiid":"B2094753D76FAAFA449C","title":"上海滩国泰旗舰店","lon":"121.466011","lat":"31.216125","category":"249","category_name":"购物服务","address":"淮海中路868号"},{"poiid":"B209475CD564A7F84292","title":"上海滩新天地店","lon":"121.47463","lat":"31.22164","category":"119","category_name":"商场","address":"\"太仓路181弄新天地北里15号\r\n\""},{"poiid":"B209475CD564A7F8439E","title":"上海滩中信泰富店","lon":"121.45602","lat":"31.22851","category":"119","category_name":"商场","address":"\"南京西路1168号中信泰富广场，店铺号221.\r\n\""},{"poiid":"B2094757DB6CA7F4459F","title":"Shanghai Brewery","lon":"121.45859","lat":"31.21094","category":"260","category_name":"其他","address":"徐汇区东平路15号(近衡山路)"},{"poiid":"B2094757D06FA5FE4898","title":"老地方面馆","lon":"121.45791","lat":"31.21153","category":"68","category_name":"快餐厅","address":"徐汇区襄阳南路233号(近永康路)"},{"poiid":"B2094757D06EAAFA429F","title":"It's Café (Espresso Club)","lon":"121.458087","lat":"31.21099","category":"65","category_name":"咖啡厅","address":"上海徐汇区永康路64号"},{"poiid":"B2094654DA6DA6F94298","title":"大可堂普洱会所","lon":"121.45772","lat":"31.20758","category":"260","category_name":"其他","address":"徐汇区襄阳南路388弄25号(近永嘉路)"},{"poiid":"B2094757D068A3FD4793","title":"华检体检中心(徐汇分院)","lon":"121.459014996","lat":"31.211539631","category":"162","category_name":"医院","address":"徐汇区嘉善路118号明园B座3楼(近永康路)"},{"poiid":"B2094757D16EA5F5409E","title":"The Sailors","lon":"121.458565738","lat":"31.2106958839","category":"500","category_name":"未知分类","address":"上海永康路33号"},{"poiid":"B2094750D665A0FA409D","title":"水稻咖啡","lon":"121.456","lat":"31.208","category":"260","category_name":"其他","address":"徐汇区永嘉路394号(近太原路)"},{"poiid":"B2094654DA6DA6F8439A","title":"上海市第二中学","lon":"121.45536","lat":"31.21034","category":"55","category_name":"中学","address":"徐汇区永康路200号(近太原路)"},{"poiid":"B2094654DA6DA6F8479B","title":"点石斋小宴","lon":"121.45729","lat":"31.20882","category":"76","category_name":"上海菜","address":"徐汇区永嘉路320号(近襄阳南路)"},{"poiid":"B2094757D069A3FE439C","title":"Cafe Sambal","lon":"121.4594935","lat":"31.207575767","category":"110","category_name":"其他亚洲菜","address":"卢湾区陕西南路550弄37号嘉善市场(近绍兴路)"},{"poiid":"B2094757DA6FA3FE439F","title":"恋恋仙草(永康店)","lon":"121.457996","lat":"31.2109670000002","category":"113","category_name":"冷饮店","address":"徐汇区永康路70号(襄阳南路口)"},{"poiid":"B2094750DB68A0FB4492","title":"上海五官科医院","lon":"121.45819","lat":"31.210149","category":"162","category_name":"医院","address":"徐汇区汾阳路83号"},{"poiid":"B2094757D065A2FB4699","title":"Muses Cafe","lon":"121.459490738","lat":"31.2115059012","category":"500","category_name":"未知分类","address":"卢湾区陕西南路438-2号(上海文化广场对面)"},{"poiid":"B2094757D06AA6FA459F","title":"宋芳茶馆 Song Fang Maison de The","lon":"121.45904294968","lat":"31.209497617878","category":"66","category_name":"茶艺馆","address":"永嘉路227号甲1-3楼近陕西南路"},{"poiid":"B2094757D16EA7FA469D","title":"乔家栅食府","lon":"121.457663373","lat":"31.2089027357","category":"68","category_name":"快餐厅","address":"徐汇区襄阳南路336号(近永嘉路)"},{"poiid":"B2094750D76EA6FC439C","title":"游者","lon":"121.457","lat":"31.2087","category":"95","category_name":"日本料理","address":"徐汇区永嘉路335号(近襄阳路)"},{"poiid":"B2094654DA6DA6F9499D","title":"皇宫爆烤鸭","lon":"121.457991054","lat":"31.208769793","category":"68","category_name":"快餐厅","address":"徐汇区襄阳南路311号(近永嘉路)"},{"poiid":"B2094655D26FA4F44198","title":"Newyork Pizza","lon":"121.459","lat":"31.2112","category":"94","category_name":"西餐厅","address":"徐汇区永康路52号(近嘉善路)"},{"poiid":"B2094757D764A5F4449F","title":"IT'S COFFEE","lon":"121.458087","lat":"31.21099","category":"260","category_name":"其他","address":"徐汇区永康路64号(近复兴中路)"},{"poiid":"B2094757D16AA1FA469F","title":"永康里","lon":"121.45614","lat":"31.20967","category":"76","category_name":"上海菜","address":"徐汇区永康路(近襄阳路)"},{"poiid":"B2094751D368A0FE4293","title":"The Sailors Fish & Chips","lon":"121.45851","lat":"31.21092","category":"68","category_name":"快餐厅","address":"徐汇区永康路33号(近襄阳南路)"},{"poiid":"B2094654DB6BA5FB429F","title":"乔家栅(襄阳南路店)","lon":"121.4578","lat":"31.20884","category":"112","category_name":"糕饼店","address":"徐汇区襄阳南路313号(永嘉路)"},{"poiid":"B2094757D06FA5FF469B","title":"乐弗涯亚洲餐厅","lon":"121.45746374","lat":"31.208731608","category":"110","category_name":"其他亚洲菜","address":"上海卢湾区永嘉路335号(近襄阳南路)"},{"poiid":"B2094757D06BA6F54492","title":"台北永康精致美食","lon":"121.45812576","lat":"31.210464891","category":"91","category_name":"台湾菜","address":"徐汇区永康路66号(近襄阳路)"},{"poiid":"B2094757DA65A6FC4299","title":"1933老場坊","lon":"121.457631","lat":"31.21133","category":"248","category_name":"生活娱乐","address":"上海市虹口區漂陽路611號1933老場坊"},{"poiid":"B2094654DA6DABFC4098","title":"中科大厦","lon":"121.46","lat":"31.2078","category":"46","category_name":"楼宇","address":"上海徐汇区岳阳路319号"},{"poiid":"B2094757D16AA3FA409B","title":"台北永康","lon":"121.45818773","lat":"31.210877887","category":"500","category_name":"未知分类","address":"上海永康路66号"},{"poiid":"B2094655D264A6F54999","title":"好小子奶茶","lon":"121.45765","lat":"31.20999","category":"113","category_name":"冷饮店","address":"卢湾区襄阳南路298号(近永嘉路)"},{"poiid":"B2094655D268A5F9419A","title":"永嘉路300弄小区","lon":"121.45758","lat":"31.20931","category":"47","category_name":"住宅区","address":"永嘉路300弄1-20号"},{"poiid":"B2094655D26FA6FB439B","title":"建业里","lon":"121.458","lat":"31.2099","category":"47","category_name":"住宅区","address":"建国西路456弄1-80号"},{"poiid":"B2094654DB6BA5FA4892","title":"快客","lon":"121.458","lat":"31.20923","category":"117","category_name":"便民商店/便利店","address":"永嘉路296"},{"poiid":"B2094757D06AA3FA489E","title":"小荧星艺校(尚街校区)","lon":"121.457245738","lat":"31.2069285447","category":"500","category_name":"未知分类","address":"上海卢湾区建国西路283号(近嘉善路)"},{"poiid":"B209475CD76AAAF5409E","title":"环贸广场（ICC Shanghai）","lon":"121.457374","lat":"31.20972","category":"500","category_name":"未知分类","address":"上海市 上海徐汇区淮海中路999（近陕西南路）"},{"poiid":"B2094757D165AAFA479A","title":"摩仑比萨屋","lon":"121.45698","lat":"31.21013","category":"68","category_name":"快餐厅","address":"徐汇区永康路130号(近襄阳南路)"},{"poiid":"B2094654DA6DA6F9499E","title":"晓平饭店","lon":"121.4596","lat":"31.20848","category":"76","category_name":"上海菜","address":"徐汇区嘉善路202号(近永嘉路)"},{"poiid":"B2094757D665A3FC4898","title":"湘泉乡村土菜馆 永嘉店","lon":"121.45959667146","lat":"31.209721637788","category":"77","category_name":"湖南菜","address":"卢湾区永嘉路108号(近嘉善路)"},{"poiid":"B2094654DA6DA6FD459F","title":"花子","lon":"121.45753735595","lat":"31.211939687057","category":"95","category_name":"日本料理","address":"徐汇区襄阳南路207-3号(近复兴中路)"},{"poiid":"B2094757D464A5F9479B","title":"哈尔滨刘记饺子馆 永嘉路店","lon":"121.456988054","lat":"31.208580793","category":"82","category_name":"东北菜","address":"徐汇区永嘉路297号(近嘉善路)"},{"poiid":"B2094654DB69A6F8429C","title":"嘉嘉大楼","lon":"121.45912","lat":"31.209761","category":"47","category_name":"住宅区","address":"浦东区崂山东路410号"},{"poiid":"B2094757D068A1FE439A","title":"永太小区","lon":"121.45662","lat":"31.209164","category":"47","category_name":"住宅区","address":"上海永嘉路356弄"},{"poiid":"B2094757D66CA5FC4998","title":"福荣祥烧腊(襄阳南路店)","lon":"121.45804","lat":"31.20964","category":"247","category_name":"餐饮美食","address":"上海徐汇区襄阳南路(近复兴中路)  "},{"poiid":"B2094655D36DA0F4409C","title":"永嘉路襄阳路","lon":"121.45706","lat":"31.20862","category":"38","category_name":"公交车站","address":""},{"poiid":"B2094750D465A2F54899","title":"寿司屋","lon":"121.459007","lat":"31.211322","category":"95","category_name":"日本料理","address":"徐汇区永康路21号(近嘉善路)"},{"poiid":"B2094750DB64A6F84193","title":"复旦大学眼耳喉鼻科医院","lon":"121.456497","lat":"31.207393","category":"162","category_name":"医院","address":null},{"poiid":"B2094757D06EAAFC449B","title":"串串香麻辣烫(襄阳路店)","lon":"121.45859","lat":"31.20867","category":"68","category_name":"快餐厅","address":"徐汇区襄阳南路311号(近永嘉路)"},{"poiid":"B2094655D36DA1F44793","title":"襄阳南路永嘉路","lon":"121.45791","lat":"31.20864","category":"38","category_name":"公交车站","address":""},{"poiid":"B2094757D068A1F8429A","title":"熠盛粤味","lon":"121.457178","lat":"31.210503","category":"72","category_name":"广东菜","address":"徐汇区永康路132号(近襄阳南路)"},{"poiid":"B2094753D76FAAFA449C","title":"上海滩国泰旗舰店","lon":"121.466011","lat":"31.216125","category":"249","category_name":"购物服务","address":"淮海中路868号"},{"poiid":"B209475CD564A7F84292","title":"上海滩新天地店","lon":"121.47463","lat":"31.22164","category":"119","category_name":"商场","address":"\"太仓路181弄新天地北里15号\r\n\""},{"poiid":"B209475CD564A7F8439E","title":"上海滩中信泰富店","lon":"121.45602","lat":"31.22851","category":"119","category_name":"商场","address":"\"南京西路1168号中信泰富广场，店铺号221.\r\n\""},{"poiid":"B2094757DB6CA7F4459F","title":"Shanghai Brewery","lon":"121.45859","lat":"31.21094","category":"260","category_name":"其他","address":"徐汇区东平路15号(近衡山路)"},{"poiid":"B2094757D06FA5FE4898","title":"老地方面馆","lon":"121.45791","lat":"31.21153","category":"68","category_name":"快餐厅","address":"徐汇区襄阳南路233号(近永康路)"},{"poiid":"B2094757D06EAAFA429F","title":"It's Café (Espresso Club)","lon":"121.458087","lat":"31.21099","category":"65","category_name":"咖啡厅","address":"上海徐汇区永康路64号"},{"poiid":"B2094654DA6DA6F94298","title":"大可堂普洱会所","lon":"121.45772","lat":"31.20758","category":"260","category_name":"其他","address":"徐汇区襄阳南路388弄25号(近永嘉路)"},{"poiid":"B2094757D068A3FD4793","title":"华检体检中心(徐汇分院)","lon":"121.459014996","lat":"31.211539631","category":"162","category_name":"医院","address":"徐汇区嘉善路118号明园B座3楼(近永康路)"},{"poiid":"B2094757D16EA5F5409E","title":"The Sailors","lon":"121.458565738","lat":"31.2106958839","category":"500","category_name":"未知分类","address":"上海永康路33号"},{"poiid":"B2094750D665A0FA409D","title":"水稻咖啡","lon":"121.456","lat":"31.208","category":"260","category_name":"其他","address":"徐汇区永嘉路394号(近太原路)"},{"poiid":"B2094654DA6DA6F8439A","title":"上海市第二中学","lon":"121.45536","lat":"31.21034","category":"55","category_name":"中学","address":"徐汇区永康路200号(近太原路)"},{"poiid":"B2094654DA6DA6F8479B","title":"点石斋小宴","lon":"121.45729","lat":"31.20882","category":"76","category_name":"上海菜","address":"徐汇区永嘉路320号(近襄阳南路)"},{"poiid":"B2094757D069A3FE439C","title":"Cafe Sambal","lon":"121.4594935","lat":"31.207575767","category":"110","category_name":"其他亚洲菜","address":"卢湾区陕西南路550弄37号嘉善市场(近绍兴路)"},{"poiid":"B2094757DA6FA3FE439F","title":"恋恋仙草(永康店)","lon":"121.457996","lat":"31.2109670000002","category":"113","category_name":"冷饮店","address":"徐汇区永康路70号(襄阳南路口)"},{"poiid":"B2094750DB68A0FB4492","title":"上海五官科医院","lon":"121.45819","lat":"31.210149","category":"162","category_name":"医院","address":"徐汇区汾阳路83号"},{"poiid":"B2094757D065A2FB4699","title":"Muses Cafe","lon":"121.459490738","lat":"31.2115059012","category":"500","category_name":"未知分类","address":"卢湾区陕西南路438-2号(上海文化广场对面)"},{"poiid":"B2094757D06AA6FA459F","title":"宋芳茶馆 Song Fang Maison de The","lon":"121.45904294968","lat":"31.209497617878","category":"66","category_name":"茶艺馆","address":"永嘉路227号甲1-3楼近陕西南路"},{"poiid":"B2094757D16EA7FA469D","title":"乔家栅食府","lon":"121.457663373","lat":"31.2089027357","category":"68","category_name":"快餐厅","address":"徐汇区襄阳南路336号(近永嘉路)"},{"poiid":"B2094750D76EA6FC439C","title":"游者","lon":"121.457","lat":"31.2087","category":"95","category_name":"日本料理","address":"徐汇区永嘉路335号(近襄阳路)"},{"poiid":"B2094654DA6DA6F9499D","title":"皇宫爆烤鸭","lon":"121.457991054","lat":"31.208769793","category":"68","category_name":"快餐厅","address":"徐汇区襄阳南路311号(近永嘉路)"},{"poiid":"B2094655D26FA4F44198","title":"Newyork Pizza","lon":"121.459","lat":"31.2112","category":"94","category_name":"西餐厅","address":"徐汇区永康路52号(近嘉善路)"},{"poiid":"B2094757D764A5F4449F","title":"IT'S COFFEE","lon":"121.458087","lat":"31.21099","category":"260","category_name":"其他","address":"徐汇区永康路64号(近复兴中路)"},{"poiid":"B2094757D16AA1FA469F","title":"永康里","lon":"121.45614","lat":"31.20967","category":"76","category_name":"上海菜","address":"徐汇区永康路(近襄阳路)"},{"poiid":"B2094751D368A0FE4293","title":"The Sailors Fish & Chips","lon":"121.45851","lat":"31.21092","category":"68","category_name":"快餐厅","address":"徐汇区永康路33号(近襄阳南路)"},{"poiid":"B2094654DB6BA5FB429F","title":"乔家栅(襄阳南路店)","lon":"121.4578","lat":"31.20884","category":"112","category_name":"糕饼店","address":"徐汇区襄阳南路313号(永嘉路)"},{"poiid":"B2094757D06FA5FF469B","title":"乐弗涯亚洲餐厅","lon":"121.45746374","lat":"31.208731608","category":"110","category_name":"其他亚洲菜","address":"上海卢湾区永嘉路335号(近襄阳南路)"},{"poiid":"B2094757D06BA6F54492","title":"台北永康精致美食","lon":"121.45812576","lat":"31.210464891","category":"91","category_name":"台湾菜","address":"徐汇区永康路66号(近襄阳路)"},{"poiid":"B2094757DA65A6FC4299","title":"1933老場坊","lon":"121.457631","lat":"31.21133","category":"248","category_name":"生活娱乐","address":"上海市虹口區漂陽路611號1933老場坊"},{"poiid":"B2094654DA6DABFC4098","title":"中科大厦","lon":"121.46","lat":"31.2078","category":"46","category_name":"楼宇","address":"上海徐汇区岳阳路319号"},{"poiid":"B2094757D16AA3FA409B","title":"台北永康","lon":"121.45818773","lat":"31.210877887","category":"500","category_name":"未知分类","address":"上海永康路66号"},{"poiid":"B2094655D264A6F54999","title":"好小子奶茶","lon":"121.45765","lat":"31.20999","category":"113","category_name":"冷饮店","address":"卢湾区襄阳南路298号(近永嘉路)"},{"poiid":"B2094655D268A5F9419A","title":"永嘉路300弄小区","lon":"121.45758","lat":"31.20931","category":"47","category_name":"住宅区","address":"永嘉路300弄1-20号"},{"poiid":"B2094655D26FA6FB439B","title":"建业里","lon":"121.458","lat":"31.2099","category":"47","category_name":"住宅区","address":"建国西路456弄1-80号"},{"poiid":"B2094654DB6BA5FA4892","title":"快客","lon":"121.458","lat":"31.20923","category":"117","category_name":"便民商店/便利店","address":"永嘉路296"},{"poiid":"B2094757D06AA3FA489E","title":"小荧星艺校(尚街校区)","lon":"121.457245738","lat":"31.2069285447","category":"500","category_name":"未知分类","address":"上海卢湾区建国西路283号(近嘉善路)"},{"poiid":"B209475CD76AAAF5409E","title":"环贸广场（ICC Shanghai）","lon":"121.457374","lat":"31.20972","category":"500","category_name":"未知分类","address":"上海市 上海徐汇区淮海中路999（近陕西南路）"},{"poiid":"B2094757D165AAFA479A","title":"摩仑比萨屋","lon":"121.45698","lat":"31.21013","category":"68","category_name":"快餐厅","address":"徐汇区永康路130号(近襄阳南路)"},{"poiid":"B2094654DA6DA6F9499E","title":"晓平饭店","lon":"121.4596","lat":"31.20848","category":"76","category_name":"上海菜","address":"徐汇区嘉善路202号(近永嘉路)"},{"poiid":"B2094757D665A3FC4898","title":"湘泉乡村土菜馆 永嘉店","lon":"121.45959667146","lat":"31.209721637788","category":"77","category_name":"湖南菜","address":"卢湾区永嘉路108号(近嘉善路)"},{"poiid":"B2094654DA6DA6FD459F","title":"花子","lon":"121.45753735595","lat":"31.211939687057","category":"95","category_name":"日本料理","address":"徐汇区襄阳南路207-3号(近复兴中路)"},{"poiid":"B2094757D464A5F9479B","title":"哈尔滨刘记饺子馆 永嘉路店","lon":"121.456988054","lat":"31.208580793","category":"82","category_name":"东北菜","address":"徐汇区永嘉路297号(近嘉善路)"},{"poiid":"B2094654DB69A6F8429C","title":"嘉嘉大楼","lon":"121.45912","lat":"31.209761","category":"47","category_name":"住宅区","address":"浦东区崂山东路410号"},{"poiid":"B2094757D068A1FE439A","title":"永太小区","lon":"121.45662","lat":"31.209164","category":"47","category_name":"住宅区","address":"上海永嘉路356弄"},{"poiid":"B2094757D66CA5FC4998","title":"福荣祥烧腊(襄阳南路店)","lon":"121.45804","lat":"31.20964","category":"247","category_name":"餐饮美食","address":"上海徐汇区襄阳南路(近复兴中路)  "},{"poiid":"B2094655D36DA0F4409C","title":"永嘉路襄阳路","lon":"121.45706","lat":"31.20862","category":"38","category_name":"公交车站","address":""},{"poiid":"B2094750D465A2F54899","title":"寿司屋","lon":"121.459007","lat":"31.211322","category":"95","category_name":"日本料理","address":"徐汇区永康路21号(近嘉善路)"},{"poiid":"B2094750DB64A6F84193","title":"复旦大学眼耳喉鼻科医院","lon":"121.456497","lat":"31.207393","category":"162","category_name":"医院","address":null},{"poiid":"B2094757D06EAAFC449B","title":"串串香麻辣烫(襄阳路店)","lon":"121.45859","lat":"31.20867","category":"68","category_name":"快餐厅","address":"徐汇区襄阳南路311号(近永嘉路)"},{"poiid":"B2094655D36DA1F44793","title":"襄阳南路永嘉路","lon":"121.45791","lat":"31.20864","category":"38","category_name":"公交车站","address":""},{"poiid":"B2094757D068A1F8429A","title":"熠盛粤味","lon":"121.457178","lat":"31.210503","category":"72","category_name":"广东菜","address":"徐汇区永康路132号(近襄阳南路)"},{"poiid":"B2094753D76FAAFA449C","title":"上海滩国泰旗舰店","lon":"121.466011","lat":"31.216125","category":"249","category_name":"购物服务","address":"淮海中路868号"},{"poiid":"B209475CD564A7F84292","title":"上海滩新天地店","lon":"121.47463","lat":"31.22164","category":"119","category_name":"商场","address":"\"太仓路181弄新天地北里15号\r\n\""},{"poiid":"B209475CD564A7F8439E","title":"上海滩中信泰富店","lon":"121.45602","lat":"31.22851","category":"119","category_name":"商场","address":"\"南京西路1168号中信泰富广场，店铺号221.\r\n\""},{"poiid":"B2094757DB6CA7F4459F","title":"Shanghai Brewery","lon":"121.45859","lat":"31.21094","category":"260","category_name":"其他","address":"徐汇区东平路15号(近衡山路)"},{"poiid":"B2094757D06FA5FE4898","title":"老地方面馆","lon":"121.45791","lat":"31.21153","category":"68","category_name":"快餐厅","address":"徐汇区襄阳南路233号(近永康路)"},{"poiid":"B2094757D06EAAFA429F","title":"It's Café (Espresso Club)","lon":"121.458087","lat":"31.21099","category":"65","category_name":"咖啡厅","address":"上海徐汇区永康路64号"},{"poiid":"B2094654DA6DA6F94298","title":"大可堂普洱会所","lon":"121.45772","lat":"31.20758","category":"260","category_name":"其他","address":"徐汇区襄阳南路388弄25号(近永嘉路)"},{"poiid":"B2094757D068A3FD4793","title":"华检体检中心(徐汇分院)","lon":"121.459014996","lat":"31.211539631","category":"162","category_name":"医院","address":"徐汇区嘉善路118号明园B座3楼(近永康路)"},{"poiid":"B2094757D16EA5F5409E","title":"The Sailors","lon":"121.458565738","lat":"31.2106958839","category":"500","category_name":"未知分类","address":"上海永康路33号"},{"poiid":"B2094750D665A0FA409D","title":"水稻咖啡","lon":"121.456","lat":"31.208","category":"260","category_name":"其他","address":"徐汇区永嘉路394号(近太原路)"},{"poiid":"B2094654DA6DA6F8439A","title":"上海市第二中学","lon":"121.45536","lat":"31.21034","category":"55","category_name":"中学","address":"徐汇区永康路200号(近太原路)"},{"poiid":"B2094654DA6DA6F8479B","title":"点石斋小宴","lon":"121.45729","lat":"31.20882","category":"76","category_name":"上海菜","address":"徐汇区永嘉路320号(近襄阳南路)"},{"poiid":"B2094757D069A3FE439C","title":"Cafe Sambal","lon":"121.4594935","lat":"31.207575767","category":"110","category_name":"其他亚洲菜","address":"卢湾区陕西南路550弄37号嘉善市场(近绍兴路)"},{"poiid":"B2094757DA6FA3FE439F","title":"恋恋仙草(永康店)","lon":"121.457996","lat":"31.2109670000002","category":"113","category_name":"冷饮店","address":"徐汇区永康路70号(襄阳南路口)"},{"poiid":"B2094750DB68A0FB4492","title":"上海五官科医院","lon":"121.45819","lat":"31.210149","category":"162","category_name":"医院","address":"徐汇区汾阳路83号"},{"poiid":"B2094757D065A2FB4699","title":"Muses Cafe","lon":"121.459490738","lat":"31.2115059012","category":"500","category_name":"未知分类","address":"卢湾区陕西南路438-2号(上海文化广场对面)"},{"poiid":"B2094757D06AA6FA459F","title":"宋芳茶馆 Song Fang Maison de The","lon":"121.45904294968","lat":"31.209497617878","category":"66","category_name":"茶艺馆","address":"永嘉路227号甲1-3楼近陕西南路"},{"poiid":"B2094757D16EA7FA469D","title":"乔家栅食府","lon":"121.457663373","lat":"31.2089027357","category":"68","category_name":"快餐厅","address":"徐汇区襄阳南路336号(近永嘉路)"},{"poiid":"B2094750D76EA6FC439C","title":"游者","lon":"121.457","lat":"31.2087","category":"95","category_name":"日本料理","address":"徐汇区永嘉路335号(近襄阳路)"},{"poiid":"B2094654DA6DA6F9499D","title":"皇宫爆烤鸭","lon":"121.457991054","lat":"31.208769793","category":"68","category_name":"快餐厅","address":"徐汇区襄阳南路311号(近永嘉路)"},{"poiid":"B2094655D26FA4F44198","title":"Newyork Pizza","lon":"121.459","lat":"31.2112","category":"94","category_name":"西餐厅","address":"徐汇区永康路52号(近嘉善路)"},{"poiid":"B2094757D764A5F4449F","title":"IT'S COFFEE","lon":"121.458087","lat":"31.21099","category":"260","category_name":"其他","address":"徐汇区永康路64号(近复兴中路)"},{"poiid":"B2094757D16AA1FA469F","title":"永康里","lon":"121.45614","lat":"31.20967","category":"76","category_name":"上海菜","address":"徐汇区永康路(近襄阳路)"},{"poiid":"B2094751D368A0FE4293","title":"The Sailors Fish & Chips","lon":"121.45851","lat":"31.21092","category":"68","category_name":"快餐厅","address":"徐汇区永康路33号(近襄阳南路)"},{"poiid":"B2094654DB6BA5FB429F","title":"乔家栅(襄阳南路店)","lon":"121.4578","lat":"31.20884","category":"112","category_name":"糕饼店","address":"徐汇区襄阳南路313号(永嘉路)"},{"poiid":"B2094757D06FA5FF469B","title":"乐弗涯亚洲餐厅","lon":"121.45746374","lat":"31.208731608","category":"110","category_name":"其他亚洲菜","address":"上海卢湾区永嘉路335号(近襄阳南路)"},{"poiid":"B2094757D06BA6F54492","title":"台北永康精致美食","lon":"121.45812576","lat":"31.210464891","category":"91","category_name":"台湾菜","address":"徐汇区永康路66号(近襄阳路)"},{"poiid":"B2094757DA65A6FC4299","title":"1933老場坊","lon":"121.457631","lat":"31.21133","category":"248","category_name":"生活娱乐","address":"上海市虹口區漂陽路611號1933老場坊"},{"poiid":"B2094654DA6DABFC4098","title":"中科大厦","lon":"121.46","lat":"31.2078","category":"46","category_name":"楼宇","address":"上海徐汇区岳阳路319号"},{"poiid":"B2094757D16AA3FA409B","title":"台北永康","lon":"121.45818773","lat":"31.210877887","category":"500","category_name":"未知分类","address":"上海永康路66号"},{"poiid":"B2094655D264A6F54999","title":"好小子奶茶","lon":"121.45765","lat":"31.20999","category":"113","category_name":"冷饮店","address":"卢湾区襄阳南路298号(近永嘉路)"},{"poiid":"B2094655D268A5F9419A","title":"永嘉路300弄小区","lon":"121.45758","lat":"31.20931","category":"47","category_name":"住宅区","address":"永嘉路300弄1-20号"},{"poiid":"B2094655D26FA6FB439B","title":"建业里","lon":"121.458","lat":"31.2099","category":"47","category_name":"住宅区","address":"建国西路456弄1-80号"},{"poiid":"B2094654DB6BA5FA4892","title":"快客","lon":"121.458","lat":"31.20923","category":"117","category_name":"便民商店/便利店","address":"永嘉路296"},{"poiid":"B2094757D06AA3FA489E","title":"小荧星艺校(尚街校区)","lon":"121.457245738","lat":"31.2069285447","category":"500","category_name":"未知分类","address":"上海卢湾区建国西路283号(近嘉善路)"},{"poiid":"B209475CD76AAAF5409E","title":"环贸广场（ICC Shanghai）","lon":"121.457374","lat":"31.20972","category":"500","category_name":"未知分类","address":"上海市 上海徐汇区淮海中路999（近陕西南路）"},{"poiid":"B2094757D165AAFA479A","title":"摩仑比萨屋","lon":"121.45698","lat":"31.21013","category":"68","category_name":"快餐厅","address":"徐汇区永康路130号(近襄阳南路)"},{"poiid":"B2094654DA6DA6F9499E","title":"晓平饭店","lon":"121.4596","lat":"31.20848","category":"76","category_name":"上海菜","address":"徐汇区嘉善路202号(近永嘉路)"},{"poiid":"B2094757D665A3FC4898","title":"湘泉乡村土菜馆 永嘉店","lon":"121.45959667146","lat":"31.209721637788","category":"77","category_name":"湖南菜","address":"卢湾区永嘉路108号(近嘉善路)"},{"poiid":"B2094654DA6DA6FD459F","title":"花子","lon":"121.45753735595","lat":"31.211939687057","category":"95","category_name":"日本料理","address":"徐汇区襄阳南路207-3号(近复兴中路)"},{"poiid":"B2094757D464A5F9479B","title":"哈尔滨刘记饺子馆 永嘉路店","lon":"121.456988054","lat":"31.208580793","category":"82","category_name":"东北菜","address":"徐汇区永嘉路297号(近嘉善路)"},{"poiid":"B2094654DB69A6F8429C","title":"嘉嘉大楼","lon":"121.45912","lat":"31.209761","category":"47","category_name":"住宅区","address":"浦东区崂山东路410号"},{"poiid":"B2094757D068A1FE439A","title":"永太小区","lon":"121.45662","lat":"31.209164","category":"47","category_name":"住宅区","address":"上海永嘉路356弄"},{"poiid":"B2094757D66CA5FC4998","title":"福荣祥烧腊(襄阳南路店)","lon":"121.45804","lat":"31.20964","category":"247","category_name":"餐饮美食","address":"上海徐汇区襄阳南路(近复兴中路)  "},{"poiid":"B2094655D36DA0F4409C","title":"永嘉路襄阳路","lon":"121.45706","lat":"31.20862","category":"38","category_name":"公交车站","address":""},{"poiid":"B2094750D465A2F54899","title":"寿司屋","lon":"121.459007","lat":"31.211322","category":"95","category_name":"日本料理","address":"徐汇区永康路21号(近嘉善路)"},{"poiid":"B2094750DB64A6F84193","title":"复旦大学眼耳喉鼻科医院","lon":"121.456497","lat":"31.207393","category":"162","category_name":"医院","address":null},{"poiid":"B2094757D06EAAFC449B","title":"串串香麻辣烫(襄阳路店)","lon":"121.45859","lat":"31.20867","category":"68","category_name":"快餐厅","address":"徐汇区襄阳南路311号(近永嘉路)"},{"poiid":"B2094655D36DA1F44793","title":"襄阳南路永嘉路","lon":"121.45791","lat":"31.20864","category":"38","category_name":"公交车站","address":""},{"poiid":"B2094757D068A1F8429A","title":"熠盛粤味","lon":"121.457178","lat":"31.210503","category":"72","category_name":"广东菜","address":"徐汇区永康路132号(近襄阳南路)"},{"poiid":"B2094753D76FAAFA449C","title":"上海滩国泰旗舰店","lon":"121.466011","lat":"31.216125","category":"249","category_name":"购物服务","address":"淮海中路868号"},{"poiid":"B209475CD564A7F84292","title":"上海滩新天地店","lon":"121.47463","lat":"31.22164","category":"119","category_name":"商场","address":"\"太仓路181弄新天地北里15号\r\n\""},{"poiid":"B209475CD564A7F8439E","title":"上海滩中信泰富店","lon":"121.45602","lat":"31.22851","category":"119","category_name":"商场","address":"\"南京西路1168号中信泰富广场，店铺号221.\r\n\""},{"poiid":"B2094757DB6CA7F4459F","title":"Shanghai Brewery","lon":"121.45859","lat":"31.21094","category":"260","category_name":"其他","address":"徐汇区东平路15号(近衡山路)"},{"poiid":"B2094757D06FA5FE4898","title":"老地方面馆","lon":"121.45791","lat":"31.21153","category":"68","category_name":"快餐厅","address":"徐汇区襄阳南路233号(近永康路)"},{"poiid":"B2094757D06EAAFA429F","title":"It's Café (Espresso Club)","lon":"121.458087","lat":"31.21099","category":"65","category_name":"咖啡厅","address":"上海徐汇区永康路64号"},{"poiid":"B2094654DA6DA6F94298","title":"大可堂普洱会所","lon":"121.45772","lat":"31.20758","category":"260","category_name":"其他","address":"徐汇区襄阳南路388弄25号(近永嘉路)"},{"poiid":"B2094757D068A3FD4793","title":"华检体检中心(徐汇分院)","lon":"121.459014996","lat":"31.211539631","category":"162","category_name":"医院","address":"徐汇区嘉善路118号明园B座3楼(近永康路)"},{"poiid":"B2094757D16EA5F5409E","title":"The Sailors","lon":"121.458565738","lat":"31.2106958839","category":"500","category_name":"未知分类","address":"上海永康路33号"},{"poiid":"B2094750D665A0FA409D","title":"水稻咖啡","lon":"121.456","lat":"31.208","category":"260","category_name":"其他","address":"徐汇区永嘉路394号(近太原路)"},{"poiid":"B2094654DA6DA6F8439A","title":"上海市第二中学","lon":"121.45536","lat":"31.21034","category":"55","category_name":"中学","address":"徐汇区永康路200号(近太原路)"},{"poiid":"B2094654DA6DA6F8479B","title":"点石斋小宴","lon":"121.45729","lat":"31.20882","category":"76","category_name":"上海菜","address":"徐汇区永嘉路320号(近襄阳南路)"},{"poiid":"B2094757D069A3FE439C","title":"Cafe Sambal","lon":"121.4594935","lat":"31.207575767","category":"110","category_name":"其他亚洲菜","address":"卢湾区陕西南路550弄37号嘉善市场(近绍兴路)"},{"poiid":"B2094757DA6FA3FE439F","title":"恋恋仙草(永康店)","lon":"121.457996","lat":"31.2109670000002","category":"113","category_name":"冷饮店","address":"徐汇区永康路70号(襄阳南路口)"},{"poiid":"B2094750DB68A0FB4492","title":"上海五官科医院","lon":"121.45819","lat":"31.210149","category":"162","category_name":"医院","address":"徐汇区汾阳路83号"},{"poiid":"B2094757D065A2FB4699","title":"Muses Cafe","lon":"121.459490738","lat":"31.2115059012","category":"500","category_name":"未知分类","address":"卢湾区陕西南路438-2号(上海文化广场对面)"},{"poiid":"B2094757D06AA6FA459F","title":"宋芳茶馆 Song Fang Maison de The","lon":"121.45904294968","lat":"31.209497617878","category":"66","category_name":"茶艺馆","address":"永嘉路227号甲1-3楼近陕西南路"},{"poiid":"B2094757D16EA7FA469D","title":"乔家栅食府","lon":"121.457663373","lat":"31.2089027357","category":"68","category_name":"快餐厅","address":"徐汇区襄阳南路336号(近永嘉路)"},{"poiid":"B2094750D76EA6FC439C","title":"游者","lon":"121.457","lat":"31.2087","category":"95","category_name":"日本料理","address":"徐汇区永嘉路335号(近襄阳路)"},{"poiid":"B2094654DA6DA6F9499D","title":"皇宫爆烤鸭","lon":"121.457991054","lat":"31.208769793","category":"68","category_name":"快餐厅","address":"徐汇区襄阳南路311号(近永嘉路)"},{"poiid":"B2094655D26FA4F44198","title":"Newyork Pizza","lon":"121.459","lat":"31.2112","category":"94","category_name":"西餐厅","address":"徐汇区永康路52号(近嘉善路)"},{"poiid":"B2094757D764A5F4449F","title":"IT'S COFFEE","lon":"121.458087","lat":"31.21099","category":"260","category_name":"其他","address":"徐汇区永康路64号(近复兴中路)"},{"poiid":"B2094757D16AA1FA469F","title":"永康里","lon":"121.45614","lat":"31.20967","category":"76","category_name":"上海菜","address":"徐汇区永康路(近襄阳路)"},{"poiid":"B2094751D368A0FE4293","title":"The Sailors Fish & Chips","lon":"121.45851","lat":"31.21092","category":"68","category_name":"快餐厅","address":"徐汇区永康路33号(近襄阳南路)"},{"poiid":"B2094654DB6BA5FB429F","title":"乔家栅(襄阳南路店)","lon":"121.4578","lat":"31.20884","category":"112","category_name":"糕饼店","address":"徐汇区襄阳南路313号(永嘉路)"},{"poiid":"B2094757D06FA5FF469B","title":"乐弗涯亚洲餐厅","lon":"121.45746374","lat":"31.208731608","category":"110","category_name":"其他亚洲菜","address":"上海卢湾区永嘉路335号(近襄阳南路)"},{"poiid":"B2094757D06BA6F54492","title":"台北永康精致美食","lon":"121.45812576","lat":"31.210464891","category":"91","category_name":"台湾菜","address":"徐汇区永康路66号(近襄阳路)"},{"poiid":"B2094757DA65A6FC4299","title":"1933老場坊","lon":"121.457631","lat":"31.21133","category":"248","category_name":"生活娱乐","address":"上海市虹口區漂陽路611號1933老場坊"},{"poiid":"B2094654DA6DABFC4098","title":"中科大厦","lon":"121.46","lat":"31.2078","category":"46","category_name":"楼宇","address":"上海徐汇区岳阳路319号"},{"poiid":"B2094757D16AA3FA409B","title":"台北永康","lon":"121.45818773","lat":"31.210877887","category":"500","category_name":"未知分类","address":"上海永康路66号"},{"poiid":"B2094655D264A6F54999","title":"好小子奶茶","lon":"121.45765","lat":"31.20999","category":"113","category_name":"冷饮店","address":"卢湾区襄阳南路298号(近永嘉路)"},{"poiid":"B2094655D268A5F9419A","title":"永嘉路300弄小区","lon":"121.45758","lat":"31.20931","category":"47","category_name":"住宅区","address":"永嘉路300弄1-20号"},{"poiid":"B2094655D26FA6FB439B","title":"建业里","lon":"121.458","lat":"31.2099","category":"47","category_name":"住宅区","address":"建国西路456弄1-80号"},{"poiid":"B2094654DB6BA5FA4892","title":"快客","lon":"121.458","lat":"31.20923","category":"117","category_name":"便民商店/便利店","address":"永嘉路296"},{"poiid":"B2094757D06AA3FA489E","title":"小荧星艺校(尚街校区)","lon":"121.457245738","lat":"31.2069285447","category":"500","category_name":"未知分类","address":"上海卢湾区建国西路283号(近嘉善路)"},{"poiid":"B209475CD76AAAF5409E","title":"环贸广场（ICC Shanghai）","lon":"121.457374","lat":"31.20972","category":"500","category_name":"未知分类","address":"上海市 上海徐汇区淮海中路999（近陕西南路）"},{"poiid":"B2094757D165AAFA479A","title":"摩仑比萨屋","lon":"121.45698","lat":"31.21013","category":"68","category_name":"快餐厅","address":"徐汇区永康路130号(近襄阳南路)"},{"poiid":"B2094654DA6DA6F9499E","title":"晓平饭店","lon":"121.4596","lat":"31.20848","category":"76","category_name":"上海菜","address":"徐汇区嘉善路202号(近永嘉路)"},{"poiid":"B2094757D665A3FC4898","title":"湘泉乡村土菜馆 永嘉店","lon":"121.45959667146","lat":"31.209721637788","category":"77","category_name":"湖南菜","address":"卢湾区永嘉路108号(近嘉善路)"},{"poiid":"B2094654DA6DA6FD459F","title":"花子","lon":"121.45753735595","lat":"31.211939687057","category":"95","category_name":"日本料理","address":"徐汇区襄阳南路207-3号(近复兴中路)"},{"poiid":"B2094757D464A5F9479B","title":"哈尔滨刘记饺子馆 永嘉路店","lon":"121.456988054","lat":"31.208580793","category":"82","category_name":"东北菜","address":"徐汇区永嘉路297号(近嘉善路)"},{"poiid":"B2094654DB69A6F8429C","title":"嘉嘉大楼","lon":"121.45912","lat":"31.209761","category":"47","category_name":"住宅区","address":"浦东区崂山东路410号"},{"poiid":"B2094757D068A1FE439A","title":"永太小区","lon":"121.45662","lat":"31.209164","category":"47","category_name":"住宅区","address":"上海永嘉路356弄"},{"poiid":"B2094757D66CA5FC4998","title":"福荣祥烧腊(襄阳南路店)","lon":"121.45804","lat":"31.20964","category":"247","category_name":"餐饮美食","address":"上海徐汇区襄阳南路(近复兴中路)  "},{"poiid":"B2094655D36DA0F4409C","title":"永嘉路襄阳路","lon":"121.45706","lat":"31.20862","category":"38","category_name":"公交车站","address":""},{"poiid":"B2094750D465A2F54899","title":"寿司屋","lon":"121.459007","lat":"31.211322","category":"95","category_name":"日本料理","address":"徐汇区永康路21号(近嘉善路)"},{"poiid":"B2094750DB64A6F84193","title":"复旦大学眼耳喉鼻科医院","lon":"121.456497","lat":"31.207393","category":"162","category_name":"医院","address":null}]