[{"poiid":"B2094654D46AABFB429B","title":"上海外高桥保税区(二号门)","lon":"121.58669","lat":"31.35007","category":"45","category_name":"产业园区","address":"上海市浦东新区"},{"poiid":"B2094751D26BA3FE429B","title":"上海外高桥喜来登酒店","lon":"121.587144","lat":"31.350886","category":"251","category_name":"出行住宿","address":"上海市外高桥保税区基隆路28号"},{"poiid":"B2094757D06FA4F54492","title":"小四川水煮鱼(高桥店)","lon":"121.57752","lat":"31.35074","category":"71","category_name":"四川菜","address":"浦东新区高桥镇同港路110号(近地铁六号线港城路站)"},{"poiid":"B2094757D06FABF9419C","title":"外高桥税务局","lon":"121.588544","lat":"31.349773","category":"252","category_name":"楼宇机构","address":"上海浦东新区基隆路9号"},{"poiid":"B2094757D06FA6FD4898","title":"外高桥二期码头","lon":"121.581858","lat":"31.359955","category":"500","category_name":"未知分类","address":"上海市浦东新区港华路1299号"},{"poiid":"B2094757D064ABF4439A","title":"maxyou歌城(高桥店)","lon":"121.585417068","lat":"31.350833185","category":"170","category_name":"KTV","address":"上海杨高北路花山路路口"},{"poiid":"B2094757D068A6FC479E","title":"富豪会展公寓酒店","lon":"121.58600306","lat":"31.348556133","category":"268","category_name":"自助","address":"浦东新区富特西一路77号(近外高桥保税区北站)"},{"poiid":"B2094655D36CA6FE4693","title":"港城路地铁站","lon":"121.57234","lat":"31.35225","category":"36","category_name":"地铁站","address":""},{"poiid":"B2094757D16AA3FC499B","title":"外高桥保税区海关一号门","lon":"121.590420068","lat":"31.3614094252","category":"500","category_name":"未知分类","address":"上海威斯路"},{"poiid":"B2094757D16FABF44298","title":"高桥老街","lon":"121.581389039","lat":"31.3443676684","category":"500","category_name":"未知分类","address":"上海高桥镇东街西街"},{"poiid":"B2094654D46BA3F84993","title":"上港集箱外高桥码头","lon":"121.58197","lat":"31.36184","category":"34","category_name":"港口码头","address":"港华路1299号"},{"poiid":"B2094757D168A4FD419D","title":"家弘海鲜渔庄","lon":"121.584862968","lat":"31.3507511832","category":"247","category_name":"餐饮美食","address":"上海浦东高桥镇花山路1199号"},{"poiid":"B2094654D46AABFD409C","title":"上海市高桥中学","lon":"121.58134","lat":"31.34812","category":"55","category_name":"中学","address":"浦东新区高桥镇季景北路859号"},{"poiid":"B2094654D46BA3F84593","title":"浦东国际集装箱码头有限公司","lon":"121.58937","lat":"31.36334","category":"263","category_name":"公司","address":""},{"poiid":"B2094654D46AABFB4298","title":"汤臣国际贸易大楼","lon":"121.594","lat":"31.3558","category":"46","category_name":"楼宇","address":"基隆路1号"},{"poiid":"B2094757D16DA3F5479D","title":"保税区海关一号门","lon":"121.58955","lat":"31.3616","category":"500","category_name":"未知分类","address":"上海威斯路"},{"poiid":"B2094757D064AAF5439C","title":"港城新苑","lon":"121.58675942383","lat":"31.358472578242","category":"47","category_name":"住宅区","address":"上海草高之路168弄"},{"poiid":"B2094757DA6EAAFC4899","title":"海关联办楼","lon":"121.585906100002","lat":"31.3600806000001","category":"252","category_name":"楼宇机构","address":"浦东新区杨高北一路90号"},{"poiid":"B2094757D165A5FA419B","title":"联办406高桥一霸据点","lon":"121.58732279","lat":"31.362883633","category":"500","category_name":"未知分类","address":"上海杨高北一路90号"},{"poiid":"B2094654D46BA3FE4793","title":"老宝山城遗址","lon":"121.58597","lat":"31.36143","category":"250","category_name":"公园户外","address":""},{"poiid":"B2094757D66CA7FC4192","title":"怡心苑","lon":"121.58149289088","lat":"31.354172322681","category":"500","category_name":"未知分类","address":"上海市浦东新区花山路609弄"},{"poiid":"B2094654D46AABF4479F","title":"东华金融大厦","lon":"121.595","lat":"31.3543","category":"46","category_name":"楼宇","address":"马吉路28号"},{"poiid":"B2094757D66DA2FA419C","title":"昶宏大厦","lon":"121.59254541","lat":"31.359249503","category":"46","category_name":"楼宇","address":"上海冰克路500号"},{"poiid":"B2094654DB69A0FB499F","title":"上海外高桥保税区港务公司","lon":"121.58898","lat":"31.364","category":"263","category_name":"公司","address":"杨高北一路88号"},{"poiid":"B2094757D16AAAFE4092","title":"浦东文化馆","lon":"121.59042006","lat":"31.361409425","category":"500","category_name":"未知分类","address":"上海浦东大道143号"},{"poiid":"B2094757D66CA0FE469D","title":"海关办公室","lon":"121.58933106","lat":"31.364151487","category":"500","category_name":"未知分类","address":"上海市浦东新区东海西路"},{"poiid":"B2094757D568AAFE449E","title":"沪东集装箱码头有限公司办公楼","lon":"121.58491","lat":"31.3577","category":"46","category_name":"楼宇","address":"港建路1号"},{"poiid":"B2094654D46AABF4469C","title":"外高桥大厦","lon":"121.594","lat":"31.3564","category":"46","category_name":"楼宇","address":"基隆路6号"},{"poiid":"B2094655D36CA7FB449F","title":"海高新村","lon":"121.592","lat":"31.3569","category":"38","category_name":"公交车站","address":"杨高北路花山路"},{"poiid":"B2094750DA69A5F4429A","title":"星巴克","lon":"121.58704","lat":"31.3495","category":"260","category_name":"其他","address":"浦东新区基隆路1号汤臣国际贸易大厦"},{"poiid":"B2094654D46AABFC429B","title":"海高一村","lon":"121.589","lat":"31.3558","category":"47","category_name":"住宅区","address":"花山路1003弄"},{"poiid":"B2094654D46AABF44798","title":"国际信贸大厦","lon":"121.58975","lat":"31.34986","category":"46","category_name":"楼宇","address":"浦东区浦东外高桥保税区基隆路555号"},{"poiid":"B2094655D26AA0FA449C","title":"地铁港城路站","lon":"121.57492","lat":"31.35359","category":"36","category_name":"地铁站","address":""},{"poiid":"B2094654D46BA3F4419D","title":"上海恩尔仓储有限公司","lon":"121.58449","lat":"31.35756","category":"263","category_name":"公司","address":"杨高北一路25号"},{"poiid":"B2094654D46AAAFC4198","title":"春晖苑","lon":"121.58803","lat":"31.343513","category":"47","category_name":"住宅区","address":"春晖路368弄1-59号"},{"poiid":"B2094757D06BA0FA4292","title":"梓亭","lon":"121.588751054","lat":"31.350598793","category":"95","category_name":"日本料理","address":"浦东新区外高桥保税区基隆路6号(富特西一路基隆路)"},{"poiid":"B2094654D46BA3F8499A","title":"高桥烈士陵园","lon":"121.57672","lat":"31.35764","category":"620","category_name":"丧葬","address":"浦东新区欧高路钟家弄78号"},{"poiid":"B2094757D66FA0FD479B","title":"依飞驰","lon":"121.584679","lat":"31.356344","category":"249","category_name":"购物服务","address":"上海杨高北一路19号"},{"poiid":"B2094757D16CA5FD439A","title":"外高桥出入境边防检查站","lon":"121.5787417","lat":"31.3614877","category":"500","category_name":"未知分类","address":"上海市浦东新区港华路189号"},{"poiid":"B2094757D06EAAFA429D","title":"地铁六号线","lon":"121.57514","lat":"31.35351","category":"36","category_name":"地铁站","address":"港城路 - 东方体育中心 上海轨道交通六号线 轨交 6"},{"poiid":"B2094750D26AA7FC449D","title":"港城新苑","lon":"121.583282","lat":"31.352983","category":"47","category_name":"住宅区","address":"草高支路168弄"},{"poiid":"B209475CD66BA4FC459B","title":"中国（上海）自由贸易试验区","lon":"121.586691","lat":"31.350137","category":"500","category_name":"未知分类","address":"上海市 外高桥保税区基隆路"},{"poiid":"B2094654D46BA3F84099","title":"上海外高桥保税区港务公司(杨高北路)","lon":"121.58534","lat":"31.35659","category":"263","category_name":"公司","address":""},{"poiid":"B2094757D16DA6F94092","title":"高桥镇小学","lon":"121.578666","lat":"31.34961","category":"56","category_name":"小学","address":"上海市花山路789号"},{"poiid":"B2094654DB65A4F8439E","title":"莫泰168连锁旅店(外高桥店)","lon":"121.58562","lat":"31.35116","category":"216","category_name":"经济型连锁酒店","address":"上海市浦东新区花山路1209号（杨高北路与花山路的交汇口）"},{"poiid":"B2094654D46BA3F84098","title":"上海依飞驰集装箱储运有限公司","lon":"121.58542","lat":"31.35638","category":"248","category_name":"生活娱乐","address":""},{"poiid":"B2094654D46BA3F84698","title":"外联发冷库","lon":"121.59391","lat":"31.35808","category":"263","category_name":"公司","address":"上海市冰克路520号"},{"poiid":"B2094654D46BA3FE489B","title":"上海江海国际集装箱货运公司","lon":"121.58549","lat":"31.35584","category":"263","category_name":"公司","address":"杨高北一路66号"},{"poiid":"B2094757D169A5FA4698","title":"外高桥发电厂","lon":"121.60051884","lat":"31.349837707","category":"500","category_name":"未知分类","address":"上海浦东新区海徐路1001号"},{"poiid":"B2094655D26AA0FA449F","title":"地铁外高桥保税区北站","lon":"121.58661","lat":"31.34884","category":"36","category_name":"地铁站","address":""},{"poiid":"B2094654D46AABFB429B","title":"上海外高桥保税区(二号门)","lon":"121.58669","lat":"31.35007","category":"45","category_name":"产业园区","address":"上海市浦东新区"},{"poiid":"B2094751D26BA3FE429B","title":"上海外高桥喜来登酒店","lon":"121.587144","lat":"31.350886","category":"251","category_name":"出行住宿","address":"上海市外高桥保税区基隆路28号"},{"poiid":"B2094757D06FA4F54492","title":"小四川水煮鱼(高桥店)","lon":"121.57752","lat":"31.35074","category":"71","category_name":"四川菜","address":"浦东新区高桥镇同港路110号(近地铁六号线港城路站)"},{"poiid":"B2094757D06FABF9419C","title":"外高桥税务局","lon":"121.588544","lat":"31.349773","category":"252","category_name":"楼宇机构","address":"上海浦东新区基隆路9号"},{"poiid":"B2094757D06FA6FD4898","title":"外高桥二期码头","lon":"121.581858","lat":"31.359955","category":"500","category_name":"未知分类","address":"上海市浦东新区港华路1299号"},{"poiid":"B2094757D064ABF4439A","title":"maxyou歌城(高桥店)","lon":"121.585417068","lat":"31.350833185","category":"170","category_name":"KTV","address":"上海杨高北路花山路路口"},{"poiid":"B2094757D068A6FC479E","title":"富豪会展公寓酒店","lon":"121.58600306","lat":"31.348556133","category":"268","category_name":"自助","address":"浦东新区富特西一路77号(近外高桥保税区北站)"},{"poiid":"B2094655D36CA6FE4693","title":"港城路地铁站","lon":"121.57234","lat":"31.35225","category":"36","category_name":"地铁站","address":""},{"poiid":"B2094757D16AA3FC499B","title":"外高桥保税区海关一号门","lon":"121.590420068","lat":"31.3614094252","category":"500","category_name":"未知分类","address":"上海威斯路"},{"poiid":"B2094757D16FABF44298","title":"高桥老街","lon":"121.581389039","lat":"31.3443676684","category":"500","category_name":"未知分类","address":"上海高桥镇东街西街"},{"poiid":"B2094654D46BA3F84993","title":"上港集箱外高桥码头","lon":"121.58197","lat":"31.36184","category":"34","category_name":"港口码头","address":"港华路1299号"},{"poiid":"B2094757D168A4FD419D","title":"家弘海鲜渔庄","lon":"121.584862968","lat":"31.3507511832","category":"247","category_name":"餐饮美食","address":"上海浦东高桥镇花山路1199号"},{"poiid":"B2094654D46AABFD409C","title":"上海市高桥中学","lon":"121.58134","lat":"31.34812","category":"55","category_name":"中学","address":"浦东新区高桥镇季景北路859号"},{"poiid":"B2094654D46BA3F84593","title":"浦东国际集装箱码头有限公司","lon":"121.58937","lat":"31.36334","category":"263","category_name":"公司","address":""},{"poiid":"B2094654D46AABFB4298","title":"汤臣国际贸易大楼","lon":"121.594","lat":"31.3558","category":"46","category_name":"楼宇","address":"基隆路1号"},{"poiid":"B2094757D16DA3F5479D","title":"保税区海关一号门","lon":"121.58955","lat":"31.3616","category":"500","category_name":"未知分类","address":"上海威斯路"},{"poiid":"B2094757D064AAF5439C","title":"港城新苑","lon":"121.58675942383","lat":"31.358472578242","category":"47","category_name":"住宅区","address":"上海草高之路168弄"},{"poiid":"B2094757DA6EAAFC4899","title":"海关联办楼","lon":"121.585906100002","lat":"31.3600806000001","category":"252","category_name":"楼宇机构","address":"浦东新区杨高北一路90号"},{"poiid":"B2094757D165A5FA419B","title":"联办406高桥一霸据点","lon":"121.58732279","lat":"31.362883633","category":"500","category_name":"未知分类","address":"上海杨高北一路90号"},{"poiid":"B2094654D46BA3FE4793","title":"老宝山城遗址","lon":"121.58597","lat":"31.36143","category":"250","category_name":"公园户外","address":""},{"poiid":"B2094757D66CA7FC4192","title":"怡心苑","lon":"121.58149289088","lat":"31.354172322681","category":"500","category_name":"未知分类","address":"上海市浦东新区花山路609弄"},{"poiid":"B2094654D46AABF4479F","title":"东华金融大厦","lon":"121.595","lat":"31.3543","category":"46","category_name":"楼宇","address":"马吉路28号"},{"poiid":"B2094757D66DA2FA419C","title":"昶宏大厦","lon":"121.59254541","lat":"31.359249503","category":"46","category_name":"楼宇","address":"上海冰克路500号"},{"poiid":"B2094654DB69A0FB499F","title":"上海外高桥保税区港务公司","lon":"121.58898","lat":"31.364","category":"263","category_name":"公司","address":"杨高北一路88号"},{"poiid":"B2094757D16AAAFE4092","title":"浦东文化馆","lon":"121.59042006","lat":"31.361409425","category":"500","category_name":"未知分类","address":"上海浦东大道143号"},{"poiid":"B2094757D66CA0FE469D","title":"海关办公室","lon":"121.58933106","lat":"31.364151487","category":"500","category_name":"未知分类","address":"上海市浦东新区东海西路"},{"poiid":"B2094757D568AAFE449E","title":"沪东集装箱码头有限公司办公楼","lon":"121.58491","lat":"31.3577","category":"46","category_name":"楼宇","address":"港建路1号"},{"poiid":"B2094654D46AABF4469C","title":"外高桥大厦","lon":"121.594","lat":"31.3564","category":"46","category_name":"楼宇","address":"基隆路6号"},{"poiid":"B2094655D36CA7FB449F","title":"海高新村","lon":"121.592","lat":"31.3569","category":"38","category_name":"公交车站","address":"杨高北路花山路"},{"poiid":"B2094750DA69A5F4429A","title":"星巴克","lon":"121.58704","lat":"31.3495","category":"260","category_name":"其他","address":"浦东新区基隆路1号汤臣国际贸易大厦"},{"poiid":"B2094654D46AABFC429B","title":"海高一村","lon":"121.589","lat":"31.3558","category":"47","category_name":"住宅区","address":"花山路1003弄"},{"poiid":"B2094654D46AABF44798","title":"国际信贸大厦","lon":"121.58975","lat":"31.34986","category":"46","category_name":"楼宇","address":"浦东区浦东外高桥保税区基隆路555号"},{"poiid":"B2094655D26AA0FA449C","title":"地铁港城路站","lon":"121.57492","lat":"31.35359","category":"36","category_name":"地铁站","address":""},{"poiid":"B2094654D46BA3F4419D","title":"上海恩尔仓储有限公司","lon":"121.58449","lat":"31.35756","category":"263","category_name":"公司","address":"杨高北一路25号"},{"poiid":"B2094654D46AAAFC4198","title":"春晖苑","lon":"121.58803","lat":"31.343513","category":"47","category_name":"住宅区","address":"春晖路368弄1-59号"},{"poiid":"B2094757D06BA0FA4292","title":"梓亭","lon":"121.588751054","lat":"31.350598793","category":"95","category_name":"日本料理","address":"浦东新区外高桥保税区基隆路6号(富特西一路基隆路)"},{"poiid":"B2094654D46BA3F8499A","title":"高桥烈士陵园","lon":"121.57672","lat":"31.35764","category":"620","category_name":"丧葬","address":"浦东新区欧高路钟家弄78号"},{"poiid":"B2094757D66FA0FD479B","title":"依飞驰","lon":"121.584679","lat":"31.356344","category":"249","category_name":"购物服务","address":"上海杨高北一路19号"},{"poiid":"B2094757D16CA5FD439A","title":"外高桥出入境边防检查站","lon":"121.5787417","lat":"31.3614877","category":"500","category_name":"未知分类","address":"上海市浦东新区港华路189号"},{"poiid":"B2094757D06EAAFA429D","title":"地铁六号线","lon":"121.57514","lat":"31.35351","category":"36","category_name":"地铁站","address":"港城路 - 东方体育中心 上海轨道交通六号线 轨交 6"},{"poiid":"B2094750D26AA7FC449D","title":"港城新苑","lon":"121.583282","lat":"31.352983","category":"47","category_name":"住宅区","address":"草高支路168弄"},{"poiid":"B209475CD66BA4FC459B","title":"中国（上海）自由贸易试验区","lon":"121.586691","lat":"31.350137","category":"500","category_name":"未知分类","address":"上海市 外高桥保税区基隆路"},{"poiid":"B2094654D46BA3F84099","title":"上海外高桥保税区港务公司(杨高北路)","lon":"121.58534","lat":"31.35659","category":"263","category_name":"公司","address":""},{"poiid":"B2094757D16DA6F94092","title":"高桥镇小学","lon":"121.578666","lat":"31.34961","category":"56","category_name":"小学","address":"上海市花山路789号"},{"poiid":"B2094654DB65A4F8439E","title":"莫泰168连锁旅店(外高桥店)","lon":"121.58562","lat":"31.35116","category":"216","category_name":"经济型连锁酒店","address":"上海市浦东新区花山路1209号（杨高北路与花山路的交汇口）"},{"poiid":"B2094654D46BA3F84098","title":"上海依飞驰集装箱储运有限公司","lon":"121.58542","lat":"31.35638","category":"248","category_name":"生活娱乐","address":""},{"poiid":"B2094654D46BA3F84698","title":"外联发冷库","lon":"121.59391","lat":"31.35808","category":"263","category_name":"公司","address":"上海市冰克路520号"},{"poiid":"B2094654D46BA3FE489B","title":"上海江海国际集装箱货运公司","lon":"121.58549","lat":"31.35584","category":"263","category_name":"公司","address":"杨高北一路66号"},{"poiid":"B2094757D169A5FA4698","title":"外高桥发电厂","lon":"121.60051884","lat":"31.349837707","category":"500","category_name":"未知分类","address":"上海浦东新区海徐路1001号"},{"poiid":"B2094655D26AA0FA449F","title":"地铁外高桥保税区北站","lon":"121.58661","lat":"31.34884","category":"36","category_name":"地铁站","address":""},{"poiid":"B2094654D46AABFB429B","title":"上海外高桥保税区(二号门)","lon":"121.58669","lat":"31.35007","category":"45","category_name":"产业园区","address":"上海市浦东新区"},{"poiid":"B2094751D26BA3FE429B","title":"上海外高桥喜来登酒店","lon":"121.587144","lat":"31.350886","category":"251","category_name":"出行住宿","address":"上海市外高桥保税区基隆路28号"},{"poiid":"B2094757D06FA4F54492","title":"小四川水煮鱼(高桥店)","lon":"121.57752","lat":"31.35074","category":"71","category_name":"四川菜","address":"浦东新区高桥镇同港路110号(近地铁六号线港城路站)"},{"poiid":"B2094757D06FABF9419C","title":"外高桥税务局","lon":"121.588544","lat":"31.349773","category":"252","category_name":"楼宇机构","address":"上海浦东新区基隆路9号"},{"poiid":"B2094757D06FA6FD4898","title":"外高桥二期码头","lon":"121.581858","lat":"31.359955","category":"500","category_name":"未知分类","address":"上海市浦东新区港华路1299号"},{"poiid":"B2094757D064ABF4439A","title":"maxyou歌城(高桥店)","lon":"121.585417068","lat":"31.350833185","category":"170","category_name":"KTV","address":"上海杨高北路花山路路口"},{"poiid":"B2094757D068A6FC479E","title":"富豪会展公寓酒店","lon":"121.58600306","lat":"31.348556133","category":"268","category_name":"自助","address":"浦东新区富特西一路77号(近外高桥保税区北站)"},{"poiid":"B2094655D36CA6FE4693","title":"港城路地铁站","lon":"121.57234","lat":"31.35225","category":"36","category_name":"地铁站","address":""},{"poiid":"B2094757D16AA3FC499B","title":"外高桥保税区海关一号门","lon":"121.590420068","lat":"31.3614094252","category":"500","category_name":"未知分类","address":"上海威斯路"},{"poiid":"B2094757D16FABF44298","title":"高桥老街","lon":"121.581389039","lat":"31.3443676684","category":"500","category_name":"未知分类","address":"上海高桥镇东街西街"},{"poiid":"B2094654D46BA3F84993","title":"上港集箱外高桥码头","lon":"121.58197","lat":"31.36184","category":"34","category_name":"港口码头","address":"港华路1299号"},{"poiid":"B2094757D168A4FD419D","title":"家弘海鲜渔庄","lon":"121.584862968","lat":"31.3507511832","category":"247","category_name":"餐饮美食","address":"上海浦东高桥镇花山路1199号"},{"poiid":"B2094654D46AABFD409C","title":"上海市高桥中学","lon":"121.58134","lat":"31.34812","category":"55","category_name":"中学","address":"浦东新区高桥镇季景北路859号"},{"poiid":"B2094654D46BA3F84593","title":"浦东国际集装箱码头有限公司","lon":"121.58937","lat":"31.36334","category":"263","category_name":"公司","address":""},{"poiid":"B2094654D46AABFB4298","title":"汤臣国际贸易大楼","lon":"121.594","lat":"31.3558","category":"46","category_name":"楼宇","address":"基隆路1号"},{"poiid":"B2094757D16DA3F5479D","title":"保税区海关一号门","lon":"121.58955","lat":"31.3616","category":"500","category_name":"未知分类","address":"上海威斯路"},{"poiid":"B2094757D064AAF5439C","title":"港城新苑","lon":"121.58675942383","lat":"31.358472578242","category":"47","category_name":"住宅区","address":"上海草高之路168弄"},{"poiid":"B2094757DA6EAAFC4899","title":"海关联办楼","lon":"121.585906100002","lat":"31.3600806000001","category":"252","category_name":"楼宇机构","address":"浦东新区杨高北一路90号"},{"poiid":"B2094757D165A5FA419B","title":"联办406高桥一霸据点","lon":"121.58732279","lat":"31.362883633","category":"500","category_name":"未知分类","address":"上海杨高北一路90号"},{"poiid":"B2094654D46BA3FE4793","title":"老宝山城遗址","lon":"121.58597","lat":"31.36143","category":"250","category_name":"公园户外","address":""},{"poiid":"B2094757D66CA7FC4192","title":"怡心苑","lon":"121.58149289088","lat":"31.354172322681","category":"500","category_name":"未知分类","address":"上海市浦东新区花山路609弄"},{"poiid":"B2094654D46AABF4479F","title":"东华金融大厦","lon":"121.595","lat":"31.3543","category":"46","category_name":"楼宇","address":"马吉路28号"},{"poiid":"B2094757D66DA2FA419C","title":"昶宏大厦","lon":"121.59254541","lat":"31.359249503","category":"46","category_name":"楼宇","address":"上海冰克路500号"},{"poiid":"B2094654DB69A0FB499F","title":"上海外高桥保税区港务公司","lon":"121.58898","lat":"31.364","category":"263","category_name":"公司","address":"杨高北一路88号"},{"poiid":"B2094757D16AAAFE4092","title":"浦东文化馆","lon":"121.59042006","lat":"31.361409425","category":"500","category_name":"未知分类","address":"上海浦东大道143号"},{"poiid":"B2094757D66CA0FE469D","title":"海关办公室","lon":"121.58933106","lat":"31.364151487","category":"500","category_name":"未知分类","address":"上海市浦东新区东海西路"},{"poiid":"B2094757D568AAFE449E","title":"沪东集装箱码头有限公司办公楼","lon":"121.58491","lat":"31.3577","category":"46","category_name":"楼宇","address":"港建路1号"},{"poiid":"B2094654D46AABF4469C","title":"外高桥大厦","lon":"121.594","lat":"31.3564","category":"46","category_name":"楼宇","address":"基隆路6号"},{"poiid":"B2094655D36CA7FB449F","title":"海高新村","lon":"121.592","lat":"31.3569","category":"38","category_name":"公交车站","address":"杨高北路花山路"},{"poiid":"B2094750DA69A5F4429A","title":"星巴克","lon":"121.58704","lat":"31.3495","category":"260","category_name":"其他","address":"浦东新区基隆路1号汤臣国际贸易大厦"},{"poiid":"B2094654D46AABFC429B","title":"海高一村","lon":"121.589","lat":"31.3558","category":"47","category_name":"住宅区","address":"花山路1003弄"},{"poiid":"B2094654D46AABF44798","title":"国际信贸大厦","lon":"121.58975","lat":"31.34986","category":"46","category_name":"楼宇","address":"浦东区浦东外高桥保税区基隆路555号"},{"poiid":"B2094655D26AA0FA449C","title":"地铁港城路站","lon":"121.57492","lat":"31.35359","category":"36","category_name":"地铁站","address":""},{"poiid":"B2094654D46BA3F4419D","title":"上海恩尔仓储有限公司","lon":"121.58449","lat":"31.35756","category":"263","category_name":"公司","address":"杨高北一路25号"},{"poiid":"B2094654D46AAAFC4198","title":"春晖苑","lon":"121.58803","lat":"31.343513","category":"47","category_name":"住宅区","address":"春晖路368弄1-59号"},{"poiid":"B2094757D06BA0FA4292","title":"梓亭","lon":"121.588751054","lat":"31.350598793","category":"95","category_name":"日本料理","address":"浦东新区外高桥保税区基隆路6号(富特西一路基隆路)"},{"poiid":"B2094654D46BA3F8499A","title":"高桥烈士陵园","lon":"121.57672","lat":"31.35764","category":"620","category_name":"丧葬","address":"浦东新区欧高路钟家弄78号"},{"poiid":"B2094757D66FA0FD479B","title":"依飞驰","lon":"121.584679","lat":"31.356344","category":"249","category_name":"购物服务","address":"上海杨高北一路19号"},{"poiid":"B2094757D16CA5FD439A","title":"外高桥出入境边防检查站","lon":"121.5787417","lat":"31.3614877","category":"500","category_name":"未知分类","address":"上海市浦东新区港华路189号"},{"poiid":"B2094757D06EAAFA429D","title":"地铁六号线","lon":"121.57514","lat":"31.35351","category":"36","category_name":"地铁站","address":"港城路 - 东方体育中心 上海轨道交通六号线 轨交 6"},{"poiid":"B2094750D26AA7FC449D","title":"港城新苑","lon":"121.583282","lat":"31.352983","category":"47","category_name":"住宅区","address":"草高支路168弄"},{"poiid":"B209475CD66BA4FC459B","title":"中国（上海）自由贸易试验区","lon":"121.586691","lat":"31.350137","category":"500","category_name":"未知分类","address":"上海市 外高桥保税区基隆路"},{"poiid":"B2094654D46BA3F84099","title":"上海外高桥保税区港务公司(杨高北路)","lon":"121.58534","lat":"31.35659","category":"263","category_name":"公司","address":""},{"poiid":"B2094757D16DA6F94092","title":"高桥镇小学","lon":"121.578666","lat":"31.34961","category":"56","category_name":"小学","address":"上海市花山路789号"},{"poiid":"B2094654DB65A4F8439E","title":"莫泰168连锁旅店(外高桥店)","lon":"121.58562","lat":"31.35116","category":"216","category_name":"经济型连锁酒店","address":"上海市浦东新区花山路1209号（杨高北路与花山路的交汇口）"},{"poiid":"B2094654D46BA3F84098","title":"上海依飞驰集装箱储运有限公司","lon":"121.58542","lat":"31.35638","category":"248","category_name":"生活娱乐","address":""},{"poiid":"B2094654D46BA3F84698","title":"外联发冷库","lon":"121.59391","lat":"31.35808","category":"263","category_name":"公司","address":"上海市冰克路520号"},{"poiid":"B2094654D46BA3FE489B","title":"上海江海国际集装箱货运公司","lon":"121.58549","lat":"31.35584","category":"263","category_name":"公司","address":"杨高北一路66号"},{"poiid":"B2094757D169A5FA4698","title":"外高桥发电厂","lon":"121.60051884","lat":"31.349837707","category":"500","category_name":"未知分类","address":"上海浦东新区海徐路1001号"},{"poiid":"B2094655D26AA0FA449F","title":"地铁外高桥保税区北站","lon":"121.58661","lat":"31.34884","category":"36","category_name":"地铁站","address":""},{"poiid":"B2094654D46AABFB429B","title":"上海外高桥保税区(二号门)","lon":"121.58669","lat":"31.35007","category":"45","category_name":"产业园区","address":"上海市浦东新区"},{"poiid":"B2094751D26BA3FE429B","title":"上海外高桥喜来登酒店","lon":"121.587144","lat":"31.350886","category":"251","category_name":"出行住宿","address":"上海市外高桥保税区基隆路28号"},{"poiid":"B2094757D06FA4F54492","title":"小四川水煮鱼(高桥店)","lon":"121.57752","lat":"31.35074","category":"71","category_name":"四川菜","address":"浦东新区高桥镇同港路110号(近地铁六号线港城路站)"},{"poiid":"B2094757D06FABF9419C","title":"外高桥税务局","lon":"121.588544","lat":"31.349773","category":"252","category_name":"楼宇机构","address":"上海浦东新区基隆路9号"},{"poiid":"B2094757D06FA6FD4898","title":"外高桥二期码头","lon":"121.581858","lat":"31.359955","category":"500","category_name":"未知分类","address":"上海市浦东新区港华路1299号"},{"poiid":"B2094757D064ABF4439A","title":"maxyou歌城(高桥店)","lon":"121.585417068","lat":"31.350833185","category":"170","category_name":"KTV","address":"上海杨高北路花山路路口"},{"poiid":"B2094757D068A6FC479E","title":"富豪会展公寓酒店","lon":"121.58600306","lat":"31.348556133","category":"268","category_name":"自助","address":"浦东新区富特西一路77号(近外高桥保税区北站)"},{"poiid":"B2094655D36CA6FE4693","title":"港城路地铁站","lon":"121.57234","lat":"31.35225","category":"36","category_name":"地铁站","address":""},{"poiid":"B2094757D16AA3FC499B","title":"外高桥保税区海关一号门","lon":"121.590420068","lat":"31.3614094252","category":"500","category_name":"未知分类","address":"上海威斯路"},{"poiid":"B2094757D16FABF44298","title":"高桥老街","lon":"121.581389039","lat":"31.3443676684","category":"500","category_name":"未知分类","address":"上海高桥镇东街西街"},{"poiid":"B2094654D46BA3F84993","title":"上港集箱外高桥码头","lon":"121.58197","lat":"31.36184","category":"34","category_name":"港口码头","address":"港华路1299号"},{"poiid":"B2094757D168A4FD419D","title":"家弘海鲜渔庄","lon":"121.584862968","lat":"31.3507511832","category":"247","category_name":"餐饮美食","address":"上海浦东高桥镇花山路1199号"},{"poiid":"B2094654D46AABFD409C","title":"上海市高桥中学","lon":"121.58134","lat":"31.34812","category":"55","category_name":"中学","address":"浦东新区高桥镇季景北路859号"},{"poiid":"B2094654D46BA3F84593","title":"浦东国际集装箱码头有限公司","lon":"121.58937","lat":"31.36334","category":"263","category_name":"公司","address":""},{"poiid":"B2094654D46AABFB4298","title":"汤臣国际贸易大楼","lon":"121.594","lat":"31.3558","category":"46","category_name":"楼宇","address":"基隆路1号"},{"poiid":"B2094757D16DA3F5479D","title":"保税区海关一号门","lon":"121.58955","lat":"31.3616","category":"500","category_name":"未知分类","address":"上海威斯路"},{"poiid":"B2094757D064AAF5439C","title":"港城新苑","lon":"121.58675942383","lat":"31.358472578242","category":"47","category_name":"住宅区","address":"上海草高之路168弄"},{"poiid":"B2094757DA6EAAFC4899","title":"海关联办楼","lon":"121.585906100002","lat":"31.3600806000001","category":"252","category_name":"楼宇机构","address":"浦东新区杨高北一路90号"},{"poiid":"B2094757D165A5FA419B","title":"联办406高桥一霸据点","lon":"121.58732279","lat":"31.362883633","category":"500","category_name":"未知分类","address":"上海杨高北一路90号"},{"poiid":"B2094654D46BA3FE4793","title":"老宝山城遗址","lon":"121.58597","lat":"31.36143","category":"250","category_name":"公园户外","address":""},{"poiid":"B2094757D66CA7FC4192","title":"怡心苑","lon":"121.58149289088","lat":"31.354172322681","category":"500","category_name":"未知分类","address":"上海市浦东新区花山路609弄"},{"poiid":"B2094654D46AABF4479F","title":"东华金融大厦","lon":"121.595","lat":"31.3543","category":"46","category_name":"楼宇","address":"马吉路28号"},{"poiid":"B2094757D66DA2FA419C","title":"昶宏大厦","lon":"121.59254541","lat":"31.359249503","category":"46","category_name":"楼宇","address":"上海冰克路500号"},{"poiid":"B2094654DB69A0FB499F","title":"上海外高桥保税区港务公司","lon":"121.58898","lat":"31.364","category":"263","category_name":"公司","address":"杨高北一路88号"},{"poiid":"B2094757D16AAAFE4092","title":"浦东文化馆","lon":"121.59042006","lat":"31.361409425","category":"500","category_name":"未知分类","address":"上海浦东大道143号"},{"poiid":"B2094757D66CA0FE469D","title":"海关办公室","lon":"121.58933106","lat":"31.364151487","category":"500","category_name":"未知分类","address":"上海市浦东新区东海西路"},{"poiid":"B2094757D568AAFE449E","title":"沪东集装箱码头有限公司办公楼","lon":"121.58491","lat":"31.3577","category":"46","category_name":"楼宇","address":"港建路1号"},{"poiid":"B2094654D46AABF4469C","title":"外高桥大厦","lon":"121.594","lat":"31.3564","category":"46","category_name":"楼宇","address":"基隆路6号"},{"poiid":"B2094655D36CA7FB449F","title":"海高新村","lon":"121.592","lat":"31.3569","category":"38","category_name":"公交车站","address":"杨高北路花山路"},{"poiid":"B2094750DA69A5F4429A","title":"星巴克","lon":"121.58704","lat":"31.3495","category":"260","category_name":"其他","address":"浦东新区基隆路1号汤臣国际贸易大厦"},{"poiid":"B2094654D46AABFC429B","title":"海高一村","lon":"121.589","lat":"31.3558","category":"47","category_name":"住宅区","address":"花山路1003弄"},{"poiid":"B2094654D46AABF44798","title":"国际信贸大厦","lon":"121.58975","lat":"31.34986","category":"46","category_name":"楼宇","address":"浦东区浦东外高桥保税区基隆路555号"},{"poiid":"B2094655D26AA0FA449C","title":"地铁港城路站","lon":"121.57492","lat":"31.35359","category":"36","category_name":"地铁站","address":""},{"poiid":"B2094654D46BA3F4419D","title":"上海恩尔仓储有限公司","lon":"121.58449","lat":"31.35756","category":"263","category_name":"公司","address":"杨高北一路25号"},{"poiid":"B2094654D46AAAFC4198","title":"春晖苑","lon":"121.58803","lat":"31.343513","category":"47","category_name":"住宅区","address":"春晖路368弄1-59号"},{"poiid":"B2094757D06BA0FA4292","title":"梓亭","lon":"121.588751054","lat":"31.350598793","category":"95","category_name":"日本料理","address":"浦东新区外高桥保税区基隆路6号(富特西一路基隆路)"},{"poiid":"B2094654D46BA3F8499A","title":"高桥烈士陵园","lon":"121.57672","lat":"31.35764","category":"620","category_name":"丧葬","address":"浦东新区欧高路钟家弄78号"},{"poiid":"B2094757D66FA0FD479B","title":"依飞驰","lon":"121.584679","lat":"31.356344","category":"249","category_name":"购物服务","address":"上海杨高北一路19号"},{"poiid":"B2094757D16CA5FD439A","title":"外高桥出入境边防检查站","lon":"121.5787417","lat":"31.3614877","category":"500","category_name":"未知分类","address":"上海市浦东新区港华路189号"},{"poiid":"B2094757D06EAAFA429D","title":"地铁六号线","lon":"121.57514","lat":"31.35351","category":"36","category_name":"地铁站","address":"港城路 - 东方体育中心 上海轨道交通六号线 轨交 6"},{"poiid":"B2094750D26AA7FC449D","title":"港城新苑","lon":"121.583282","lat":"31.352983","category":"47","category_name":"住宅区","address":"草高支路168弄"},{"poiid":"B209475CD66BA4FC459B","title":"中国（上海）自由贸易试验区","lon":"121.586691","lat":"31.350137","category":"500","category_name":"未知分类","address":"上海市 外高桥保税区基隆路"},{"poiid":"B2094654D46BA3F84099","title":"上海外高桥保税区港务公司(杨高北路)","lon":"121.58534","lat":"31.35659","category":"263","category_name":"公司","address":""},{"poiid":"B2094757D16DA6F94092","title":"高桥镇小学","lon":"121.578666","lat":"31.34961","category":"56","category_name":"小学","address":"上海市花山路789号"},{"poiid":"B2094654DB65A4F8439E","title":"莫泰168连锁旅店(外高桥店)","lon":"121.58562","lat":"31.35116","category":"216","category_name":"经济型连锁酒店","address":"上海市浦东新区花山路1209号（杨高北路与花山路的交汇口）"},{"poiid":"B2094654D46BA3F84098","title":"上海依飞驰集装箱储运有限公司","lon":"121.58542","lat":"31.35638","category":"248","category_name":"生活娱乐","address":""},{"poiid":"B2094654D46BA3F84698","title":"外联发冷库","lon":"121.59391","lat":"31.35808","category":"263","category_name":"公司","address":"上海市冰克路520号"},{"poiid":"B2094654D46BA3FE489B","title":"上海江海国际集装箱货运公司","lon":"121.58549","lat":"31.35584","category":"263","category_name":"公司","address":"杨高北一路66号"},{"poiid":"B2094757D169A5FA4698","title":"外高桥发电厂","lon":"121.60051884","lat":"31.349837707","category":"500","category_name":"未知分类","address":"上海浦东新区海徐路1001号"},{"poiid":"B2094655D26AA0FA449F","title":"地铁外高桥保税区北站","lon":"121.58661","lat":"31.34884","category":"36","category_name":"地铁站","address":""}]