[{"poiid":"B2094757D06EAAF8449E","title":"曲阳路地铁站","lon":"121.49069713","lat":"31.276512768","category":"36","category_name":"地铁站","address":"上海轨道交通 八号线 轨交曲阳路站 8"},{"poiid":"B2094752D364A5F9489F","title":"居食屋和民(虹口凯德龙之梦店)","lon":"121.491485","lat":"31.277919","category":"95","category_name":"日本料理","address":"虹口区西江湾路388号虹口凯德龙之梦6楼(近花园路)"},{"poiid":"B2094757D06FA2F5499E","title":"玉田新村","lon":"121.494806","lat":"31.277934","category":"47","category_name":"住宅区","address":"上海虹口区大连西路96号,玉田路311弄"},{"poiid":"B2094757D06FA3FB469C","title":"欧阳花苑","lon":"121.49108","lat":"31.272671","category":"47","category_name":"住宅区","address":"上海虹口区曲阳路385弄"},{"poiid":"B2094654DB6AAAF84398","title":"大连新村小区","lon":"121.49335","lat":"31.27489","category":"47","category_name":"住宅区","address":"大连西路201弄7-54号、215弄1-17号、221弄1-8"},{"poiid":"B2094654D56CA0FC4799","title":"大西小区","lon":"121.49454","lat":"31.275146","category":"47","category_name":"住宅区","address":"大连西路195弄1-12号,165弄1-29号"},{"poiid":"B2094757D06FA7F4459B","title":"伶达港骨头皇火锅(曲阳店)","lon":"121.49248","lat":"31.27901","category":"86","category_name":"火锅店","address":"虹口区玉田路278号(近曲阳路)"},{"poiid":"B2094757D16FA1FA459F","title":"大连西路","lon":"121.4972828","lat":"31.276329028","category":"500","category_name":"未知分类","address":"上海大连西路"},{"poiid":"B2094654DB6AAAF84399","title":"祥东小区","lon":"121.49424","lat":"31.27349","category":"47","category_name":"住宅区","address":"天宝西路242弄1-41号、4弄1-13号、268号"},{"poiid":"B2094757D068A2F5429B","title":"振鼎鸡(玉田路店)","lon":"121.49364","lat":"31.27837","category":"68","category_name":"快餐厅","address":"虹口区玉田路260号(近曲阳路)"},{"poiid":"B2094655D36CA2F94098","title":"曲阳路祥德路","lon":"121.49199","lat":"31.2722","category":"38","category_name":"公交车站","address":""},{"poiid":"B2094655D26CA1F8469B","title":"优抚园","lon":"121.49429","lat":"31.274937","category":"47","category_name":"住宅区","address":"天宝西路241弄1-31号"},{"poiid":"B2094757D06AA7F54992","title":"老顺昌苏州汤包馆","lon":"121.494729136","lat":"31.2780579315","category":"68","category_name":"快餐厅","address":"虹口区玉田路226号"},{"poiid":"B2094654D56CA0FD429C","title":"虹连大楼","lon":"121.49413","lat":"31.276159","category":"47","category_name":"住宅区","address":"上海大连西路201弄1号"},{"poiid":"B2094753D26DA5FB459D","title":"地铁站","lon":"121.497302","lat":"31.277283","category":"36","category_name":"地铁站","address":"上海市 10号线"},{"poiid":"B2094655D26CA0F4429B","title":"甜爱别墅","lon":"121.49215058598","lat":"31.277001639697","category":"47","category_name":"住宅区","address":"祥德路96弄35-41号"},{"poiid":"B2094757D168A5F84892","title":"光头湘菜 密云路店","lon":"121.496925054","lat":"31.277058793","category":"77","category_name":"湖南菜","address":"虹口区密云路356号(大连西路口)"},{"poiid":"B2094655D36DA6FE4292","title":"曲阳路","lon":"121.49071","lat":"31.27652","category":"38","category_name":"公交车站","address":""},{"poiid":"B2094654DB6AAAF8459C","title":"上岛咖啡(曲阳店)","lon":"121.49298","lat":"31.27155","category":"260","category_name":"其他","address":"虹口区曲阳路118弄28号3楼(近祥德路)"},{"poiid":"B2094757D168AAFA419E","title":"79路平凉路大连路终点站","lon":"121.495096103","lat":"31.2759455377","category":"38","category_name":"公交车站","address":"上海平凉路(近大连路)"},{"poiid":"B2094752DA6CA6FC419F","title":"虹口足球场","lon":"121.490775","lat":"31.276519","category":"250","category_name":"公园户外","address":null},{"poiid":"B2094757D568ABFD419A","title":"上海市虹口区大连新村幼儿园","lon":"121.493103","lat":"31.275526","category":"57","category_name":"幼儿园","address":"虹口区大连西路201弄36号甲(近曲阳路)"},{"poiid":"B2094655D26EA5FC489B","title":"艾耀国创刊号报纸博物馆","lon":"121.49335","lat":"31.27489","category":"182","category_name":"博物馆","address":"虹口区大连西路201弄50号405室"},{"poiid":"B2094757D064A1FD429A","title":"天宝西路烧烤摊","lon":"121.49601","lat":"31.27442","category":"68","category_name":"快餐厅","address":"虹口区天宝西路邮政局门口(天宝西路祥德路)"},{"poiid":"B2094654D56CA0FD439C","title":"良友金伴便利连锁No.139","lon":"121.49507","lat":"31.27624","category":"117","category_name":"便民商店/便利店","address":"虹口区大连西路197号(近曲阳路)"},{"poiid":"B2094757D06BA4FA459B","title":"苹果园 大连西路店 Apple Garden","lon":"121.496806054","lat":"31.276330793","category":"112","category_name":"糕饼店","address":"虹口区大连西路50号(密云路口)"},{"poiid":"B2094654DB6AAAF8439F","title":"虹连大楼(北门)","lon":"121.49389","lat":"31.2763","category":"47","category_name":"住宅区","address":"大连西路201弄1"},{"poiid":"B2094655D26CA0FD4398","title":"优抚园(南门)","lon":"121.49391","lat":"31.27445","category":"47","category_name":"住宅区","address":"天宝西路241弄1-31号"},{"poiid":"B2094654D56CA1FA419F","title":"曲阳大楼","lon":"121.49091","lat":"31.277754","category":"47","category_name":"住宅区","address":"铁西区铁西兴华街与南十中路交处(兴华南街48号)"},{"poiid":"B2094757D169A5FB4798","title":"HoMe、","lon":"121.4946581","lat":"31.27561153","category":"500","category_name":"未知分类","address":null},{"poiid":"B2094655D26FA5FC4192","title":"玉田小区","lon":"121.49516","lat":"31.27701","category":"47","category_name":"住宅区","address":"曲阳路玉田新村44号"},{"poiid":"B2094757D16DA6FF419A","title":"重庆谢记麻辣烫","lon":"121.4961281","lat":"31.275838535","category":"71","category_name":"四川菜","address":"上海市虹口区密云路287号"},{"poiid":"B2094655D269AAF8499E","title":"雷允上药房大连西路店","lon":"121.49444","lat":"31.27662","category":"247","category_name":"餐饮美食","address":"虹口区大连西路86号(近密云路)"},{"poiid":"B2094655D26AA3FA4098","title":"婚姻登记处虹口区登记处","lon":"121.4943","lat":"31.27896","category":"247","category_name":"餐饮美食","address":"虹口区玉田路195号(近密云路)"},{"poiid":"B2094655D26CA0F44092","title":"天宝西路248弄小区","lon":"121.4932","lat":"31.27391","category":"47","category_name":"住宅区","address":"天宝西路248弄"},{"poiid":"B2094757D069A4FE409A","title":"大连新村","lon":"121.493652","lat":"31.276257","category":"252","category_name":"楼宇机构","address":"上海大连西路201弄"},{"poiid":"B2094757D064A2FF479E","title":"银历大厦","lon":"121.49444143","lat":"31.275702866","category":"252","category_name":"楼宇机构","address":"上海市闸北区河南北路485号"},{"poiid":"B2094757D16DA1FC439D","title":"欧阳路派出所","lon":"121.4920234","lat":"31.274508287","category":"609","category_name":"警察局","address":"上海天宝西路277号"},{"poiid":"B2094655D26DABFA4993","title":"天宝西路248弄小区(北门)","lon":"121.49341","lat":"31.27413","category":"47","category_name":"住宅区","address":"天宝西路248弄"},{"poiid":"B2094757D568AAFC439C","title":"黑森林饼皇","lon":"121.4966841","lat":"31.27570498","category":"67","category_name":"甜品店","address":"虹口区密云路290号(大连西路口)"},{"poiid":"B2094757D064A1F54993","title":"木子麻雀","lon":"121.49404","lat":"31.27406","category":"149","category_name":"洗浴推拿场所","address":"虹口区天宝路59弄19号1楼(近物华路)"},{"poiid":"B2094757D76CA3F5419E","title":"南京金陵特色汤包 密云路店","lon":"121.49674","lat":"31.27553","category":"68","category_name":"快餐厅","address":"虹口区密云路290号(近大连西路)"},{"poiid":"B2094752D46CA5FD419D","title":"物心 | K11","lon":"121.49259","lat":"31.274964","category":"249","category_name":"购物服务","address":"上海市黄浦区淮海中路300号K11购物艺术中心308"},{"poiid":"B2094757D664A3FA4099","title":"老刘家 密云路店","lon":"121.49637842741","lat":"31.277647825369","category":"257","category_name":"中餐厅","address":"虹口区密云路475号2楼(近赤峰路)"},{"poiid":"B2094655D26CA0FE4299","title":"虹口区密云学校","lon":"121.49478","lat":"31.27376","category":"56","category_name":"小学","address":"虹口区天宝西路242弄40号"},{"poiid":"B2094654D56CA0FD419C","title":"大连新村第二小区","lon":"121.49257","lat":"31.27394","category":"47","category_name":"住宅区","address":"天宝西路252弄1-19号"},{"poiid":"B2094757D064A5FB459F","title":"粤潮粥店","lon":"121.4962411","lat":"31.275782534","category":"247","category_name":"餐饮美食","address":"上海第一食品商店五角场店"},{"poiid":"B2094654D56CA0FD4293","title":"上海市虹口新闻传媒中心","lon":"121.4946","lat":"31.27601","category":"252","category_name":"楼宇机构","address":"大连西路195弄12号"},{"poiid":"B2094655D265A2FB4098","title":"欧阳路街道残疾人康复服务指导站","lon":"121.4939","lat":"31.27358","category":"162","category_name":"医院","address":"祥德路577"},{"poiid":"B2094757D16FA6F5409B","title":"天宝西路水果摊","lon":"121.49385833","lat":"31.274393081","category":"500","category_name":"未知分类","address":"上海虹口区天宝西路247号"},{"poiid":"B2094757D06EAAF8449E","title":"曲阳路地铁站","lon":"121.49069713","lat":"31.276512768","category":"36","category_name":"地铁站","address":"上海轨道交通 八号线 轨交曲阳路站 8"},{"poiid":"B2094752D364A5F9489F","title":"居食屋和民(虹口凯德龙之梦店)","lon":"121.491485","lat":"31.277919","category":"95","category_name":"日本料理","address":"虹口区西江湾路388号虹口凯德龙之梦6楼(近花园路)"},{"poiid":"B2094757D06FA2F5499E","title":"玉田新村","lon":"121.494806","lat":"31.277934","category":"47","category_name":"住宅区","address":"上海虹口区大连西路96号,玉田路311弄"},{"poiid":"B2094757D06FA3FB469C","title":"欧阳花苑","lon":"121.49108","lat":"31.272671","category":"47","category_name":"住宅区","address":"上海虹口区曲阳路385弄"},{"poiid":"B2094654DB6AAAF84398","title":"大连新村小区","lon":"121.49335","lat":"31.27489","category":"47","category_name":"住宅区","address":"大连西路201弄7-54号、215弄1-17号、221弄1-8"},{"poiid":"B2094654D56CA0FC4799","title":"大西小区","lon":"121.49454","lat":"31.275146","category":"47","category_name":"住宅区","address":"大连西路195弄1-12号,165弄1-29号"},{"poiid":"B2094757D06FA7F4459B","title":"伶达港骨头皇火锅(曲阳店)","lon":"121.49248","lat":"31.27901","category":"86","category_name":"火锅店","address":"虹口区玉田路278号(近曲阳路)"},{"poiid":"B2094757D16FA1FA459F","title":"大连西路","lon":"121.4972828","lat":"31.276329028","category":"500","category_name":"未知分类","address":"上海大连西路"},{"poiid":"B2094654DB6AAAF84399","title":"祥东小区","lon":"121.49424","lat":"31.27349","category":"47","category_name":"住宅区","address":"天宝西路242弄1-41号、4弄1-13号、268号"},{"poiid":"B2094757D068A2F5429B","title":"振鼎鸡(玉田路店)","lon":"121.49364","lat":"31.27837","category":"68","category_name":"快餐厅","address":"虹口区玉田路260号(近曲阳路)"},{"poiid":"B2094655D36CA2F94098","title":"曲阳路祥德路","lon":"121.49199","lat":"31.2722","category":"38","category_name":"公交车站","address":""},{"poiid":"B2094655D26CA1F8469B","title":"优抚园","lon":"121.49429","lat":"31.274937","category":"47","category_name":"住宅区","address":"天宝西路241弄1-31号"},{"poiid":"B2094757D06AA7F54992","title":"老顺昌苏州汤包馆","lon":"121.494729136","lat":"31.2780579315","category":"68","category_name":"快餐厅","address":"虹口区玉田路226号"},{"poiid":"B2094654D56CA0FD429C","title":"虹连大楼","lon":"121.49413","lat":"31.276159","category":"47","category_name":"住宅区","address":"上海大连西路201弄1号"},{"poiid":"B2094753D26DA5FB459D","title":"地铁站","lon":"121.497302","lat":"31.277283","category":"36","category_name":"地铁站","address":"上海市 10号线"},{"poiid":"B2094655D26CA0F4429B","title":"甜爱别墅","lon":"121.49215058598","lat":"31.277001639697","category":"47","category_name":"住宅区","address":"祥德路96弄35-41号"},{"poiid":"B2094757D168A5F84892","title":"光头湘菜 密云路店","lon":"121.496925054","lat":"31.277058793","category":"77","category_name":"湖南菜","address":"虹口区密云路356号(大连西路口)"},{"poiid":"B2094655D36DA6FE4292","title":"曲阳路","lon":"121.49071","lat":"31.27652","category":"38","category_name":"公交车站","address":""},{"poiid":"B2094654DB6AAAF8459C","title":"上岛咖啡(曲阳店)","lon":"121.49298","lat":"31.27155","category":"260","category_name":"其他","address":"虹口区曲阳路118弄28号3楼(近祥德路)"},{"poiid":"B2094757D168AAFA419E","title":"79路平凉路大连路终点站","lon":"121.495096103","lat":"31.2759455377","category":"38","category_name":"公交车站","address":"上海平凉路(近大连路)"},{"poiid":"B2094752DA6CA6FC419F","title":"虹口足球场","lon":"121.490775","lat":"31.276519","category":"250","category_name":"公园户外","address":null},{"poiid":"B2094757D568ABFD419A","title":"上海市虹口区大连新村幼儿园","lon":"121.493103","lat":"31.275526","category":"57","category_name":"幼儿园","address":"虹口区大连西路201弄36号甲(近曲阳路)"},{"poiid":"B2094655D26EA5FC489B","title":"艾耀国创刊号报纸博物馆","lon":"121.49335","lat":"31.27489","category":"182","category_name":"博物馆","address":"虹口区大连西路201弄50号405室"},{"poiid":"B2094757D064A1FD429A","title":"天宝西路烧烤摊","lon":"121.49601","lat":"31.27442","category":"68","category_name":"快餐厅","address":"虹口区天宝西路邮政局门口(天宝西路祥德路)"},{"poiid":"B2094654D56CA0FD439C","title":"良友金伴便利连锁No.139","lon":"121.49507","lat":"31.27624","category":"117","category_name":"便民商店/便利店","address":"虹口区大连西路197号(近曲阳路)"},{"poiid":"B2094757D06BA4FA459B","title":"苹果园 大连西路店 Apple Garden","lon":"121.496806054","lat":"31.276330793","category":"112","category_name":"糕饼店","address":"虹口区大连西路50号(密云路口)"},{"poiid":"B2094654DB6AAAF8439F","title":"虹连大楼(北门)","lon":"121.49389","lat":"31.2763","category":"47","category_name":"住宅区","address":"大连西路201弄1"},{"poiid":"B2094655D26CA0FD4398","title":"优抚园(南门)","lon":"121.49391","lat":"31.27445","category":"47","category_name":"住宅区","address":"天宝西路241弄1-31号"},{"poiid":"B2094654D56CA1FA419F","title":"曲阳大楼","lon":"121.49091","lat":"31.277754","category":"47","category_name":"住宅区","address":"铁西区铁西兴华街与南十中路交处(兴华南街48号)"},{"poiid":"B2094757D169A5FB4798","title":"HoMe、","lon":"121.4946581","lat":"31.27561153","category":"500","category_name":"未知分类","address":null},{"poiid":"B2094655D26FA5FC4192","title":"玉田小区","lon":"121.49516","lat":"31.27701","category":"47","category_name":"住宅区","address":"曲阳路玉田新村44号"},{"poiid":"B2094757D16DA6FF419A","title":"重庆谢记麻辣烫","lon":"121.4961281","lat":"31.275838535","category":"71","category_name":"四川菜","address":"上海市虹口区密云路287号"},{"poiid":"B2094655D269AAF8499E","title":"雷允上药房大连西路店","lon":"121.49444","lat":"31.27662","category":"247","category_name":"餐饮美食","address":"虹口区大连西路86号(近密云路)"},{"poiid":"B2094655D26AA3FA4098","title":"婚姻登记处虹口区登记处","lon":"121.4943","lat":"31.27896","category":"247","category_name":"餐饮美食","address":"虹口区玉田路195号(近密云路)"},{"poiid":"B2094655D26CA0F44092","title":"天宝西路248弄小区","lon":"121.4932","lat":"31.27391","category":"47","category_name":"住宅区","address":"天宝西路248弄"},{"poiid":"B2094757D069A4FE409A","title":"大连新村","lon":"121.493652","lat":"31.276257","category":"252","category_name":"楼宇机构","address":"上海大连西路201弄"},{"poiid":"B2094757D064A2FF479E","title":"银历大厦","lon":"121.49444143","lat":"31.275702866","category":"252","category_name":"楼宇机构","address":"上海市闸北区河南北路485号"},{"poiid":"B2094757D16DA1FC439D","title":"欧阳路派出所","lon":"121.4920234","lat":"31.274508287","category":"609","category_name":"警察局","address":"上海天宝西路277号"},{"poiid":"B2094655D26DABFA4993","title":"天宝西路248弄小区(北门)","lon":"121.49341","lat":"31.27413","category":"47","category_name":"住宅区","address":"天宝西路248弄"},{"poiid":"B2094757D568AAFC439C","title":"黑森林饼皇","lon":"121.4966841","lat":"31.27570498","category":"67","category_name":"甜品店","address":"虹口区密云路290号(大连西路口)"},{"poiid":"B2094757D064A1F54993","title":"木子麻雀","lon":"121.49404","lat":"31.27406","category":"149","category_name":"洗浴推拿场所","address":"虹口区天宝路59弄19号1楼(近物华路)"},{"poiid":"B2094757D76CA3F5419E","title":"南京金陵特色汤包 密云路店","lon":"121.49674","lat":"31.27553","category":"68","category_name":"快餐厅","address":"虹口区密云路290号(近大连西路)"},{"poiid":"B2094752D46CA5FD419D","title":"物心 | K11","lon":"121.49259","lat":"31.274964","category":"249","category_name":"购物服务","address":"上海市黄浦区淮海中路300号K11购物艺术中心308"},{"poiid":"B2094757D664A3FA4099","title":"老刘家 密云路店","lon":"121.49637842741","lat":"31.277647825369","category":"257","category_name":"中餐厅","address":"虹口区密云路475号2楼(近赤峰路)"},{"poiid":"B2094655D26CA0FE4299","title":"虹口区密云学校","lon":"121.49478","lat":"31.27376","category":"56","category_name":"小学","address":"虹口区天宝西路242弄40号"},{"poiid":"B2094654D56CA0FD419C","title":"大连新村第二小区","lon":"121.49257","lat":"31.27394","category":"47","category_name":"住宅区","address":"天宝西路252弄1-19号"},{"poiid":"B2094757D064A5FB459F","title":"粤潮粥店","lon":"121.4962411","lat":"31.275782534","category":"247","category_name":"餐饮美食","address":"上海第一食品商店五角场店"},{"poiid":"B2094654D56CA0FD4293","title":"上海市虹口新闻传媒中心","lon":"121.4946","lat":"31.27601","category":"252","category_name":"楼宇机构","address":"大连西路195弄12号"},{"poiid":"B2094655D265A2FB4098","title":"欧阳路街道残疾人康复服务指导站","lon":"121.4939","lat":"31.27358","category":"162","category_name":"医院","address":"祥德路577"},{"poiid":"B2094757D16FA6F5409B","title":"天宝西路水果摊","lon":"121.49385833","lat":"31.274393081","category":"500","category_name":"未知分类","address":"上海虹口区天宝西路247号"},{"poiid":"B2094757D06EAAF8449E","title":"曲阳路地铁站","lon":"121.49069713","lat":"31.276512768","category":"36","category_name":"地铁站","address":"上海轨道交通 八号线 轨交曲阳路站 8"},{"poiid":"B2094752D364A5F9489F","title":"居食屋和民(虹口凯德龙之梦店)","lon":"121.491485","lat":"31.277919","category":"95","category_name":"日本料理","address":"虹口区西江湾路388号虹口凯德龙之梦6楼(近花园路)"},{"poiid":"B2094757D06FA2F5499E","title":"玉田新村","lon":"121.494806","lat":"31.277934","category":"47","category_name":"住宅区","address":"上海虹口区大连西路96号,玉田路311弄"},{"poiid":"B2094757D06FA3FB469C","title":"欧阳花苑","lon":"121.49108","lat":"31.272671","category":"47","category_name":"住宅区","address":"上海虹口区曲阳路385弄"},{"poiid":"B2094654DB6AAAF84398","title":"大连新村小区","lon":"121.49335","lat":"31.27489","category":"47","category_name":"住宅区","address":"大连西路201弄7-54号、215弄1-17号、221弄1-8"},{"poiid":"B2094654D56CA0FC4799","title":"大西小区","lon":"121.49454","lat":"31.275146","category":"47","category_name":"住宅区","address":"大连西路195弄1-12号,165弄1-29号"},{"poiid":"B2094757D06FA7F4459B","title":"伶达港骨头皇火锅(曲阳店)","lon":"121.49248","lat":"31.27901","category":"86","category_name":"火锅店","address":"虹口区玉田路278号(近曲阳路)"},{"poiid":"B2094757D16FA1FA459F","title":"大连西路","lon":"121.4972828","lat":"31.276329028","category":"500","category_name":"未知分类","address":"上海大连西路"},{"poiid":"B2094654DB6AAAF84399","title":"祥东小区","lon":"121.49424","lat":"31.27349","category":"47","category_name":"住宅区","address":"天宝西路242弄1-41号、4弄1-13号、268号"},{"poiid":"B2094757D068A2F5429B","title":"振鼎鸡(玉田路店)","lon":"121.49364","lat":"31.27837","category":"68","category_name":"快餐厅","address":"虹口区玉田路260号(近曲阳路)"},{"poiid":"B2094655D36CA2F94098","title":"曲阳路祥德路","lon":"121.49199","lat":"31.2722","category":"38","category_name":"公交车站","address":""},{"poiid":"B2094655D26CA1F8469B","title":"优抚园","lon":"121.49429","lat":"31.274937","category":"47","category_name":"住宅区","address":"天宝西路241弄1-31号"},{"poiid":"B2094757D06AA7F54992","title":"老顺昌苏州汤包馆","lon":"121.494729136","lat":"31.2780579315","category":"68","category_name":"快餐厅","address":"虹口区玉田路226号"},{"poiid":"B2094654D56CA0FD429C","title":"虹连大楼","lon":"121.49413","lat":"31.276159","category":"47","category_name":"住宅区","address":"上海大连西路201弄1号"},{"poiid":"B2094753D26DA5FB459D","title":"地铁站","lon":"121.497302","lat":"31.277283","category":"36","category_name":"地铁站","address":"上海市 10号线"},{"poiid":"B2094655D26CA0F4429B","title":"甜爱别墅","lon":"121.49215058598","lat":"31.277001639697","category":"47","category_name":"住宅区","address":"祥德路96弄35-41号"},{"poiid":"B2094757D168A5F84892","title":"光头湘菜 密云路店","lon":"121.496925054","lat":"31.277058793","category":"77","category_name":"湖南菜","address":"虹口区密云路356号(大连西路口)"},{"poiid":"B2094655D36DA6FE4292","title":"曲阳路","lon":"121.49071","lat":"31.27652","category":"38","category_name":"公交车站","address":""},{"poiid":"B2094654DB6AAAF8459C","title":"上岛咖啡(曲阳店)","lon":"121.49298","lat":"31.27155","category":"260","category_name":"其他","address":"虹口区曲阳路118弄28号3楼(近祥德路)"},{"poiid":"B2094757D168AAFA419E","title":"79路平凉路大连路终点站","lon":"121.495096103","lat":"31.2759455377","category":"38","category_name":"公交车站","address":"上海平凉路(近大连路)"},{"poiid":"B2094752DA6CA6FC419F","title":"虹口足球场","lon":"121.490775","lat":"31.276519","category":"250","category_name":"公园户外","address":null},{"poiid":"B2094757D568ABFD419A","title":"上海市虹口区大连新村幼儿园","lon":"121.493103","lat":"31.275526","category":"57","category_name":"幼儿园","address":"虹口区大连西路201弄36号甲(近曲阳路)"},{"poiid":"B2094655D26EA5FC489B","title":"艾耀国创刊号报纸博物馆","lon":"121.49335","lat":"31.27489","category":"182","category_name":"博物馆","address":"虹口区大连西路201弄50号405室"},{"poiid":"B2094757D064A1FD429A","title":"天宝西路烧烤摊","lon":"121.49601","lat":"31.27442","category":"68","category_name":"快餐厅","address":"虹口区天宝西路邮政局门口(天宝西路祥德路)"},{"poiid":"B2094654D56CA0FD439C","title":"良友金伴便利连锁No.139","lon":"121.49507","lat":"31.27624","category":"117","category_name":"便民商店/便利店","address":"虹口区大连西路197号(近曲阳路)"},{"poiid":"B2094757D06BA4FA459B","title":"苹果园 大连西路店 Apple Garden","lon":"121.496806054","lat":"31.276330793","category":"112","category_name":"糕饼店","address":"虹口区大连西路50号(密云路口)"},{"poiid":"B2094654DB6AAAF8439F","title":"虹连大楼(北门)","lon":"121.49389","lat":"31.2763","category":"47","category_name":"住宅区","address":"大连西路201弄1"},{"poiid":"B2094655D26CA0FD4398","title":"优抚园(南门)","lon":"121.49391","lat":"31.27445","category":"47","category_name":"住宅区","address":"天宝西路241弄1-31号"},{"poiid":"B2094654D56CA1FA419F","title":"曲阳大楼","lon":"121.49091","lat":"31.277754","category":"47","category_name":"住宅区","address":"铁西区铁西兴华街与南十中路交处(兴华南街48号)"},{"poiid":"B2094757D169A5FB4798","title":"HoMe、","lon":"121.4946581","lat":"31.27561153","category":"500","category_name":"未知分类","address":null},{"poiid":"B2094655D26FA5FC4192","title":"玉田小区","lon":"121.49516","lat":"31.27701","category":"47","category_name":"住宅区","address":"曲阳路玉田新村44号"},{"poiid":"B2094757D16DA6FF419A","title":"重庆谢记麻辣烫","lon":"121.4961281","lat":"31.275838535","category":"71","category_name":"四川菜","address":"上海市虹口区密云路287号"},{"poiid":"B2094655D269AAF8499E","title":"雷允上药房大连西路店","lon":"121.49444","lat":"31.27662","category":"247","category_name":"餐饮美食","address":"虹口区大连西路86号(近密云路)"},{"poiid":"B2094655D26AA3FA4098","title":"婚姻登记处虹口区登记处","lon":"121.4943","lat":"31.27896","category":"247","category_name":"餐饮美食","address":"虹口区玉田路195号(近密云路)"},{"poiid":"B2094655D26CA0F44092","title":"天宝西路248弄小区","lon":"121.4932","lat":"31.27391","category":"47","category_name":"住宅区","address":"天宝西路248弄"},{"poiid":"B2094757D069A4FE409A","title":"大连新村","lon":"121.493652","lat":"31.276257","category":"252","category_name":"楼宇机构","address":"上海大连西路201弄"},{"poiid":"B2094757D064A2FF479E","title":"银历大厦","lon":"121.49444143","lat":"31.275702866","category":"252","category_name":"楼宇机构","address":"上海市闸北区河南北路485号"},{"poiid":"B2094757D16DA1FC439D","title":"欧阳路派出所","lon":"121.4920234","lat":"31.274508287","category":"609","category_name":"警察局","address":"上海天宝西路277号"},{"poiid":"B2094655D26DABFA4993","title":"天宝西路248弄小区(北门)","lon":"121.49341","lat":"31.27413","category":"47","category_name":"住宅区","address":"天宝西路248弄"},{"poiid":"B2094757D568AAFC439C","title":"黑森林饼皇","lon":"121.4966841","lat":"31.27570498","category":"67","category_name":"甜品店","address":"虹口区密云路290号(大连西路口)"},{"poiid":"B2094757D064A1F54993","title":"木子麻雀","lon":"121.49404","lat":"31.27406","category":"149","category_name":"洗浴推拿场所","address":"虹口区天宝路59弄19号1楼(近物华路)"},{"poiid":"B2094757D76CA3F5419E","title":"南京金陵特色汤包 密云路店","lon":"121.49674","lat":"31.27553","category":"68","category_name":"快餐厅","address":"虹口区密云路290号(近大连西路)"},{"poiid":"B2094752D46CA5FD419D","title":"物心 | K11","lon":"121.49259","lat":"31.274964","category":"249","category_name":"购物服务","address":"上海市黄浦区淮海中路300号K11购物艺术中心308"},{"poiid":"B2094757D664A3FA4099","title":"老刘家 密云路店","lon":"121.49637842741","lat":"31.277647825369","category":"257","category_name":"中餐厅","address":"虹口区密云路475号2楼(近赤峰路)"},{"poiid":"B2094655D26CA0FE4299","title":"虹口区密云学校","lon":"121.49478","lat":"31.27376","category":"56","category_name":"小学","address":"虹口区天宝西路242弄40号"},{"poiid":"B2094654D56CA0FD419C","title":"大连新村第二小区","lon":"121.49257","lat":"31.27394","category":"47","category_name":"住宅区","address":"天宝西路252弄1-19号"},{"poiid":"B2094757D064A5FB459F","title":"粤潮粥店","lon":"121.4962411","lat":"31.275782534","category":"247","category_name":"餐饮美食","address":"上海第一食品商店五角场店"},{"poiid":"B2094654D56CA0FD4293","title":"上海市虹口新闻传媒中心","lon":"121.4946","lat":"31.27601","category":"252","category_name":"楼宇机构","address":"大连西路195弄12号"},{"poiid":"B2094655D265A2FB4098","title":"欧阳路街道残疾人康复服务指导站","lon":"121.4939","lat":"31.27358","category":"162","category_name":"医院","address":"祥德路577"},{"poiid":"B2094757D16FA6F5409B","title":"天宝西路水果摊","lon":"121.49385833","lat":"31.274393081","category":"500","category_name":"未知分类","address":"上海虹口区天宝西路247号"},{"poiid":"B2094757D06EAAF8449E","title":"曲阳路地铁站","lon":"121.49069713","lat":"31.276512768","category":"36","category_name":"地铁站","address":"上海轨道交通 八号线 轨交曲阳路站 8"},{"poiid":"B2094752D364A5F9489F","title":"居食屋和民(虹口凯德龙之梦店)","lon":"121.491485","lat":"31.277919","category":"95","category_name":"日本料理","address":"虹口区西江湾路388号虹口凯德龙之梦6楼(近花园路)"},{"poiid":"B2094757D06FA2F5499E","title":"玉田新村","lon":"121.494806","lat":"31.277934","category":"47","category_name":"住宅区","address":"上海虹口区大连西路96号,玉田路311弄"},{"poiid":"B2094757D06FA3FB469C","title":"欧阳花苑","lon":"121.49108","lat":"31.272671","category":"47","category_name":"住宅区","address":"上海虹口区曲阳路385弄"},{"poiid":"B2094654DB6AAAF84398","title":"大连新村小区","lon":"121.49335","lat":"31.27489","category":"47","category_name":"住宅区","address":"大连西路201弄7-54号、215弄1-17号、221弄1-8"},{"poiid":"B2094654D56CA0FC4799","title":"大西小区","lon":"121.49454","lat":"31.275146","category":"47","category_name":"住宅区","address":"大连西路195弄1-12号,165弄1-29号"},{"poiid":"B2094757D06FA7F4459B","title":"伶达港骨头皇火锅(曲阳店)","lon":"121.49248","lat":"31.27901","category":"86","category_name":"火锅店","address":"虹口区玉田路278号(近曲阳路)"},{"poiid":"B2094757D16FA1FA459F","title":"大连西路","lon":"121.4972828","lat":"31.276329028","category":"500","category_name":"未知分类","address":"上海大连西路"},{"poiid":"B2094654DB6AAAF84399","title":"祥东小区","lon":"121.49424","lat":"31.27349","category":"47","category_name":"住宅区","address":"天宝西路242弄1-41号、4弄1-13号、268号"},{"poiid":"B2094757D068A2F5429B","title":"振鼎鸡(玉田路店)","lon":"121.49364","lat":"31.27837","category":"68","category_name":"快餐厅","address":"虹口区玉田路260号(近曲阳路)"},{"poiid":"B2094655D36CA2F94098","title":"曲阳路祥德路","lon":"121.49199","lat":"31.2722","category":"38","category_name":"公交车站","address":""},{"poiid":"B2094655D26CA1F8469B","title":"优抚园","lon":"121.49429","lat":"31.274937","category":"47","category_name":"住宅区","address":"天宝西路241弄1-31号"},{"poiid":"B2094757D06AA7F54992","title":"老顺昌苏州汤包馆","lon":"121.494729136","lat":"31.2780579315","category":"68","category_name":"快餐厅","address":"虹口区玉田路226号"},{"poiid":"B2094654D56CA0FD429C","title":"虹连大楼","lon":"121.49413","lat":"31.276159","category":"47","category_name":"住宅区","address":"上海大连西路201弄1号"},{"poiid":"B2094753D26DA5FB459D","title":"地铁站","lon":"121.497302","lat":"31.277283","category":"36","category_name":"地铁站","address":"上海市 10号线"},{"poiid":"B2094655D26CA0F4429B","title":"甜爱别墅","lon":"121.49215058598","lat":"31.277001639697","category":"47","category_name":"住宅区","address":"祥德路96弄35-41号"},{"poiid":"B2094757D168A5F84892","title":"光头湘菜 密云路店","lon":"121.496925054","lat":"31.277058793","category":"77","category_name":"湖南菜","address":"虹口区密云路356号(大连西路口)"},{"poiid":"B2094655D36DA6FE4292","title":"曲阳路","lon":"121.49071","lat":"31.27652","category":"38","category_name":"公交车站","address":""},{"poiid":"B2094654DB6AAAF8459C","title":"上岛咖啡(曲阳店)","lon":"121.49298","lat":"31.27155","category":"260","category_name":"其他","address":"虹口区曲阳路118弄28号3楼(近祥德路)"},{"poiid":"B2094757D168AAFA419E","title":"79路平凉路大连路终点站","lon":"121.495096103","lat":"31.2759455377","category":"38","category_name":"公交车站","address":"上海平凉路(近大连路)"},{"poiid":"B2094752DA6CA6FC419F","title":"虹口足球场","lon":"121.490775","lat":"31.276519","category":"250","category_name":"公园户外","address":null},{"poiid":"B2094757D568ABFD419A","title":"上海市虹口区大连新村幼儿园","lon":"121.493103","lat":"31.275526","category":"57","category_name":"幼儿园","address":"虹口区大连西路201弄36号甲(近曲阳路)"},{"poiid":"B2094655D26EA5FC489B","title":"艾耀国创刊号报纸博物馆","lon":"121.49335","lat":"31.27489","category":"182","category_name":"博物馆","address":"虹口区大连西路201弄50号405室"},{"poiid":"B2094757D064A1FD429A","title":"天宝西路烧烤摊","lon":"121.49601","lat":"31.27442","category":"68","category_name":"快餐厅","address":"虹口区天宝西路邮政局门口(天宝西路祥德路)"},{"poiid":"B2094654D56CA0FD439C","title":"良友金伴便利连锁No.139","lon":"121.49507","lat":"31.27624","category":"117","category_name":"便民商店/便利店","address":"虹口区大连西路197号(近曲阳路)"},{"poiid":"B2094757D06BA4FA459B","title":"苹果园 大连西路店 Apple Garden","lon":"121.496806054","lat":"31.276330793","category":"112","category_name":"糕饼店","address":"虹口区大连西路50号(密云路口)"},{"poiid":"B2094654DB6AAAF8439F","title":"虹连大楼(北门)","lon":"121.49389","lat":"31.2763","category":"47","category_name":"住宅区","address":"大连西路201弄1"},{"poiid":"B2094655D26CA0FD4398","title":"优抚园(南门)","lon":"121.49391","lat":"31.27445","category":"47","category_name":"住宅区","address":"天宝西路241弄1-31号"},{"poiid":"B2094654D56CA1FA419F","title":"曲阳大楼","lon":"121.49091","lat":"31.277754","category":"47","category_name":"住宅区","address":"铁西区铁西兴华街与南十中路交处(兴华南街48号)"},{"poiid":"B2094757D169A5FB4798","title":"HoMe、","lon":"121.4946581","lat":"31.27561153","category":"500","category_name":"未知分类","address":null},{"poiid":"B2094655D26FA5FC4192","title":"玉田小区","lon":"121.49516","lat":"31.27701","category":"47","category_name":"住宅区","address":"曲阳路玉田新村44号"},{"poiid":"B2094757D16DA6FF419A","title":"重庆谢记麻辣烫","lon":"121.4961281","lat":"31.275838535","category":"71","category_name":"四川菜","address":"上海市虹口区密云路287号"},{"poiid":"B2094655D269AAF8499E","title":"雷允上药房大连西路店","lon":"121.49444","lat":"31.27662","category":"247","category_name":"餐饮美食","address":"虹口区大连西路86号(近密云路)"},{"poiid":"B2094655D26AA3FA4098","title":"婚姻登记处虹口区登记处","lon":"121.4943","lat":"31.27896","category":"247","category_name":"餐饮美食","address":"虹口区玉田路195号(近密云路)"},{"poiid":"B2094655D26CA0F44092","title":"天宝西路248弄小区","lon":"121.4932","lat":"31.27391","category":"47","category_name":"住宅区","address":"天宝西路248弄"},{"poiid":"B2094757D069A4FE409A","title":"大连新村","lon":"121.493652","lat":"31.276257","category":"252","category_name":"楼宇机构","address":"上海大连西路201弄"},{"poiid":"B2094757D064A2FF479E","title":"银历大厦","lon":"121.49444143","lat":"31.275702866","category":"252","category_name":"楼宇机构","address":"上海市闸北区河南北路485号"},{"poiid":"B2094757D16DA1FC439D","title":"欧阳路派出所","lon":"121.4920234","lat":"31.274508287","category":"609","category_name":"警察局","address":"上海天宝西路277号"},{"poiid":"B2094655D26DABFA4993","title":"天宝西路248弄小区(北门)","lon":"121.49341","lat":"31.27413","category":"47","category_name":"住宅区","address":"天宝西路248弄"},{"poiid":"B2094757D568AAFC439C","title":"黑森林饼皇","lon":"121.4966841","lat":"31.27570498","category":"67","category_name":"甜品店","address":"虹口区密云路290号(大连西路口)"},{"poiid":"B2094757D064A1F54993","title":"木子麻雀","lon":"121.49404","lat":"31.27406","category":"149","category_name":"洗浴推拿场所","address":"虹口区天宝路59弄19号1楼(近物华路)"},{"poiid":"B2094757D76CA3F5419E","title":"南京金陵特色汤包 密云路店","lon":"121.49674","lat":"31.27553","category":"68","category_name":"快餐厅","address":"虹口区密云路290号(近大连西路)"},{"poiid":"B2094752D46CA5FD419D","title":"物心 | K11","lon":"121.49259","lat":"31.274964","category":"249","category_name":"购物服务","address":"上海市黄浦区淮海中路300号K11购物艺术中心308"},{"poiid":"B2094757D664A3FA4099","title":"老刘家 密云路店","lon":"121.49637842741","lat":"31.277647825369","category":"257","category_name":"中餐厅","address":"虹口区密云路475号2楼(近赤峰路)"},{"poiid":"B2094655D26CA0FE4299","title":"虹口区密云学校","lon":"121.49478","lat":"31.27376","category":"56","category_name":"小学","address":"虹口区天宝西路242弄40号"},{"poiid":"B2094654D56CA0FD419C","title":"大连新村第二小区","lon":"121.49257","lat":"31.27394","category":"47","category_name":"住宅区","address":"天宝西路252弄1-19号"},{"poiid":"B2094757D064A5FB459F","title":"粤潮粥店","lon":"121.4962411","lat":"31.275782534","category":"247","category_name":"餐饮美食","address":"上海第一食品商店五角场店"},{"poiid":"B2094654D56CA0FD4293","title":"上海市虹口新闻传媒中心","lon":"121.4946","lat":"31.27601","category":"252","category_name":"楼宇机构","address":"大连西路195弄12号"},{"poiid":"B2094655D265A2FB4098","title":"欧阳路街道残疾人康复服务指导站","lon":"121.4939","lat":"31.27358","category":"162","category_name":"医院","address":"祥德路577"},{"poiid":"B2094757D16FA6F5409B","title":"天宝西路水果摊","lon":"121.49385833","lat":"31.274393081","category":"500","category_name":"未知分类","address":"上海虹口区天宝西路247号"}]