[{"poiid":"B2094654DA6CA0FD4993","title":"恒隆广场(南京西路)","lon":"121.45369","lat":"31.22739","category":"116","category_name":"特色商业街","address":"静安区南京西路1266号(近陕西北路)"},{"poiid":"B2094654DB69AAFD429C","title":"新元素 南京西路店 Element Fresh","lon":"121.451302054","lat":"31.226277793","category":"94","category_name":"西餐厅","address":"静安区南京西路1376号上海商城东峰112室(近西康路)"},{"poiid":"B2094655D26FA7FA4199","title":"上海锦沧文华大酒店","lon":"121.45378","lat":"31.22667","category":"213","category_name":"五星级宾馆","address":"静安区南京西路1225号(近西康路)"},{"poiid":"B2094753D76FAAFA449C","title":"上海滩国泰旗舰店","lon":"121.466011","lat":"31.216125","category":"249","category_name":"购物服务","address":"淮海中路868号"},{"poiid":"B209475CD564A7F84292","title":"上海滩新天地店","lon":"121.47463","lat":"31.22164","category":"119","category_name":"商场","address":"\"太仓路181弄新天地北里15号\r\n\""},{"poiid":"B209475CD564A7F8439E","title":"上海滩中信泰富店","lon":"121.45602","lat":"31.22851","category":"119","category_name":"商场","address":"\"南京西路1168号中信泰富广场，店铺号221.\r\n\""},{"poiid":"B2094757D06FA3FA4392","title":"Pizza Marzano(上海商城店)","lon":"121.45196993","lat":"31.2264545457","category":"94","category_name":"西餐厅","address":"静安区南京西路1376号上海商城西峰107室(近西康路)"},{"poiid":"B2094655D26DA2FF4398","title":"上海商城剧院","lon":"121.45207","lat":"31.2266","category":"180","category_name":"剧场","address":"静安区南京西路1376号上海商城内(近西康路)"},{"poiid":"B2094757D06FA2FC499F","title":"鼎泰丰(南京西路店)","lon":"121.45234","lat":"31.22636","category":"68","category_name":"快餐厅","address":"静安区南京西路1376号上海商城1楼A104号(近西康路)"},{"poiid":"B2094655D26DA2F8409F","title":"恒隆广场2号楼","lon":"121.45288","lat":"31.22806","category":"46","category_name":"楼宇","address":""},{"poiid":"B2094757D068ABFD479A","title":"鹭鹭酒家 恒隆店","lon":"121.453506054","lat":"31.227113793","category":"76","category_name":"上海菜","address":"静安区南京西路1266号恒隆广场5楼(近陕西北路)"},{"poiid":"B2094757D06EAAFB4192","title":"恒隆广场二期","lon":"121.45439147","lat":"31.227611541","category":"47","category_name":"住宅区","address":"杨浦区大学路33号"},{"poiid":"B2094757D06FA0FD489E","title":"南京西路","lon":"121.45435","lat":"31.22661","category":"260","category_name":"其他","address":"静安区南京西路(南京西路西康路)"},{"poiid":"B2094655D26AA4FC4099","title":"星巴克(波特曼店)","lon":"121.451973","lat":"31.226651","category":"260","category_name":"其他","address":"静安区南京西路1376号上海商城1楼(近西康路)"},{"poiid":"B2094757D06FA0F44693","title":"琳怡","lon":"121.45236","lat":"31.22731","category":"76","category_name":"上海菜","address":"静安区西康路99-1号静安体育馆1楼"},{"poiid":"B2094750D164A2F9459E","title":"上海波特曼丽思卡尔顿酒店","lon":"121.452022790909","lat":"31.2267568519176","category":"213","category_name":"五星级宾馆","address":"静安区南京西路1376号上海商城内(近西康路)"},{"poiid":"B2094757D068A1FE479F","title":"桃花源小厨(恒隆店)","lon":"121.4545385754036","lat":"31.227524079570962","category":"72","category_name":"广东菜","address":"上海市静安区南京西路1266号恒隆广场5楼"},{"poiid":"B2094757D06FA5FA459D","title":"上海展览中心友谊会堂","lon":"121.45210658","lat":"31.226365355","category":"260","category_name":"其他","address":"静安区南京西路1333号(近铜仁路)"},{"poiid":"B2094757D06FA3FD409F","title":"屋企港式茶餐厅","lon":"121.45508","lat":"31.22628","category":"72","category_name":"广东菜","address":"静安区南京西路1213弄内(恒隆广场对面)"},{"poiid":"B2094757D06FABFC4992","title":"小南国烧烤(恒隆店)","lon":"121.453696","lat":"31.227388","category":"269","category_name":"烧烤","address":"静安区南京西路1266号恒隆广场5楼(近陕西北路)"},{"poiid":"B2094757D06FAAFC409A","title":"斗香园(越洋广场店)","lon":"121.4525","lat":"31.22636","category":"68","category_name":"快餐厅","address":"静安区南京西路1601号芮欧百货B204号(常德路口)"},{"poiid":"B2094757D068A0FB4093","title":"海云台","lon":"121.453265644","lat":"31.2274601452","category":"96","category_name":"韩国料理","address":"静安区南京西路1266号恒隆广场5楼(近陕西北路)"},{"poiid":"B2094757D068A2F8409F","title":"夏面馆(恒隆)","lon":"121.45297166","lat":"31.22762966","category":"68","category_name":"快餐厅","address":"静安区南京西路1266号恒隆广场5楼(近陕西北路)"},{"poiid":"B2094757D06FA0F54793","title":"香奈儿上海恒隆广场精品店","lon":"121.45360772311528","lat":"31.227562874217075","category":"122","category_name":"个人用品/化妆品店","address":"上海市静安区南京西路1266号恒隆广场首层"},{"poiid":"B2094654DB65ABFE479D","title":"THE PORTMAN RITZ-CARLTON SHANGHAI","lon":"121.45207","lat":"31.22663","category":"213","category_name":"五星级宾馆","address":"南京西路1376号上海商城"},{"poiid":"B2094757D069A3FC409E","title":"锦沧文华大酒店宴会厅","lon":"121.45396","lat":"31.22653","category":"217","category_name":"旅馆招待所","address":"静安区南京西路1225号锦沧文华大酒店内(近西康路)查看地图"},{"poiid":"B2094655D26CA4FF439E","title":"上海波特曼丽嘉酒店(南二门)","lon":"121.45193","lat":"31.22642","category":"656","category_name":"大门","address":"上海市静安区南京西路1376号（上海商城内）"},{"poiid":"B2094757D06FA7FB4598","title":"健康煮(金鹰店)","lon":"121.45405583","lat":"31.227760917","category":"68","category_name":"快餐厅","address":"静安区陕西北路278号金鹰国际购物中心6楼(近南京西路)"},{"poiid":"B2094757D06FA3F44792","title":"ZARA(南京西路店)","lon":"121.45491766","lat":"31.227113854","category":"141","category_name":"服装鞋帽皮具店","address":"静安区南京西路1201号(近陕西北路)"},{"poiid":"B2094757D06FA7FF4898","title":"吉惠日式料理(江宁路店)","lon":"121.45468873","lat":"31.227172234","category":"95","category_name":"日本料理","address":"上海市静安区江宁路77号三楼"},{"poiid":"B2094757D469A1F5489D","title":"紫云庭 TATLER'S RESTAURANT","lon":"121.454799781","lat":"31.226518517509","category":"47","category_name":"住宅区","address":"静安区南京西路1225号锦沧文华大酒店1楼(近西康路)"},{"poiid":"B2094757D16EA5F94693","title":"波特曼","lon":"121.452114","lat":"31.226544","category":"249","category_name":"购物服务","address":"上海商城"},{"poiid":"B2094757D06AA5F4489E","title":"hoF Chocolate Boutique","lon":"121.452895841","lat":"31.2257887267","category":"67","category_name":"甜品店","address":"静安区南京西路1357号波特曼大酒店117室(近西康路)"},{"poiid":"B2094750D76DA6F5489A","title":"CREPES&CO","lon":"121.452","lat":"31.2269","category":"94","category_name":"西餐厅","address":"静安区南京西路1376号上海商城104室(近恒隆广场)"},{"poiid":"B2094655D26EA4FD4798","title":"卡地亚(恒隆店)","lon":"121.45439","lat":"31.22758","category":"248","category_name":"生活娱乐","address":"静安区南京西路1266号恒隆广场1楼(近陕西北路)查看地图"},{"poiid":"B2094757D46FA0F4439C","title":"鹤舞 恒隆广场店","lon":"121.454537","lat":"31.227248","category":"95","category_name":"日本料理","address":"静安区南京西路1266号上海恒隆广场5楼(近陕西北路)"},{"poiid":"B2094757D06FA0F9479C","title":"McDonald Citic","lon":"121.45477327","lat":"31.227719613","category":"68","category_name":"快餐厅","address":"上海中信泰富1635"},{"poiid":"B2094655D26DAAFD459D","title":"彩蝶轩","lon":"121.45441","lat":"31.22758","category":"257","category_name":"中餐厅","address":"静安区南京西路1266号恒隆广场5楼(近陕西北路)"},{"poiid":"B2094757D569A0FA479D","title":"波特曼丽嘉宴餐厅","lon":"121.4520789","lat":"31.22663611","category":"268","category_name":"自助","address":"静安区南京西路1376号波特曼大酒店1楼(近西康路)"},{"poiid":"B2094757DB68A1FA469F","title":"梅陇镇酒家","lon":"121.452277492211","lat":"31.22734107127845","category":"247","category_name":"餐饮美食","address":"南京西路1038号梅龙镇广场10楼(近江宁路)"},{"poiid":"B2094757D06BA4F8499C","title":"榄香","lon":"121.45519373","lat":"31.226518221","category":"247","category_name":"餐饮美食","address":"上海金鹰"},{"poiid":"B2094757D465A0F44692","title":"锦沧文华锦华宫","lon":"121.454799781","lat":"31.226518517509","category":"72","category_name":"广东菜","address":"静安区南京西路1225号锦沧文华大酒店3楼(近西康路)"},{"poiid":"B2094655D269A4F4439A","title":"城市超市上海商城店","lon":"121.45207","lat":"31.22663","category":"247","category_name":"餐饮美食","address":"静安区南京西路1376号上海商城B1楼(近西康路)"},{"poiid":"B2094654DA6CA7FC479F","title":"阿波罗大厦","lon":"121.454","lat":"31.2279","category":"46","category_name":"楼宇","address":"静安延安中路1440号,华山路"},{"poiid":"B2094757D069A6FB409E","title":"毕马威华振会计师事务所上海分所","lon":"121.453734398","lat":"31.227435606","category":"46","category_name":"楼宇","address":"上海市南京西路1266号恒隆广场一期50楼"},{"poiid":"B2094757DB64A3FD449E","title":"瑞尔齿科（恒隆广场店）","lon":"121.454","lat":"31.2274","category":"162","category_name":"医院","address":"静安区南京西路1266号恒隆广场512室"},{"poiid":"B2094757D068A3FC419E","title":"PRADA(南京西路店)","lon":"121.454247321","lat":"31.2274819474","category":"141","category_name":"服装鞋帽皮具店","address":"静安区南京西路1266号恒隆广场1-2楼(近陕西北路)"},{"poiid":"B2094751DA6CABFB4793","title":"帅锅Handsome Hotpot","lon":"121.453646","lat":"31.2279","category":"247","category_name":"餐饮美食","address":"静安区威海路720号(近陕西北路)"},{"poiid":"B2094757D06BA5FF4292","title":"镜子西餐","lon":"121.45317988","lat":"31.227598019","category":"247","category_name":"餐饮美食","address":"上海南京西路1266号地下2层"},{"poiid":"B2094654DB65A6FB409A","title":"蔡元培故居","lon":"121.453","lat":"31.2251","category":"250","category_name":"公园户外","address":"静安区华山路303弄16号(希尔顿饭店斜对面)"},{"poiid":"B2094654DA6CA0FD4993","title":"恒隆广场(南京西路)","lon":"121.45369","lat":"31.22739","category":"116","category_name":"特色商业街","address":"静安区南京西路1266号(近陕西北路)"},{"poiid":"B2094654DB69AAFD429C","title":"新元素 南京西路店 Element Fresh","lon":"121.451302054","lat":"31.226277793","category":"94","category_name":"西餐厅","address":"静安区南京西路1376号上海商城东峰112室(近西康路)"},{"poiid":"B2094655D26FA7FA4199","title":"上海锦沧文华大酒店","lon":"121.45378","lat":"31.22667","category":"213","category_name":"五星级宾馆","address":"静安区南京西路1225号(近西康路)"},{"poiid":"B2094753D76FAAFA449C","title":"上海滩国泰旗舰店","lon":"121.466011","lat":"31.216125","category":"249","category_name":"购物服务","address":"淮海中路868号"},{"poiid":"B209475CD564A7F84292","title":"上海滩新天地店","lon":"121.47463","lat":"31.22164","category":"119","category_name":"商场","address":"\"太仓路181弄新天地北里15号\r\n\""},{"poiid":"B209475CD564A7F8439E","title":"上海滩中信泰富店","lon":"121.45602","lat":"31.22851","category":"119","category_name":"商场","address":"\"南京西路1168号中信泰富广场，店铺号221.\r\n\""},{"poiid":"B2094757D06FA3FA4392","title":"Pizza Marzano(上海商城店)","lon":"121.45196993","lat":"31.2264545457","category":"94","category_name":"西餐厅","address":"静安区南京西路1376号上海商城西峰107室(近西康路)"},{"poiid":"B2094655D26DA2FF4398","title":"上海商城剧院","lon":"121.45207","lat":"31.2266","category":"180","category_name":"剧场","address":"静安区南京西路1376号上海商城内(近西康路)"},{"poiid":"B2094757D06FA2FC499F","title":"鼎泰丰(南京西路店)","lon":"121.45234","lat":"31.22636","category":"68","category_name":"快餐厅","address":"静安区南京西路1376号上海商城1楼A104号(近西康路)"},{"poiid":"B2094655D26DA2F8409F","title":"恒隆广场2号楼","lon":"121.45288","lat":"31.22806","category":"46","category_name":"楼宇","address":""},{"poiid":"B2094757D068ABFD479A","title":"鹭鹭酒家 恒隆店","lon":"121.453506054","lat":"31.227113793","category":"76","category_name":"上海菜","address":"静安区南京西路1266号恒隆广场5楼(近陕西北路)"},{"poiid":"B2094757D06EAAFB4192","title":"恒隆广场二期","lon":"121.45439147","lat":"31.227611541","category":"47","category_name":"住宅区","address":"杨浦区大学路33号"},{"poiid":"B2094757D06FA0FD489E","title":"南京西路","lon":"121.45435","lat":"31.22661","category":"260","category_name":"其他","address":"静安区南京西路(南京西路西康路)"},{"poiid":"B2094655D26AA4FC4099","title":"星巴克(波特曼店)","lon":"121.451973","lat":"31.226651","category":"260","category_name":"其他","address":"静安区南京西路1376号上海商城1楼(近西康路)"},{"poiid":"B2094757D06FA0F44693","title":"琳怡","lon":"121.45236","lat":"31.22731","category":"76","category_name":"上海菜","address":"静安区西康路99-1号静安体育馆1楼"},{"poiid":"B2094750D164A2F9459E","title":"上海波特曼丽思卡尔顿酒店","lon":"121.452022790909","lat":"31.2267568519176","category":"213","category_name":"五星级宾馆","address":"静安区南京西路1376号上海商城内(近西康路)"},{"poiid":"B2094757D068A1FE479F","title":"桃花源小厨(恒隆店)","lon":"121.4545385754036","lat":"31.227524079570962","category":"72","category_name":"广东菜","address":"上海市静安区南京西路1266号恒隆广场5楼"},{"poiid":"B2094757D06FA5FA459D","title":"上海展览中心友谊会堂","lon":"121.45210658","lat":"31.226365355","category":"260","category_name":"其他","address":"静安区南京西路1333号(近铜仁路)"},{"poiid":"B2094757D06FA3FD409F","title":"屋企港式茶餐厅","lon":"121.45508","lat":"31.22628","category":"72","category_name":"广东菜","address":"静安区南京西路1213弄内(恒隆广场对面)"},{"poiid":"B2094757D06FABFC4992","title":"小南国烧烤(恒隆店)","lon":"121.453696","lat":"31.227388","category":"269","category_name":"烧烤","address":"静安区南京西路1266号恒隆广场5楼(近陕西北路)"},{"poiid":"B2094757D06FAAFC409A","title":"斗香园(越洋广场店)","lon":"121.4525","lat":"31.22636","category":"68","category_name":"快餐厅","address":"静安区南京西路1601号芮欧百货B204号(常德路口)"},{"poiid":"B2094757D068A0FB4093","title":"海云台","lon":"121.453265644","lat":"31.2274601452","category":"96","category_name":"韩国料理","address":"静安区南京西路1266号恒隆广场5楼(近陕西北路)"},{"poiid":"B2094757D068A2F8409F","title":"夏面馆(恒隆)","lon":"121.45297166","lat":"31.22762966","category":"68","category_name":"快餐厅","address":"静安区南京西路1266号恒隆广场5楼(近陕西北路)"},{"poiid":"B2094757D06FA0F54793","title":"香奈儿上海恒隆广场精品店","lon":"121.45360772311528","lat":"31.227562874217075","category":"122","category_name":"个人用品/化妆品店","address":"上海市静安区南京西路1266号恒隆广场首层"},{"poiid":"B2094654DB65ABFE479D","title":"THE PORTMAN RITZ-CARLTON SHANGHAI","lon":"121.45207","lat":"31.22663","category":"213","category_name":"五星级宾馆","address":"南京西路1376号上海商城"},{"poiid":"B2094757D069A3FC409E","title":"锦沧文华大酒店宴会厅","lon":"121.45396","lat":"31.22653","category":"217","category_name":"旅馆招待所","address":"静安区南京西路1225号锦沧文华大酒店内(近西康路)查看地图"},{"poiid":"B2094655D26CA4FF439E","title":"上海波特曼丽嘉酒店(南二门)","lon":"121.45193","lat":"31.22642","category":"656","category_name":"大门","address":"上海市静安区南京西路1376号（上海商城内）"},{"poiid":"B2094757D06FA7FB4598","title":"健康煮(金鹰店)","lon":"121.45405583","lat":"31.227760917","category":"68","category_name":"快餐厅","address":"静安区陕西北路278号金鹰国际购物中心6楼(近南京西路)"},{"poiid":"B2094757D06FA3F44792","title":"ZARA(南京西路店)","lon":"121.45491766","lat":"31.227113854","category":"141","category_name":"服装鞋帽皮具店","address":"静安区南京西路1201号(近陕西北路)"},{"poiid":"B2094757D06FA7FF4898","title":"吉惠日式料理(江宁路店)","lon":"121.45468873","lat":"31.227172234","category":"95","category_name":"日本料理","address":"上海市静安区江宁路77号三楼"},{"poiid":"B2094757D469A1F5489D","title":"紫云庭 TATLER'S RESTAURANT","lon":"121.454799781","lat":"31.226518517509","category":"47","category_name":"住宅区","address":"静安区南京西路1225号锦沧文华大酒店1楼(近西康路)"},{"poiid":"B2094757D16EA5F94693","title":"波特曼","lon":"121.452114","lat":"31.226544","category":"249","category_name":"购物服务","address":"上海商城"},{"poiid":"B2094757D06AA5F4489E","title":"hoF Chocolate Boutique","lon":"121.452895841","lat":"31.2257887267","category":"67","category_name":"甜品店","address":"静安区南京西路1357号波特曼大酒店117室(近西康路)"},{"poiid":"B2094750D76DA6F5489A","title":"CREPES&CO","lon":"121.452","lat":"31.2269","category":"94","category_name":"西餐厅","address":"静安区南京西路1376号上海商城104室(近恒隆广场)"},{"poiid":"B2094655D26EA4FD4798","title":"卡地亚(恒隆店)","lon":"121.45439","lat":"31.22758","category":"248","category_name":"生活娱乐","address":"静安区南京西路1266号恒隆广场1楼(近陕西北路)查看地图"},{"poiid":"B2094757D46FA0F4439C","title":"鹤舞 恒隆广场店","lon":"121.454537","lat":"31.227248","category":"95","category_name":"日本料理","address":"静安区南京西路1266号上海恒隆广场5楼(近陕西北路)"},{"poiid":"B2094757D06FA0F9479C","title":"McDonald Citic","lon":"121.45477327","lat":"31.227719613","category":"68","category_name":"快餐厅","address":"上海中信泰富1635"},{"poiid":"B2094655D26DAAFD459D","title":"彩蝶轩","lon":"121.45441","lat":"31.22758","category":"257","category_name":"中餐厅","address":"静安区南京西路1266号恒隆广场5楼(近陕西北路)"},{"poiid":"B2094757D569A0FA479D","title":"波特曼丽嘉宴餐厅","lon":"121.4520789","lat":"31.22663611","category":"268","category_name":"自助","address":"静安区南京西路1376号波特曼大酒店1楼(近西康路)"},{"poiid":"B2094757DB68A1FA469F","title":"梅陇镇酒家","lon":"121.452277492211","lat":"31.22734107127845","category":"247","category_name":"餐饮美食","address":"南京西路1038号梅龙镇广场10楼(近江宁路)"},{"poiid":"B2094757D06BA4F8499C","title":"榄香","lon":"121.45519373","lat":"31.226518221","category":"247","category_name":"餐饮美食","address":"上海金鹰"},{"poiid":"B2094757D465A0F44692","title":"锦沧文华锦华宫","lon":"121.454799781","lat":"31.226518517509","category":"72","category_name":"广东菜","address":"静安区南京西路1225号锦沧文华大酒店3楼(近西康路)"},{"poiid":"B2094655D269A4F4439A","title":"城市超市上海商城店","lon":"121.45207","lat":"31.22663","category":"247","category_name":"餐饮美食","address":"静安区南京西路1376号上海商城B1楼(近西康路)"},{"poiid":"B2094654DA6CA7FC479F","title":"阿波罗大厦","lon":"121.454","lat":"31.2279","category":"46","category_name":"楼宇","address":"静安延安中路1440号,华山路"},{"poiid":"B2094757D069A6FB409E","title":"毕马威华振会计师事务所上海分所","lon":"121.453734398","lat":"31.227435606","category":"46","category_name":"楼宇","address":"上海市南京西路1266号恒隆广场一期50楼"},{"poiid":"B2094757DB64A3FD449E","title":"瑞尔齿科（恒隆广场店）","lon":"121.454","lat":"31.2274","category":"162","category_name":"医院","address":"静安区南京西路1266号恒隆广场512室"},{"poiid":"B2094757D068A3FC419E","title":"PRADA(南京西路店)","lon":"121.454247321","lat":"31.2274819474","category":"141","category_name":"服装鞋帽皮具店","address":"静安区南京西路1266号恒隆广场1-2楼(近陕西北路)"},{"poiid":"B2094751DA6CABFB4793","title":"帅锅Handsome Hotpot","lon":"121.453646","lat":"31.2279","category":"247","category_name":"餐饮美食","address":"静安区威海路720号(近陕西北路)"},{"poiid":"B2094757D06BA5FF4292","title":"镜子西餐","lon":"121.45317988","lat":"31.227598019","category":"247","category_name":"餐饮美食","address":"上海南京西路1266号地下2层"},{"poiid":"B2094654DB65A6FB409A","title":"蔡元培故居","lon":"121.453","lat":"31.2251","category":"250","category_name":"公园户外","address":"静安区华山路303弄16号(希尔顿饭店斜对面)"},{"poiid":"B2094654DA6CA0FD4993","title":"恒隆广场(南京西路)","lon":"121.45369","lat":"31.22739","category":"116","category_name":"特色商业街","address":"静安区南京西路1266号(近陕西北路)"},{"poiid":"B2094654DB69AAFD429C","title":"新元素 南京西路店 Element Fresh","lon":"121.451302054","lat":"31.226277793","category":"94","category_name":"西餐厅","address":"静安区南京西路1376号上海商城东峰112室(近西康路)"},{"poiid":"B2094655D26FA7FA4199","title":"上海锦沧文华大酒店","lon":"121.45378","lat":"31.22667","category":"213","category_name":"五星级宾馆","address":"静安区南京西路1225号(近西康路)"},{"poiid":"B2094753D76FAAFA449C","title":"上海滩国泰旗舰店","lon":"121.466011","lat":"31.216125","category":"249","category_name":"购物服务","address":"淮海中路868号"},{"poiid":"B209475CD564A7F84292","title":"上海滩新天地店","lon":"121.47463","lat":"31.22164","category":"119","category_name":"商场","address":"\"太仓路181弄新天地北里15号\r\n\""},{"poiid":"B209475CD564A7F8439E","title":"上海滩中信泰富店","lon":"121.45602","lat":"31.22851","category":"119","category_name":"商场","address":"\"南京西路1168号中信泰富广场，店铺号221.\r\n\""},{"poiid":"B2094757D06FA3FA4392","title":"Pizza Marzano(上海商城店)","lon":"121.45196993","lat":"31.2264545457","category":"94","category_name":"西餐厅","address":"静安区南京西路1376号上海商城西峰107室(近西康路)"},{"poiid":"B2094655D26DA2FF4398","title":"上海商城剧院","lon":"121.45207","lat":"31.2266","category":"180","category_name":"剧场","address":"静安区南京西路1376号上海商城内(近西康路)"},{"poiid":"B2094757D06FA2FC499F","title":"鼎泰丰(南京西路店)","lon":"121.45234","lat":"31.22636","category":"68","category_name":"快餐厅","address":"静安区南京西路1376号上海商城1楼A104号(近西康路)"},{"poiid":"B2094655D26DA2F8409F","title":"恒隆广场2号楼","lon":"121.45288","lat":"31.22806","category":"46","category_name":"楼宇","address":""},{"poiid":"B2094757D068ABFD479A","title":"鹭鹭酒家 恒隆店","lon":"121.453506054","lat":"31.227113793","category":"76","category_name":"上海菜","address":"静安区南京西路1266号恒隆广场5楼(近陕西北路)"},{"poiid":"B2094757D06EAAFB4192","title":"恒隆广场二期","lon":"121.45439147","lat":"31.227611541","category":"47","category_name":"住宅区","address":"杨浦区大学路33号"},{"poiid":"B2094757D06FA0FD489E","title":"南京西路","lon":"121.45435","lat":"31.22661","category":"260","category_name":"其他","address":"静安区南京西路(南京西路西康路)"},{"poiid":"B2094655D26AA4FC4099","title":"星巴克(波特曼店)","lon":"121.451973","lat":"31.226651","category":"260","category_name":"其他","address":"静安区南京西路1376号上海商城1楼(近西康路)"},{"poiid":"B2094757D06FA0F44693","title":"琳怡","lon":"121.45236","lat":"31.22731","category":"76","category_name":"上海菜","address":"静安区西康路99-1号静安体育馆1楼"},{"poiid":"B2094750D164A2F9459E","title":"上海波特曼丽思卡尔顿酒店","lon":"121.452022790909","lat":"31.2267568519176","category":"213","category_name":"五星级宾馆","address":"静安区南京西路1376号上海商城内(近西康路)"},{"poiid":"B2094757D068A1FE479F","title":"桃花源小厨(恒隆店)","lon":"121.4545385754036","lat":"31.227524079570962","category":"72","category_name":"广东菜","address":"上海市静安区南京西路1266号恒隆广场5楼"},{"poiid":"B2094757D06FA5FA459D","title":"上海展览中心友谊会堂","lon":"121.45210658","lat":"31.226365355","category":"260","category_name":"其他","address":"静安区南京西路1333号(近铜仁路)"},{"poiid":"B2094757D06FA3FD409F","title":"屋企港式茶餐厅","lon":"121.45508","lat":"31.22628","category":"72","category_name":"广东菜","address":"静安区南京西路1213弄内(恒隆广场对面)"},{"poiid":"B2094757D06FABFC4992","title":"小南国烧烤(恒隆店)","lon":"121.453696","lat":"31.227388","category":"269","category_name":"烧烤","address":"静安区南京西路1266号恒隆广场5楼(近陕西北路)"},{"poiid":"B2094757D06FAAFC409A","title":"斗香园(越洋广场店)","lon":"121.4525","lat":"31.22636","category":"68","category_name":"快餐厅","address":"静安区南京西路1601号芮欧百货B204号(常德路口)"},{"poiid":"B2094757D068A0FB4093","title":"海云台","lon":"121.453265644","lat":"31.2274601452","category":"96","category_name":"韩国料理","address":"静安区南京西路1266号恒隆广场5楼(近陕西北路)"},{"poiid":"B2094757D068A2F8409F","title":"夏面馆(恒隆)","lon":"121.45297166","lat":"31.22762966","category":"68","category_name":"快餐厅","address":"静安区南京西路1266号恒隆广场5楼(近陕西北路)"},{"poiid":"B2094757D06FA0F54793","title":"香奈儿上海恒隆广场精品店","lon":"121.45360772311528","lat":"31.227562874217075","category":"122","category_name":"个人用品/化妆品店","address":"上海市静安区南京西路1266号恒隆广场首层"},{"poiid":"B2094654DB65ABFE479D","title":"THE PORTMAN RITZ-CARLTON SHANGHAI","lon":"121.45207","lat":"31.22663","category":"213","category_name":"五星级宾馆","address":"南京西路1376号上海商城"},{"poiid":"B2094757D069A3FC409E","title":"锦沧文华大酒店宴会厅","lon":"121.45396","lat":"31.22653","category":"217","category_name":"旅馆招待所","address":"静安区南京西路1225号锦沧文华大酒店内(近西康路)查看地图"},{"poiid":"B2094655D26CA4FF439E","title":"上海波特曼丽嘉酒店(南二门)","lon":"121.45193","lat":"31.22642","category":"656","category_name":"大门","address":"上海市静安区南京西路1376号（上海商城内）"},{"poiid":"B2094757D06FA7FB4598","title":"健康煮(金鹰店)","lon":"121.45405583","lat":"31.227760917","category":"68","category_name":"快餐厅","address":"静安区陕西北路278号金鹰国际购物中心6楼(近南京西路)"},{"poiid":"B2094757D06FA3F44792","title":"ZARA(南京西路店)","lon":"121.45491766","lat":"31.227113854","category":"141","category_name":"服装鞋帽皮具店","address":"静安区南京西路1201号(近陕西北路)"},{"poiid":"B2094757D06FA7FF4898","title":"吉惠日式料理(江宁路店)","lon":"121.45468873","lat":"31.227172234","category":"95","category_name":"日本料理","address":"上海市静安区江宁路77号三楼"},{"poiid":"B2094757D469A1F5489D","title":"紫云庭 TATLER'S RESTAURANT","lon":"121.454799781","lat":"31.226518517509","category":"47","category_name":"住宅区","address":"静安区南京西路1225号锦沧文华大酒店1楼(近西康路)"},{"poiid":"B2094757D16EA5F94693","title":"波特曼","lon":"121.452114","lat":"31.226544","category":"249","category_name":"购物服务","address":"上海商城"},{"poiid":"B2094757D06AA5F4489E","title":"hoF Chocolate Boutique","lon":"121.452895841","lat":"31.2257887267","category":"67","category_name":"甜品店","address":"静安区南京西路1357号波特曼大酒店117室(近西康路)"},{"poiid":"B2094750D76DA6F5489A","title":"CREPES&CO","lon":"121.452","lat":"31.2269","category":"94","category_name":"西餐厅","address":"静安区南京西路1376号上海商城104室(近恒隆广场)"},{"poiid":"B2094655D26EA4FD4798","title":"卡地亚(恒隆店)","lon":"121.45439","lat":"31.22758","category":"248","category_name":"生活娱乐","address":"静安区南京西路1266号恒隆广场1楼(近陕西北路)查看地图"},{"poiid":"B2094757D46FA0F4439C","title":"鹤舞 恒隆广场店","lon":"121.454537","lat":"31.227248","category":"95","category_name":"日本料理","address":"静安区南京西路1266号上海恒隆广场5楼(近陕西北路)"},{"poiid":"B2094757D06FA0F9479C","title":"McDonald Citic","lon":"121.45477327","lat":"31.227719613","category":"68","category_name":"快餐厅","address":"上海中信泰富1635"},{"poiid":"B2094655D26DAAFD459D","title":"彩蝶轩","lon":"121.45441","lat":"31.22758","category":"257","category_name":"中餐厅","address":"静安区南京西路1266号恒隆广场5楼(近陕西北路)"},{"poiid":"B2094757D569A0FA479D","title":"波特曼丽嘉宴餐厅","lon":"121.4520789","lat":"31.22663611","category":"268","category_name":"自助","address":"静安区南京西路1376号波特曼大酒店1楼(近西康路)"},{"poiid":"B2094757DB68A1FA469F","title":"梅陇镇酒家","lon":"121.452277492211","lat":"31.22734107127845","category":"247","category_name":"餐饮美食","address":"南京西路1038号梅龙镇广场10楼(近江宁路)"},{"poiid":"B2094757D06BA4F8499C","title":"榄香","lon":"121.45519373","lat":"31.226518221","category":"247","category_name":"餐饮美食","address":"上海金鹰"},{"poiid":"B2094757D465A0F44692","title":"锦沧文华锦华宫","lon":"121.454799781","lat":"31.226518517509","category":"72","category_name":"广东菜","address":"静安区南京西路1225号锦沧文华大酒店3楼(近西康路)"},{"poiid":"B2094655D269A4F4439A","title":"城市超市上海商城店","lon":"121.45207","lat":"31.22663","category":"247","category_name":"餐饮美食","address":"静安区南京西路1376号上海商城B1楼(近西康路)"},{"poiid":"B2094654DA6CA7FC479F","title":"阿波罗大厦","lon":"121.454","lat":"31.2279","category":"46","category_name":"楼宇","address":"静安延安中路1440号,华山路"},{"poiid":"B2094757D069A6FB409E","title":"毕马威华振会计师事务所上海分所","lon":"121.453734398","lat":"31.227435606","category":"46","category_name":"楼宇","address":"上海市南京西路1266号恒隆广场一期50楼"},{"poiid":"B2094757DB64A3FD449E","title":"瑞尔齿科（恒隆广场店）","lon":"121.454","lat":"31.2274","category":"162","category_name":"医院","address":"静安区南京西路1266号恒隆广场512室"},{"poiid":"B2094757D068A3FC419E","title":"PRADA(南京西路店)","lon":"121.454247321","lat":"31.2274819474","category":"141","category_name":"服装鞋帽皮具店","address":"静安区南京西路1266号恒隆广场1-2楼(近陕西北路)"},{"poiid":"B2094751DA6CABFB4793","title":"帅锅Handsome Hotpot","lon":"121.453646","lat":"31.2279","category":"247","category_name":"餐饮美食","address":"静安区威海路720号(近陕西北路)"},{"poiid":"B2094757D06BA5FF4292","title":"镜子西餐","lon":"121.45317988","lat":"31.227598019","category":"247","category_name":"餐饮美食","address":"上海南京西路1266号地下2层"},{"poiid":"B2094654DB65A6FB409A","title":"蔡元培故居","lon":"121.453","lat":"31.2251","category":"250","category_name":"公园户外","address":"静安区华山路303弄16号(希尔顿饭店斜对面)"},{"poiid":"B2094654DA6CA0FD4993","title":"恒隆广场(南京西路)","lon":"121.45369","lat":"31.22739","category":"116","category_name":"特色商业街","address":"静安区南京西路1266号(近陕西北路)"},{"poiid":"B2094654DB69AAFD429C","title":"新元素 南京西路店 Element Fresh","lon":"121.451302054","lat":"31.226277793","category":"94","category_name":"西餐厅","address":"静安区南京西路1376号上海商城东峰112室(近西康路)"},{"poiid":"B2094655D26FA7FA4199","title":"上海锦沧文华大酒店","lon":"121.45378","lat":"31.22667","category":"213","category_name":"五星级宾馆","address":"静安区南京西路1225号(近西康路)"},{"poiid":"B2094753D76FAAFA449C","title":"上海滩国泰旗舰店","lon":"121.466011","lat":"31.216125","category":"249","category_name":"购物服务","address":"淮海中路868号"},{"poiid":"B209475CD564A7F84292","title":"上海滩新天地店","lon":"121.47463","lat":"31.22164","category":"119","category_name":"商场","address":"\"太仓路181弄新天地北里15号\r\n\""},{"poiid":"B209475CD564A7F8439E","title":"上海滩中信泰富店","lon":"121.45602","lat":"31.22851","category":"119","category_name":"商场","address":"\"南京西路1168号中信泰富广场，店铺号221.\r\n\""},{"poiid":"B2094757D06FA3FA4392","title":"Pizza Marzano(上海商城店)","lon":"121.45196993","lat":"31.2264545457","category":"94","category_name":"西餐厅","address":"静安区南京西路1376号上海商城西峰107室(近西康路)"},{"poiid":"B2094655D26DA2FF4398","title":"上海商城剧院","lon":"121.45207","lat":"31.2266","category":"180","category_name":"剧场","address":"静安区南京西路1376号上海商城内(近西康路)"},{"poiid":"B2094757D06FA2FC499F","title":"鼎泰丰(南京西路店)","lon":"121.45234","lat":"31.22636","category":"68","category_name":"快餐厅","address":"静安区南京西路1376号上海商城1楼A104号(近西康路)"},{"poiid":"B2094655D26DA2F8409F","title":"恒隆广场2号楼","lon":"121.45288","lat":"31.22806","category":"46","category_name":"楼宇","address":""},{"poiid":"B2094757D068ABFD479A","title":"鹭鹭酒家 恒隆店","lon":"121.453506054","lat":"31.227113793","category":"76","category_name":"上海菜","address":"静安区南京西路1266号恒隆广场5楼(近陕西北路)"},{"poiid":"B2094757D06EAAFB4192","title":"恒隆广场二期","lon":"121.45439147","lat":"31.227611541","category":"47","category_name":"住宅区","address":"杨浦区大学路33号"},{"poiid":"B2094757D06FA0FD489E","title":"南京西路","lon":"121.45435","lat":"31.22661","category":"260","category_name":"其他","address":"静安区南京西路(南京西路西康路)"},{"poiid":"B2094655D26AA4FC4099","title":"星巴克(波特曼店)","lon":"121.451973","lat":"31.226651","category":"260","category_name":"其他","address":"静安区南京西路1376号上海商城1楼(近西康路)"},{"poiid":"B2094757D06FA0F44693","title":"琳怡","lon":"121.45236","lat":"31.22731","category":"76","category_name":"上海菜","address":"静安区西康路99-1号静安体育馆1楼"},{"poiid":"B2094750D164A2F9459E","title":"上海波特曼丽思卡尔顿酒店","lon":"121.452022790909","lat":"31.2267568519176","category":"213","category_name":"五星级宾馆","address":"静安区南京西路1376号上海商城内(近西康路)"},{"poiid":"B2094757D068A1FE479F","title":"桃花源小厨(恒隆店)","lon":"121.4545385754036","lat":"31.227524079570962","category":"72","category_name":"广东菜","address":"上海市静安区南京西路1266号恒隆广场5楼"},{"poiid":"B2094757D06FA5FA459D","title":"上海展览中心友谊会堂","lon":"121.45210658","lat":"31.226365355","category":"260","category_name":"其他","address":"静安区南京西路1333号(近铜仁路)"},{"poiid":"B2094757D06FA3FD409F","title":"屋企港式茶餐厅","lon":"121.45508","lat":"31.22628","category":"72","category_name":"广东菜","address":"静安区南京西路1213弄内(恒隆广场对面)"},{"poiid":"B2094757D06FABFC4992","title":"小南国烧烤(恒隆店)","lon":"121.453696","lat":"31.227388","category":"269","category_name":"烧烤","address":"静安区南京西路1266号恒隆广场5楼(近陕西北路)"},{"poiid":"B2094757D06FAAFC409A","title":"斗香园(越洋广场店)","lon":"121.4525","lat":"31.22636","category":"68","category_name":"快餐厅","address":"静安区南京西路1601号芮欧百货B204号(常德路口)"},{"poiid":"B2094757D068A0FB4093","title":"海云台","lon":"121.453265644","lat":"31.2274601452","category":"96","category_name":"韩国料理","address":"静安区南京西路1266号恒隆广场5楼(近陕西北路)"},{"poiid":"B2094757D068A2F8409F","title":"夏面馆(恒隆)","lon":"121.45297166","lat":"31.22762966","category":"68","category_name":"快餐厅","address":"静安区南京西路1266号恒隆广场5楼(近陕西北路)"},{"poiid":"B2094757D06FA0F54793","title":"香奈儿上海恒隆广场精品店","lon":"121.45360772311528","lat":"31.227562874217075","category":"122","category_name":"个人用品/化妆品店","address":"上海市静安区南京西路1266号恒隆广场首层"},{"poiid":"B2094654DB65ABFE479D","title":"THE PORTMAN RITZ-CARLTON SHANGHAI","lon":"121.45207","lat":"31.22663","category":"213","category_name":"五星级宾馆","address":"南京西路1376号上海商城"},{"poiid":"B2094757D069A3FC409E","title":"锦沧文华大酒店宴会厅","lon":"121.45396","lat":"31.22653","category":"217","category_name":"旅馆招待所","address":"静安区南京西路1225号锦沧文华大酒店内(近西康路)查看地图"},{"poiid":"B2094655D26CA4FF439E","title":"上海波特曼丽嘉酒店(南二门)","lon":"121.45193","lat":"31.22642","category":"656","category_name":"大门","address":"上海市静安区南京西路1376号（上海商城内）"},{"poiid":"B2094757D06FA7FB4598","title":"健康煮(金鹰店)","lon":"121.45405583","lat":"31.227760917","category":"68","category_name":"快餐厅","address":"静安区陕西北路278号金鹰国际购物中心6楼(近南京西路)"},{"poiid":"B2094757D06FA3F44792","title":"ZARA(南京西路店)","lon":"121.45491766","lat":"31.227113854","category":"141","category_name":"服装鞋帽皮具店","address":"静安区南京西路1201号(近陕西北路)"},{"poiid":"B2094757D06FA7FF4898","title":"吉惠日式料理(江宁路店)","lon":"121.45468873","lat":"31.227172234","category":"95","category_name":"日本料理","address":"上海市静安区江宁路77号三楼"},{"poiid":"B2094757D469A1F5489D","title":"紫云庭 TATLER'S RESTAURANT","lon":"121.454799781","lat":"31.226518517509","category":"47","category_name":"住宅区","address":"静安区南京西路1225号锦沧文华大酒店1楼(近西康路)"},{"poiid":"B2094757D16EA5F94693","title":"波特曼","lon":"121.452114","lat":"31.226544","category":"249","category_name":"购物服务","address":"上海商城"},{"poiid":"B2094757D06AA5F4489E","title":"hoF Chocolate Boutique","lon":"121.452895841","lat":"31.2257887267","category":"67","category_name":"甜品店","address":"静安区南京西路1357号波特曼大酒店117室(近西康路)"},{"poiid":"B2094750D76DA6F5489A","title":"CREPES&CO","lon":"121.452","lat":"31.2269","category":"94","category_name":"西餐厅","address":"静安区南京西路1376号上海商城104室(近恒隆广场)"},{"poiid":"B2094655D26EA4FD4798","title":"卡地亚(恒隆店)","lon":"121.45439","lat":"31.22758","category":"248","category_name":"生活娱乐","address":"静安区南京西路1266号恒隆广场1楼(近陕西北路)查看地图"},{"poiid":"B2094757D46FA0F4439C","title":"鹤舞 恒隆广场店","lon":"121.454537","lat":"31.227248","category":"95","category_name":"日本料理","address":"静安区南京西路1266号上海恒隆广场5楼(近陕西北路)"},{"poiid":"B2094757D06FA0F9479C","title":"McDonald Citic","lon":"121.45477327","lat":"31.227719613","category":"68","category_name":"快餐厅","address":"上海中信泰富1635"},{"poiid":"B2094655D26DAAFD459D","title":"彩蝶轩","lon":"121.45441","lat":"31.22758","category":"257","category_name":"中餐厅","address":"静安区南京西路1266号恒隆广场5楼(近陕西北路)"},{"poiid":"B2094757D569A0FA479D","title":"波特曼丽嘉宴餐厅","lon":"121.4520789","lat":"31.22663611","category":"268","category_name":"自助","address":"静安区南京西路1376号波特曼大酒店1楼(近西康路)"},{"poiid":"B2094757DB68A1FA469F","title":"梅陇镇酒家","lon":"121.452277492211","lat":"31.22734107127845","category":"247","category_name":"餐饮美食","address":"南京西路1038号梅龙镇广场10楼(近江宁路)"},{"poiid":"B2094757D06BA4F8499C","title":"榄香","lon":"121.45519373","lat":"31.226518221","category":"247","category_name":"餐饮美食","address":"上海金鹰"},{"poiid":"B2094757D465A0F44692","title":"锦沧文华锦华宫","lon":"121.454799781","lat":"31.226518517509","category":"72","category_name":"广东菜","address":"静安区南京西路1225号锦沧文华大酒店3楼(近西康路)"},{"poiid":"B2094655D269A4F4439A","title":"城市超市上海商城店","lon":"121.45207","lat":"31.22663","category":"247","category_name":"餐饮美食","address":"静安区南京西路1376号上海商城B1楼(近西康路)"},{"poiid":"B2094654DA6CA7FC479F","title":"阿波罗大厦","lon":"121.454","lat":"31.2279","category":"46","category_name":"楼宇","address":"静安延安中路1440号,华山路"},{"poiid":"B2094757D069A6FB409E","title":"毕马威华振会计师事务所上海分所","lon":"121.453734398","lat":"31.227435606","category":"46","category_name":"楼宇","address":"上海市南京西路1266号恒隆广场一期50楼"},{"poiid":"B2094757DB64A3FD449E","title":"瑞尔齿科（恒隆广场店）","lon":"121.454","lat":"31.2274","category":"162","category_name":"医院","address":"静安区南京西路1266号恒隆广场512室"},{"poiid":"B2094757D068A3FC419E","title":"PRADA(南京西路店)","lon":"121.454247321","lat":"31.2274819474","category":"141","category_name":"服装鞋帽皮具店","address":"静安区南京西路1266号恒隆广场1-2楼(近陕西北路)"},{"poiid":"B2094751DA6CABFB4793","title":"帅锅Handsome Hotpot","lon":"121.453646","lat":"31.2279","category":"247","category_name":"餐饮美食","address":"静安区威海路720号(近陕西北路)"},{"poiid":"B2094757D06BA5FF4292","title":"镜子西餐","lon":"121.45317988","lat":"31.227598019","category":"247","category_name":"餐饮美食","address":"上海南京西路1266号地下2层"},{"poiid":"B2094654DB65A6FB409A","title":"蔡元培故居","lon":"121.453","lat":"31.2251","category":"250","category_name":"公园户外","address":"静安区华山路303弄16号(希尔顿饭店斜对面)"},{"poiid":"B2094654DA6CA0FD4993","title":"恒隆广场(南京西路)","lon":"121.45369","lat":"31.22739","category":"116","category_name":"特色商业街","address":"静安区南京西路1266号(近陕西北路)"},{"poiid":"B2094654DB69AAFD429C","title":"新元素 南京西路店 Element Fresh","lon":"121.451302054","lat":"31.226277793","category":"94","category_name":"西餐厅","address":"静安区南京西路1376号上海商城东峰112室(近西康路)"},{"poiid":"B2094655D26FA7FA4199","title":"上海锦沧文华大酒店","lon":"121.45378","lat":"31.22667","category":"213","category_name":"五星级宾馆","address":"静安区南京西路1225号(近西康路)"},{"poiid":"B2094753D76FAAFA449C","title":"上海滩国泰旗舰店","lon":"121.466011","lat":"31.216125","category":"249","category_name":"购物服务","address":"淮海中路868号"},{"poiid":"B209475CD564A7F84292","title":"上海滩新天地店","lon":"121.47463","lat":"31.22164","category":"119","category_name":"商场","address":"\"太仓路181弄新天地北里15号\r\n\""},{"poiid":"B209475CD564A7F8439E","title":"上海滩中信泰富店","lon":"121.45602","lat":"31.22851","category":"119","category_name":"商场","address":"\"南京西路1168号中信泰富广场，店铺号221.\r\n\""},{"poiid":"B2094757D06FA3FA4392","title":"Pizza Marzano(上海商城店)","lon":"121.45196993","lat":"31.2264545457","category":"94","category_name":"西餐厅","address":"静安区南京西路1376号上海商城西峰107室(近西康路)"},{"poiid":"B2094655D26DA2FF4398","title":"上海商城剧院","lon":"121.45207","lat":"31.2266","category":"180","category_name":"剧场","address":"静安区南京西路1376号上海商城内(近西康路)"},{"poiid":"B2094757D06FA2FC499F","title":"鼎泰丰(南京西路店)","lon":"121.45234","lat":"31.22636","category":"68","category_name":"快餐厅","address":"静安区南京西路1376号上海商城1楼A104号(近西康路)"},{"poiid":"B2094655D26DA2F8409F","title":"恒隆广场2号楼","lon":"121.45288","lat":"31.22806","category":"46","category_name":"楼宇","address":""},{"poiid":"B2094757D068ABFD479A","title":"鹭鹭酒家 恒隆店","lon":"121.453506054","lat":"31.227113793","category":"76","category_name":"上海菜","address":"静安区南京西路1266号恒隆广场5楼(近陕西北路)"},{"poiid":"B2094757D06EAAFB4192","title":"恒隆广场二期","lon":"121.45439147","lat":"31.227611541","category":"47","category_name":"住宅区","address":"杨浦区大学路33号"},{"poiid":"B2094757D06FA0FD489E","title":"南京西路","lon":"121.45435","lat":"31.22661","category":"260","category_name":"其他","address":"静安区南京西路(南京西路西康路)"},{"poiid":"B2094655D26AA4FC4099","title":"星巴克(波特曼店)","lon":"121.451973","lat":"31.226651","category":"260","category_name":"其他","address":"静安区南京西路1376号上海商城1楼(近西康路)"},{"poiid":"B2094757D06FA0F44693","title":"琳怡","lon":"121.45236","lat":"31.22731","category":"76","category_name":"上海菜","address":"静安区西康路99-1号静安体育馆1楼"},{"poiid":"B2094750D164A2F9459E","title":"上海波特曼丽思卡尔顿酒店","lon":"121.452022790909","lat":"31.2267568519176","category":"213","category_name":"五星级宾馆","address":"静安区南京西路1376号上海商城内(近西康路)"},{"poiid":"B2094757D068A1FE479F","title":"桃花源小厨(恒隆店)","lon":"121.4545385754036","lat":"31.227524079570962","category":"72","category_name":"广东菜","address":"上海市静安区南京西路1266号恒隆广场5楼"},{"poiid":"B2094757D06FA5FA459D","title":"上海展览中心友谊会堂","lon":"121.45210658","lat":"31.226365355","category":"260","category_name":"其他","address":"静安区南京西路1333号(近铜仁路)"},{"poiid":"B2094757D06FA3FD409F","title":"屋企港式茶餐厅","lon":"121.45508","lat":"31.22628","category":"72","category_name":"广东菜","address":"静安区南京西路1213弄内(恒隆广场对面)"},{"poiid":"B2094757D06FABFC4992","title":"小南国烧烤(恒隆店)","lon":"121.453696","lat":"31.227388","category":"269","category_name":"烧烤","address":"静安区南京西路1266号恒隆广场5楼(近陕西北路)"},{"poiid":"B2094757D06FAAFC409A","title":"斗香园(越洋广场店)","lon":"121.4525","lat":"31.22636","category":"68","category_name":"快餐厅","address":"静安区南京西路1601号芮欧百货B204号(常德路口)"},{"poiid":"B2094757D068A0FB4093","title":"海云台","lon":"121.453265644","lat":"31.2274601452","category":"96","category_name":"韩国料理","address":"静安区南京西路1266号恒隆广场5楼(近陕西北路)"},{"poiid":"B2094757D068A2F8409F","title":"夏面馆(恒隆)","lon":"121.45297166","lat":"31.22762966","category":"68","category_name":"快餐厅","address":"静安区南京西路1266号恒隆广场5楼(近陕西北路)"},{"poiid":"B2094757D06FA0F54793","title":"香奈儿上海恒隆广场精品店","lon":"121.45360772311528","lat":"31.227562874217075","category":"122","category_name":"个人用品/化妆品店","address":"上海市静安区南京西路1266号恒隆广场首层"},{"poiid":"B2094654DB65ABFE479D","title":"THE PORTMAN RITZ-CARLTON SHANGHAI","lon":"121.45207","lat":"31.22663","category":"213","category_name":"五星级宾馆","address":"南京西路1376号上海商城"},{"poiid":"B2094757D069A3FC409E","title":"锦沧文华大酒店宴会厅","lon":"121.45396","lat":"31.22653","category":"217","category_name":"旅馆招待所","address":"静安区南京西路1225号锦沧文华大酒店内(近西康路)查看地图"},{"poiid":"B2094655D26CA4FF439E","title":"上海波特曼丽嘉酒店(南二门)","lon":"121.45193","lat":"31.22642","category":"656","category_name":"大门","address":"上海市静安区南京西路1376号（上海商城内）"},{"poiid":"B2094757D06FA7FB4598","title":"健康煮(金鹰店)","lon":"121.45405583","lat":"31.227760917","category":"68","category_name":"快餐厅","address":"静安区陕西北路278号金鹰国际购物中心6楼(近南京西路)"},{"poiid":"B2094757D06FA3F44792","title":"ZARA(南京西路店)","lon":"121.45491766","lat":"31.227113854","category":"141","category_name":"服装鞋帽皮具店","address":"静安区南京西路1201号(近陕西北路)"},{"poiid":"B2094757D06FA7FF4898","title":"吉惠日式料理(江宁路店)","lon":"121.45468873","lat":"31.227172234","category":"95","category_name":"日本料理","address":"上海市静安区江宁路77号三楼"},{"poiid":"B2094757D469A1F5489D","title":"紫云庭 TATLER'S RESTAURANT","lon":"121.454799781","lat":"31.226518517509","category":"47","category_name":"住宅区","address":"静安区南京西路1225号锦沧文华大酒店1楼(近西康路)"},{"poiid":"B2094757D16EA5F94693","title":"波特曼","lon":"121.452114","lat":"31.226544","category":"249","category_name":"购物服务","address":"上海商城"},{"poiid":"B2094757D06AA5F4489E","title":"hoF Chocolate Boutique","lon":"121.452895841","lat":"31.2257887267","category":"67","category_name":"甜品店","address":"静安区南京西路1357号波特曼大酒店117室(近西康路)"},{"poiid":"B2094750D76DA6F5489A","title":"CREPES&CO","lon":"121.452","lat":"31.2269","category":"94","category_name":"西餐厅","address":"静安区南京西路1376号上海商城104室(近恒隆广场)"},{"poiid":"B2094655D26EA4FD4798","title":"卡地亚(恒隆店)","lon":"121.45439","lat":"31.22758","category":"248","category_name":"生活娱乐","address":"静安区南京西路1266号恒隆广场1楼(近陕西北路)查看地图"},{"poiid":"B2094757D46FA0F4439C","title":"鹤舞 恒隆广场店","lon":"121.454537","lat":"31.227248","category":"95","category_name":"日本料理","address":"静安区南京西路1266号上海恒隆广场5楼(近陕西北路)"},{"poiid":"B2094757D06FA0F9479C","title":"McDonald Citic","lon":"121.45477327","lat":"31.227719613","category":"68","category_name":"快餐厅","address":"上海中信泰富1635"},{"poiid":"B2094655D26DAAFD459D","title":"彩蝶轩","lon":"121.45441","lat":"31.22758","category":"257","category_name":"中餐厅","address":"静安区南京西路1266号恒隆广场5楼(近陕西北路)"},{"poiid":"B2094757D569A0FA479D","title":"波特曼丽嘉宴餐厅","lon":"121.4520789","lat":"31.22663611","category":"268","category_name":"自助","address":"静安区南京西路1376号波特曼大酒店1楼(近西康路)"},{"poiid":"B2094757DB68A1FA469F","title":"梅陇镇酒家","lon":"121.452277492211","lat":"31.22734107127845","category":"247","category_name":"餐饮美食","address":"南京西路1038号梅龙镇广场10楼(近江宁路)"},{"poiid":"B2094757D06BA4F8499C","title":"榄香","lon":"121.45519373","lat":"31.226518221","category":"247","category_name":"餐饮美食","address":"上海金鹰"},{"poiid":"B2094757D465A0F44692","title":"锦沧文华锦华宫","lon":"121.454799781","lat":"31.226518517509","category":"72","category_name":"广东菜","address":"静安区南京西路1225号锦沧文华大酒店3楼(近西康路)"},{"poiid":"B2094655D269A4F4439A","title":"城市超市上海商城店","lon":"121.45207","lat":"31.22663","category":"247","category_name":"餐饮美食","address":"静安区南京西路1376号上海商城B1楼(近西康路)"},{"poiid":"B2094654DA6CA7FC479F","title":"阿波罗大厦","lon":"121.454","lat":"31.2279","category":"46","category_name":"楼宇","address":"静安延安中路1440号,华山路"},{"poiid":"B2094757D069A6FB409E","title":"毕马威华振会计师事务所上海分所","lon":"121.453734398","lat":"31.227435606","category":"46","category_name":"楼宇","address":"上海市南京西路1266号恒隆广场一期50楼"},{"poiid":"B2094757DB64A3FD449E","title":"瑞尔齿科（恒隆广场店）","lon":"121.454","lat":"31.2274","category":"162","category_name":"医院","address":"静安区南京西路1266号恒隆广场512室"},{"poiid":"B2094757D068A3FC419E","title":"PRADA(南京西路店)","lon":"121.454247321","lat":"31.2274819474","category":"141","category_name":"服装鞋帽皮具店","address":"静安区南京西路1266号恒隆广场1-2楼(近陕西北路)"},{"poiid":"B2094751DA6CABFB4793","title":"帅锅Handsome Hotpot","lon":"121.453646","lat":"31.2279","category":"247","category_name":"餐饮美食","address":"静安区威海路720号(近陕西北路)"},{"poiid":"B2094757D06BA5FF4292","title":"镜子西餐","lon":"121.45317988","lat":"31.227598019","category":"247","category_name":"餐饮美食","address":"上海南京西路1266号地下2层"},{"poiid":"B2094654DB65A6FB409A","title":"蔡元培故居","lon":"121.453","lat":"31.2251","category":"250","category_name":"公园户外","address":"静安区华山路303弄16号(希尔顿饭店斜对面)"}]