[{"poiid":"B2094752D06EA3FB4792","title":"极乐汤","lon":"121.600227","lat":"31.249919","category":"248","category_name":"生活娱乐","address":"浦东新区新金桥路600号"},{"poiid":"B2094757D06FA7F4419A","title":"新金桥路金藏路","lon":"121.5987091","lat":"31.248832702","category":"38","category_name":"公交车站","address":"上海新金桥路金藏路"},{"poiid":"B2094654DB6BA1F9479B","title":"圣莎大酒店","lon":"121.60013","lat":"31.25265","category":"217","category_name":"旅馆招待所","address":"上海浦东新区金新路99号"},{"poiid":"B2094757D068A7F8499C","title":"佳友维景大酒店","lon":"121.59724729","lat":"31.247203359","category":"217","category_name":"旅馆招待所","address":"上海市浦东新区新金桥路159号(近金桥路)"},{"poiid":"B2094757D06FA3FA4293","title":"星巴克(中惠广场店)","lon":"121.609055","lat":"31.253059","category":"260","category_name":"其他","address":"浦东新区新金桥路1088号中惠广场B100室(近金湘路)"},{"poiid":"B2094752D16CABFA4098","title":"极乐汤碧云温泉馆","lon":"121.600174","lat":"31.250107","category":"248","category_name":"生活娱乐","address":"新金桥路600号"},{"poiid":"B2094757D068A5F44093","title":"上海大饭堂","lon":"121.59970233","lat":"31.251746837","category":"76","category_name":"上海菜","address":"浦东新区浙桥路200号(近金新路)"},{"poiid":"B2094757D068A2FE459A","title":"壹江南","lon":"121.60917839","lat":"31.252566255","category":"260","category_name":"其他","address":"浦东新区新金桥路1088号(近金湘路)"},{"poiid":"B2094757D068A1F54492","title":"Big Bamboo (金桥店)","lon":"121.59329","lat":"31.24155","category":"260","category_name":"其他","address":"浦东新区红枫路381号(近碧云路)"},{"poiid":"B2094757D169ABFC479F","title":"上海贝尔","lon":"121.60985733","lat":"31.251464831","category":"500","category_name":"未知分类","address":"上海宁桥路388号"},{"poiid":"B2094757D069A5F4489C","title":"可口可乐博物馆","lon":"121.61253","lat":"31.24342","category":"182","category_name":"博物馆","address":"浦东新区桂桥路539号(桂桥路金湘路)"},{"poiid":"B2094757DA6BABF4409F","title":"碧云公馆","lon":"121.599491","lat":"31.25091","category":"252","category_name":"楼宇机构","address":"浦东浙桥路289弄(近杨高中路,金海路口)"},{"poiid":"B2094655D36CA5FE419C","title":"川桥路金滇路","lon":"121.60637","lat":"31.2441","category":"38","category_name":"公交车站","address":""},{"poiid":"B2094757D66EAAF8499A","title":"上海绿地徐捷汽车销售服务有限公司","lon":"121.60602897","lat":"31.243979382","category":"500","category_name":"未知分类","address":"浦东新区川桥路350号(近金桥路)"},{"poiid":"B2094757D06BA6FB459B","title":"福特汽车福银4S店","lon":"121.60238097","lat":"31.243333367","category":"500","category_name":"未知分类","address":"上海市浦东新区川桥路200号"},{"poiid":"B2094757D169AAFF499E","title":"上海金桥高尔夫俱乐部","lon":"121.602146339","lat":"31.2494287843","category":"500","category_name":"未知分类","address":"浦东新区新金桥路775号"},{"poiid":"B2094757D06FAAFD499E","title":"佳友维景大酒店宴会厅","lon":"121.5967","lat":"31.24755","category":"217","category_name":"旅馆招待所","address":"浦东新区新金桥路159号(近金藏路)查看地图"},{"poiid":"B2094655D26AA1F84898","title":"绿地浦成汽车销售有限公司","lon":"121.60524","lat":"31.24341","category":"247","category_name":"餐饮美食","address":"浦东新区川桥路350号(罗山路张杨路)"},{"poiid":"B2094757D169A7F5429F","title":"马自达4S","lon":"121.605248","lat":"31.243437","category":"500","category_name":"未知分类","address":"上海川桥路350号"},{"poiid":"B2094752D16FA2FC409A","title":"极樂汤","lon":"121.600093","lat":"31.250086","category":"247","category_name":"餐饮美食","address":"上海市新金桥路600号"},{"poiid":"B2094655D26AA4F44198","title":"陆风汽车销售服务有限公司","lon":"121.60524","lat":"31.24341","category":"247","category_name":"餐饮美食","address":"浦东新区川桥路350号(罗山路张杨路)"},{"poiid":"B2094757D064A1FC489D","title":"金桥创科园","lon":"121.60805511","lat":"31.242076873","category":"500","category_name":"未知分类","address":"松江区荣乐东路1133弄"},{"poiid":"B2094655D26BA7F94992","title":"惠普综合大楼","lon":"121.59994","lat":"31.2463","category":"46","category_name":"楼宇","address":"金藏路351号"},{"poiid":"B2094654DA6AA1F94993","title":"上海长甲保健品有限公司","lon":"121.6061","lat":"31.24436","category":"263","category_name":"公司","address":"川桥路369"},{"poiid":"B2094654DA6AA7F8489F","title":"上海科达浦东汽车销售服务有限公司","lon":"121.6054","lat":"31.24342","category":"159","category_name":"汽车维修","address":"川桥路358号"},{"poiid":"B2094757D569A3FF4199","title":"阿尔卡特上海贝尔股份有限公司","lon":"121.61164","lat":"31.25047611","category":"138","category_name":"家电电子卖场","address":"宁桥路388-389号"},{"poiid":"B2094757D069A3FD4199","title":"中国移动上海视频基地(云桥路)","lon":"121.61323547","lat":"31.248184204","category":"182","category_name":"博物馆","address":"上海浦东新区云桥路636号"},{"poiid":"B2094655D36DA7FC4599","title":"云桥路金沪路","lon":"121.60367","lat":"31.24617","category":"38","category_name":"公交车站","address":""},{"poiid":"B2094750D26FA3F44199","title":"由度工坊","lon":"121.60897","lat":"31.244926","category":"263","category_name":"公司","address":"上海市浦东新区川桥路401号"},{"poiid":"B2094654DB64A6FA459D","title":"味千拉面 新金桥店","lon":"121.609280054","lat":"31.253093793","category":"95","category_name":"日本料理","address":"浦东新区新金桥路1088号中惠广场B102B113单元(近金湘路)"},{"poiid":"B2094655D36CA0FF4598","title":"金沪路宁桥路","lon":"121.60322","lat":"31.24587","category":"38","category_name":"公交车站","address":""},{"poiid":"B2094757D16FA7FB4699","title":"Parker Hannifin","lon":"121.606504975","lat":"31.2469274515","category":"500","category_name":"未知分类","address":"上海浦东金桥云桥路280号"},{"poiid":"B2094750DA6EABFA409C","title":"开隆定损中心","lon":"121.603378","lat":"31.244918","category":"263","category_name":"公司","address":"上海市浦东新区金沪路1000号"},{"poiid":"B2094757D065A6FC4393","title":"上海东昌金桥汽车服务有限公司","lon":"121.609598975","lat":"31.2402032941","category":"500","category_name":"未知分类","address":"上海市锦绣东路2069号"},{"poiid":"B2094757D168A7F84998","title":"申美可口可乐","lon":"121.6075213","lat":"31.247112972","category":"500","category_name":"未知分类","address":"上海桂桥路"},{"poiid":"B2094654DA6AA7F8489C","title":"上海群工","lon":"121.60681","lat":"31.24378","category":"248","category_name":"生活娱乐","address":"川桥路400号"},{"poiid":"B2094757D06BA2FB4792","title":"金桥软件园","lon":"121.59910211","lat":"31.2423372779","category":"46","category_name":"楼宇","address":"上海浦东新区明月路1257号"},{"poiid":"B2094757DA6EA7FA4699","title":"上海MAXWIN实业有限公司","lon":"121.606820000001","lat":"31.2437799999998","category":"263","category_name":"公司","address":"浦东新区川桥路400号"},{"poiid":"B2094757D06AA0FA419B","title":"长安马自达4S店","lon":"121.60129951","lat":"31.244495104","category":"500","category_name":"未知分类","address":"上海川桥路350号"},{"poiid":"B2094654DA6AA1F94193","title":"上海申美饮料食品有限公司(桂桥路)","lon":"121.6126","lat":"31.24386","category":"263","category_name":"公司","address":"桂桥路539"},{"poiid":"B2094655D36CA0FF4998","title":"金藏路","lon":"121.60238","lat":"31.24584","category":"38","category_name":"公交车站","address":""},{"poiid":"B2094655D36CA5FE419F","title":"川桥路","lon":"121.60179","lat":"31.24305","category":"68","category_name":"快餐厅","address":"浦东新区川桥路182号(近金沪路)"},{"poiid":"B2094757DB6DA5FE419F","title":"上海瑞邦公寓式酒店","lon":"121.608149","lat":"31.240339","category":"214","category_name":"四星级宾馆","address":"上海市浦东新区金滇路176号(近锦绣东路)"},{"poiid":"B2094654DB64A6F4499D","title":"格林豪泰上海浦东金桥酒店","lon":"121.60021","lat":"31.25183","category":"216","category_name":"经济型连锁酒店","address":"上海市浦东新区浙桥路277号(近杨高中路)"},{"poiid":"B2094655D269A4F94293","title":"上海福银汽车销售服务有限公司","lon":"121.60301","lat":"31.24332","category":"158","category_name":"汽车销售","address":"浦东新区川桥路200号(近金沪路)"},{"poiid":"B2094757D16FA7FA4292","title":"张江路","lon":"121.60532912","lat":"31.241646352","category":"500","category_name":"未知分类","address":"上海张江路"},{"poiid":"B2094750D66DABFE469B","title":"派克汉尼汾","lon":"121.605995","lat":"31.246551","category":"500","category_name":"未知分类","address":"云桥路"},{"poiid":"B2094757D66DA3F84792","title":"金滇路　桂桥路","lon":"121.607121975","lat":"31.2419573352","category":"500","category_name":"未知分类","address":"上海交岔口"},{"poiid":"B2094750D56EA6FB409C","title":"科勒电子科技有限公司","lon":"121.602523","lat":"31.244007","category":"263","category_name":"公司","address":"金滇路18号E幢"},{"poiid":"B2094654DA6AA7F8459D","title":"金金公寓职工宿舍","lon":"121.60277","lat":"31.24122","category":"47","category_name":"住宅区","address":"金沪路1218弄1-4号"},{"poiid":"B2094752D06EA3FB4792","title":"极乐汤","lon":"121.600227","lat":"31.249919","category":"248","category_name":"生活娱乐","address":"浦东新区新金桥路600号"},{"poiid":"B2094757D06FA7F4419A","title":"新金桥路金藏路","lon":"121.5987091","lat":"31.248832702","category":"38","category_name":"公交车站","address":"上海新金桥路金藏路"},{"poiid":"B2094654DB6BA1F9479B","title":"圣莎大酒店","lon":"121.60013","lat":"31.25265","category":"217","category_name":"旅馆招待所","address":"上海浦东新区金新路99号"},{"poiid":"B2094757D068A7F8499C","title":"佳友维景大酒店","lon":"121.59724729","lat":"31.247203359","category":"217","category_name":"旅馆招待所","address":"上海市浦东新区新金桥路159号(近金桥路)"},{"poiid":"B2094757D06FA3FA4293","title":"星巴克(中惠广场店)","lon":"121.609055","lat":"31.253059","category":"260","category_name":"其他","address":"浦东新区新金桥路1088号中惠广场B100室(近金湘路)"},{"poiid":"B2094752D16CABFA4098","title":"极乐汤碧云温泉馆","lon":"121.600174","lat":"31.250107","category":"248","category_name":"生活娱乐","address":"新金桥路600号"},{"poiid":"B2094757D068A5F44093","title":"上海大饭堂","lon":"121.59970233","lat":"31.251746837","category":"76","category_name":"上海菜","address":"浦东新区浙桥路200号(近金新路)"},{"poiid":"B2094757D068A2FE459A","title":"壹江南","lon":"121.60917839","lat":"31.252566255","category":"260","category_name":"其他","address":"浦东新区新金桥路1088号(近金湘路)"},{"poiid":"B2094757D068A1F54492","title":"Big Bamboo (金桥店)","lon":"121.59329","lat":"31.24155","category":"260","category_name":"其他","address":"浦东新区红枫路381号(近碧云路)"},{"poiid":"B2094757D169ABFC479F","title":"上海贝尔","lon":"121.60985733","lat":"31.251464831","category":"500","category_name":"未知分类","address":"上海宁桥路388号"},{"poiid":"B2094757D069A5F4489C","title":"可口可乐博物馆","lon":"121.61253","lat":"31.24342","category":"182","category_name":"博物馆","address":"浦东新区桂桥路539号(桂桥路金湘路)"},{"poiid":"B2094757DA6BABF4409F","title":"碧云公馆","lon":"121.599491","lat":"31.25091","category":"252","category_name":"楼宇机构","address":"浦东浙桥路289弄(近杨高中路,金海路口)"},{"poiid":"B2094655D36CA5FE419C","title":"川桥路金滇路","lon":"121.60637","lat":"31.2441","category":"38","category_name":"公交车站","address":""},{"poiid":"B2094757D66EAAF8499A","title":"上海绿地徐捷汽车销售服务有限公司","lon":"121.60602897","lat":"31.243979382","category":"500","category_name":"未知分类","address":"浦东新区川桥路350号(近金桥路)"},{"poiid":"B2094757D06BA6FB459B","title":"福特汽车福银4S店","lon":"121.60238097","lat":"31.243333367","category":"500","category_name":"未知分类","address":"上海市浦东新区川桥路200号"},{"poiid":"B2094757D169AAFF499E","title":"上海金桥高尔夫俱乐部","lon":"121.602146339","lat":"31.2494287843","category":"500","category_name":"未知分类","address":"浦东新区新金桥路775号"},{"poiid":"B2094757D06FAAFD499E","title":"佳友维景大酒店宴会厅","lon":"121.5967","lat":"31.24755","category":"217","category_name":"旅馆招待所","address":"浦东新区新金桥路159号(近金藏路)查看地图"},{"poiid":"B2094655D26AA1F84898","title":"绿地浦成汽车销售有限公司","lon":"121.60524","lat":"31.24341","category":"247","category_name":"餐饮美食","address":"浦东新区川桥路350号(罗山路张杨路)"},{"poiid":"B2094757D169A7F5429F","title":"马自达4S","lon":"121.605248","lat":"31.243437","category":"500","category_name":"未知分类","address":"上海川桥路350号"},{"poiid":"B2094752D16FA2FC409A","title":"极樂汤","lon":"121.600093","lat":"31.250086","category":"247","category_name":"餐饮美食","address":"上海市新金桥路600号"},{"poiid":"B2094655D26AA4F44198","title":"陆风汽车销售服务有限公司","lon":"121.60524","lat":"31.24341","category":"247","category_name":"餐饮美食","address":"浦东新区川桥路350号(罗山路张杨路)"},{"poiid":"B2094757D064A1FC489D","title":"金桥创科园","lon":"121.60805511","lat":"31.242076873","category":"500","category_name":"未知分类","address":"松江区荣乐东路1133弄"},{"poiid":"B2094655D26BA7F94992","title":"惠普综合大楼","lon":"121.59994","lat":"31.2463","category":"46","category_name":"楼宇","address":"金藏路351号"},{"poiid":"B2094654DA6AA1F94993","title":"上海长甲保健品有限公司","lon":"121.6061","lat":"31.24436","category":"263","category_name":"公司","address":"川桥路369"},{"poiid":"B2094654DA6AA7F8489F","title":"上海科达浦东汽车销售服务有限公司","lon":"121.6054","lat":"31.24342","category":"159","category_name":"汽车维修","address":"川桥路358号"},{"poiid":"B2094757D569A3FF4199","title":"阿尔卡特上海贝尔股份有限公司","lon":"121.61164","lat":"31.25047611","category":"138","category_name":"家电电子卖场","address":"宁桥路388-389号"},{"poiid":"B2094757D069A3FD4199","title":"中国移动上海视频基地(云桥路)","lon":"121.61323547","lat":"31.248184204","category":"182","category_name":"博物馆","address":"上海浦东新区云桥路636号"},{"poiid":"B2094655D36DA7FC4599","title":"云桥路金沪路","lon":"121.60367","lat":"31.24617","category":"38","category_name":"公交车站","address":""},{"poiid":"B2094750D26FA3F44199","title":"由度工坊","lon":"121.60897","lat":"31.244926","category":"263","category_name":"公司","address":"上海市浦东新区川桥路401号"},{"poiid":"B2094654DB64A6FA459D","title":"味千拉面 新金桥店","lon":"121.609280054","lat":"31.253093793","category":"95","category_name":"日本料理","address":"浦东新区新金桥路1088号中惠广场B102B113单元(近金湘路)"},{"poiid":"B2094655D36CA0FF4598","title":"金沪路宁桥路","lon":"121.60322","lat":"31.24587","category":"38","category_name":"公交车站","address":""},{"poiid":"B2094757D16FA7FB4699","title":"Parker Hannifin","lon":"121.606504975","lat":"31.2469274515","category":"500","category_name":"未知分类","address":"上海浦东金桥云桥路280号"},{"poiid":"B2094750DA6EABFA409C","title":"开隆定损中心","lon":"121.603378","lat":"31.244918","category":"263","category_name":"公司","address":"上海市浦东新区金沪路1000号"},{"poiid":"B2094757D065A6FC4393","title":"上海东昌金桥汽车服务有限公司","lon":"121.609598975","lat":"31.2402032941","category":"500","category_name":"未知分类","address":"上海市锦绣东路2069号"},{"poiid":"B2094757D168A7F84998","title":"申美可口可乐","lon":"121.6075213","lat":"31.247112972","category":"500","category_name":"未知分类","address":"上海桂桥路"},{"poiid":"B2094654DA6AA7F8489C","title":"上海群工","lon":"121.60681","lat":"31.24378","category":"248","category_name":"生活娱乐","address":"川桥路400号"},{"poiid":"B2094757D06BA2FB4792","title":"金桥软件园","lon":"121.59910211","lat":"31.2423372779","category":"46","category_name":"楼宇","address":"上海浦东新区明月路1257号"},{"poiid":"B2094757DA6EA7FA4699","title":"上海MAXWIN实业有限公司","lon":"121.606820000001","lat":"31.2437799999998","category":"263","category_name":"公司","address":"浦东新区川桥路400号"},{"poiid":"B2094757D06AA0FA419B","title":"长安马自达4S店","lon":"121.60129951","lat":"31.244495104","category":"500","category_name":"未知分类","address":"上海川桥路350号"},{"poiid":"B2094654DA6AA1F94193","title":"上海申美饮料食品有限公司(桂桥路)","lon":"121.6126","lat":"31.24386","category":"263","category_name":"公司","address":"桂桥路539"},{"poiid":"B2094655D36CA0FF4998","title":"金藏路","lon":"121.60238","lat":"31.24584","category":"38","category_name":"公交车站","address":""},{"poiid":"B2094655D36CA5FE419F","title":"川桥路","lon":"121.60179","lat":"31.24305","category":"68","category_name":"快餐厅","address":"浦东新区川桥路182号(近金沪路)"},{"poiid":"B2094757DB6DA5FE419F","title":"上海瑞邦公寓式酒店","lon":"121.608149","lat":"31.240339","category":"214","category_name":"四星级宾馆","address":"上海市浦东新区金滇路176号(近锦绣东路)"},{"poiid":"B2094654DB64A6F4499D","title":"格林豪泰上海浦东金桥酒店","lon":"121.60021","lat":"31.25183","category":"216","category_name":"经济型连锁酒店","address":"上海市浦东新区浙桥路277号(近杨高中路)"},{"poiid":"B2094655D269A4F94293","title":"上海福银汽车销售服务有限公司","lon":"121.60301","lat":"31.24332","category":"158","category_name":"汽车销售","address":"浦东新区川桥路200号(近金沪路)"},{"poiid":"B2094757D16FA7FA4292","title":"张江路","lon":"121.60532912","lat":"31.241646352","category":"500","category_name":"未知分类","address":"上海张江路"},{"poiid":"B2094750D66DABFE469B","title":"派克汉尼汾","lon":"121.605995","lat":"31.246551","category":"500","category_name":"未知分类","address":"云桥路"},{"poiid":"B2094757D66DA3F84792","title":"金滇路　桂桥路","lon":"121.607121975","lat":"31.2419573352","category":"500","category_name":"未知分类","address":"上海交岔口"},{"poiid":"B2094750D56EA6FB409C","title":"科勒电子科技有限公司","lon":"121.602523","lat":"31.244007","category":"263","category_name":"公司","address":"金滇路18号E幢"},{"poiid":"B2094654DA6AA7F8459D","title":"金金公寓职工宿舍","lon":"121.60277","lat":"31.24122","category":"47","category_name":"住宅区","address":"金沪路1218弄1-4号"},{"poiid":"B2094752D06EA3FB4792","title":"极乐汤","lon":"121.600227","lat":"31.249919","category":"248","category_name":"生活娱乐","address":"浦东新区新金桥路600号"},{"poiid":"B2094757D06FA7F4419A","title":"新金桥路金藏路","lon":"121.5987091","lat":"31.248832702","category":"38","category_name":"公交车站","address":"上海新金桥路金藏路"},{"poiid":"B2094654DB6BA1F9479B","title":"圣莎大酒店","lon":"121.60013","lat":"31.25265","category":"217","category_name":"旅馆招待所","address":"上海浦东新区金新路99号"},{"poiid":"B2094757D068A7F8499C","title":"佳友维景大酒店","lon":"121.59724729","lat":"31.247203359","category":"217","category_name":"旅馆招待所","address":"上海市浦东新区新金桥路159号(近金桥路)"},{"poiid":"B2094757D06FA3FA4293","title":"星巴克(中惠广场店)","lon":"121.609055","lat":"31.253059","category":"260","category_name":"其他","address":"浦东新区新金桥路1088号中惠广场B100室(近金湘路)"},{"poiid":"B2094752D16CABFA4098","title":"极乐汤碧云温泉馆","lon":"121.600174","lat":"31.250107","category":"248","category_name":"生活娱乐","address":"新金桥路600号"},{"poiid":"B2094757D068A5F44093","title":"上海大饭堂","lon":"121.59970233","lat":"31.251746837","category":"76","category_name":"上海菜","address":"浦东新区浙桥路200号(近金新路)"},{"poiid":"B2094757D068A2FE459A","title":"壹江南","lon":"121.60917839","lat":"31.252566255","category":"260","category_name":"其他","address":"浦东新区新金桥路1088号(近金湘路)"},{"poiid":"B2094757D068A1F54492","title":"Big Bamboo (金桥店)","lon":"121.59329","lat":"31.24155","category":"260","category_name":"其他","address":"浦东新区红枫路381号(近碧云路)"},{"poiid":"B2094757D169ABFC479F","title":"上海贝尔","lon":"121.60985733","lat":"31.251464831","category":"500","category_name":"未知分类","address":"上海宁桥路388号"},{"poiid":"B2094757D069A5F4489C","title":"可口可乐博物馆","lon":"121.61253","lat":"31.24342","category":"182","category_name":"博物馆","address":"浦东新区桂桥路539号(桂桥路金湘路)"},{"poiid":"B2094757DA6BABF4409F","title":"碧云公馆","lon":"121.599491","lat":"31.25091","category":"252","category_name":"楼宇机构","address":"浦东浙桥路289弄(近杨高中路,金海路口)"},{"poiid":"B2094655D36CA5FE419C","title":"川桥路金滇路","lon":"121.60637","lat":"31.2441","category":"38","category_name":"公交车站","address":""},{"poiid":"B2094757D66EAAF8499A","title":"上海绿地徐捷汽车销售服务有限公司","lon":"121.60602897","lat":"31.243979382","category":"500","category_name":"未知分类","address":"浦东新区川桥路350号(近金桥路)"},{"poiid":"B2094757D06BA6FB459B","title":"福特汽车福银4S店","lon":"121.60238097","lat":"31.243333367","category":"500","category_name":"未知分类","address":"上海市浦东新区川桥路200号"},{"poiid":"B2094757D169AAFF499E","title":"上海金桥高尔夫俱乐部","lon":"121.602146339","lat":"31.2494287843","category":"500","category_name":"未知分类","address":"浦东新区新金桥路775号"},{"poiid":"B2094757D06FAAFD499E","title":"佳友维景大酒店宴会厅","lon":"121.5967","lat":"31.24755","category":"217","category_name":"旅馆招待所","address":"浦东新区新金桥路159号(近金藏路)查看地图"},{"poiid":"B2094655D26AA1F84898","title":"绿地浦成汽车销售有限公司","lon":"121.60524","lat":"31.24341","category":"247","category_name":"餐饮美食","address":"浦东新区川桥路350号(罗山路张杨路)"},{"poiid":"B2094757D169A7F5429F","title":"马自达4S","lon":"121.605248","lat":"31.243437","category":"500","category_name":"未知分类","address":"上海川桥路350号"},{"poiid":"B2094752D16FA2FC409A","title":"极樂汤","lon":"121.600093","lat":"31.250086","category":"247","category_name":"餐饮美食","address":"上海市新金桥路600号"},{"poiid":"B2094655D26AA4F44198","title":"陆风汽车销售服务有限公司","lon":"121.60524","lat":"31.24341","category":"247","category_name":"餐饮美食","address":"浦东新区川桥路350号(罗山路张杨路)"},{"poiid":"B2094757D064A1FC489D","title":"金桥创科园","lon":"121.60805511","lat":"31.242076873","category":"500","category_name":"未知分类","address":"松江区荣乐东路1133弄"},{"poiid":"B2094655D26BA7F94992","title":"惠普综合大楼","lon":"121.59994","lat":"31.2463","category":"46","category_name":"楼宇","address":"金藏路351号"},{"poiid":"B2094654DA6AA1F94993","title":"上海长甲保健品有限公司","lon":"121.6061","lat":"31.24436","category":"263","category_name":"公司","address":"川桥路369"},{"poiid":"B2094654DA6AA7F8489F","title":"上海科达浦东汽车销售服务有限公司","lon":"121.6054","lat":"31.24342","category":"159","category_name":"汽车维修","address":"川桥路358号"},{"poiid":"B2094757D569A3FF4199","title":"阿尔卡特上海贝尔股份有限公司","lon":"121.61164","lat":"31.25047611","category":"138","category_name":"家电电子卖场","address":"宁桥路388-389号"},{"poiid":"B2094757D069A3FD4199","title":"中国移动上海视频基地(云桥路)","lon":"121.61323547","lat":"31.248184204","category":"182","category_name":"博物馆","address":"上海浦东新区云桥路636号"},{"poiid":"B2094655D36DA7FC4599","title":"云桥路金沪路","lon":"121.60367","lat":"31.24617","category":"38","category_name":"公交车站","address":""},{"poiid":"B2094750D26FA3F44199","title":"由度工坊","lon":"121.60897","lat":"31.244926","category":"263","category_name":"公司","address":"上海市浦东新区川桥路401号"},{"poiid":"B2094654DB64A6FA459D","title":"味千拉面 新金桥店","lon":"121.609280054","lat":"31.253093793","category":"95","category_name":"日本料理","address":"浦东新区新金桥路1088号中惠广场B102B113单元(近金湘路)"},{"poiid":"B2094655D36CA0FF4598","title":"金沪路宁桥路","lon":"121.60322","lat":"31.24587","category":"38","category_name":"公交车站","address":""},{"poiid":"B2094757D16FA7FB4699","title":"Parker Hannifin","lon":"121.606504975","lat":"31.2469274515","category":"500","category_name":"未知分类","address":"上海浦东金桥云桥路280号"},{"poiid":"B2094750DA6EABFA409C","title":"开隆定损中心","lon":"121.603378","lat":"31.244918","category":"263","category_name":"公司","address":"上海市浦东新区金沪路1000号"},{"poiid":"B2094757D065A6FC4393","title":"上海东昌金桥汽车服务有限公司","lon":"121.609598975","lat":"31.2402032941","category":"500","category_name":"未知分类","address":"上海市锦绣东路2069号"},{"poiid":"B2094757D168A7F84998","title":"申美可口可乐","lon":"121.6075213","lat":"31.247112972","category":"500","category_name":"未知分类","address":"上海桂桥路"},{"poiid":"B2094654DA6AA7F8489C","title":"上海群工","lon":"121.60681","lat":"31.24378","category":"248","category_name":"生活娱乐","address":"川桥路400号"},{"poiid":"B2094757D06BA2FB4792","title":"金桥软件园","lon":"121.59910211","lat":"31.2423372779","category":"46","category_name":"楼宇","address":"上海浦东新区明月路1257号"},{"poiid":"B2094757DA6EA7FA4699","title":"上海MAXWIN实业有限公司","lon":"121.606820000001","lat":"31.2437799999998","category":"263","category_name":"公司","address":"浦东新区川桥路400号"},{"poiid":"B2094757D06AA0FA419B","title":"长安马自达4S店","lon":"121.60129951","lat":"31.244495104","category":"500","category_name":"未知分类","address":"上海川桥路350号"},{"poiid":"B2094654DA6AA1F94193","title":"上海申美饮料食品有限公司(桂桥路)","lon":"121.6126","lat":"31.24386","category":"263","category_name":"公司","address":"桂桥路539"},{"poiid":"B2094655D36CA0FF4998","title":"金藏路","lon":"121.60238","lat":"31.24584","category":"38","category_name":"公交车站","address":""},{"poiid":"B2094655D36CA5FE419F","title":"川桥路","lon":"121.60179","lat":"31.24305","category":"68","category_name":"快餐厅","address":"浦东新区川桥路182号(近金沪路)"},{"poiid":"B2094757DB6DA5FE419F","title":"上海瑞邦公寓式酒店","lon":"121.608149","lat":"31.240339","category":"214","category_name":"四星级宾馆","address":"上海市浦东新区金滇路176号(近锦绣东路)"},{"poiid":"B2094654DB64A6F4499D","title":"格林豪泰上海浦东金桥酒店","lon":"121.60021","lat":"31.25183","category":"216","category_name":"经济型连锁酒店","address":"上海市浦东新区浙桥路277号(近杨高中路)"},{"poiid":"B2094655D269A4F94293","title":"上海福银汽车销售服务有限公司","lon":"121.60301","lat":"31.24332","category":"158","category_name":"汽车销售","address":"浦东新区川桥路200号(近金沪路)"},{"poiid":"B2094757D16FA7FA4292","title":"张江路","lon":"121.60532912","lat":"31.241646352","category":"500","category_name":"未知分类","address":"上海张江路"},{"poiid":"B2094750D66DABFE469B","title":"派克汉尼汾","lon":"121.605995","lat":"31.246551","category":"500","category_name":"未知分类","address":"云桥路"},{"poiid":"B2094757D66DA3F84792","title":"金滇路　桂桥路","lon":"121.607121975","lat":"31.2419573352","category":"500","category_name":"未知分类","address":"上海交岔口"},{"poiid":"B2094750D56EA6FB409C","title":"科勒电子科技有限公司","lon":"121.602523","lat":"31.244007","category":"263","category_name":"公司","address":"金滇路18号E幢"},{"poiid":"B2094654DA6AA7F8459D","title":"金金公寓职工宿舍","lon":"121.60277","lat":"31.24122","category":"47","category_name":"住宅区","address":"金沪路1218弄1-4号"},{"poiid":"B2094752D06EA3FB4792","title":"极乐汤","lon":"121.600227","lat":"31.249919","category":"248","category_name":"生活娱乐","address":"浦东新区新金桥路600号"},{"poiid":"B2094757D06FA7F4419A","title":"新金桥路金藏路","lon":"121.5987091","lat":"31.248832702","category":"38","category_name":"公交车站","address":"上海新金桥路金藏路"},{"poiid":"B2094654DB6BA1F9479B","title":"圣莎大酒店","lon":"121.60013","lat":"31.25265","category":"217","category_name":"旅馆招待所","address":"上海浦东新区金新路99号"},{"poiid":"B2094757D068A7F8499C","title":"佳友维景大酒店","lon":"121.59724729","lat":"31.247203359","category":"217","category_name":"旅馆招待所","address":"上海市浦东新区新金桥路159号(近金桥路)"},{"poiid":"B2094757D06FA3FA4293","title":"星巴克(中惠广场店)","lon":"121.609055","lat":"31.253059","category":"260","category_name":"其他","address":"浦东新区新金桥路1088号中惠广场B100室(近金湘路)"},{"poiid":"B2094752D16CABFA4098","title":"极乐汤碧云温泉馆","lon":"121.600174","lat":"31.250107","category":"248","category_name":"生活娱乐","address":"新金桥路600号"},{"poiid":"B2094757D068A5F44093","title":"上海大饭堂","lon":"121.59970233","lat":"31.251746837","category":"76","category_name":"上海菜","address":"浦东新区浙桥路200号(近金新路)"},{"poiid":"B2094757D068A2FE459A","title":"壹江南","lon":"121.60917839","lat":"31.252566255","category":"260","category_name":"其他","address":"浦东新区新金桥路1088号(近金湘路)"},{"poiid":"B2094757D068A1F54492","title":"Big Bamboo (金桥店)","lon":"121.59329","lat":"31.24155","category":"260","category_name":"其他","address":"浦东新区红枫路381号(近碧云路)"},{"poiid":"B2094757D169ABFC479F","title":"上海贝尔","lon":"121.60985733","lat":"31.251464831","category":"500","category_name":"未知分类","address":"上海宁桥路388号"},{"poiid":"B2094757D069A5F4489C","title":"可口可乐博物馆","lon":"121.61253","lat":"31.24342","category":"182","category_name":"博物馆","address":"浦东新区桂桥路539号(桂桥路金湘路)"},{"poiid":"B2094757DA6BABF4409F","title":"碧云公馆","lon":"121.599491","lat":"31.25091","category":"252","category_name":"楼宇机构","address":"浦东浙桥路289弄(近杨高中路,金海路口)"},{"poiid":"B2094655D36CA5FE419C","title":"川桥路金滇路","lon":"121.60637","lat":"31.2441","category":"38","category_name":"公交车站","address":""},{"poiid":"B2094757D66EAAF8499A","title":"上海绿地徐捷汽车销售服务有限公司","lon":"121.60602897","lat":"31.243979382","category":"500","category_name":"未知分类","address":"浦东新区川桥路350号(近金桥路)"},{"poiid":"B2094757D06BA6FB459B","title":"福特汽车福银4S店","lon":"121.60238097","lat":"31.243333367","category":"500","category_name":"未知分类","address":"上海市浦东新区川桥路200号"},{"poiid":"B2094757D169AAFF499E","title":"上海金桥高尔夫俱乐部","lon":"121.602146339","lat":"31.2494287843","category":"500","category_name":"未知分类","address":"浦东新区新金桥路775号"},{"poiid":"B2094757D06FAAFD499E","title":"佳友维景大酒店宴会厅","lon":"121.5967","lat":"31.24755","category":"217","category_name":"旅馆招待所","address":"浦东新区新金桥路159号(近金藏路)查看地图"},{"poiid":"B2094655D26AA1F84898","title":"绿地浦成汽车销售有限公司","lon":"121.60524","lat":"31.24341","category":"247","category_name":"餐饮美食","address":"浦东新区川桥路350号(罗山路张杨路)"},{"poiid":"B2094757D169A7F5429F","title":"马自达4S","lon":"121.605248","lat":"31.243437","category":"500","category_name":"未知分类","address":"上海川桥路350号"},{"poiid":"B2094752D16FA2FC409A","title":"极樂汤","lon":"121.600093","lat":"31.250086","category":"247","category_name":"餐饮美食","address":"上海市新金桥路600号"},{"poiid":"B2094655D26AA4F44198","title":"陆风汽车销售服务有限公司","lon":"121.60524","lat":"31.24341","category":"247","category_name":"餐饮美食","address":"浦东新区川桥路350号(罗山路张杨路)"},{"poiid":"B2094757D064A1FC489D","title":"金桥创科园","lon":"121.60805511","lat":"31.242076873","category":"500","category_name":"未知分类","address":"松江区荣乐东路1133弄"},{"poiid":"B2094655D26BA7F94992","title":"惠普综合大楼","lon":"121.59994","lat":"31.2463","category":"46","category_name":"楼宇","address":"金藏路351号"},{"poiid":"B2094654DA6AA1F94993","title":"上海长甲保健品有限公司","lon":"121.6061","lat":"31.24436","category":"263","category_name":"公司","address":"川桥路369"},{"poiid":"B2094654DA6AA7F8489F","title":"上海科达浦东汽车销售服务有限公司","lon":"121.6054","lat":"31.24342","category":"159","category_name":"汽车维修","address":"川桥路358号"},{"poiid":"B2094757D569A3FF4199","title":"阿尔卡特上海贝尔股份有限公司","lon":"121.61164","lat":"31.25047611","category":"138","category_name":"家电电子卖场","address":"宁桥路388-389号"},{"poiid":"B2094757D069A3FD4199","title":"中国移动上海视频基地(云桥路)","lon":"121.61323547","lat":"31.248184204","category":"182","category_name":"博物馆","address":"上海浦东新区云桥路636号"},{"poiid":"B2094655D36DA7FC4599","title":"云桥路金沪路","lon":"121.60367","lat":"31.24617","category":"38","category_name":"公交车站","address":""},{"poiid":"B2094750D26FA3F44199","title":"由度工坊","lon":"121.60897","lat":"31.244926","category":"263","category_name":"公司","address":"上海市浦东新区川桥路401号"},{"poiid":"B2094654DB64A6FA459D","title":"味千拉面 新金桥店","lon":"121.609280054","lat":"31.253093793","category":"95","category_name":"日本料理","address":"浦东新区新金桥路1088号中惠广场B102B113单元(近金湘路)"},{"poiid":"B2094655D36CA0FF4598","title":"金沪路宁桥路","lon":"121.60322","lat":"31.24587","category":"38","category_name":"公交车站","address":""},{"poiid":"B2094757D16FA7FB4699","title":"Parker Hannifin","lon":"121.606504975","lat":"31.2469274515","category":"500","category_name":"未知分类","address":"上海浦东金桥云桥路280号"},{"poiid":"B2094750DA6EABFA409C","title":"开隆定损中心","lon":"121.603378","lat":"31.244918","category":"263","category_name":"公司","address":"上海市浦东新区金沪路1000号"},{"poiid":"B2094757D065A6FC4393","title":"上海东昌金桥汽车服务有限公司","lon":"121.609598975","lat":"31.2402032941","category":"500","category_name":"未知分类","address":"上海市锦绣东路2069号"},{"poiid":"B2094757D168A7F84998","title":"申美可口可乐","lon":"121.6075213","lat":"31.247112972","category":"500","category_name":"未知分类","address":"上海桂桥路"},{"poiid":"B2094654DA6AA7F8489C","title":"上海群工","lon":"121.60681","lat":"31.24378","category":"248","category_name":"生活娱乐","address":"川桥路400号"},{"poiid":"B2094757D06BA2FB4792","title":"金桥软件园","lon":"121.59910211","lat":"31.2423372779","category":"46","category_name":"楼宇","address":"上海浦东新区明月路1257号"},{"poiid":"B2094757DA6EA7FA4699","title":"上海MAXWIN实业有限公司","lon":"121.606820000001","lat":"31.2437799999998","category":"263","category_name":"公司","address":"浦东新区川桥路400号"},{"poiid":"B2094757D06AA0FA419B","title":"长安马自达4S店","lon":"121.60129951","lat":"31.244495104","category":"500","category_name":"未知分类","address":"上海川桥路350号"},{"poiid":"B2094654DA6AA1F94193","title":"上海申美饮料食品有限公司(桂桥路)","lon":"121.6126","lat":"31.24386","category":"263","category_name":"公司","address":"桂桥路539"},{"poiid":"B2094655D36CA0FF4998","title":"金藏路","lon":"121.60238","lat":"31.24584","category":"38","category_name":"公交车站","address":""},{"poiid":"B2094655D36CA5FE419F","title":"川桥路","lon":"121.60179","lat":"31.24305","category":"68","category_name":"快餐厅","address":"浦东新区川桥路182号(近金沪路)"},{"poiid":"B2094757DB6DA5FE419F","title":"上海瑞邦公寓式酒店","lon":"121.608149","lat":"31.240339","category":"214","category_name":"四星级宾馆","address":"上海市浦东新区金滇路176号(近锦绣东路)"},{"poiid":"B2094654DB64A6F4499D","title":"格林豪泰上海浦东金桥酒店","lon":"121.60021","lat":"31.25183","category":"216","category_name":"经济型连锁酒店","address":"上海市浦东新区浙桥路277号(近杨高中路)"},{"poiid":"B2094655D269A4F94293","title":"上海福银汽车销售服务有限公司","lon":"121.60301","lat":"31.24332","category":"158","category_name":"汽车销售","address":"浦东新区川桥路200号(近金沪路)"},{"poiid":"B2094757D16FA7FA4292","title":"张江路","lon":"121.60532912","lat":"31.241646352","category":"500","category_name":"未知分类","address":"上海张江路"},{"poiid":"B2094750D66DABFE469B","title":"派克汉尼汾","lon":"121.605995","lat":"31.246551","category":"500","category_name":"未知分类","address":"云桥路"},{"poiid":"B2094757D66DA3F84792","title":"金滇路　桂桥路","lon":"121.607121975","lat":"31.2419573352","category":"500","category_name":"未知分类","address":"上海交岔口"},{"poiid":"B2094750D56EA6FB409C","title":"科勒电子科技有限公司","lon":"121.602523","lat":"31.244007","category":"263","category_name":"公司","address":"金滇路18号E幢"},{"poiid":"B2094654DA6AA7F8459D","title":"金金公寓职工宿舍","lon":"121.60277","lat":"31.24122","category":"47","category_name":"住宅区","address":"金沪路1218弄1-4号"}]