[{"poiid":"B2094655D268A6FF469C","title":"Pier 39","lon":"121.45905","lat":"31.22151","category":"94","category_name":"西餐厅","address":"卢湾区进贤路172号(近陕西南路)"},{"poiid":"B2094654D564AAF9439B","title":"兰心大戏院","lon":"121.46051","lat":"31.2209","category":"180","category_name":"剧场","address":"卢湾区茂名南路57(近长乐路口)"},{"poiid":"B2094757D06FA2FE4698","title":"黑方日本料理","lon":"121.46039473","lat":"31.224688182","category":"95","category_name":"日本料理","address":"茂名北路65号2号楼112-113室近威海路"},{"poiid":"B2094753D76FAAFA449C","title":"上海滩国泰旗舰店","lon":"121.466011","lat":"31.216125","category":"249","category_name":"购物服务","address":"淮海中路868号"},{"poiid":"B209475CD564A7F84292","title":"上海滩新天地店","lon":"121.47463","lat":"31.22164","category":"119","category_name":"商场","address":"\"太仓路181弄新天地北里15号\r\n\""},{"poiid":"B209475CD564A7F8439E","title":"上海滩中信泰富店","lon":"121.45602","lat":"31.22851","category":"119","category_name":"商场","address":"\"南京西路1168号中信泰富广场，店铺号221.\r\n\""},{"poiid":"B2094655D26EAAFB499B","title":"CITIZEN CAFE & BAR","lon":"121.45869704223","lat":"31.220626397075","category":"247","category_name":"餐饮美食","address":"卢湾区进贤路222号(近陕西南路)"},{"poiid":"B2094757D06FA2F9469A","title":"兰心餐厅","lon":"121.45978","lat":"31.22135","category":"76","category_name":"上海菜","address":"卢湾区进贤路130号(近茂名南路)"},{"poiid":"B2094757DB68AAFF4792","title":"丽江驿 MONSOON","lon":"121.460094","lat":"31.221228","category":"99","category_name":"泰国／越南菜品餐厅","address":"卢湾区茂名南路56号56食尚谷内(近长乐路)"},{"poiid":"B2094757D464A7FE459F","title":"唐宫1号 锦江迪生店","lon":"121.459768054","lat":"31.220746793","category":"247","category_name":"餐饮美食","address":"卢湾区长乐路400号锦江迪生3-4楼(近茂名南路)"},{"poiid":"B2094757D06FA6FE489E","title":"王品台塑牛排(长乐店)","lon":"121.45989","lat":"31.22049","category":"94","category_name":"西餐厅","address":"卢湾区长乐路400号锦江迪生商厦2楼(近茂名南路)"},{"poiid":"B2094757D064A5F94493","title":"岩日本料理","lon":"121.459654038","lat":"31.2223299317","category":"95","category_name":"日本料理","address":"卢湾区巨鹿路294号(近茂名南路)"},{"poiid":"B2094757D06FA1F9419F","title":"滴水洞(茂名南路店)","lon":"121.4601","lat":"31.22061","category":"77","category_name":"湖南菜","address":"卢湾区茂名南路56号2楼(近长乐路)"},{"poiid":"B2094757D06FA6F94492","title":"Osteria","lon":"121.45836","lat":"31.22104","category":"94","category_name":"西餐厅","address":"卢湾区进贤路226号(近陕西南路)"},{"poiid":"B2094757D06FA0FC439E","title":"锦江迪生商厦","lon":"121.45968873","lat":"31.221020103","category":"119","category_name":"商场","address":"卢湾区长乐路400号(近茂名南路)"},{"poiid":"B2094655D26AABFB439F","title":"天鹅申阁西菜社","lon":"121.45926","lat":"31.22131","category":"247","category_name":"餐饮美食","address":"进贤路169号"},{"poiid":"B2094757D064AAFF4898","title":"韩国艺匠婚纱摄影","lon":"121.460858238","lat":"31.2248422003","category":"611","category_name":"照相馆","address":"长宁区江苏路40号（近长宁路）"},{"poiid":"B2094757D06FA0F9419F","title":"清迈天堂","lon":"121.46022","lat":"31.2212","category":"99","category_name":"泰国／越南菜品餐厅","address":"卢湾区进贤路145号(近茂名南路)"},{"poiid":"B2094757D06FAAFA459A","title":"城市酒店","lon":"121.45726927","lat":"31.222721847","category":"217","category_name":"旅馆招待所","address":"卢湾区陕西南路5-7号(近巨鹿路)"},{"poiid":"B2094750D068A2FA449C","title":"Tikka","lon":"121.46011","lat":"31.22115","category":"102","category_name":"印度风味","address":"卢湾区茂名南路56号(近长乐路)"},{"poiid":"B2094757D06FA5F84393","title":"东瀛国际造型(淮海路店)","lon":"121.45769292","lat":"31.222248609","category":"148","category_name":"美容美发店","address":"卢湾区巨鹿路423号(近地铁1号线陕西南路站)"},{"poiid":"B2094757D068A0F9439B","title":"茂名南路","lon":"121.46024322","lat":"31.22309494","category":"260","category_name":"其他","address":"上海静安区茂名南路"},{"poiid":"B2094757D06FABFE439B","title":"粋寿司","lon":"121.46058308","lat":"31.220771748","category":"95","category_name":"日本料理","address":"卢湾区长乐路175-2号(近茂名南路)"},{"poiid":"B2094757D068A7F8459F","title":"净心轩","lon":"121.46047","lat":"31.22114","category":"89","category_name":"中式素餐馆","address":"卢湾区茂名南路56号56食尚谷D区1号(近长乐路)"},{"poiid":"B2094757D46CA7FB4799","title":"茂隆餐厅","lon":"121.45990991619","lat":"31.221918570819","category":"76","category_name":"上海菜","address":"卢湾区进贤路134号(近茂名南路)"},{"poiid":"B2094757D168AAF5499F","title":"伊秀寿司","lon":"121.45819373","lat":"31.224303173","category":"247","category_name":"餐饮美食","address":"上海市静安区南京西路"},{"poiid":"B2094757DA69A3F4419B","title":"福得德","lon":"121.46017423652","lat":"31.221155993403","category":"76","category_name":"上海菜","address":"卢湾区茂名南路56号B区1楼(近进贤路)"},{"poiid":"B209475DDA68A2FA429E","title":"万岛日本料理铁板烧（锦江迪生店）","lon":"121.460075","lat":"31.220945","category":"247","category_name":"餐饮美食","address":"上海市 长乐路400号(近茂名南路)"},{"poiid":"B2094750D26AA6FC429F","title":"恒隆","lon":"121.458969","lat":"31.223642","category":"500","category_name":"未知分类","address":"南京西路"},{"poiid":"B2094757D56EA2FB469A","title":"Le Vin","lon":"121.45787000656128","lat":"31.22141716161553","category":"260","category_name":"其他","address":"卢湾区进贤路224号"},{"poiid":"B2094654D564AAFF459C","title":"春餐厅","lon":"121.46014540629","lat":"31.22205986488","category":"76","category_name":"上海菜","address":"卢湾区进贤路124号(茂名南路口)"},{"poiid":"B2094757D069ABFC479C","title":"进贤路","lon":"121.459985","lat":"31.221497","category":"500","category_name":"未知分类","address":"上海市静安区延安中路"},{"poiid":"B209475DD669A2FA499B","title":"馆子House198","lon":"121.458572","lat":"31.221391","category":"247","category_name":"餐饮美食","address":"上海市 卢湾区进贤路198号"},{"poiid":"B2094757D16AABFF449E","title":"陕西南路","lon":"121.46115673","lat":"31.221008103","category":"500","category_name":"未知分类","address":"上海市静安区陕西南路"},{"poiid":"B2094757D169A7F8429C","title":"双叶居热气羊肉","lon":"121.46038873","lat":"31.223887164","category":"86","category_name":"火锅店","address":"静安区延安中路724号(近茂名北路)"},{"poiid":"B2094654DA6CA1F5419B","title":"香港名城火锅","lon":"121.45931","lat":"31.2243","category":"86","category_name":"火锅店","address":"静安区延安中路802号(近茂名北路)"},{"poiid":"B2094757D168A6F9449A","title":"屋企汤馆","lon":"121.460766738","lat":"31.2209171016","category":"72","category_name":"广东菜","address":"卢湾区长乐路175号(近兰心大戏院)"},{"poiid":"B2094757D164A6F4439A","title":"巨鹿路","lon":"121.459033","lat":"31.222743","category":"500","category_name":"未知分类","address":"上海巨鹿路318号"},{"poiid":"B2094750D76DABFD499A","title":"DEREFTER比利时餐厅啤酒吧","lon":"121.459","lat":"31.2214","category":"269","category_name":"烧烤","address":"进贤路181号(近茂名南路)"},{"poiid":"B2094655D26BA0FA4192","title":"LOMOGRAPHY","lon":"121.46004","lat":"31.22172","category":"255","category_name":"专卖店","address":"卢湾区进贤路126号(近茂名南路)"},{"poiid":"B2094757D06BA0FE499E","title":"一家人餐厅","lon":"121.459923","lat":"31.221674","category":"76","category_name":"上海菜","address":"卢湾区进贤路128号(近茂名南路)"},{"poiid":"B2094757D068A6FB429E","title":"康骏会馆(长乐店)","lon":"121.459905","lat":"31.220958","category":"500","category_name":"未知分类","address":"卢湾区长乐路400号3楼(长乐路茂名南路)"},{"poiid":"B2094757D069A3FF419C","title":"210 Coffee","lon":"121.45804573","lat":"31.22132311","category":"65","category_name":"咖啡厅","address":"卢湾区进贤路210号1-3楼(近陕西南路)"},{"poiid":"B2094757D06AA7FD429C","title":"FC日式造型(锦江迪生店)","lon":"121.459907","lat":"31.220695","category":"260","category_name":"其他","address":"上海卢湾区长乐路400号锦江迪生3楼(近茂名南路)"},{"poiid":"B2094654D564ABFE469F","title":"悟锦世纪大楼","lon":"121.459","lat":"31.2237","category":"46","category_name":"楼宇","address":"富民路291号"},{"poiid":"B2094757D06FAAFA4098","title":"乐太郎","lon":"121.45997","lat":"31.22049","category":"95","category_name":"日本料理","address":"卢湾区长乐路398号1楼B1(近茂名南路)"},{"poiid":"B2094757D06FA5FB4892","title":"Chill Lounge","lon":"121.459104395","lat":"31.2228115434","category":"260","category_name":"其他","address":"卢湾区巨鹿路318-2号(近茂名南路)"},{"poiid":"B2094757D06BABFB4692","title":"延安路高架","lon":"121.45920679","lat":"31.223764255","category":"500","category_name":"未知分类","address":"上海延安路"},{"poiid":"B2094757D069A3F5459E","title":"进贤阁","lon":"121.46044","lat":"31.22152","category":"76","category_name":"上海菜","address":"上海卢湾区进贤路120号(近茂名路)  "},{"poiid":"B2094757D064ABFF4092","title":"秦粤轩","lon":"121.46102","lat":"31.22384","category":"84","category_name":"西北菜","address":"静安区延安中路658号陕西大厦商务酒店4楼(近茂名北路)"},{"poiid":"B2094655D268A6FF469C","title":"Pier 39","lon":"121.45905","lat":"31.22151","category":"94","category_name":"西餐厅","address":"卢湾区进贤路172号(近陕西南路)"},{"poiid":"B2094654D564AAF9439B","title":"兰心大戏院","lon":"121.46051","lat":"31.2209","category":"180","category_name":"剧场","address":"卢湾区茂名南路57(近长乐路口)"},{"poiid":"B2094757D06FA2FE4698","title":"黑方日本料理","lon":"121.46039473","lat":"31.224688182","category":"95","category_name":"日本料理","address":"茂名北路65号2号楼112-113室近威海路"},{"poiid":"B2094753D76FAAFA449C","title":"上海滩国泰旗舰店","lon":"121.466011","lat":"31.216125","category":"249","category_name":"购物服务","address":"淮海中路868号"},{"poiid":"B209475CD564A7F84292","title":"上海滩新天地店","lon":"121.47463","lat":"31.22164","category":"119","category_name":"商场","address":"\"太仓路181弄新天地北里15号\r\n\""},{"poiid":"B209475CD564A7F8439E","title":"上海滩中信泰富店","lon":"121.45602","lat":"31.22851","category":"119","category_name":"商场","address":"\"南京西路1168号中信泰富广场，店铺号221.\r\n\""},{"poiid":"B2094655D26EAAFB499B","title":"CITIZEN CAFE & BAR","lon":"121.45869704223","lat":"31.220626397075","category":"247","category_name":"餐饮美食","address":"卢湾区进贤路222号(近陕西南路)"},{"poiid":"B2094757D06FA2F9469A","title":"兰心餐厅","lon":"121.45978","lat":"31.22135","category":"76","category_name":"上海菜","address":"卢湾区进贤路130号(近茂名南路)"},{"poiid":"B2094757DB68AAFF4792","title":"丽江驿 MONSOON","lon":"121.460094","lat":"31.221228","category":"99","category_name":"泰国／越南菜品餐厅","address":"卢湾区茂名南路56号56食尚谷内(近长乐路)"},{"poiid":"B2094757D464A7FE459F","title":"唐宫1号 锦江迪生店","lon":"121.459768054","lat":"31.220746793","category":"247","category_name":"餐饮美食","address":"卢湾区长乐路400号锦江迪生3-4楼(近茂名南路)"},{"poiid":"B2094757D06FA6FE489E","title":"王品台塑牛排(长乐店)","lon":"121.45989","lat":"31.22049","category":"94","category_name":"西餐厅","address":"卢湾区长乐路400号锦江迪生商厦2楼(近茂名南路)"},{"poiid":"B2094757D064A5F94493","title":"岩日本料理","lon":"121.459654038","lat":"31.2223299317","category":"95","category_name":"日本料理","address":"卢湾区巨鹿路294号(近茂名南路)"},{"poiid":"B2094757D06FA1F9419F","title":"滴水洞(茂名南路店)","lon":"121.4601","lat":"31.22061","category":"77","category_name":"湖南菜","address":"卢湾区茂名南路56号2楼(近长乐路)"},{"poiid":"B2094757D06FA6F94492","title":"Osteria","lon":"121.45836","lat":"31.22104","category":"94","category_name":"西餐厅","address":"卢湾区进贤路226号(近陕西南路)"},{"poiid":"B2094757D06FA0FC439E","title":"锦江迪生商厦","lon":"121.45968873","lat":"31.221020103","category":"119","category_name":"商场","address":"卢湾区长乐路400号(近茂名南路)"},{"poiid":"B2094655D26AABFB439F","title":"天鹅申阁西菜社","lon":"121.45926","lat":"31.22131","category":"247","category_name":"餐饮美食","address":"进贤路169号"},{"poiid":"B2094757D064AAFF4898","title":"韩国艺匠婚纱摄影","lon":"121.460858238","lat":"31.2248422003","category":"611","category_name":"照相馆","address":"长宁区江苏路40号（近长宁路）"},{"poiid":"B2094757D06FA0F9419F","title":"清迈天堂","lon":"121.46022","lat":"31.2212","category":"99","category_name":"泰国／越南菜品餐厅","address":"卢湾区进贤路145号(近茂名南路)"},{"poiid":"B2094757D06FAAFA459A","title":"城市酒店","lon":"121.45726927","lat":"31.222721847","category":"217","category_name":"旅馆招待所","address":"卢湾区陕西南路5-7号(近巨鹿路)"},{"poiid":"B2094750D068A2FA449C","title":"Tikka","lon":"121.46011","lat":"31.22115","category":"102","category_name":"印度风味","address":"卢湾区茂名南路56号(近长乐路)"},{"poiid":"B2094757D06FA5F84393","title":"东瀛国际造型(淮海路店)","lon":"121.45769292","lat":"31.222248609","category":"148","category_name":"美容美发店","address":"卢湾区巨鹿路423号(近地铁1号线陕西南路站)"},{"poiid":"B2094757D068A0F9439B","title":"茂名南路","lon":"121.46024322","lat":"31.22309494","category":"260","category_name":"其他","address":"上海静安区茂名南路"},{"poiid":"B2094757D06FABFE439B","title":"粋寿司","lon":"121.46058308","lat":"31.220771748","category":"95","category_name":"日本料理","address":"卢湾区长乐路175-2号(近茂名南路)"},{"poiid":"B2094757D068A7F8459F","title":"净心轩","lon":"121.46047","lat":"31.22114","category":"89","category_name":"中式素餐馆","address":"卢湾区茂名南路56号56食尚谷D区1号(近长乐路)"},{"poiid":"B2094757D46CA7FB4799","title":"茂隆餐厅","lon":"121.45990991619","lat":"31.221918570819","category":"76","category_name":"上海菜","address":"卢湾区进贤路134号(近茂名南路)"},{"poiid":"B2094757D168AAF5499F","title":"伊秀寿司","lon":"121.45819373","lat":"31.224303173","category":"247","category_name":"餐饮美食","address":"上海市静安区南京西路"},{"poiid":"B2094757DA69A3F4419B","title":"福得德","lon":"121.46017423652","lat":"31.221155993403","category":"76","category_name":"上海菜","address":"卢湾区茂名南路56号B区1楼(近进贤路)"},{"poiid":"B209475DDA68A2FA429E","title":"万岛日本料理铁板烧（锦江迪生店）","lon":"121.460075","lat":"31.220945","category":"247","category_name":"餐饮美食","address":"上海市 长乐路400号(近茂名南路)"},{"poiid":"B2094750D26AA6FC429F","title":"恒隆","lon":"121.458969","lat":"31.223642","category":"500","category_name":"未知分类","address":"南京西路"},{"poiid":"B2094757D56EA2FB469A","title":"Le Vin","lon":"121.45787000656128","lat":"31.22141716161553","category":"260","category_name":"其他","address":"卢湾区进贤路224号"},{"poiid":"B2094654D564AAFF459C","title":"春餐厅","lon":"121.46014540629","lat":"31.22205986488","category":"76","category_name":"上海菜","address":"卢湾区进贤路124号(茂名南路口)"},{"poiid":"B2094757D069ABFC479C","title":"进贤路","lon":"121.459985","lat":"31.221497","category":"500","category_name":"未知分类","address":"上海市静安区延安中路"},{"poiid":"B209475DD669A2FA499B","title":"馆子House198","lon":"121.458572","lat":"31.221391","category":"247","category_name":"餐饮美食","address":"上海市 卢湾区进贤路198号"},{"poiid":"B2094757D16AABFF449E","title":"陕西南路","lon":"121.46115673","lat":"31.221008103","category":"500","category_name":"未知分类","address":"上海市静安区陕西南路"},{"poiid":"B2094757D169A7F8429C","title":"双叶居热气羊肉","lon":"121.46038873","lat":"31.223887164","category":"86","category_name":"火锅店","address":"静安区延安中路724号(近茂名北路)"},{"poiid":"B2094654DA6CA1F5419B","title":"香港名城火锅","lon":"121.45931","lat":"31.2243","category":"86","category_name":"火锅店","address":"静安区延安中路802号(近茂名北路)"},{"poiid":"B2094757D168A6F9449A","title":"屋企汤馆","lon":"121.460766738","lat":"31.2209171016","category":"72","category_name":"广东菜","address":"卢湾区长乐路175号(近兰心大戏院)"},{"poiid":"B2094757D164A6F4439A","title":"巨鹿路","lon":"121.459033","lat":"31.222743","category":"500","category_name":"未知分类","address":"上海巨鹿路318号"},{"poiid":"B2094750D76DABFD499A","title":"DEREFTER比利时餐厅啤酒吧","lon":"121.459","lat":"31.2214","category":"269","category_name":"烧烤","address":"进贤路181号(近茂名南路)"},{"poiid":"B2094655D26BA0FA4192","title":"LOMOGRAPHY","lon":"121.46004","lat":"31.22172","category":"255","category_name":"专卖店","address":"卢湾区进贤路126号(近茂名南路)"},{"poiid":"B2094757D06BA0FE499E","title":"一家人餐厅","lon":"121.459923","lat":"31.221674","category":"76","category_name":"上海菜","address":"卢湾区进贤路128号(近茂名南路)"},{"poiid":"B2094757D068A6FB429E","title":"康骏会馆(长乐店)","lon":"121.459905","lat":"31.220958","category":"500","category_name":"未知分类","address":"卢湾区长乐路400号3楼(长乐路茂名南路)"},{"poiid":"B2094757D069A3FF419C","title":"210 Coffee","lon":"121.45804573","lat":"31.22132311","category":"65","category_name":"咖啡厅","address":"卢湾区进贤路210号1-3楼(近陕西南路)"},{"poiid":"B2094757D06AA7FD429C","title":"FC日式造型(锦江迪生店)","lon":"121.459907","lat":"31.220695","category":"260","category_name":"其他","address":"上海卢湾区长乐路400号锦江迪生3楼(近茂名南路)"},{"poiid":"B2094654D564ABFE469F","title":"悟锦世纪大楼","lon":"121.459","lat":"31.2237","category":"46","category_name":"楼宇","address":"富民路291号"},{"poiid":"B2094757D06FAAFA4098","title":"乐太郎","lon":"121.45997","lat":"31.22049","category":"95","category_name":"日本料理","address":"卢湾区长乐路398号1楼B1(近茂名南路)"},{"poiid":"B2094757D06FA5FB4892","title":"Chill Lounge","lon":"121.459104395","lat":"31.2228115434","category":"260","category_name":"其他","address":"卢湾区巨鹿路318-2号(近茂名南路)"},{"poiid":"B2094757D06BABFB4692","title":"延安路高架","lon":"121.45920679","lat":"31.223764255","category":"500","category_name":"未知分类","address":"上海延安路"},{"poiid":"B2094757D069A3F5459E","title":"进贤阁","lon":"121.46044","lat":"31.22152","category":"76","category_name":"上海菜","address":"上海卢湾区进贤路120号(近茂名路)  "},{"poiid":"B2094757D064ABFF4092","title":"秦粤轩","lon":"121.46102","lat":"31.22384","category":"84","category_name":"西北菜","address":"静安区延安中路658号陕西大厦商务酒店4楼(近茂名北路)"},{"poiid":"B2094655D268A6FF469C","title":"Pier 39","lon":"121.45905","lat":"31.22151","category":"94","category_name":"西餐厅","address":"卢湾区进贤路172号(近陕西南路)"},{"poiid":"B2094654D564AAF9439B","title":"兰心大戏院","lon":"121.46051","lat":"31.2209","category":"180","category_name":"剧场","address":"卢湾区茂名南路57(近长乐路口)"},{"poiid":"B2094757D06FA2FE4698","title":"黑方日本料理","lon":"121.46039473","lat":"31.224688182","category":"95","category_name":"日本料理","address":"茂名北路65号2号楼112-113室近威海路"},{"poiid":"B2094753D76FAAFA449C","title":"上海滩国泰旗舰店","lon":"121.466011","lat":"31.216125","category":"249","category_name":"购物服务","address":"淮海中路868号"},{"poiid":"B209475CD564A7F84292","title":"上海滩新天地店","lon":"121.47463","lat":"31.22164","category":"119","category_name":"商场","address":"\"太仓路181弄新天地北里15号\r\n\""},{"poiid":"B209475CD564A7F8439E","title":"上海滩中信泰富店","lon":"121.45602","lat":"31.22851","category":"119","category_name":"商场","address":"\"南京西路1168号中信泰富广场，店铺号221.\r\n\""},{"poiid":"B2094655D26EAAFB499B","title":"CITIZEN CAFE & BAR","lon":"121.45869704223","lat":"31.220626397075","category":"247","category_name":"餐饮美食","address":"卢湾区进贤路222号(近陕西南路)"},{"poiid":"B2094757D06FA2F9469A","title":"兰心餐厅","lon":"121.45978","lat":"31.22135","category":"76","category_name":"上海菜","address":"卢湾区进贤路130号(近茂名南路)"},{"poiid":"B2094757DB68AAFF4792","title":"丽江驿 MONSOON","lon":"121.460094","lat":"31.221228","category":"99","category_name":"泰国／越南菜品餐厅","address":"卢湾区茂名南路56号56食尚谷内(近长乐路)"},{"poiid":"B2094757D464A7FE459F","title":"唐宫1号 锦江迪生店","lon":"121.459768054","lat":"31.220746793","category":"247","category_name":"餐饮美食","address":"卢湾区长乐路400号锦江迪生3-4楼(近茂名南路)"},{"poiid":"B2094757D06FA6FE489E","title":"王品台塑牛排(长乐店)","lon":"121.45989","lat":"31.22049","category":"94","category_name":"西餐厅","address":"卢湾区长乐路400号锦江迪生商厦2楼(近茂名南路)"},{"poiid":"B2094757D064A5F94493","title":"岩日本料理","lon":"121.459654038","lat":"31.2223299317","category":"95","category_name":"日本料理","address":"卢湾区巨鹿路294号(近茂名南路)"},{"poiid":"B2094757D06FA1F9419F","title":"滴水洞(茂名南路店)","lon":"121.4601","lat":"31.22061","category":"77","category_name":"湖南菜","address":"卢湾区茂名南路56号2楼(近长乐路)"},{"poiid":"B2094757D06FA6F94492","title":"Osteria","lon":"121.45836","lat":"31.22104","category":"94","category_name":"西餐厅","address":"卢湾区进贤路226号(近陕西南路)"},{"poiid":"B2094757D06FA0FC439E","title":"锦江迪生商厦","lon":"121.45968873","lat":"31.221020103","category":"119","category_name":"商场","address":"卢湾区长乐路400号(近茂名南路)"},{"poiid":"B2094655D26AABFB439F","title":"天鹅申阁西菜社","lon":"121.45926","lat":"31.22131","category":"247","category_name":"餐饮美食","address":"进贤路169号"},{"poiid":"B2094757D064AAFF4898","title":"韩国艺匠婚纱摄影","lon":"121.460858238","lat":"31.2248422003","category":"611","category_name":"照相馆","address":"长宁区江苏路40号（近长宁路）"},{"poiid":"B2094757D06FA0F9419F","title":"清迈天堂","lon":"121.46022","lat":"31.2212","category":"99","category_name":"泰国／越南菜品餐厅","address":"卢湾区进贤路145号(近茂名南路)"},{"poiid":"B2094757D06FAAFA459A","title":"城市酒店","lon":"121.45726927","lat":"31.222721847","category":"217","category_name":"旅馆招待所","address":"卢湾区陕西南路5-7号(近巨鹿路)"},{"poiid":"B2094750D068A2FA449C","title":"Tikka","lon":"121.46011","lat":"31.22115","category":"102","category_name":"印度风味","address":"卢湾区茂名南路56号(近长乐路)"},{"poiid":"B2094757D06FA5F84393","title":"东瀛国际造型(淮海路店)","lon":"121.45769292","lat":"31.222248609","category":"148","category_name":"美容美发店","address":"卢湾区巨鹿路423号(近地铁1号线陕西南路站)"},{"poiid":"B2094757D068A0F9439B","title":"茂名南路","lon":"121.46024322","lat":"31.22309494","category":"260","category_name":"其他","address":"上海静安区茂名南路"},{"poiid":"B2094757D06FABFE439B","title":"粋寿司","lon":"121.46058308","lat":"31.220771748","category":"95","category_name":"日本料理","address":"卢湾区长乐路175-2号(近茂名南路)"},{"poiid":"B2094757D068A7F8459F","title":"净心轩","lon":"121.46047","lat":"31.22114","category":"89","category_name":"中式素餐馆","address":"卢湾区茂名南路56号56食尚谷D区1号(近长乐路)"},{"poiid":"B2094757D46CA7FB4799","title":"茂隆餐厅","lon":"121.45990991619","lat":"31.221918570819","category":"76","category_name":"上海菜","address":"卢湾区进贤路134号(近茂名南路)"},{"poiid":"B2094757D168AAF5499F","title":"伊秀寿司","lon":"121.45819373","lat":"31.224303173","category":"247","category_name":"餐饮美食","address":"上海市静安区南京西路"},{"poiid":"B2094757DA69A3F4419B","title":"福得德","lon":"121.46017423652","lat":"31.221155993403","category":"76","category_name":"上海菜","address":"卢湾区茂名南路56号B区1楼(近进贤路)"},{"poiid":"B209475DDA68A2FA429E","title":"万岛日本料理铁板烧（锦江迪生店）","lon":"121.460075","lat":"31.220945","category":"247","category_name":"餐饮美食","address":"上海市 长乐路400号(近茂名南路)"},{"poiid":"B2094750D26AA6FC429F","title":"恒隆","lon":"121.458969","lat":"31.223642","category":"500","category_name":"未知分类","address":"南京西路"},{"poiid":"B2094757D56EA2FB469A","title":"Le Vin","lon":"121.45787000656128","lat":"31.22141716161553","category":"260","category_name":"其他","address":"卢湾区进贤路224号"},{"poiid":"B2094654D564AAFF459C","title":"春餐厅","lon":"121.46014540629","lat":"31.22205986488","category":"76","category_name":"上海菜","address":"卢湾区进贤路124号(茂名南路口)"},{"poiid":"B2094757D069ABFC479C","title":"进贤路","lon":"121.459985","lat":"31.221497","category":"500","category_name":"未知分类","address":"上海市静安区延安中路"},{"poiid":"B209475DD669A2FA499B","title":"馆子House198","lon":"121.458572","lat":"31.221391","category":"247","category_name":"餐饮美食","address":"上海市 卢湾区进贤路198号"},{"poiid":"B2094757D16AABFF449E","title":"陕西南路","lon":"121.46115673","lat":"31.221008103","category":"500","category_name":"未知分类","address":"上海市静安区陕西南路"},{"poiid":"B2094757D169A7F8429C","title":"双叶居热气羊肉","lon":"121.46038873","lat":"31.223887164","category":"86","category_name":"火锅店","address":"静安区延安中路724号(近茂名北路)"},{"poiid":"B2094654DA6CA1F5419B","title":"香港名城火锅","lon":"121.45931","lat":"31.2243","category":"86","category_name":"火锅店","address":"静安区延安中路802号(近茂名北路)"},{"poiid":"B2094757D168A6F9449A","title":"屋企汤馆","lon":"121.460766738","lat":"31.2209171016","category":"72","category_name":"广东菜","address":"卢湾区长乐路175号(近兰心大戏院)"},{"poiid":"B2094757D164A6F4439A","title":"巨鹿路","lon":"121.459033","lat":"31.222743","category":"500","category_name":"未知分类","address":"上海巨鹿路318号"},{"poiid":"B2094750D76DABFD499A","title":"DEREFTER比利时餐厅啤酒吧","lon":"121.459","lat":"31.2214","category":"269","category_name":"烧烤","address":"进贤路181号(近茂名南路)"},{"poiid":"B2094655D26BA0FA4192","title":"LOMOGRAPHY","lon":"121.46004","lat":"31.22172","category":"255","category_name":"专卖店","address":"卢湾区进贤路126号(近茂名南路)"},{"poiid":"B2094757D06BA0FE499E","title":"一家人餐厅","lon":"121.459923","lat":"31.221674","category":"76","category_name":"上海菜","address":"卢湾区进贤路128号(近茂名南路)"},{"poiid":"B2094757D068A6FB429E","title":"康骏会馆(长乐店)","lon":"121.459905","lat":"31.220958","category":"500","category_name":"未知分类","address":"卢湾区长乐路400号3楼(长乐路茂名南路)"},{"poiid":"B2094757D069A3FF419C","title":"210 Coffee","lon":"121.45804573","lat":"31.22132311","category":"65","category_name":"咖啡厅","address":"卢湾区进贤路210号1-3楼(近陕西南路)"},{"poiid":"B2094757D06AA7FD429C","title":"FC日式造型(锦江迪生店)","lon":"121.459907","lat":"31.220695","category":"260","category_name":"其他","address":"上海卢湾区长乐路400号锦江迪生3楼(近茂名南路)"},{"poiid":"B2094654D564ABFE469F","title":"悟锦世纪大楼","lon":"121.459","lat":"31.2237","category":"46","category_name":"楼宇","address":"富民路291号"},{"poiid":"B2094757D06FAAFA4098","title":"乐太郎","lon":"121.45997","lat":"31.22049","category":"95","category_name":"日本料理","address":"卢湾区长乐路398号1楼B1(近茂名南路)"},{"poiid":"B2094757D06FA5FB4892","title":"Chill Lounge","lon":"121.459104395","lat":"31.2228115434","category":"260","category_name":"其他","address":"卢湾区巨鹿路318-2号(近茂名南路)"},{"poiid":"B2094757D06BABFB4692","title":"延安路高架","lon":"121.45920679","lat":"31.223764255","category":"500","category_name":"未知分类","address":"上海延安路"},{"poiid":"B2094757D069A3F5459E","title":"进贤阁","lon":"121.46044","lat":"31.22152","category":"76","category_name":"上海菜","address":"上海卢湾区进贤路120号(近茂名路)  "},{"poiid":"B2094757D064ABFF4092","title":"秦粤轩","lon":"121.46102","lat":"31.22384","category":"84","category_name":"西北菜","address":"静安区延安中路658号陕西大厦商务酒店4楼(近茂名北路)"},{"poiid":"B2094655D268A6FF469C","title":"Pier 39","lon":"121.45905","lat":"31.22151","category":"94","category_name":"西餐厅","address":"卢湾区进贤路172号(近陕西南路)"},{"poiid":"B2094654D564AAF9439B","title":"兰心大戏院","lon":"121.46051","lat":"31.2209","category":"180","category_name":"剧场","address":"卢湾区茂名南路57(近长乐路口)"},{"poiid":"B2094757D06FA2FE4698","title":"黑方日本料理","lon":"121.46039473","lat":"31.224688182","category":"95","category_name":"日本料理","address":"茂名北路65号2号楼112-113室近威海路"},{"poiid":"B2094753D76FAAFA449C","title":"上海滩国泰旗舰店","lon":"121.466011","lat":"31.216125","category":"249","category_name":"购物服务","address":"淮海中路868号"},{"poiid":"B209475CD564A7F84292","title":"上海滩新天地店","lon":"121.47463","lat":"31.22164","category":"119","category_name":"商场","address":"\"太仓路181弄新天地北里15号\r\n\""},{"poiid":"B209475CD564A7F8439E","title":"上海滩中信泰富店","lon":"121.45602","lat":"31.22851","category":"119","category_name":"商场","address":"\"南京西路1168号中信泰富广场，店铺号221.\r\n\""},{"poiid":"B2094655D26EAAFB499B","title":"CITIZEN CAFE & BAR","lon":"121.45869704223","lat":"31.220626397075","category":"247","category_name":"餐饮美食","address":"卢湾区进贤路222号(近陕西南路)"},{"poiid":"B2094757D06FA2F9469A","title":"兰心餐厅","lon":"121.45978","lat":"31.22135","category":"76","category_name":"上海菜","address":"卢湾区进贤路130号(近茂名南路)"},{"poiid":"B2094757DB68AAFF4792","title":"丽江驿 MONSOON","lon":"121.460094","lat":"31.221228","category":"99","category_name":"泰国／越南菜品餐厅","address":"卢湾区茂名南路56号56食尚谷内(近长乐路)"},{"poiid":"B2094757D464A7FE459F","title":"唐宫1号 锦江迪生店","lon":"121.459768054","lat":"31.220746793","category":"247","category_name":"餐饮美食","address":"卢湾区长乐路400号锦江迪生3-4楼(近茂名南路)"},{"poiid":"B2094757D06FA6FE489E","title":"王品台塑牛排(长乐店)","lon":"121.45989","lat":"31.22049","category":"94","category_name":"西餐厅","address":"卢湾区长乐路400号锦江迪生商厦2楼(近茂名南路)"},{"poiid":"B2094757D064A5F94493","title":"岩日本料理","lon":"121.459654038","lat":"31.2223299317","category":"95","category_name":"日本料理","address":"卢湾区巨鹿路294号(近茂名南路)"},{"poiid":"B2094757D06FA1F9419F","title":"滴水洞(茂名南路店)","lon":"121.4601","lat":"31.22061","category":"77","category_name":"湖南菜","address":"卢湾区茂名南路56号2楼(近长乐路)"},{"poiid":"B2094757D06FA6F94492","title":"Osteria","lon":"121.45836","lat":"31.22104","category":"94","category_name":"西餐厅","address":"卢湾区进贤路226号(近陕西南路)"},{"poiid":"B2094757D06FA0FC439E","title":"锦江迪生商厦","lon":"121.45968873","lat":"31.221020103","category":"119","category_name":"商场","address":"卢湾区长乐路400号(近茂名南路)"},{"poiid":"B2094655D26AABFB439F","title":"天鹅申阁西菜社","lon":"121.45926","lat":"31.22131","category":"247","category_name":"餐饮美食","address":"进贤路169号"},{"poiid":"B2094757D064AAFF4898","title":"韩国艺匠婚纱摄影","lon":"121.460858238","lat":"31.2248422003","category":"611","category_name":"照相馆","address":"长宁区江苏路40号（近长宁路）"},{"poiid":"B2094757D06FA0F9419F","title":"清迈天堂","lon":"121.46022","lat":"31.2212","category":"99","category_name":"泰国／越南菜品餐厅","address":"卢湾区进贤路145号(近茂名南路)"},{"poiid":"B2094757D06FAAFA459A","title":"城市酒店","lon":"121.45726927","lat":"31.222721847","category":"217","category_name":"旅馆招待所","address":"卢湾区陕西南路5-7号(近巨鹿路)"},{"poiid":"B2094750D068A2FA449C","title":"Tikka","lon":"121.46011","lat":"31.22115","category":"102","category_name":"印度风味","address":"卢湾区茂名南路56号(近长乐路)"},{"poiid":"B2094757D06FA5F84393","title":"东瀛国际造型(淮海路店)","lon":"121.45769292","lat":"31.222248609","category":"148","category_name":"美容美发店","address":"卢湾区巨鹿路423号(近地铁1号线陕西南路站)"},{"poiid":"B2094757D068A0F9439B","title":"茂名南路","lon":"121.46024322","lat":"31.22309494","category":"260","category_name":"其他","address":"上海静安区茂名南路"},{"poiid":"B2094757D06FABFE439B","title":"粋寿司","lon":"121.46058308","lat":"31.220771748","category":"95","category_name":"日本料理","address":"卢湾区长乐路175-2号(近茂名南路)"},{"poiid":"B2094757D068A7F8459F","title":"净心轩","lon":"121.46047","lat":"31.22114","category":"89","category_name":"中式素餐馆","address":"卢湾区茂名南路56号56食尚谷D区1号(近长乐路)"},{"poiid":"B2094757D46CA7FB4799","title":"茂隆餐厅","lon":"121.45990991619","lat":"31.221918570819","category":"76","category_name":"上海菜","address":"卢湾区进贤路134号(近茂名南路)"},{"poiid":"B2094757D168AAF5499F","title":"伊秀寿司","lon":"121.45819373","lat":"31.224303173","category":"247","category_name":"餐饮美食","address":"上海市静安区南京西路"},{"poiid":"B2094757DA69A3F4419B","title":"福得德","lon":"121.46017423652","lat":"31.221155993403","category":"76","category_name":"上海菜","address":"卢湾区茂名南路56号B区1楼(近进贤路)"},{"poiid":"B209475DDA68A2FA429E","title":"万岛日本料理铁板烧（锦江迪生店）","lon":"121.460075","lat":"31.220945","category":"247","category_name":"餐饮美食","address":"上海市 长乐路400号(近茂名南路)"},{"poiid":"B2094750D26AA6FC429F","title":"恒隆","lon":"121.458969","lat":"31.223642","category":"500","category_name":"未知分类","address":"南京西路"},{"poiid":"B2094757D56EA2FB469A","title":"Le Vin","lon":"121.45787000656128","lat":"31.22141716161553","category":"260","category_name":"其他","address":"卢湾区进贤路224号"},{"poiid":"B2094654D564AAFF459C","title":"春餐厅","lon":"121.46014540629","lat":"31.22205986488","category":"76","category_name":"上海菜","address":"卢湾区进贤路124号(茂名南路口)"},{"poiid":"B2094757D069ABFC479C","title":"进贤路","lon":"121.459985","lat":"31.221497","category":"500","category_name":"未知分类","address":"上海市静安区延安中路"},{"poiid":"B209475DD669A2FA499B","title":"馆子House198","lon":"121.458572","lat":"31.221391","category":"247","category_name":"餐饮美食","address":"上海市 卢湾区进贤路198号"},{"poiid":"B2094757D16AABFF449E","title":"陕西南路","lon":"121.46115673","lat":"31.221008103","category":"500","category_name":"未知分类","address":"上海市静安区陕西南路"},{"poiid":"B2094757D169A7F8429C","title":"双叶居热气羊肉","lon":"121.46038873","lat":"31.223887164","category":"86","category_name":"火锅店","address":"静安区延安中路724号(近茂名北路)"},{"poiid":"B2094654DA6CA1F5419B","title":"香港名城火锅","lon":"121.45931","lat":"31.2243","category":"86","category_name":"火锅店","address":"静安区延安中路802号(近茂名北路)"},{"poiid":"B2094757D168A6F9449A","title":"屋企汤馆","lon":"121.460766738","lat":"31.2209171016","category":"72","category_name":"广东菜","address":"卢湾区长乐路175号(近兰心大戏院)"},{"poiid":"B2094757D164A6F4439A","title":"巨鹿路","lon":"121.459033","lat":"31.222743","category":"500","category_name":"未知分类","address":"上海巨鹿路318号"},{"poiid":"B2094750D76DABFD499A","title":"DEREFTER比利时餐厅啤酒吧","lon":"121.459","lat":"31.2214","category":"269","category_name":"烧烤","address":"进贤路181号(近茂名南路)"},{"poiid":"B2094655D26BA0FA4192","title":"LOMOGRAPHY","lon":"121.46004","lat":"31.22172","category":"255","category_name":"专卖店","address":"卢湾区进贤路126号(近茂名南路)"},{"poiid":"B2094757D06BA0FE499E","title":"一家人餐厅","lon":"121.459923","lat":"31.221674","category":"76","category_name":"上海菜","address":"卢湾区进贤路128号(近茂名南路)"},{"poiid":"B2094757D068A6FB429E","title":"康骏会馆(长乐店)","lon":"121.459905","lat":"31.220958","category":"500","category_name":"未知分类","address":"卢湾区长乐路400号3楼(长乐路茂名南路)"},{"poiid":"B2094757D069A3FF419C","title":"210 Coffee","lon":"121.45804573","lat":"31.22132311","category":"65","category_name":"咖啡厅","address":"卢湾区进贤路210号1-3楼(近陕西南路)"},{"poiid":"B2094757D06AA7FD429C","title":"FC日式造型(锦江迪生店)","lon":"121.459907","lat":"31.220695","category":"260","category_name":"其他","address":"上海卢湾区长乐路400号锦江迪生3楼(近茂名南路)"},{"poiid":"B2094654D564ABFE469F","title":"悟锦世纪大楼","lon":"121.459","lat":"31.2237","category":"46","category_name":"楼宇","address":"富民路291号"},{"poiid":"B2094757D06FAAFA4098","title":"乐太郎","lon":"121.45997","lat":"31.22049","category":"95","category_name":"日本料理","address":"卢湾区长乐路398号1楼B1(近茂名南路)"},{"poiid":"B2094757D06FA5FB4892","title":"Chill Lounge","lon":"121.459104395","lat":"31.2228115434","category":"260","category_name":"其他","address":"卢湾区巨鹿路318-2号(近茂名南路)"},{"poiid":"B2094757D06BABFB4692","title":"延安路高架","lon":"121.45920679","lat":"31.223764255","category":"500","category_name":"未知分类","address":"上海延安路"},{"poiid":"B2094757D069A3F5459E","title":"进贤阁","lon":"121.46044","lat":"31.22152","category":"76","category_name":"上海菜","address":"上海卢湾区进贤路120号(近茂名路)  "},{"poiid":"B2094757D064ABFF4092","title":"秦粤轩","lon":"121.46102","lat":"31.22384","category":"84","category_name":"西北菜","address":"静安区延安中路658号陕西大厦商务酒店4楼(近茂名北路)"},{"poiid":"B2094655D268A6FF469C","title":"Pier 39","lon":"121.45905","lat":"31.22151","category":"94","category_name":"西餐厅","address":"卢湾区进贤路172号(近陕西南路)"},{"poiid":"B2094654D564AAF9439B","title":"兰心大戏院","lon":"121.46051","lat":"31.2209","category":"180","category_name":"剧场","address":"卢湾区茂名南路57(近长乐路口)"},{"poiid":"B2094757D06FA2FE4698","title":"黑方日本料理","lon":"121.46039473","lat":"31.224688182","category":"95","category_name":"日本料理","address":"茂名北路65号2号楼112-113室近威海路"},{"poiid":"B2094753D76FAAFA449C","title":"上海滩国泰旗舰店","lon":"121.466011","lat":"31.216125","category":"249","category_name":"购物服务","address":"淮海中路868号"},{"poiid":"B209475CD564A7F84292","title":"上海滩新天地店","lon":"121.47463","lat":"31.22164","category":"119","category_name":"商场","address":"\"太仓路181弄新天地北里15号\r\n\""},{"poiid":"B209475CD564A7F8439E","title":"上海滩中信泰富店","lon":"121.45602","lat":"31.22851","category":"119","category_name":"商场","address":"\"南京西路1168号中信泰富广场，店铺号221.\r\n\""},{"poiid":"B2094655D26EAAFB499B","title":"CITIZEN CAFE & BAR","lon":"121.45869704223","lat":"31.220626397075","category":"247","category_name":"餐饮美食","address":"卢湾区进贤路222号(近陕西南路)"},{"poiid":"B2094757D06FA2F9469A","title":"兰心餐厅","lon":"121.45978","lat":"31.22135","category":"76","category_name":"上海菜","address":"卢湾区进贤路130号(近茂名南路)"},{"poiid":"B2094757DB68AAFF4792","title":"丽江驿 MONSOON","lon":"121.460094","lat":"31.221228","category":"99","category_name":"泰国／越南菜品餐厅","address":"卢湾区茂名南路56号56食尚谷内(近长乐路)"},{"poiid":"B2094757D464A7FE459F","title":"唐宫1号 锦江迪生店","lon":"121.459768054","lat":"31.220746793","category":"247","category_name":"餐饮美食","address":"卢湾区长乐路400号锦江迪生3-4楼(近茂名南路)"},{"poiid":"B2094757D06FA6FE489E","title":"王品台塑牛排(长乐店)","lon":"121.45989","lat":"31.22049","category":"94","category_name":"西餐厅","address":"卢湾区长乐路400号锦江迪生商厦2楼(近茂名南路)"},{"poiid":"B2094757D064A5F94493","title":"岩日本料理","lon":"121.459654038","lat":"31.2223299317","category":"95","category_name":"日本料理","address":"卢湾区巨鹿路294号(近茂名南路)"},{"poiid":"B2094757D06FA1F9419F","title":"滴水洞(茂名南路店)","lon":"121.4601","lat":"31.22061","category":"77","category_name":"湖南菜","address":"卢湾区茂名南路56号2楼(近长乐路)"},{"poiid":"B2094757D06FA6F94492","title":"Osteria","lon":"121.45836","lat":"31.22104","category":"94","category_name":"西餐厅","address":"卢湾区进贤路226号(近陕西南路)"},{"poiid":"B2094757D06FA0FC439E","title":"锦江迪生商厦","lon":"121.45968873","lat":"31.221020103","category":"119","category_name":"商场","address":"卢湾区长乐路400号(近茂名南路)"},{"poiid":"B2094655D26AABFB439F","title":"天鹅申阁西菜社","lon":"121.45926","lat":"31.22131","category":"247","category_name":"餐饮美食","address":"进贤路169号"},{"poiid":"B2094757D064AAFF4898","title":"韩国艺匠婚纱摄影","lon":"121.460858238","lat":"31.2248422003","category":"611","category_name":"照相馆","address":"长宁区江苏路40号（近长宁路）"},{"poiid":"B2094757D06FA0F9419F","title":"清迈天堂","lon":"121.46022","lat":"31.2212","category":"99","category_name":"泰国／越南菜品餐厅","address":"卢湾区进贤路145号(近茂名南路)"},{"poiid":"B2094757D06FAAFA459A","title":"城市酒店","lon":"121.45726927","lat":"31.222721847","category":"217","category_name":"旅馆招待所","address":"卢湾区陕西南路5-7号(近巨鹿路)"},{"poiid":"B2094750D068A2FA449C","title":"Tikka","lon":"121.46011","lat":"31.22115","category":"102","category_name":"印度风味","address":"卢湾区茂名南路56号(近长乐路)"},{"poiid":"B2094757D06FA5F84393","title":"东瀛国际造型(淮海路店)","lon":"121.45769292","lat":"31.222248609","category":"148","category_name":"美容美发店","address":"卢湾区巨鹿路423号(近地铁1号线陕西南路站)"},{"poiid":"B2094757D068A0F9439B","title":"茂名南路","lon":"121.46024322","lat":"31.22309494","category":"260","category_name":"其他","address":"上海静安区茂名南路"},{"poiid":"B2094757D06FABFE439B","title":"粋寿司","lon":"121.46058308","lat":"31.220771748","category":"95","category_name":"日本料理","address":"卢湾区长乐路175-2号(近茂名南路)"},{"poiid":"B2094757D068A7F8459F","title":"净心轩","lon":"121.46047","lat":"31.22114","category":"89","category_name":"中式素餐馆","address":"卢湾区茂名南路56号56食尚谷D区1号(近长乐路)"},{"poiid":"B2094757D46CA7FB4799","title":"茂隆餐厅","lon":"121.45990991619","lat":"31.221918570819","category":"76","category_name":"上海菜","address":"卢湾区进贤路134号(近茂名南路)"},{"poiid":"B2094757D168AAF5499F","title":"伊秀寿司","lon":"121.45819373","lat":"31.224303173","category":"247","category_name":"餐饮美食","address":"上海市静安区南京西路"},{"poiid":"B2094757DA69A3F4419B","title":"福得德","lon":"121.46017423652","lat":"31.221155993403","category":"76","category_name":"上海菜","address":"卢湾区茂名南路56号B区1楼(近进贤路)"},{"poiid":"B209475DDA68A2FA429E","title":"万岛日本料理铁板烧（锦江迪生店）","lon":"121.460075","lat":"31.220945","category":"247","category_name":"餐饮美食","address":"上海市 长乐路400号(近茂名南路)"},{"poiid":"B2094750D26AA6FC429F","title":"恒隆","lon":"121.458969","lat":"31.223642","category":"500","category_name":"未知分类","address":"南京西路"},{"poiid":"B2094757D56EA2FB469A","title":"Le Vin","lon":"121.45787000656128","lat":"31.22141716161553","category":"260","category_name":"其他","address":"卢湾区进贤路224号"},{"poiid":"B2094654D564AAFF459C","title":"春餐厅","lon":"121.46014540629","lat":"31.22205986488","category":"76","category_name":"上海菜","address":"卢湾区进贤路124号(茂名南路口)"},{"poiid":"B2094757D069ABFC479C","title":"进贤路","lon":"121.459985","lat":"31.221497","category":"500","category_name":"未知分类","address":"上海市静安区延安中路"},{"poiid":"B209475DD669A2FA499B","title":"馆子House198","lon":"121.458572","lat":"31.221391","category":"247","category_name":"餐饮美食","address":"上海市 卢湾区进贤路198号"},{"poiid":"B2094757D16AABFF449E","title":"陕西南路","lon":"121.46115673","lat":"31.221008103","category":"500","category_name":"未知分类","address":"上海市静安区陕西南路"},{"poiid":"B2094757D169A7F8429C","title":"双叶居热气羊肉","lon":"121.46038873","lat":"31.223887164","category":"86","category_name":"火锅店","address":"静安区延安中路724号(近茂名北路)"},{"poiid":"B2094654DA6CA1F5419B","title":"香港名城火锅","lon":"121.45931","lat":"31.2243","category":"86","category_name":"火锅店","address":"静安区延安中路802号(近茂名北路)"},{"poiid":"B2094757D168A6F9449A","title":"屋企汤馆","lon":"121.460766738","lat":"31.2209171016","category":"72","category_name":"广东菜","address":"卢湾区长乐路175号(近兰心大戏院)"},{"poiid":"B2094757D164A6F4439A","title":"巨鹿路","lon":"121.459033","lat":"31.222743","category":"500","category_name":"未知分类","address":"上海巨鹿路318号"},{"poiid":"B2094750D76DABFD499A","title":"DEREFTER比利时餐厅啤酒吧","lon":"121.459","lat":"31.2214","category":"269","category_name":"烧烤","address":"进贤路181号(近茂名南路)"},{"poiid":"B2094655D26BA0FA4192","title":"LOMOGRAPHY","lon":"121.46004","lat":"31.22172","category":"255","category_name":"专卖店","address":"卢湾区进贤路126号(近茂名南路)"},{"poiid":"B2094757D06BA0FE499E","title":"一家人餐厅","lon":"121.459923","lat":"31.221674","category":"76","category_name":"上海菜","address":"卢湾区进贤路128号(近茂名南路)"},{"poiid":"B2094757D068A6FB429E","title":"康骏会馆(长乐店)","lon":"121.459905","lat":"31.220958","category":"500","category_name":"未知分类","address":"卢湾区长乐路400号3楼(长乐路茂名南路)"},{"poiid":"B2094757D069A3FF419C","title":"210 Coffee","lon":"121.45804573","lat":"31.22132311","category":"65","category_name":"咖啡厅","address":"卢湾区进贤路210号1-3楼(近陕西南路)"},{"poiid":"B2094757D06AA7FD429C","title":"FC日式造型(锦江迪生店)","lon":"121.459907","lat":"31.220695","category":"260","category_name":"其他","address":"上海卢湾区长乐路400号锦江迪生3楼(近茂名南路)"},{"poiid":"B2094654D564ABFE469F","title":"悟锦世纪大楼","lon":"121.459","lat":"31.2237","category":"46","category_name":"楼宇","address":"富民路291号"},{"poiid":"B2094757D06FAAFA4098","title":"乐太郎","lon":"121.45997","lat":"31.22049","category":"95","category_name":"日本料理","address":"卢湾区长乐路398号1楼B1(近茂名南路)"},{"poiid":"B2094757D06FA5FB4892","title":"Chill Lounge","lon":"121.459104395","lat":"31.2228115434","category":"260","category_name":"其他","address":"卢湾区巨鹿路318-2号(近茂名南路)"},{"poiid":"B2094757D06BABFB4692","title":"延安路高架","lon":"121.45920679","lat":"31.223764255","category":"500","category_name":"未知分类","address":"上海延安路"},{"poiid":"B2094757D069A3F5459E","title":"进贤阁","lon":"121.46044","lat":"31.22152","category":"76","category_name":"上海菜","address":"上海卢湾区进贤路120号(近茂名路)  "},{"poiid":"B2094757D064ABFF4092","title":"秦粤轩","lon":"121.46102","lat":"31.22384","category":"84","category_name":"西北菜","address":"静安区延安中路658号陕西大厦商务酒店4楼(近茂名北路)"}]