[{"poiid":"B2094654DB6AA6FF439D","title":"方塔公园","lon":"121.24581","lat":"31.00652","category":"196","category_name":"公园","address":"松江区中山东路235路"},{"poiid":"B2094757D068A4FC4593","title":"松江二中","lon":"121.247600486","lat":"31.0086362483","category":"55","category_name":"中学","address":"上海市松江区中山东路250号"},{"poiid":"B2094654DB6DAAFA439E","title":"松江方塔中医医院","lon":"121.25234","lat":"31.00686","category":"162","category_name":"医院","address":"松江区中山东路39号"},{"poiid":"B2094757D069A6FA4592","title":"上海红楼戴斯宾馆","lon":"121.23897","lat":"31.00381","category":"217","category_name":"旅馆招待所","address":"松江区普照路1号(近松汇路)"},{"poiid":"B2094654DB6DAAFA4399","title":"森活","lon":"121.25196","lat":"31.00845","category":"47","category_name":"住宅区","address":"松江区中山东路70号"},{"poiid":"B2094654DB6EA2FF479D","title":"松江方塔","lon":"121.24651","lat":"31.00557","category":"240","category_name":"国家级景点","address":""},{"poiid":"B2094750D76FA5F44992","title":"山沟沟土菜馆","lon":"121.247","lat":"31.0069","category":"87","category_name":"特色／地方风味餐厅","address":"松江区中山东路235号方塔附近"},{"poiid":"B2094654DB6EA3F54292","title":"樟馨家园","lon":"121.23857","lat":"31.011311","category":"47","category_name":"住宅区","address":"上海市松江区松乐路88弄"},{"poiid":"B2094757D56EA0F9489A","title":"松江二中食堂","lon":"121.2452245","lat":"31.00858483","category":"68","category_name":"快餐厅","address":"松江区中山东路250号(近方塔北路)"},{"poiid":"B2094757D16FA6F8419C","title":"松江博物馆","lon":"121.24649601","lat":"31.00604726","category":"179","category_name":"音乐厅","address":"松江区松江中山东路233号"},{"poiid":"B2094655D36DA7F8449E","title":"中山东路","lon":"121.24404","lat":"31.00703","category":"38","category_name":"公交车站","address":""},{"poiid":"B2094654DB6EA2FF489A","title":"松江科技馆","lon":"121.24504","lat":"31.00654","category":"186","category_name":"科技馆","address":"中山东路237"},{"poiid":"B2094757D464A0F9499C","title":"鲁山人","lon":"121.23868008277","lat":"31.007122656877","category":"95","category_name":"日本料理","address":"松江区普照路71号(中山东路中山中路)"},{"poiid":"B2094753D36EA1F44592","title":"首尔焖鲜汇(乐颂坊店)","lon":"121.239766","lat":"31.006933","category":"86","category_name":"火锅店","address":"松汇中路568号乐颂坊B座303单元(近普照路)"},{"poiid":"B2094757D06BA3F5439A","title":"曙光医院松江分院","lon":"121.252356269","lat":"31.0068563322","category":"162","category_name":"医院","address":"上海松江区中山东路39号"},{"poiid":"B2094655D26FAAFC409D","title":"中山东路180弄小区","lon":"121.24675","lat":"31.00747","category":"47","category_name":"住宅区","address":"中山东路180弄"},{"poiid":"B2094757D06BA3FA419B","title":"西藏中路北京东路","lon":"121.24690246","lat":"31.007120132","category":"38","category_name":"公交车站","address":"上海西藏中路北京东路公交站"},{"poiid":"B2094654DB6EA2FE489E","title":"松江二中(集团)初级中学","lon":"121.24608","lat":"31.01066","category":"55","category_name":"中学","address":""},{"poiid":"B2094654DB6EA2FC429F","title":"松荣 松江店","lon":"121.23871060014","lat":"31.006320293222","category":"95","category_name":"日本料理","address":"松江区普照路81号(中山东路中山中路)"},{"poiid":"B2094655D268A7FA419F","title":"中山东路274弄小区","lon":"121.2433","lat":"31.00758","category":"47","category_name":"住宅区","address":"中山东路274弄"},{"poiid":"B2094654DB6EA2FE489A","title":"九峰实验学校","lon":"121.24749","lat":"31.01071","category":"55","category_name":"中学","address":"松江区方塔北路319"},{"poiid":"B2094654DB6EA2FF479A","title":"天天瓜子店","lon":"121.24675","lat":"31.00687","category":"117","category_name":"便民商店/便利店","address":"松江区中山东路211号"},{"poiid":"B2094654DB6DAAF44692","title":"松江区教师进修学院","lon":"121.24869","lat":"31.01007","category":"53","category_name":"成人教育","address":"方塔北路318"},{"poiid":"B2094757D664A1F8489E","title":"七欣天迷宗蟹 松江店","lon":"121.243638054","lat":"31.013775793","category":"86","category_name":"火锅店","address":"松江区环城东路980号(近沪松路)"},{"poiid":"B2094654DB6EA2FF4898","title":"长宁科技进修学院松江分部","lon":"121.24546","lat":"31.00745","category":"53","category_name":"成人教育","address":"中山东路237"},{"poiid":"B2094655D26FAAFC409F","title":"中山东路180弄小区(南门)","lon":"121.24678","lat":"31.00724","category":"47","category_name":"住宅区","address":"中山东路180弄"},{"poiid":"B2094757D66CA3F84193","title":"雅凤阁","lon":"121.24492346","lat":"31.007868012","category":"500","category_name":"未知分类","address":"上海市松江区方塔公园后门"},{"poiid":"B2094655D268A6FA469A","title":"松江二中游泳馆","lon":"121.24337","lat":"31.00927","category":"231","category_name":"游泳馆","address":"松江区中山东路250号松江二中"},{"poiid":"B2094757D168ABF54992","title":"方东小区","lon":"121.244516","lat":"31.007208","category":"252","category_name":"楼宇机构","address":"上海松江区中山东路"},{"poiid":"B2094654DB6EA2FF4698","title":"好德NO.230","lon":"121.24748","lat":"31.00689","category":"117","category_name":"便民商店/便利店","address":"中山东路163"},{"poiid":"B2094757D168A3FC4299","title":"松临日本料理·铁板烧","lon":"121.239858467","lat":"31.0066479861","category":"247","category_name":"餐饮美食","address":"上海松江中山中路77号平高世贸中心7F"},{"poiid":"B2094654DB6EA2FF439D","title":"余天成药店方塔分店","lon":"121.24794","lat":"31.00728","category":"162","category_name":"医院","address":"中山东路170号"},{"poiid":"B2094654DB6EA2FE469A","title":"荣都公寓(东侧)","lon":"121.24581","lat":"31.01423","category":"47","category_name":"住宅区","address":"沪松路17弄1-8号"},{"poiid":"B2094654DB6EA2FE489B","title":"天主教上海教区邱家湾天主堂","lon":"121.24782","lat":"31.00955","category":"245","category_name":"教堂","address":"方塔北路10号"},{"poiid":"B2094654DB6DAAFA419F","title":"雯雯点心店","lon":"121.24949","lat":"31.00696","category":"112","category_name":"糕饼店","address":""},{"poiid":"B2094757D16FA6F8479D","title":"雅凤阁府衙菜","lon":"121.244863467","lat":"31.0047669449","category":"247","category_name":"餐饮美食","address":"上海松江区云间路24号"},{"poiid":"B2094757D169A4F84392","title":"余天成养生馆","lon":"121.240055517","lat":"31.0042379833","category":"76","category_name":"上海菜","address":"松江区普照路8号(近松汇东路)"},{"poiid":"B2094655D26FABF54098","title":"松江宾馆商务楼","lon":"121.24143","lat":"31.0072","category":"46","category_name":"楼宇","address":""},{"poiid":"B2094655D268A7FA419E","title":"中山东路274弄小区(南门)","lon":"121.24333","lat":"31.00727","category":"47","category_name":"住宅区","address":"中山东路274弄"},{"poiid":"B2094757D06BA1FE469B","title":"松江公安分局","lon":"121.242585","lat":"31.007785","category":"500","category_name":"未知分类","address":"上海松江·中山东路290号"},{"poiid":"B2094654DB65A5F5469A","title":"松江区中山小学","lon":"121.24178","lat":"31.00623","category":"56","category_name":"小学","address":"松江区中山东路"},{"poiid":"B2094654DB64A0FC4899","title":"好德(松江·中山东路)","lon":"121.24282","lat":"31.00678","category":"117","category_name":"便民商店/便利店","address":""},{"poiid":"B2094654DB65AAFA469E","title":"松江区民办九峰中学","lon":"121.2475","lat":"31.01071","category":"55","category_name":"中学","address":"松江区方塔北路319号"},{"poiid":"B2094757D465A6FF4898","title":"新招鲜本地鸡窝 松江店","lon":"121.254414054","lat":"31.005491793","category":"86","category_name":"火锅店","address":"松江区环城路976弄54号(近松东茶叶市场)"},{"poiid":"B2094757D16EA0FE4792","title":"九峰实验中学","lon":"121.24777","lat":"31.01044","category":"253","category_name":"校园生活","address":"松江区中山街道方塔北路319号(方塔北路松江环城路)"},{"poiid":"B2094757D66CA3FA4499","title":"同济城市雅筑","lon":"121.24692","lat":"31.013661","category":"47","category_name":"住宅区","address":"松江环城路860号(靠近方塔北路)"},{"poiid":"B2094655D268A4FD449A","title":"方塔西村","lon":"121.24783","lat":"31.006462","category":"47","category_name":"住宅区","address":"方塔南路"},{"poiid":"B2094654DB6EA2FC4899","title":"松江剧场","lon":"121.2387","lat":"31.00584","category":"180","category_name":"剧场","address":"松江区中山中路37号"},{"poiid":"B2094654DB64A0FC489B","title":"新华书店(松江·中山东路)","lon":"121.24806","lat":"31.00689","category":"125","category_name":"书店","address":""},{"poiid":"B2094655D26DA6FD4498","title":"花园浜小区","lon":"121.243","lat":"31.0153","category":"47","category_name":"住宅区","address":"仓汇路400弄"},{"poiid":"B2094654DB6AA6FF439D","title":"方塔公园","lon":"121.24581","lat":"31.00652","category":"196","category_name":"公园","address":"松江区中山东路235路"},{"poiid":"B2094757D068A4FC4593","title":"松江二中","lon":"121.247600486","lat":"31.0086362483","category":"55","category_name":"中学","address":"上海市松江区中山东路250号"},{"poiid":"B2094654DB6DAAFA439E","title":"松江方塔中医医院","lon":"121.25234","lat":"31.00686","category":"162","category_name":"医院","address":"松江区中山东路39号"},{"poiid":"B2094757D069A6FA4592","title":"上海红楼戴斯宾馆","lon":"121.23897","lat":"31.00381","category":"217","category_name":"旅馆招待所","address":"松江区普照路1号(近松汇路)"},{"poiid":"B2094654DB6DAAFA4399","title":"森活","lon":"121.25196","lat":"31.00845","category":"47","category_name":"住宅区","address":"松江区中山东路70号"},{"poiid":"B2094654DB6EA2FF479D","title":"松江方塔","lon":"121.24651","lat":"31.00557","category":"240","category_name":"国家级景点","address":""},{"poiid":"B2094750D76FA5F44992","title":"山沟沟土菜馆","lon":"121.247","lat":"31.0069","category":"87","category_name":"特色／地方风味餐厅","address":"松江区中山东路235号方塔附近"},{"poiid":"B2094654DB6EA3F54292","title":"樟馨家园","lon":"121.23857","lat":"31.011311","category":"47","category_name":"住宅区","address":"上海市松江区松乐路88弄"},{"poiid":"B2094757D56EA0F9489A","title":"松江二中食堂","lon":"121.2452245","lat":"31.00858483","category":"68","category_name":"快餐厅","address":"松江区中山东路250号(近方塔北路)"},{"poiid":"B2094757D16FA6F8419C","title":"松江博物馆","lon":"121.24649601","lat":"31.00604726","category":"179","category_name":"音乐厅","address":"松江区松江中山东路233号"},{"poiid":"B2094655D36DA7F8449E","title":"中山东路","lon":"121.24404","lat":"31.00703","category":"38","category_name":"公交车站","address":""},{"poiid":"B2094654DB6EA2FF489A","title":"松江科技馆","lon":"121.24504","lat":"31.00654","category":"186","category_name":"科技馆","address":"中山东路237"},{"poiid":"B2094757D464A0F9499C","title":"鲁山人","lon":"121.23868008277","lat":"31.007122656877","category":"95","category_name":"日本料理","address":"松江区普照路71号(中山东路中山中路)"},{"poiid":"B2094753D36EA1F44592","title":"首尔焖鲜汇(乐颂坊店)","lon":"121.239766","lat":"31.006933","category":"86","category_name":"火锅店","address":"松汇中路568号乐颂坊B座303单元(近普照路)"},{"poiid":"B2094757D06BA3F5439A","title":"曙光医院松江分院","lon":"121.252356269","lat":"31.0068563322","category":"162","category_name":"医院","address":"上海松江区中山东路39号"},{"poiid":"B2094655D26FAAFC409D","title":"中山东路180弄小区","lon":"121.24675","lat":"31.00747","category":"47","category_name":"住宅区","address":"中山东路180弄"},{"poiid":"B2094757D06BA3FA419B","title":"西藏中路北京东路","lon":"121.24690246","lat":"31.007120132","category":"38","category_name":"公交车站","address":"上海西藏中路北京东路公交站"},{"poiid":"B2094654DB6EA2FE489E","title":"松江二中(集团)初级中学","lon":"121.24608","lat":"31.01066","category":"55","category_name":"中学","address":""},{"poiid":"B2094654DB6EA2FC429F","title":"松荣 松江店","lon":"121.23871060014","lat":"31.006320293222","category":"95","category_name":"日本料理","address":"松江区普照路81号(中山东路中山中路)"},{"poiid":"B2094655D268A7FA419F","title":"中山东路274弄小区","lon":"121.2433","lat":"31.00758","category":"47","category_name":"住宅区","address":"中山东路274弄"},{"poiid":"B2094654DB6EA2FE489A","title":"九峰实验学校","lon":"121.24749","lat":"31.01071","category":"55","category_name":"中学","address":"松江区方塔北路319"},{"poiid":"B2094654DB6EA2FF479A","title":"天天瓜子店","lon":"121.24675","lat":"31.00687","category":"117","category_name":"便民商店/便利店","address":"松江区中山东路211号"},{"poiid":"B2094654DB6DAAF44692","title":"松江区教师进修学院","lon":"121.24869","lat":"31.01007","category":"53","category_name":"成人教育","address":"方塔北路318"},{"poiid":"B2094757D664A1F8489E","title":"七欣天迷宗蟹 松江店","lon":"121.243638054","lat":"31.013775793","category":"86","category_name":"火锅店","address":"松江区环城东路980号(近沪松路)"},{"poiid":"B2094654DB6EA2FF4898","title":"长宁科技进修学院松江分部","lon":"121.24546","lat":"31.00745","category":"53","category_name":"成人教育","address":"中山东路237"},{"poiid":"B2094655D26FAAFC409F","title":"中山东路180弄小区(南门)","lon":"121.24678","lat":"31.00724","category":"47","category_name":"住宅区","address":"中山东路180弄"},{"poiid":"B2094757D66CA3F84193","title":"雅凤阁","lon":"121.24492346","lat":"31.007868012","category":"500","category_name":"未知分类","address":"上海市松江区方塔公园后门"},{"poiid":"B2094655D268A6FA469A","title":"松江二中游泳馆","lon":"121.24337","lat":"31.00927","category":"231","category_name":"游泳馆","address":"松江区中山东路250号松江二中"},{"poiid":"B2094757D168ABF54992","title":"方东小区","lon":"121.244516","lat":"31.007208","category":"252","category_name":"楼宇机构","address":"上海松江区中山东路"},{"poiid":"B2094654DB6EA2FF4698","title":"好德NO.230","lon":"121.24748","lat":"31.00689","category":"117","category_name":"便民商店/便利店","address":"中山东路163"},{"poiid":"B2094757D168A3FC4299","title":"松临日本料理·铁板烧","lon":"121.239858467","lat":"31.0066479861","category":"247","category_name":"餐饮美食","address":"上海松江中山中路77号平高世贸中心7F"},{"poiid":"B2094654DB6EA2FF439D","title":"余天成药店方塔分店","lon":"121.24794","lat":"31.00728","category":"162","category_name":"医院","address":"中山东路170号"},{"poiid":"B2094654DB6EA2FE469A","title":"荣都公寓(东侧)","lon":"121.24581","lat":"31.01423","category":"47","category_name":"住宅区","address":"沪松路17弄1-8号"},{"poiid":"B2094654DB6EA2FE489B","title":"天主教上海教区邱家湾天主堂","lon":"121.24782","lat":"31.00955","category":"245","category_name":"教堂","address":"方塔北路10号"},{"poiid":"B2094654DB6DAAFA419F","title":"雯雯点心店","lon":"121.24949","lat":"31.00696","category":"112","category_name":"糕饼店","address":""},{"poiid":"B2094757D16FA6F8479D","title":"雅凤阁府衙菜","lon":"121.244863467","lat":"31.0047669449","category":"247","category_name":"餐饮美食","address":"上海松江区云间路24号"},{"poiid":"B2094757D169A4F84392","title":"余天成养生馆","lon":"121.240055517","lat":"31.0042379833","category":"76","category_name":"上海菜","address":"松江区普照路8号(近松汇东路)"},{"poiid":"B2094655D26FABF54098","title":"松江宾馆商务楼","lon":"121.24143","lat":"31.0072","category":"46","category_name":"楼宇","address":""},{"poiid":"B2094655D268A7FA419E","title":"中山东路274弄小区(南门)","lon":"121.24333","lat":"31.00727","category":"47","category_name":"住宅区","address":"中山东路274弄"},{"poiid":"B2094757D06BA1FE469B","title":"松江公安分局","lon":"121.242585","lat":"31.007785","category":"500","category_name":"未知分类","address":"上海松江·中山东路290号"},{"poiid":"B2094654DB65A5F5469A","title":"松江区中山小学","lon":"121.24178","lat":"31.00623","category":"56","category_name":"小学","address":"松江区中山东路"},{"poiid":"B2094654DB64A0FC4899","title":"好德(松江·中山东路)","lon":"121.24282","lat":"31.00678","category":"117","category_name":"便民商店/便利店","address":""},{"poiid":"B2094654DB65AAFA469E","title":"松江区民办九峰中学","lon":"121.2475","lat":"31.01071","category":"55","category_name":"中学","address":"松江区方塔北路319号"},{"poiid":"B2094757D465A6FF4898","title":"新招鲜本地鸡窝 松江店","lon":"121.254414054","lat":"31.005491793","category":"86","category_name":"火锅店","address":"松江区环城路976弄54号(近松东茶叶市场)"},{"poiid":"B2094757D16EA0FE4792","title":"九峰实验中学","lon":"121.24777","lat":"31.01044","category":"253","category_name":"校园生活","address":"松江区中山街道方塔北路319号(方塔北路松江环城路)"},{"poiid":"B2094757D66CA3FA4499","title":"同济城市雅筑","lon":"121.24692","lat":"31.013661","category":"47","category_name":"住宅区","address":"松江环城路860号(靠近方塔北路)"},{"poiid":"B2094655D268A4FD449A","title":"方塔西村","lon":"121.24783","lat":"31.006462","category":"47","category_name":"住宅区","address":"方塔南路"},{"poiid":"B2094654DB6EA2FC4899","title":"松江剧场","lon":"121.2387","lat":"31.00584","category":"180","category_name":"剧场","address":"松江区中山中路37号"},{"poiid":"B2094654DB64A0FC489B","title":"新华书店(松江·中山东路)","lon":"121.24806","lat":"31.00689","category":"125","category_name":"书店","address":""},{"poiid":"B2094655D26DA6FD4498","title":"花园浜小区","lon":"121.243","lat":"31.0153","category":"47","category_name":"住宅区","address":"仓汇路400弄"},{"poiid":"B2094654DB6AA6FF439D","title":"方塔公园","lon":"121.24581","lat":"31.00652","category":"196","category_name":"公园","address":"松江区中山东路235路"},{"poiid":"B2094757D068A4FC4593","title":"松江二中","lon":"121.247600486","lat":"31.0086362483","category":"55","category_name":"中学","address":"上海市松江区中山东路250号"},{"poiid":"B2094654DB6DAAFA439E","title":"松江方塔中医医院","lon":"121.25234","lat":"31.00686","category":"162","category_name":"医院","address":"松江区中山东路39号"},{"poiid":"B2094757D069A6FA4592","title":"上海红楼戴斯宾馆","lon":"121.23897","lat":"31.00381","category":"217","category_name":"旅馆招待所","address":"松江区普照路1号(近松汇路)"},{"poiid":"B2094654DB6DAAFA4399","title":"森活","lon":"121.25196","lat":"31.00845","category":"47","category_name":"住宅区","address":"松江区中山东路70号"},{"poiid":"B2094654DB6EA2FF479D","title":"松江方塔","lon":"121.24651","lat":"31.00557","category":"240","category_name":"国家级景点","address":""},{"poiid":"B2094750D76FA5F44992","title":"山沟沟土菜馆","lon":"121.247","lat":"31.0069","category":"87","category_name":"特色／地方风味餐厅","address":"松江区中山东路235号方塔附近"},{"poiid":"B2094654DB6EA3F54292","title":"樟馨家园","lon":"121.23857","lat":"31.011311","category":"47","category_name":"住宅区","address":"上海市松江区松乐路88弄"},{"poiid":"B2094757D56EA0F9489A","title":"松江二中食堂","lon":"121.2452245","lat":"31.00858483","category":"68","category_name":"快餐厅","address":"松江区中山东路250号(近方塔北路)"},{"poiid":"B2094757D16FA6F8419C","title":"松江博物馆","lon":"121.24649601","lat":"31.00604726","category":"179","category_name":"音乐厅","address":"松江区松江中山东路233号"},{"poiid":"B2094655D36DA7F8449E","title":"中山东路","lon":"121.24404","lat":"31.00703","category":"38","category_name":"公交车站","address":""},{"poiid":"B2094654DB6EA2FF489A","title":"松江科技馆","lon":"121.24504","lat":"31.00654","category":"186","category_name":"科技馆","address":"中山东路237"},{"poiid":"B2094757D464A0F9499C","title":"鲁山人","lon":"121.23868008277","lat":"31.007122656877","category":"95","category_name":"日本料理","address":"松江区普照路71号(中山东路中山中路)"},{"poiid":"B2094753D36EA1F44592","title":"首尔焖鲜汇(乐颂坊店)","lon":"121.239766","lat":"31.006933","category":"86","category_name":"火锅店","address":"松汇中路568号乐颂坊B座303单元(近普照路)"},{"poiid":"B2094757D06BA3F5439A","title":"曙光医院松江分院","lon":"121.252356269","lat":"31.0068563322","category":"162","category_name":"医院","address":"上海松江区中山东路39号"},{"poiid":"B2094655D26FAAFC409D","title":"中山东路180弄小区","lon":"121.24675","lat":"31.00747","category":"47","category_name":"住宅区","address":"中山东路180弄"},{"poiid":"B2094757D06BA3FA419B","title":"西藏中路北京东路","lon":"121.24690246","lat":"31.007120132","category":"38","category_name":"公交车站","address":"上海西藏中路北京东路公交站"},{"poiid":"B2094654DB6EA2FE489E","title":"松江二中(集团)初级中学","lon":"121.24608","lat":"31.01066","category":"55","category_name":"中学","address":""},{"poiid":"B2094654DB6EA2FC429F","title":"松荣 松江店","lon":"121.23871060014","lat":"31.006320293222","category":"95","category_name":"日本料理","address":"松江区普照路81号(中山东路中山中路)"},{"poiid":"B2094655D268A7FA419F","title":"中山东路274弄小区","lon":"121.2433","lat":"31.00758","category":"47","category_name":"住宅区","address":"中山东路274弄"},{"poiid":"B2094654DB6EA2FE489A","title":"九峰实验学校","lon":"121.24749","lat":"31.01071","category":"55","category_name":"中学","address":"松江区方塔北路319"},{"poiid":"B2094654DB6EA2FF479A","title":"天天瓜子店","lon":"121.24675","lat":"31.00687","category":"117","category_name":"便民商店/便利店","address":"松江区中山东路211号"},{"poiid":"B2094654DB6DAAF44692","title":"松江区教师进修学院","lon":"121.24869","lat":"31.01007","category":"53","category_name":"成人教育","address":"方塔北路318"},{"poiid":"B2094757D664A1F8489E","title":"七欣天迷宗蟹 松江店","lon":"121.243638054","lat":"31.013775793","category":"86","category_name":"火锅店","address":"松江区环城东路980号(近沪松路)"},{"poiid":"B2094654DB6EA2FF4898","title":"长宁科技进修学院松江分部","lon":"121.24546","lat":"31.00745","category":"53","category_name":"成人教育","address":"中山东路237"},{"poiid":"B2094655D26FAAFC409F","title":"中山东路180弄小区(南门)","lon":"121.24678","lat":"31.00724","category":"47","category_name":"住宅区","address":"中山东路180弄"},{"poiid":"B2094757D66CA3F84193","title":"雅凤阁","lon":"121.24492346","lat":"31.007868012","category":"500","category_name":"未知分类","address":"上海市松江区方塔公园后门"},{"poiid":"B2094655D268A6FA469A","title":"松江二中游泳馆","lon":"121.24337","lat":"31.00927","category":"231","category_name":"游泳馆","address":"松江区中山东路250号松江二中"},{"poiid":"B2094757D168ABF54992","title":"方东小区","lon":"121.244516","lat":"31.007208","category":"252","category_name":"楼宇机构","address":"上海松江区中山东路"},{"poiid":"B2094654DB6EA2FF4698","title":"好德NO.230","lon":"121.24748","lat":"31.00689","category":"117","category_name":"便民商店/便利店","address":"中山东路163"},{"poiid":"B2094757D168A3FC4299","title":"松临日本料理·铁板烧","lon":"121.239858467","lat":"31.0066479861","category":"247","category_name":"餐饮美食","address":"上海松江中山中路77号平高世贸中心7F"},{"poiid":"B2094654DB6EA2FF439D","title":"余天成药店方塔分店","lon":"121.24794","lat":"31.00728","category":"162","category_name":"医院","address":"中山东路170号"},{"poiid":"B2094654DB6EA2FE469A","title":"荣都公寓(东侧)","lon":"121.24581","lat":"31.01423","category":"47","category_name":"住宅区","address":"沪松路17弄1-8号"},{"poiid":"B2094654DB6EA2FE489B","title":"天主教上海教区邱家湾天主堂","lon":"121.24782","lat":"31.00955","category":"245","category_name":"教堂","address":"方塔北路10号"},{"poiid":"B2094654DB6DAAFA419F","title":"雯雯点心店","lon":"121.24949","lat":"31.00696","category":"112","category_name":"糕饼店","address":""},{"poiid":"B2094757D16FA6F8479D","title":"雅凤阁府衙菜","lon":"121.244863467","lat":"31.0047669449","category":"247","category_name":"餐饮美食","address":"上海松江区云间路24号"},{"poiid":"B2094757D169A4F84392","title":"余天成养生馆","lon":"121.240055517","lat":"31.0042379833","category":"76","category_name":"上海菜","address":"松江区普照路8号(近松汇东路)"},{"poiid":"B2094655D26FABF54098","title":"松江宾馆商务楼","lon":"121.24143","lat":"31.0072","category":"46","category_name":"楼宇","address":""},{"poiid":"B2094655D268A7FA419E","title":"中山东路274弄小区(南门)","lon":"121.24333","lat":"31.00727","category":"47","category_name":"住宅区","address":"中山东路274弄"},{"poiid":"B2094757D06BA1FE469B","title":"松江公安分局","lon":"121.242585","lat":"31.007785","category":"500","category_name":"未知分类","address":"上海松江·中山东路290号"},{"poiid":"B2094654DB65A5F5469A","title":"松江区中山小学","lon":"121.24178","lat":"31.00623","category":"56","category_name":"小学","address":"松江区中山东路"},{"poiid":"B2094654DB64A0FC4899","title":"好德(松江·中山东路)","lon":"121.24282","lat":"31.00678","category":"117","category_name":"便民商店/便利店","address":""},{"poiid":"B2094654DB65AAFA469E","title":"松江区民办九峰中学","lon":"121.2475","lat":"31.01071","category":"55","category_name":"中学","address":"松江区方塔北路319号"},{"poiid":"B2094757D465A6FF4898","title":"新招鲜本地鸡窝 松江店","lon":"121.254414054","lat":"31.005491793","category":"86","category_name":"火锅店","address":"松江区环城路976弄54号(近松东茶叶市场)"},{"poiid":"B2094757D16EA0FE4792","title":"九峰实验中学","lon":"121.24777","lat":"31.01044","category":"253","category_name":"校园生活","address":"松江区中山街道方塔北路319号(方塔北路松江环城路)"},{"poiid":"B2094757D66CA3FA4499","title":"同济城市雅筑","lon":"121.24692","lat":"31.013661","category":"47","category_name":"住宅区","address":"松江环城路860号(靠近方塔北路)"},{"poiid":"B2094655D268A4FD449A","title":"方塔西村","lon":"121.24783","lat":"31.006462","category":"47","category_name":"住宅区","address":"方塔南路"},{"poiid":"B2094654DB6EA2FC4899","title":"松江剧场","lon":"121.2387","lat":"31.00584","category":"180","category_name":"剧场","address":"松江区中山中路37号"},{"poiid":"B2094654DB64A0FC489B","title":"新华书店(松江·中山东路)","lon":"121.24806","lat":"31.00689","category":"125","category_name":"书店","address":""},{"poiid":"B2094655D26DA6FD4498","title":"花园浜小区","lon":"121.243","lat":"31.0153","category":"47","category_name":"住宅区","address":"仓汇路400弄"},{"poiid":"B2094654DB6AA6FF439D","title":"方塔公园","lon":"121.24581","lat":"31.00652","category":"196","category_name":"公园","address":"松江区中山东路235路"},{"poiid":"B2094757D068A4FC4593","title":"松江二中","lon":"121.247600486","lat":"31.0086362483","category":"55","category_name":"中学","address":"上海市松江区中山东路250号"},{"poiid":"B2094654DB6DAAFA439E","title":"松江方塔中医医院","lon":"121.25234","lat":"31.00686","category":"162","category_name":"医院","address":"松江区中山东路39号"},{"poiid":"B2094757D069A6FA4592","title":"上海红楼戴斯宾馆","lon":"121.23897","lat":"31.00381","category":"217","category_name":"旅馆招待所","address":"松江区普照路1号(近松汇路)"},{"poiid":"B2094654DB6DAAFA4399","title":"森活","lon":"121.25196","lat":"31.00845","category":"47","category_name":"住宅区","address":"松江区中山东路70号"},{"poiid":"B2094654DB6EA2FF479D","title":"松江方塔","lon":"121.24651","lat":"31.00557","category":"240","category_name":"国家级景点","address":""},{"poiid":"B2094750D76FA5F44992","title":"山沟沟土菜馆","lon":"121.247","lat":"31.0069","category":"87","category_name":"特色／地方风味餐厅","address":"松江区中山东路235号方塔附近"},{"poiid":"B2094654DB6EA3F54292","title":"樟馨家园","lon":"121.23857","lat":"31.011311","category":"47","category_name":"住宅区","address":"上海市松江区松乐路88弄"},{"poiid":"B2094757D56EA0F9489A","title":"松江二中食堂","lon":"121.2452245","lat":"31.00858483","category":"68","category_name":"快餐厅","address":"松江区中山东路250号(近方塔北路)"},{"poiid":"B2094757D16FA6F8419C","title":"松江博物馆","lon":"121.24649601","lat":"31.00604726","category":"179","category_name":"音乐厅","address":"松江区松江中山东路233号"},{"poiid":"B2094655D36DA7F8449E","title":"中山东路","lon":"121.24404","lat":"31.00703","category":"38","category_name":"公交车站","address":""},{"poiid":"B2094654DB6EA2FF489A","title":"松江科技馆","lon":"121.24504","lat":"31.00654","category":"186","category_name":"科技馆","address":"中山东路237"},{"poiid":"B2094757D464A0F9499C","title":"鲁山人","lon":"121.23868008277","lat":"31.007122656877","category":"95","category_name":"日本料理","address":"松江区普照路71号(中山东路中山中路)"},{"poiid":"B2094753D36EA1F44592","title":"首尔焖鲜汇(乐颂坊店)","lon":"121.239766","lat":"31.006933","category":"86","category_name":"火锅店","address":"松汇中路568号乐颂坊B座303单元(近普照路)"},{"poiid":"B2094757D06BA3F5439A","title":"曙光医院松江分院","lon":"121.252356269","lat":"31.0068563322","category":"162","category_name":"医院","address":"上海松江区中山东路39号"},{"poiid":"B2094655D26FAAFC409D","title":"中山东路180弄小区","lon":"121.24675","lat":"31.00747","category":"47","category_name":"住宅区","address":"中山东路180弄"},{"poiid":"B2094757D06BA3FA419B","title":"西藏中路北京东路","lon":"121.24690246","lat":"31.007120132","category":"38","category_name":"公交车站","address":"上海西藏中路北京东路公交站"},{"poiid":"B2094654DB6EA2FE489E","title":"松江二中(集团)初级中学","lon":"121.24608","lat":"31.01066","category":"55","category_name":"中学","address":""},{"poiid":"B2094654DB6EA2FC429F","title":"松荣 松江店","lon":"121.23871060014","lat":"31.006320293222","category":"95","category_name":"日本料理","address":"松江区普照路81号(中山东路中山中路)"},{"poiid":"B2094655D268A7FA419F","title":"中山东路274弄小区","lon":"121.2433","lat":"31.00758","category":"47","category_name":"住宅区","address":"中山东路274弄"},{"poiid":"B2094654DB6EA2FE489A","title":"九峰实验学校","lon":"121.24749","lat":"31.01071","category":"55","category_name":"中学","address":"松江区方塔北路319"},{"poiid":"B2094654DB6EA2FF479A","title":"天天瓜子店","lon":"121.24675","lat":"31.00687","category":"117","category_name":"便民商店/便利店","address":"松江区中山东路211号"},{"poiid":"B2094654DB6DAAF44692","title":"松江区教师进修学院","lon":"121.24869","lat":"31.01007","category":"53","category_name":"成人教育","address":"方塔北路318"},{"poiid":"B2094757D664A1F8489E","title":"七欣天迷宗蟹 松江店","lon":"121.243638054","lat":"31.013775793","category":"86","category_name":"火锅店","address":"松江区环城东路980号(近沪松路)"},{"poiid":"B2094654DB6EA2FF4898","title":"长宁科技进修学院松江分部","lon":"121.24546","lat":"31.00745","category":"53","category_name":"成人教育","address":"中山东路237"},{"poiid":"B2094655D26FAAFC409F","title":"中山东路180弄小区(南门)","lon":"121.24678","lat":"31.00724","category":"47","category_name":"住宅区","address":"中山东路180弄"},{"poiid":"B2094757D66CA3F84193","title":"雅凤阁","lon":"121.24492346","lat":"31.007868012","category":"500","category_name":"未知分类","address":"上海市松江区方塔公园后门"},{"poiid":"B2094655D268A6FA469A","title":"松江二中游泳馆","lon":"121.24337","lat":"31.00927","category":"231","category_name":"游泳馆","address":"松江区中山东路250号松江二中"},{"poiid":"B2094757D168ABF54992","title":"方东小区","lon":"121.244516","lat":"31.007208","category":"252","category_name":"楼宇机构","address":"上海松江区中山东路"},{"poiid":"B2094654DB6EA2FF4698","title":"好德NO.230","lon":"121.24748","lat":"31.00689","category":"117","category_name":"便民商店/便利店","address":"中山东路163"},{"poiid":"B2094757D168A3FC4299","title":"松临日本料理·铁板烧","lon":"121.239858467","lat":"31.0066479861","category":"247","category_name":"餐饮美食","address":"上海松江中山中路77号平高世贸中心7F"},{"poiid":"B2094654DB6EA2FF439D","title":"余天成药店方塔分店","lon":"121.24794","lat":"31.00728","category":"162","category_name":"医院","address":"中山东路170号"},{"poiid":"B2094654DB6EA2FE469A","title":"荣都公寓(东侧)","lon":"121.24581","lat":"31.01423","category":"47","category_name":"住宅区","address":"沪松路17弄1-8号"},{"poiid":"B2094654DB6EA2FE489B","title":"天主教上海教区邱家湾天主堂","lon":"121.24782","lat":"31.00955","category":"245","category_name":"教堂","address":"方塔北路10号"},{"poiid":"B2094654DB6DAAFA419F","title":"雯雯点心店","lon":"121.24949","lat":"31.00696","category":"112","category_name":"糕饼店","address":""},{"poiid":"B2094757D16FA6F8479D","title":"雅凤阁府衙菜","lon":"121.244863467","lat":"31.0047669449","category":"247","category_name":"餐饮美食","address":"上海松江区云间路24号"},{"poiid":"B2094757D169A4F84392","title":"余天成养生馆","lon":"121.240055517","lat":"31.0042379833","category":"76","category_name":"上海菜","address":"松江区普照路8号(近松汇东路)"},{"poiid":"B2094655D26FABF54098","title":"松江宾馆商务楼","lon":"121.24143","lat":"31.0072","category":"46","category_name":"楼宇","address":""},{"poiid":"B2094655D268A7FA419E","title":"中山东路274弄小区(南门)","lon":"121.24333","lat":"31.00727","category":"47","category_name":"住宅区","address":"中山东路274弄"},{"poiid":"B2094757D06BA1FE469B","title":"松江公安分局","lon":"121.242585","lat":"31.007785","category":"500","category_name":"未知分类","address":"上海松江·中山东路290号"},{"poiid":"B2094654DB65A5F5469A","title":"松江区中山小学","lon":"121.24178","lat":"31.00623","category":"56","category_name":"小学","address":"松江区中山东路"},{"poiid":"B2094654DB64A0FC4899","title":"好德(松江·中山东路)","lon":"121.24282","lat":"31.00678","category":"117","category_name":"便民商店/便利店","address":""},{"poiid":"B2094654DB65AAFA469E","title":"松江区民办九峰中学","lon":"121.2475","lat":"31.01071","category":"55","category_name":"中学","address":"松江区方塔北路319号"},{"poiid":"B2094757D465A6FF4898","title":"新招鲜本地鸡窝 松江店","lon":"121.254414054","lat":"31.005491793","category":"86","category_name":"火锅店","address":"松江区环城路976弄54号(近松东茶叶市场)"},{"poiid":"B2094757D16EA0FE4792","title":"九峰实验中学","lon":"121.24777","lat":"31.01044","category":"253","category_name":"校园生活","address":"松江区中山街道方塔北路319号(方塔北路松江环城路)"},{"poiid":"B2094757D66CA3FA4499","title":"同济城市雅筑","lon":"121.24692","lat":"31.013661","category":"47","category_name":"住宅区","address":"松江环城路860号(靠近方塔北路)"},{"poiid":"B2094655D268A4FD449A","title":"方塔西村","lon":"121.24783","lat":"31.006462","category":"47","category_name":"住宅区","address":"方塔南路"},{"poiid":"B2094654DB6EA2FC4899","title":"松江剧场","lon":"121.2387","lat":"31.00584","category":"180","category_name":"剧场","address":"松江区中山中路37号"},{"poiid":"B2094654DB64A0FC489B","title":"新华书店(松江·中山东路)","lon":"121.24806","lat":"31.00689","category":"125","category_name":"书店","address":""},{"poiid":"B2094655D26DA6FD4498","title":"花园浜小区","lon":"121.243","lat":"31.0153","category":"47","category_name":"住宅区","address":"仓汇路400弄"}]