[{"poiid":"B2094757D06FA1FC429D","title":"安图医院","lon":"121.54300256","lat":"31.29060381","category":"162","category_name":"医院","address":"杨浦区延吉东路200号(近安图路)"},{"poiid":"B2094757D06FA3F9459F","title":"鸿瑞兴(敦化路店)","lon":"121.53907","lat":"31.29053","category":"257","category_name":"中餐厅","address":"杨浦区敦化路163号(近靖宇东路)"},{"poiid":"B2094757D06EAAFF4598","title":"旺晖火锅城(敦化路店)","lon":"121.53925","lat":"31.29053","category":"86","category_name":"火锅店","address":"杨浦区敦化路160号(近靖宇东路)"},{"poiid":"B2094757D068A3FE449A","title":"上海理工大学附属小学","lon":"121.54096","lat":"31.29155","category":"55","category_name":"中学","address":"杨浦区靖宇东路158号(近安图路)"},{"poiid":"B2094655D26CA6F94193","title":"延吉五·六村小区","lon":"121.53672","lat":"31.29096","category":"47","category_name":"住宅区","address":""},{"poiid":"B2094757D068A4FA4393","title":"靖宇家园","lon":"121.54266","lat":"31.291809","category":"47","category_name":"住宅区","address":"松江方松街道文诚路2188弄409-413"},{"poiid":"B2094757D068A3FF4693","title":"豪享来上海敦化店","lon":"121.5384","lat":"31.2928","category":"247","category_name":"餐饮美食","address":"上海市杨浦区敦化路161号"},{"poiid":"B2094655D264AAF4429F","title":"重庆鸡公煲","lon":"121.53982","lat":"31.2909","category":"71","category_name":"四川菜","address":"杨浦区靖宇东路77号(近敦化路)"},{"poiid":"B2094757D06FAAFE459A","title":"延吉四村","lon":"121.53846","lat":"31.293301","category":"252","category_name":"楼宇机构","address":"上海敦化路松花江路"},{"poiid":"B2094757D064A4F44598","title":"大碗面","lon":"121.53832","lat":"31.28971","category":"68","category_name":"快餐厅","address":"杨浦区靖宇东路53号(近安图路)"},{"poiid":"B2094750D76DA2FA409D","title":"敦化路夫妻肺片","lon":"121.538","lat":"31.2909","category":"68","category_name":"快餐厅","address":"杨浦区敦化路菜场门口(近靖宇路)"},{"poiid":"B2094655D36CA6F9489F","title":"敦化路靖宇东路","lon":"121.53962","lat":"31.28998","category":"38","category_name":"公交车站","address":""},{"poiid":"B2094654D568A3FC4998","title":"松花一村","lon":"121.54093","lat":"31.294388","category":"47","category_name":"住宅区","address":"延吉东路82弄"},{"poiid":"B2094757D068A3F84392","title":"敦化路松花江路站","lon":"121.5390965","lat":"31.2906037","category":"38","category_name":"公交车站","address":"上海市杨浦区敦化路靖宇东路"},{"poiid":"B2094757D069A2F44698","title":"益晖新苑","lon":"121.5375911","lat":"31.291095927","category":"47","category_name":"住宅区","address":"上海市 上海市杨浦区安图路18弄"},{"poiid":"B2094654D56FAAFA489F","title":"安图新村小区","lon":"121.54158","lat":"31.28956","category":"47","category_name":"住宅区","address":""},{"poiid":"B2094757D168A6F5409C","title":"杂粮煎饼(敦化路店)","lon":"121.53948","lat":"31.29064","category":"247","category_name":"餐饮美食","address":"上海杨浦区敦化路华联超市旁(靖宇东路口)"},{"poiid":"B2094757D165A1FC469C","title":"华联超市No.262","lon":"121.53896809","lat":"31.290631476","category":"118","category_name":"超级市场","address":"杨浦区敦化路151号(近靖宇东路)"},{"poiid":"B2094757D469A0FF409A","title":"双鸿餐厅","lon":"121.537539","lat":"31.288909","category":"76","category_name":"上海菜","address":"杨浦区水丰路382号(近靖宇东路)"},{"poiid":"B2094655D36DA0F84498","title":"延吉东路安图路","lon":"121.5427","lat":"31.28994","category":"38","category_name":"公交车站","address":""},{"poiid":"B2094757D06AA3FE409F","title":"小四川酒楼","lon":"121.5397644","lat":"31.28716278","category":"247","category_name":"餐饮美食","address":"上海延吉东路557号"},{"poiid":"B2094757D06AA3FB429C","title":"永琪美容美发(敦化店)","lon":"121.53868","lat":"31.29091","category":"148","category_name":"美容美发店","address":"杨浦区敦化路171-175号(近松花江路)"},{"poiid":"B2094654D56FAAFA4593","title":"天钰美发美容","lon":"121.54063","lat":"31.29134","category":"148","category_name":"美容美发店","address":"靖宇东路79"},{"poiid":"B2094655D26EA2FE489A","title":"良友金伴便利连锁No.155","lon":"121.54016","lat":"31.29106","category":"117","category_name":"便民商店/便利店","address":"靖宇东路87"},{"poiid":"B2094655D26BA6F4489F","title":"阳普敦化菜市场","lon":"121.5388","lat":"31.29137","category":"117","category_name":"便民商店/便利店","address":"敦化路168号"},{"poiid":"B2094757D06FA0F4429F","title":"延吉五村","lon":"121.5398493","lat":"31.2897694","category":"252","category_name":"楼宇机构","address":"上海敦化路延吉五六村"},{"poiid":"B2094654DB6BA2FB4592","title":"飘逸美容美发","lon":"121.54025","lat":"31.29111","category":"148","category_name":"美容美发店","address":"杨浦区靖宇东路87号(近安图新村)"},{"poiid":"B2094654D56FAAFA4698","title":"靖宇大楼","lon":"121.54109","lat":"31.291428","category":"47","category_name":"住宅区","address":"上海靖宇东路75号"},{"poiid":"B2094654D56FAAFA449F","title":"安图居委小区","lon":"121.54019","lat":"31.29046","category":"47","category_name":"住宅区","address":"靖宇东路85弄"},{"poiid":"B2094655D36CA6F9489E","title":"敦化路","lon":"121.53791","lat":"31.29194","category":"38","category_name":"公交车站","address":""},{"poiid":"B2094752DB6BA2FB469A","title":"虹口凯德龙之梦","lon":"121.539613","lat":"31.292036","category":"500","category_name":"未知分类","address":"上海市 유가네"},{"poiid":"B2094655D26CA6FA4393","title":"延吉四村小区(西门)","lon":"121.53842","lat":"31.29169","category":"47","category_name":"住宅区","address":""},{"poiid":"B2094757D069A0F8499B","title":"靖宇东路85弄","lon":"121.540507103","lat":"31.2912098568","category":"500","category_name":"未知分类","address":"上海市杨浦区靖宇东路85弄"},{"poiid":"B2094757D16FAAF5419B","title":"小世界","lon":"121.5410241","lat":"31.291243857","category":"500","category_name":"未知分类","address":"上海靖宇东路 营口路"},{"poiid":"B2094757D16DAAF4479E","title":"泰晤士西菜社","lon":"121.53887426","lat":"31.292005473","category":"500","category_name":"未知分类","address":"上海控江路766号"},{"poiid":"B2094757D06AA7F54798","title":"延吉图书馆","lon":"121.537","lat":"31.28861","category":"181","category_name":"图书馆","address":"上海杨浦区永吉路148号(近延安中路)"},{"poiid":"B2094757D16EA7FF429E","title":"爆米花","lon":"121.53728","lat":"31.28911","category":"68","category_name":"快餐厅","address":"杨浦区靖宇东路361度对面(水丰路口)"},{"poiid":"B2094752D46DA3F54893","title":"浦东新区滨江大道","lon":"121.537974","lat":"31.289126","category":"250","category_name":"公园户外","address":null},{"poiid":"B2094757D069AAF94193","title":"膀子老巢","lon":"121.53843825","lat":"31.290768719","category":"500","category_name":"未知分类","address":"上海延吉东路82弄50号"},{"poiid":"B2094757D568A0FB4998","title":"龙泉浴场","lon":"121.5384589","lat":"31.29098306","category":"149","category_name":"洗浴推拿场所","address":"敦化路163号"},{"poiid":"B2094655D36CA4FD469F","title":"安图路靖宇东路","lon":"121.54167","lat":"31.29131","category":"38","category_name":"公交车站","address":""},{"poiid":"B2094655D26CA7FB4499","title":"上海市长白二村小学","lon":"121.54081","lat":"31.29177","category":"56","category_name":"小学","address":"杨浦区佳木斯路152号(佳木斯路包头南路)"},{"poiid":"B2094757D069A4FA479F","title":"上海理工大学附属小学羽毛球馆","lon":"121.54164","lat":"31.2917","category":"253","category_name":"校园生活","address":"上海杨浦区靖宇东路158号(近安图路)"},{"poiid":"B2094655D36CA4FD469E","title":"安图路延吉东路","lon":"121.54083","lat":"31.29229","category":"38","category_name":"公交车站","address":""},{"poiid":"B2094757D065A4FE4299","title":"中国工商银行(延吉支行)","lon":"121.53771","lat":"31.28965","category":"150","category_name":"银行","address":"杨浦区靖宇东路238号近水丰路(靖宇东路水丰路)"},{"poiid":"B2094655D26CA6F44793","title":"好德便利No.384","lon":"121.54169","lat":"31.29157","category":"117","category_name":"便民商店/便利店","address":"安图路66"},{"poiid":"B2094757D56EA6FD4193","title":"达芙妮-杨浦靖宇店","lon":"121.538316","lat":"31.29027","category":"249","category_name":"购物服务","address":"靖宇东路210号"},{"poiid":"B2094757D06FA4FA429E","title":"圆缘园(靖宇店)","lon":"121.53646","lat":"31.28894","category":"260","category_name":"其他","address":"杨浦区靖宇东路280号(近营口路)"},{"poiid":"B2094654D56FA5F84398","title":"万昌大厦","lon":"121.537","lat":"31.2895","category":"46","category_name":"楼宇","address":"双阳路490,502弄"},{"poiid":"B2094654D56FAAFA469F","title":"靖宇大楼(东门)","lon":"121.54131","lat":"31.29146","category":"47","category_name":"住宅区","address":"靖宇东路75号"},{"poiid":"B2094757D06FA1FC429D","title":"安图医院","lon":"121.54300256","lat":"31.29060381","category":"162","category_name":"医院","address":"杨浦区延吉东路200号(近安图路)"},{"poiid":"B2094757D06FA3F9459F","title":"鸿瑞兴(敦化路店)","lon":"121.53907","lat":"31.29053","category":"257","category_name":"中餐厅","address":"杨浦区敦化路163号(近靖宇东路)"},{"poiid":"B2094757D06EAAFF4598","title":"旺晖火锅城(敦化路店)","lon":"121.53925","lat":"31.29053","category":"86","category_name":"火锅店","address":"杨浦区敦化路160号(近靖宇东路)"},{"poiid":"B2094757D068A3FE449A","title":"上海理工大学附属小学","lon":"121.54096","lat":"31.29155","category":"55","category_name":"中学","address":"杨浦区靖宇东路158号(近安图路)"},{"poiid":"B2094655D26CA6F94193","title":"延吉五·六村小区","lon":"121.53672","lat":"31.29096","category":"47","category_name":"住宅区","address":""},{"poiid":"B2094757D068A4FA4393","title":"靖宇家园","lon":"121.54266","lat":"31.291809","category":"47","category_name":"住宅区","address":"松江方松街道文诚路2188弄409-413"},{"poiid":"B2094757D068A3FF4693","title":"豪享来上海敦化店","lon":"121.5384","lat":"31.2928","category":"247","category_name":"餐饮美食","address":"上海市杨浦区敦化路161号"},{"poiid":"B2094655D264AAF4429F","title":"重庆鸡公煲","lon":"121.53982","lat":"31.2909","category":"71","category_name":"四川菜","address":"杨浦区靖宇东路77号(近敦化路)"},{"poiid":"B2094757D06FAAFE459A","title":"延吉四村","lon":"121.53846","lat":"31.293301","category":"252","category_name":"楼宇机构","address":"上海敦化路松花江路"},{"poiid":"B2094757D064A4F44598","title":"大碗面","lon":"121.53832","lat":"31.28971","category":"68","category_name":"快餐厅","address":"杨浦区靖宇东路53号(近安图路)"},{"poiid":"B2094750D76DA2FA409D","title":"敦化路夫妻肺片","lon":"121.538","lat":"31.2909","category":"68","category_name":"快餐厅","address":"杨浦区敦化路菜场门口(近靖宇路)"},{"poiid":"B2094655D36CA6F9489F","title":"敦化路靖宇东路","lon":"121.53962","lat":"31.28998","category":"38","category_name":"公交车站","address":""},{"poiid":"B2094654D568A3FC4998","title":"松花一村","lon":"121.54093","lat":"31.294388","category":"47","category_name":"住宅区","address":"延吉东路82弄"},{"poiid":"B2094757D068A3F84392","title":"敦化路松花江路站","lon":"121.5390965","lat":"31.2906037","category":"38","category_name":"公交车站","address":"上海市杨浦区敦化路靖宇东路"},{"poiid":"B2094757D069A2F44698","title":"益晖新苑","lon":"121.5375911","lat":"31.291095927","category":"47","category_name":"住宅区","address":"上海市 上海市杨浦区安图路18弄"},{"poiid":"B2094654D56FAAFA489F","title":"安图新村小区","lon":"121.54158","lat":"31.28956","category":"47","category_name":"住宅区","address":""},{"poiid":"B2094757D168A6F5409C","title":"杂粮煎饼(敦化路店)","lon":"121.53948","lat":"31.29064","category":"247","category_name":"餐饮美食","address":"上海杨浦区敦化路华联超市旁(靖宇东路口)"},{"poiid":"B2094757D165A1FC469C","title":"华联超市No.262","lon":"121.53896809","lat":"31.290631476","category":"118","category_name":"超级市场","address":"杨浦区敦化路151号(近靖宇东路)"},{"poiid":"B2094757D469A0FF409A","title":"双鸿餐厅","lon":"121.537539","lat":"31.288909","category":"76","category_name":"上海菜","address":"杨浦区水丰路382号(近靖宇东路)"},{"poiid":"B2094655D36DA0F84498","title":"延吉东路安图路","lon":"121.5427","lat":"31.28994","category":"38","category_name":"公交车站","address":""},{"poiid":"B2094757D06AA3FE409F","title":"小四川酒楼","lon":"121.5397644","lat":"31.28716278","category":"247","category_name":"餐饮美食","address":"上海延吉东路557号"},{"poiid":"B2094757D06AA3FB429C","title":"永琪美容美发(敦化店)","lon":"121.53868","lat":"31.29091","category":"148","category_name":"美容美发店","address":"杨浦区敦化路171-175号(近松花江路)"},{"poiid":"B2094654D56FAAFA4593","title":"天钰美发美容","lon":"121.54063","lat":"31.29134","category":"148","category_name":"美容美发店","address":"靖宇东路79"},{"poiid":"B2094655D26EA2FE489A","title":"良友金伴便利连锁No.155","lon":"121.54016","lat":"31.29106","category":"117","category_name":"便民商店/便利店","address":"靖宇东路87"},{"poiid":"B2094655D26BA6F4489F","title":"阳普敦化菜市场","lon":"121.5388","lat":"31.29137","category":"117","category_name":"便民商店/便利店","address":"敦化路168号"},{"poiid":"B2094757D06FA0F4429F","title":"延吉五村","lon":"121.5398493","lat":"31.2897694","category":"252","category_name":"楼宇机构","address":"上海敦化路延吉五六村"},{"poiid":"B2094654DB6BA2FB4592","title":"飘逸美容美发","lon":"121.54025","lat":"31.29111","category":"148","category_name":"美容美发店","address":"杨浦区靖宇东路87号(近安图新村)"},{"poiid":"B2094654D56FAAFA4698","title":"靖宇大楼","lon":"121.54109","lat":"31.291428","category":"47","category_name":"住宅区","address":"上海靖宇东路75号"},{"poiid":"B2094654D56FAAFA449F","title":"安图居委小区","lon":"121.54019","lat":"31.29046","category":"47","category_name":"住宅区","address":"靖宇东路85弄"},{"poiid":"B2094655D36CA6F9489E","title":"敦化路","lon":"121.53791","lat":"31.29194","category":"38","category_name":"公交车站","address":""},{"poiid":"B2094752DB6BA2FB469A","title":"虹口凯德龙之梦","lon":"121.539613","lat":"31.292036","category":"500","category_name":"未知分类","address":"上海市 유가네"},{"poiid":"B2094655D26CA6FA4393","title":"延吉四村小区(西门)","lon":"121.53842","lat":"31.29169","category":"47","category_name":"住宅区","address":""},{"poiid":"B2094757D069A0F8499B","title":"靖宇东路85弄","lon":"121.540507103","lat":"31.2912098568","category":"500","category_name":"未知分类","address":"上海市杨浦区靖宇东路85弄"},{"poiid":"B2094757D16FAAF5419B","title":"小世界","lon":"121.5410241","lat":"31.291243857","category":"500","category_name":"未知分类","address":"上海靖宇东路 营口路"},{"poiid":"B2094757D16DAAF4479E","title":"泰晤士西菜社","lon":"121.53887426","lat":"31.292005473","category":"500","category_name":"未知分类","address":"上海控江路766号"},{"poiid":"B2094757D06AA7F54798","title":"延吉图书馆","lon":"121.537","lat":"31.28861","category":"181","category_name":"图书馆","address":"上海杨浦区永吉路148号(近延安中路)"},{"poiid":"B2094757D16EA7FF429E","title":"爆米花","lon":"121.53728","lat":"31.28911","category":"68","category_name":"快餐厅","address":"杨浦区靖宇东路361度对面(水丰路口)"},{"poiid":"B2094752D46DA3F54893","title":"浦东新区滨江大道","lon":"121.537974","lat":"31.289126","category":"250","category_name":"公园户外","address":null},{"poiid":"B2094757D069AAF94193","title":"膀子老巢","lon":"121.53843825","lat":"31.290768719","category":"500","category_name":"未知分类","address":"上海延吉东路82弄50号"},{"poiid":"B2094757D568A0FB4998","title":"龙泉浴场","lon":"121.5384589","lat":"31.29098306","category":"149","category_name":"洗浴推拿场所","address":"敦化路163号"},{"poiid":"B2094655D36CA4FD469F","title":"安图路靖宇东路","lon":"121.54167","lat":"31.29131","category":"38","category_name":"公交车站","address":""},{"poiid":"B2094655D26CA7FB4499","title":"上海市长白二村小学","lon":"121.54081","lat":"31.29177","category":"56","category_name":"小学","address":"杨浦区佳木斯路152号(佳木斯路包头南路)"},{"poiid":"B2094757D069A4FA479F","title":"上海理工大学附属小学羽毛球馆","lon":"121.54164","lat":"31.2917","category":"253","category_name":"校园生活","address":"上海杨浦区靖宇东路158号(近安图路)"},{"poiid":"B2094655D36CA4FD469E","title":"安图路延吉东路","lon":"121.54083","lat":"31.29229","category":"38","category_name":"公交车站","address":""},{"poiid":"B2094757D065A4FE4299","title":"中国工商银行(延吉支行)","lon":"121.53771","lat":"31.28965","category":"150","category_name":"银行","address":"杨浦区靖宇东路238号近水丰路(靖宇东路水丰路)"},{"poiid":"B2094655D26CA6F44793","title":"好德便利No.384","lon":"121.54169","lat":"31.29157","category":"117","category_name":"便民商店/便利店","address":"安图路66"},{"poiid":"B2094757D56EA6FD4193","title":"达芙妮-杨浦靖宇店","lon":"121.538316","lat":"31.29027","category":"249","category_name":"购物服务","address":"靖宇东路210号"},{"poiid":"B2094757D06FA4FA429E","title":"圆缘园(靖宇店)","lon":"121.53646","lat":"31.28894","category":"260","category_name":"其他","address":"杨浦区靖宇东路280号(近营口路)"},{"poiid":"B2094654D56FA5F84398","title":"万昌大厦","lon":"121.537","lat":"31.2895","category":"46","category_name":"楼宇","address":"双阳路490,502弄"},{"poiid":"B2094654D56FAAFA469F","title":"靖宇大楼(东门)","lon":"121.54131","lat":"31.29146","category":"47","category_name":"住宅区","address":"靖宇东路75号"},{"poiid":"B2094757D06FA1FC429D","title":"安图医院","lon":"121.54300256","lat":"31.29060381","category":"162","category_name":"医院","address":"杨浦区延吉东路200号(近安图路)"},{"poiid":"B2094757D06FA3F9459F","title":"鸿瑞兴(敦化路店)","lon":"121.53907","lat":"31.29053","category":"257","category_name":"中餐厅","address":"杨浦区敦化路163号(近靖宇东路)"},{"poiid":"B2094757D06EAAFF4598","title":"旺晖火锅城(敦化路店)","lon":"121.53925","lat":"31.29053","category":"86","category_name":"火锅店","address":"杨浦区敦化路160号(近靖宇东路)"},{"poiid":"B2094757D068A3FE449A","title":"上海理工大学附属小学","lon":"121.54096","lat":"31.29155","category":"55","category_name":"中学","address":"杨浦区靖宇东路158号(近安图路)"},{"poiid":"B2094655D26CA6F94193","title":"延吉五·六村小区","lon":"121.53672","lat":"31.29096","category":"47","category_name":"住宅区","address":""},{"poiid":"B2094757D068A4FA4393","title":"靖宇家园","lon":"121.54266","lat":"31.291809","category":"47","category_name":"住宅区","address":"松江方松街道文诚路2188弄409-413"},{"poiid":"B2094757D068A3FF4693","title":"豪享来上海敦化店","lon":"121.5384","lat":"31.2928","category":"247","category_name":"餐饮美食","address":"上海市杨浦区敦化路161号"},{"poiid":"B2094655D264AAF4429F","title":"重庆鸡公煲","lon":"121.53982","lat":"31.2909","category":"71","category_name":"四川菜","address":"杨浦区靖宇东路77号(近敦化路)"},{"poiid":"B2094757D06FAAFE459A","title":"延吉四村","lon":"121.53846","lat":"31.293301","category":"252","category_name":"楼宇机构","address":"上海敦化路松花江路"},{"poiid":"B2094757D064A4F44598","title":"大碗面","lon":"121.53832","lat":"31.28971","category":"68","category_name":"快餐厅","address":"杨浦区靖宇东路53号(近安图路)"},{"poiid":"B2094750D76DA2FA409D","title":"敦化路夫妻肺片","lon":"121.538","lat":"31.2909","category":"68","category_name":"快餐厅","address":"杨浦区敦化路菜场门口(近靖宇路)"},{"poiid":"B2094655D36CA6F9489F","title":"敦化路靖宇东路","lon":"121.53962","lat":"31.28998","category":"38","category_name":"公交车站","address":""},{"poiid":"B2094654D568A3FC4998","title":"松花一村","lon":"121.54093","lat":"31.294388","category":"47","category_name":"住宅区","address":"延吉东路82弄"},{"poiid":"B2094757D068A3F84392","title":"敦化路松花江路站","lon":"121.5390965","lat":"31.2906037","category":"38","category_name":"公交车站","address":"上海市杨浦区敦化路靖宇东路"},{"poiid":"B2094757D069A2F44698","title":"益晖新苑","lon":"121.5375911","lat":"31.291095927","category":"47","category_name":"住宅区","address":"上海市 上海市杨浦区安图路18弄"},{"poiid":"B2094654D56FAAFA489F","title":"安图新村小区","lon":"121.54158","lat":"31.28956","category":"47","category_name":"住宅区","address":""},{"poiid":"B2094757D168A6F5409C","title":"杂粮煎饼(敦化路店)","lon":"121.53948","lat":"31.29064","category":"247","category_name":"餐饮美食","address":"上海杨浦区敦化路华联超市旁(靖宇东路口)"},{"poiid":"B2094757D165A1FC469C","title":"华联超市No.262","lon":"121.53896809","lat":"31.290631476","category":"118","category_name":"超级市场","address":"杨浦区敦化路151号(近靖宇东路)"},{"poiid":"B2094757D469A0FF409A","title":"双鸿餐厅","lon":"121.537539","lat":"31.288909","category":"76","category_name":"上海菜","address":"杨浦区水丰路382号(近靖宇东路)"},{"poiid":"B2094655D36DA0F84498","title":"延吉东路安图路","lon":"121.5427","lat":"31.28994","category":"38","category_name":"公交车站","address":""},{"poiid":"B2094757D06AA3FE409F","title":"小四川酒楼","lon":"121.5397644","lat":"31.28716278","category":"247","category_name":"餐饮美食","address":"上海延吉东路557号"},{"poiid":"B2094757D06AA3FB429C","title":"永琪美容美发(敦化店)","lon":"121.53868","lat":"31.29091","category":"148","category_name":"美容美发店","address":"杨浦区敦化路171-175号(近松花江路)"},{"poiid":"B2094654D56FAAFA4593","title":"天钰美发美容","lon":"121.54063","lat":"31.29134","category":"148","category_name":"美容美发店","address":"靖宇东路79"},{"poiid":"B2094655D26EA2FE489A","title":"良友金伴便利连锁No.155","lon":"121.54016","lat":"31.29106","category":"117","category_name":"便民商店/便利店","address":"靖宇东路87"},{"poiid":"B2094655D26BA6F4489F","title":"阳普敦化菜市场","lon":"121.5388","lat":"31.29137","category":"117","category_name":"便民商店/便利店","address":"敦化路168号"},{"poiid":"B2094757D06FA0F4429F","title":"延吉五村","lon":"121.5398493","lat":"31.2897694","category":"252","category_name":"楼宇机构","address":"上海敦化路延吉五六村"},{"poiid":"B2094654DB6BA2FB4592","title":"飘逸美容美发","lon":"121.54025","lat":"31.29111","category":"148","category_name":"美容美发店","address":"杨浦区靖宇东路87号(近安图新村)"},{"poiid":"B2094654D56FAAFA4698","title":"靖宇大楼","lon":"121.54109","lat":"31.291428","category":"47","category_name":"住宅区","address":"上海靖宇东路75号"},{"poiid":"B2094654D56FAAFA449F","title":"安图居委小区","lon":"121.54019","lat":"31.29046","category":"47","category_name":"住宅区","address":"靖宇东路85弄"},{"poiid":"B2094655D36CA6F9489E","title":"敦化路","lon":"121.53791","lat":"31.29194","category":"38","category_name":"公交车站","address":""},{"poiid":"B2094752DB6BA2FB469A","title":"虹口凯德龙之梦","lon":"121.539613","lat":"31.292036","category":"500","category_name":"未知分类","address":"上海市 유가네"},{"poiid":"B2094655D26CA6FA4393","title":"延吉四村小区(西门)","lon":"121.53842","lat":"31.29169","category":"47","category_name":"住宅区","address":""},{"poiid":"B2094757D069A0F8499B","title":"靖宇东路85弄","lon":"121.540507103","lat":"31.2912098568","category":"500","category_name":"未知分类","address":"上海市杨浦区靖宇东路85弄"},{"poiid":"B2094757D16FAAF5419B","title":"小世界","lon":"121.5410241","lat":"31.291243857","category":"500","category_name":"未知分类","address":"上海靖宇东路 营口路"},{"poiid":"B2094757D16DAAF4479E","title":"泰晤士西菜社","lon":"121.53887426","lat":"31.292005473","category":"500","category_name":"未知分类","address":"上海控江路766号"},{"poiid":"B2094757D06AA7F54798","title":"延吉图书馆","lon":"121.537","lat":"31.28861","category":"181","category_name":"图书馆","address":"上海杨浦区永吉路148号(近延安中路)"},{"poiid":"B2094757D16EA7FF429E","title":"爆米花","lon":"121.53728","lat":"31.28911","category":"68","category_name":"快餐厅","address":"杨浦区靖宇东路361度对面(水丰路口)"},{"poiid":"B2094752D46DA3F54893","title":"浦东新区滨江大道","lon":"121.537974","lat":"31.289126","category":"250","category_name":"公园户外","address":null},{"poiid":"B2094757D069AAF94193","title":"膀子老巢","lon":"121.53843825","lat":"31.290768719","category":"500","category_name":"未知分类","address":"上海延吉东路82弄50号"},{"poiid":"B2094757D568A0FB4998","title":"龙泉浴场","lon":"121.5384589","lat":"31.29098306","category":"149","category_name":"洗浴推拿场所","address":"敦化路163号"},{"poiid":"B2094655D36CA4FD469F","title":"安图路靖宇东路","lon":"121.54167","lat":"31.29131","category":"38","category_name":"公交车站","address":""},{"poiid":"B2094655D26CA7FB4499","title":"上海市长白二村小学","lon":"121.54081","lat":"31.29177","category":"56","category_name":"小学","address":"杨浦区佳木斯路152号(佳木斯路包头南路)"},{"poiid":"B2094757D069A4FA479F","title":"上海理工大学附属小学羽毛球馆","lon":"121.54164","lat":"31.2917","category":"253","category_name":"校园生活","address":"上海杨浦区靖宇东路158号(近安图路)"},{"poiid":"B2094655D36CA4FD469E","title":"安图路延吉东路","lon":"121.54083","lat":"31.29229","category":"38","category_name":"公交车站","address":""},{"poiid":"B2094757D065A4FE4299","title":"中国工商银行(延吉支行)","lon":"121.53771","lat":"31.28965","category":"150","category_name":"银行","address":"杨浦区靖宇东路238号近水丰路(靖宇东路水丰路)"},{"poiid":"B2094655D26CA6F44793","title":"好德便利No.384","lon":"121.54169","lat":"31.29157","category":"117","category_name":"便民商店/便利店","address":"安图路66"},{"poiid":"B2094757D56EA6FD4193","title":"达芙妮-杨浦靖宇店","lon":"121.538316","lat":"31.29027","category":"249","category_name":"购物服务","address":"靖宇东路210号"},{"poiid":"B2094757D06FA4FA429E","title":"圆缘园(靖宇店)","lon":"121.53646","lat":"31.28894","category":"260","category_name":"其他","address":"杨浦区靖宇东路280号(近营口路)"},{"poiid":"B2094654D56FA5F84398","title":"万昌大厦","lon":"121.537","lat":"31.2895","category":"46","category_name":"楼宇","address":"双阳路490,502弄"},{"poiid":"B2094654D56FAAFA469F","title":"靖宇大楼(东门)","lon":"121.54131","lat":"31.29146","category":"47","category_name":"住宅区","address":"靖宇东路75号"},{"poiid":"B2094757D06FA1FC429D","title":"安图医院","lon":"121.54300256","lat":"31.29060381","category":"162","category_name":"医院","address":"杨浦区延吉东路200号(近安图路)"},{"poiid":"B2094757D06FA3F9459F","title":"鸿瑞兴(敦化路店)","lon":"121.53907","lat":"31.29053","category":"257","category_name":"中餐厅","address":"杨浦区敦化路163号(近靖宇东路)"},{"poiid":"B2094757D06EAAFF4598","title":"旺晖火锅城(敦化路店)","lon":"121.53925","lat":"31.29053","category":"86","category_name":"火锅店","address":"杨浦区敦化路160号(近靖宇东路)"},{"poiid":"B2094757D068A3FE449A","title":"上海理工大学附属小学","lon":"121.54096","lat":"31.29155","category":"55","category_name":"中学","address":"杨浦区靖宇东路158号(近安图路)"},{"poiid":"B2094655D26CA6F94193","title":"延吉五·六村小区","lon":"121.53672","lat":"31.29096","category":"47","category_name":"住宅区","address":""},{"poiid":"B2094757D068A4FA4393","title":"靖宇家园","lon":"121.54266","lat":"31.291809","category":"47","category_name":"住宅区","address":"松江方松街道文诚路2188弄409-413"},{"poiid":"B2094757D068A3FF4693","title":"豪享来上海敦化店","lon":"121.5384","lat":"31.2928","category":"247","category_name":"餐饮美食","address":"上海市杨浦区敦化路161号"},{"poiid":"B2094655D264AAF4429F","title":"重庆鸡公煲","lon":"121.53982","lat":"31.2909","category":"71","category_name":"四川菜","address":"杨浦区靖宇东路77号(近敦化路)"},{"poiid":"B2094757D06FAAFE459A","title":"延吉四村","lon":"121.53846","lat":"31.293301","category":"252","category_name":"楼宇机构","address":"上海敦化路松花江路"},{"poiid":"B2094757D064A4F44598","title":"大碗面","lon":"121.53832","lat":"31.28971","category":"68","category_name":"快餐厅","address":"杨浦区靖宇东路53号(近安图路)"},{"poiid":"B2094750D76DA2FA409D","title":"敦化路夫妻肺片","lon":"121.538","lat":"31.2909","category":"68","category_name":"快餐厅","address":"杨浦区敦化路菜场门口(近靖宇路)"},{"poiid":"B2094655D36CA6F9489F","title":"敦化路靖宇东路","lon":"121.53962","lat":"31.28998","category":"38","category_name":"公交车站","address":""},{"poiid":"B2094654D568A3FC4998","title":"松花一村","lon":"121.54093","lat":"31.294388","category":"47","category_name":"住宅区","address":"延吉东路82弄"},{"poiid":"B2094757D068A3F84392","title":"敦化路松花江路站","lon":"121.5390965","lat":"31.2906037","category":"38","category_name":"公交车站","address":"上海市杨浦区敦化路靖宇东路"},{"poiid":"B2094757D069A2F44698","title":"益晖新苑","lon":"121.5375911","lat":"31.291095927","category":"47","category_name":"住宅区","address":"上海市 上海市杨浦区安图路18弄"},{"poiid":"B2094654D56FAAFA489F","title":"安图新村小区","lon":"121.54158","lat":"31.28956","category":"47","category_name":"住宅区","address":""},{"poiid":"B2094757D168A6F5409C","title":"杂粮煎饼(敦化路店)","lon":"121.53948","lat":"31.29064","category":"247","category_name":"餐饮美食","address":"上海杨浦区敦化路华联超市旁(靖宇东路口)"},{"poiid":"B2094757D165A1FC469C","title":"华联超市No.262","lon":"121.53896809","lat":"31.290631476","category":"118","category_name":"超级市场","address":"杨浦区敦化路151号(近靖宇东路)"},{"poiid":"B2094757D469A0FF409A","title":"双鸿餐厅","lon":"121.537539","lat":"31.288909","category":"76","category_name":"上海菜","address":"杨浦区水丰路382号(近靖宇东路)"},{"poiid":"B2094655D36DA0F84498","title":"延吉东路安图路","lon":"121.5427","lat":"31.28994","category":"38","category_name":"公交车站","address":""},{"poiid":"B2094757D06AA3FE409F","title":"小四川酒楼","lon":"121.5397644","lat":"31.28716278","category":"247","category_name":"餐饮美食","address":"上海延吉东路557号"},{"poiid":"B2094757D06AA3FB429C","title":"永琪美容美发(敦化店)","lon":"121.53868","lat":"31.29091","category":"148","category_name":"美容美发店","address":"杨浦区敦化路171-175号(近松花江路)"},{"poiid":"B2094654D56FAAFA4593","title":"天钰美发美容","lon":"121.54063","lat":"31.29134","category":"148","category_name":"美容美发店","address":"靖宇东路79"},{"poiid":"B2094655D26EA2FE489A","title":"良友金伴便利连锁No.155","lon":"121.54016","lat":"31.29106","category":"117","category_name":"便民商店/便利店","address":"靖宇东路87"},{"poiid":"B2094655D26BA6F4489F","title":"阳普敦化菜市场","lon":"121.5388","lat":"31.29137","category":"117","category_name":"便民商店/便利店","address":"敦化路168号"},{"poiid":"B2094757D06FA0F4429F","title":"延吉五村","lon":"121.5398493","lat":"31.2897694","category":"252","category_name":"楼宇机构","address":"上海敦化路延吉五六村"},{"poiid":"B2094654DB6BA2FB4592","title":"飘逸美容美发","lon":"121.54025","lat":"31.29111","category":"148","category_name":"美容美发店","address":"杨浦区靖宇东路87号(近安图新村)"},{"poiid":"B2094654D56FAAFA4698","title":"靖宇大楼","lon":"121.54109","lat":"31.291428","category":"47","category_name":"住宅区","address":"上海靖宇东路75号"},{"poiid":"B2094654D56FAAFA449F","title":"安图居委小区","lon":"121.54019","lat":"31.29046","category":"47","category_name":"住宅区","address":"靖宇东路85弄"},{"poiid":"B2094655D36CA6F9489E","title":"敦化路","lon":"121.53791","lat":"31.29194","category":"38","category_name":"公交车站","address":""},{"poiid":"B2094752DB6BA2FB469A","title":"虹口凯德龙之梦","lon":"121.539613","lat":"31.292036","category":"500","category_name":"未知分类","address":"上海市 유가네"},{"poiid":"B2094655D26CA6FA4393","title":"延吉四村小区(西门)","lon":"121.53842","lat":"31.29169","category":"47","category_name":"住宅区","address":""},{"poiid":"B2094757D069A0F8499B","title":"靖宇东路85弄","lon":"121.540507103","lat":"31.2912098568","category":"500","category_name":"未知分类","address":"上海市杨浦区靖宇东路85弄"},{"poiid":"B2094757D16FAAF5419B","title":"小世界","lon":"121.5410241","lat":"31.291243857","category":"500","category_name":"未知分类","address":"上海靖宇东路 营口路"},{"poiid":"B2094757D16DAAF4479E","title":"泰晤士西菜社","lon":"121.53887426","lat":"31.292005473","category":"500","category_name":"未知分类","address":"上海控江路766号"},{"poiid":"B2094757D06AA7F54798","title":"延吉图书馆","lon":"121.537","lat":"31.28861","category":"181","category_name":"图书馆","address":"上海杨浦区永吉路148号(近延安中路)"},{"poiid":"B2094757D16EA7FF429E","title":"爆米花","lon":"121.53728","lat":"31.28911","category":"68","category_name":"快餐厅","address":"杨浦区靖宇东路361度对面(水丰路口)"},{"poiid":"B2094752D46DA3F54893","title":"浦东新区滨江大道","lon":"121.537974","lat":"31.289126","category":"250","category_name":"公园户外","address":null},{"poiid":"B2094757D069AAF94193","title":"膀子老巢","lon":"121.53843825","lat":"31.290768719","category":"500","category_name":"未知分类","address":"上海延吉东路82弄50号"},{"poiid":"B2094757D568A0FB4998","title":"龙泉浴场","lon":"121.5384589","lat":"31.29098306","category":"149","category_name":"洗浴推拿场所","address":"敦化路163号"},{"poiid":"B2094655D36CA4FD469F","title":"安图路靖宇东路","lon":"121.54167","lat":"31.29131","category":"38","category_name":"公交车站","address":""},{"poiid":"B2094655D26CA7FB4499","title":"上海市长白二村小学","lon":"121.54081","lat":"31.29177","category":"56","category_name":"小学","address":"杨浦区佳木斯路152号(佳木斯路包头南路)"},{"poiid":"B2094757D069A4FA479F","title":"上海理工大学附属小学羽毛球馆","lon":"121.54164","lat":"31.2917","category":"253","category_name":"校园生活","address":"上海杨浦区靖宇东路158号(近安图路)"},{"poiid":"B2094655D36CA4FD469E","title":"安图路延吉东路","lon":"121.54083","lat":"31.29229","category":"38","category_name":"公交车站","address":""},{"poiid":"B2094757D065A4FE4299","title":"中国工商银行(延吉支行)","lon":"121.53771","lat":"31.28965","category":"150","category_name":"银行","address":"杨浦区靖宇东路238号近水丰路(靖宇东路水丰路)"},{"poiid":"B2094655D26CA6F44793","title":"好德便利No.384","lon":"121.54169","lat":"31.29157","category":"117","category_name":"便民商店/便利店","address":"安图路66"},{"poiid":"B2094757D56EA6FD4193","title":"达芙妮-杨浦靖宇店","lon":"121.538316","lat":"31.29027","category":"249","category_name":"购物服务","address":"靖宇东路210号"},{"poiid":"B2094757D06FA4FA429E","title":"圆缘园(靖宇店)","lon":"121.53646","lat":"31.28894","category":"260","category_name":"其他","address":"杨浦区靖宇东路280号(近营口路)"},{"poiid":"B2094654D56FA5F84398","title":"万昌大厦","lon":"121.537","lat":"31.2895","category":"46","category_name":"楼宇","address":"双阳路490,502弄"},{"poiid":"B2094654D56FAAFA469F","title":"靖宇大楼(东门)","lon":"121.54131","lat":"31.29146","category":"47","category_name":"住宅区","address":"靖宇东路75号"}]