[{"poiid":"B2094757D06FA7F84399","title":"上海外滩美术馆","lon":"121.487291","lat":"31.242912","category":"184","category_name":"美术馆","address":"黄浦区虎丘路20号(近北京东路)"},{"poiid":"B2094757D06EAAF8499F","title":"上海半岛酒店(The Peninsula,Shanghai)","lon":"121.48871485643679","lat":"31.24126498713522","category":"213","category_name":"五星级宾馆","address":"黄浦区中山东一路32号(近北京东路)"},{"poiid":"B2094757D06FA2F8489D","title":"外滩源","lon":"121.488115","lat":"31.241531","category":"260","category_name":"其他","address":"上海黄浦区中山东一路33号"},{"poiid":"B209475CD564A7F84292","title":"上海滩新天地店","lon":"121.47463","lat":"31.22164","category":"119","category_name":"商场","address":"\"太仓路181弄新天地北里15号\r\n\""},{"poiid":"B209475CD564A7F84392","title":"上海滩浦东香格里拉店","lon":"121.50058","lat":"31.23634","category":"119","category_name":"商场","address":"浦东富成路33号香格里拉酒店内大堂层"},{"poiid":"B2094757D06AA2FA4392","title":"香港路","lon":"121.485499","lat":"31.242465","category":"500","category_name":"未知分类","address":"上海香港路"},{"poiid":"B2094757D06FA0FE409C","title":"风波庄(黄浦店)","lon":"121.4865","lat":"31.24275","category":"260","category_name":"其他","address":"黄浦区四川中路670号(近南苏州路)"},{"poiid":"B2094757D06FA2F44099","title":"绿雅酒家","lon":"121.48623","lat":"31.23976","category":"76","category_name":"上海菜","address":"上海黄浦区江西中路372号(近宁波路)  "},{"poiid":"B2094757D569A3F94293","title":"洛克外滩源","lon":"121.48763672","lat":"31.24269775","category":"46","category_name":"楼宇","address":"黄浦苏州河和黄浦江交汇处(上海外滩源头)"},{"poiid":"B2094757D068A0FA489A","title":"圆明园路","lon":"121.488092512","lat":"31.2420983627","category":"260","category_name":"其他","address":"上海黄浦区圆明园路"},{"poiid":"B2094757DB6CA6FD419A","title":"Cuvve","lon":"121.485513","lat":"31.240501","category":"248","category_name":"生活娱乐","address":"外灘十八號"},{"poiid":"B2094757DB68A5F44399","title":"慧公馆 外滩源店 Maison De L'Hui-waitanyuan","lon":"121.48823","lat":"31.24116","category":"72","category_name":"广东菜","address":"黄浦区圆明园路97号安培大楼3-4楼(近外白渡桥)"},{"poiid":"B2094654DB6BABFD479B","title":"明堂上海旅行者青年旅舍","lon":"121.48529","lat":"31.24161","category":"218","category_name":"青年旅舍","address":"黄浦区江西中路450号(近北京东路)"},{"poiid":"B2094750D165A0FC469E","title":"8 1/2 Otto e Mezzo BOMBANA","lon":"121.488143","lat":"31.242341","category":"94","category_name":"西餐厅","address":"黄浦区圆明园路169号协进大楼6-7楼(近虎丘路)"},{"poiid":"B2094753D26AA3F94493","title":"THE LITTLE BLACK JACKET摄影展","lon":"121.487498","lat":"31.241128","category":"183","category_name":"展览馆","address":"上海市 虎丘路14号中实大楼 洛克•外滩源"},{"poiid":"B2094757DB6FA0FA4298","title":"益丰外滩源","lon":"121.484644","lat":"31.242458","category":"637","category_name":"房地产类公司","address":"黄浦区北京东路31-91号(近圆明园路)"},{"poiid":"B2094654DB69A4FE439E","title":"莫泰168连锁旅店(外滩店)","lon":"121.48634","lat":"31.23979","category":"216","category_name":"经济型连锁酒店","address":"上海黄浦区宁波路50号（近江西中路口）"},{"poiid":"B2094751D364A7FA419F","title":"星巴克外滩店","lon":"121.485804","lat":"31.242252","category":"247","category_name":"餐饮美食","address":"外滩"},{"poiid":"B2094654DA6FA2F84799","title":"春申江大厦","lon":"121.485","lat":"31.2422","category":"46","category_name":"楼宇","address":"上海市黄浦区浙江中路400号"},{"poiid":"B2094750D26EA2FA419A","title":"辉哥火锅圆明园路店","lon":"121.488487","lat":"31.241041","category":"86","category_name":"火锅店","address":"黄浦区圆明园路115号洛克外滩源(近北京东路)"},{"poiid":"B2094757D568A5FA4798","title":"锦江之星旅馆(上海外滩滨江店)","lon":"121.486266999998","lat":"31.2424470000003","category":"216","category_name":"经济型连锁酒店","address":"上海市黄浦区四川中路630号(近香港路口)"},{"poiid":"B2094757DA65A5F4439E","title":"锦江之星（上海外滩滨江店）","lon":"121.486291","lat":"31.242547","category":"216","category_name":"经济型连锁酒店","address":"黄浦区四川中路630号(香港路口)"},{"poiid":"B2094757D06AA3F4419E","title":"豪享来上海四川中路店","lon":"121.4872","lat":"31.2407","category":"247","category_name":"餐饮美食","address":"上海市黄浦区四川中路470号"},{"poiid":"B209475DD664A4FF439E","title":"Light＆salt","lon":"121.488258","lat":"31.24172","category":"247","category_name":"餐饮美食","address":"上海市 黄浦区圆明园路133号6楼"},{"poiid":"B2094654DA6FA4F4419A","title":"浦光中学","lon":"121.4862","lat":"31.24195","category":"55","category_name":"中学","address":"上海黄浦区四川中路599号(近河南拉面馆)"},{"poiid":"B2094757D065AAFD4898","title":"四川路桥","lon":"121.485728262","lat":"31.2440280796","category":"234","category_name":"海滨浴场","address":"上海四川北路四川中路交界(苏州河上)"},{"poiid":"B2094654DA6FA4FF459D","title":"宝龙大酒楼","lon":"121.48596793288","lat":"31.240782833756","category":"72","category_name":"广东菜","address":"黄浦区北京东路230号(近河南中路)"},{"poiid":"B2094655D26BA2FB4993","title":"四川中路香港路","lon":"121.48635","lat":"31.24187","category":"38","category_name":"公交车站","address":"上海市闸北区北苏州路"},{"poiid":"B2094757D66AA4FE459E","title":"凯恩酒家","lon":"121.48556141797","lat":"31.242659854707","category":"76","category_name":"上海菜","address":"黄浦区香港路123号(近四川中路)"},{"poiid":"B2094757D069A0FE4599","title":"三林塘馄饨店","lon":"121.48568504662","lat":"31.240624646304","category":"68","category_name":"快餐厅","address":"黄浦区江西中路416号(北京东路口)"},{"poiid":"B2094757D068A4F8469A","title":"新亚大酒店宴会厅","lon":"121.48532","lat":"31.24434","category":"217","category_name":"旅馆招待所","address":"上海虹口区天潼路422号(近四川北路)  "},{"poiid":"B2094757D764A5F8489D","title":"外滩美术馆咖啡厅 RAM CAFE","lon":"121.48739","lat":"31.24281","category":"260","category_name":"其他","address":"黄浦区虎丘路20号外滩美术馆内(近外滩)"},{"poiid":"B2094654DB6BABFD469E","title":"上海工商学院(香港路)","lon":"121.48683","lat":"31.2426","category":"52","category_name":"高等院校","address":"黄浦区香港路59号"},{"poiid":"B2094752D668A3F8459A","title":"Shanghai Rose","lon":"121.48865","lat":"31.243312","category":"248","category_name":"生活娱乐","address":"南苏州路1号"},{"poiid":"B2094654DA6FA0FB469F","title":"汇金大厦","lon":"121.48732391965","lat":"31.240035306526","category":"46","category_name":"楼宇","address":"丰台学城海鹰路1号,3号"},{"poiid":"B2094655D26BA6F8489F","title":"银行公会大楼","lon":"121.48683","lat":"31.24261","category":"46","category_name":"楼宇","address":"香港路59号"},{"poiid":"B2094757D168A2FE489D","title":"海上荟","lon":"121.484368738","lat":"31.2424785612","category":"76","category_name":"上海菜","address":"黄浦区江西中路371号(近北京东路)"},{"poiid":"B2094757D16EA4F4429A","title":"乍浦路桥","lon":"121.48704681","lat":"31.244327775","category":"234","category_name":"海滨浴场","address":"上海乍浦路苏州河"},{"poiid":"B2094655D36CA5F5419D","title":"北京东路四川中路","lon":"121.48625","lat":"31.24066","category":"38","category_name":"公交车站","address":"上海北京东路四川中路"},{"poiid":"B209475CDB6AA7F9419B","title":"上海汉庭快捷酒店(四川中路店)","lon":"121.486281","lat":"31.242055","category":"216","category_name":"经济型连锁酒店","address":"上海市黄浦区四川中路607号"},{"poiid":"B2094654DA6FABFC439D","title":"凯恩宾馆商务楼","lon":"121.48567","lat":"31.24248","category":"46","category_name":"楼宇","address":"香港路117"},{"poiid":"B2094654DA6FABFD419A","title":"虎丘小区","lon":"121.48692","lat":"31.24226","category":"47","category_name":"住宅区","address":"虎丘路81弄"},{"poiid":"B2094654DA6FABFC479F","title":"佳利商务楼","lon":"121.48616","lat":"31.24296","category":"46","category_name":"楼宇","address":"四川中路668"},{"poiid":"B2094655D268ABFE409B","title":"同欣大楼","lon":"121.48715","lat":"31.24269","category":"46","category_name":"楼宇","address":"黄浦区香港路55号"},{"poiid":"B2094654DA6FABFC479A","title":"浙江大学上海办事处","lon":"121.48615","lat":"31.24297","category":"52","category_name":"高等院校","address":"四川中路668号佳利商务楼9层"},{"poiid":"B209475CD46DA4F94199","title":"微热山丘","lon":"121.488395","lat":"31.241212","category":"500","category_name":"未知分类","address":"上海市 园明园路133号"},{"poiid":"B2094753DA6AA1FC4499","title":"热带风暴水上乐园","lon":"121.48703","lat":"31.242942","category":"500","category_name":"未知分类","address":"上海市 上海市七宝新镇路78号（近顾戴路口）"},{"poiid":"B2094655D26DA4F84593","title":"华德大楼","lon":"121.48618","lat":"31.24282","category":"47","category_name":"住宅区","address":""},{"poiid":"B2094757D06AABF8489F","title":"阿迪达斯(春天百货店)","lon":"121.48672","lat":"31.24234","category":"140","category_name":"体育用品店","address":"上海虹口区四川北路521号春天百货(近武昌路)  "},{"poiid":"B2094757D068A7FB4998","title":"协进大楼","lon":"121.488130726","lat":"31.2416575359","category":"260","category_name":"其他","address":"上海圆明园路169号 近北京东路"},{"poiid":"B2094757D06FA7F84399","title":"上海外滩美术馆","lon":"121.487291","lat":"31.242912","category":"184","category_name":"美术馆","address":"黄浦区虎丘路20号(近北京东路)"},{"poiid":"B2094757D06EAAF8499F","title":"上海半岛酒店(The Peninsula,Shanghai)","lon":"121.48871485643679","lat":"31.24126498713522","category":"213","category_name":"五星级宾馆","address":"黄浦区中山东一路32号(近北京东路)"},{"poiid":"B2094757D06FA2F8489D","title":"外滩源","lon":"121.488115","lat":"31.241531","category":"260","category_name":"其他","address":"上海黄浦区中山东一路33号"},{"poiid":"B209475CD564A7F84292","title":"上海滩新天地店","lon":"121.47463","lat":"31.22164","category":"119","category_name":"商场","address":"\"太仓路181弄新天地北里15号\r\n\""},{"poiid":"B209475CD564A7F84392","title":"上海滩浦东香格里拉店","lon":"121.50058","lat":"31.23634","category":"119","category_name":"商场","address":"浦东富成路33号香格里拉酒店内大堂层"},{"poiid":"B2094757D06AA2FA4392","title":"香港路","lon":"121.485499","lat":"31.242465","category":"500","category_name":"未知分类","address":"上海香港路"},{"poiid":"B2094757D06FA0FE409C","title":"风波庄(黄浦店)","lon":"121.4865","lat":"31.24275","category":"260","category_name":"其他","address":"黄浦区四川中路670号(近南苏州路)"},{"poiid":"B2094757D06FA2F44099","title":"绿雅酒家","lon":"121.48623","lat":"31.23976","category":"76","category_name":"上海菜","address":"上海黄浦区江西中路372号(近宁波路)  "},{"poiid":"B2094757D569A3F94293","title":"洛克外滩源","lon":"121.48763672","lat":"31.24269775","category":"46","category_name":"楼宇","address":"黄浦苏州河和黄浦江交汇处(上海外滩源头)"},{"poiid":"B2094757D068A0FA489A","title":"圆明园路","lon":"121.488092512","lat":"31.2420983627","category":"260","category_name":"其他","address":"上海黄浦区圆明园路"},{"poiid":"B2094757DB6CA6FD419A","title":"Cuvve","lon":"121.485513","lat":"31.240501","category":"248","category_name":"生活娱乐","address":"外灘十八號"},{"poiid":"B2094757DB68A5F44399","title":"慧公馆 外滩源店 Maison De L'Hui-waitanyuan","lon":"121.48823","lat":"31.24116","category":"72","category_name":"广东菜","address":"黄浦区圆明园路97号安培大楼3-4楼(近外白渡桥)"},{"poiid":"B2094654DB6BABFD479B","title":"明堂上海旅行者青年旅舍","lon":"121.48529","lat":"31.24161","category":"218","category_name":"青年旅舍","address":"黄浦区江西中路450号(近北京东路)"},{"poiid":"B2094750D165A0FC469E","title":"8 1/2 Otto e Mezzo BOMBANA","lon":"121.488143","lat":"31.242341","category":"94","category_name":"西餐厅","address":"黄浦区圆明园路169号协进大楼6-7楼(近虎丘路)"},{"poiid":"B2094753D26AA3F94493","title":"THE LITTLE BLACK JACKET摄影展","lon":"121.487498","lat":"31.241128","category":"183","category_name":"展览馆","address":"上海市 虎丘路14号中实大楼 洛克•外滩源"},{"poiid":"B2094757DB6FA0FA4298","title":"益丰外滩源","lon":"121.484644","lat":"31.242458","category":"637","category_name":"房地产类公司","address":"黄浦区北京东路31-91号(近圆明园路)"},{"poiid":"B2094654DB69A4FE439E","title":"莫泰168连锁旅店(外滩店)","lon":"121.48634","lat":"31.23979","category":"216","category_name":"经济型连锁酒店","address":"上海黄浦区宁波路50号（近江西中路口）"},{"poiid":"B2094751D364A7FA419F","title":"星巴克外滩店","lon":"121.485804","lat":"31.242252","category":"247","category_name":"餐饮美食","address":"外滩"},{"poiid":"B2094654DA6FA2F84799","title":"春申江大厦","lon":"121.485","lat":"31.2422","category":"46","category_name":"楼宇","address":"上海市黄浦区浙江中路400号"},{"poiid":"B2094750D26EA2FA419A","title":"辉哥火锅圆明园路店","lon":"121.488487","lat":"31.241041","category":"86","category_name":"火锅店","address":"黄浦区圆明园路115号洛克外滩源(近北京东路)"},{"poiid":"B2094757D568A5FA4798","title":"锦江之星旅馆(上海外滩滨江店)","lon":"121.486266999998","lat":"31.2424470000003","category":"216","category_name":"经济型连锁酒店","address":"上海市黄浦区四川中路630号(近香港路口)"},{"poiid":"B2094757DA65A5F4439E","title":"锦江之星（上海外滩滨江店）","lon":"121.486291","lat":"31.242547","category":"216","category_name":"经济型连锁酒店","address":"黄浦区四川中路630号(香港路口)"},{"poiid":"B2094757D06AA3F4419E","title":"豪享来上海四川中路店","lon":"121.4872","lat":"31.2407","category":"247","category_name":"餐饮美食","address":"上海市黄浦区四川中路470号"},{"poiid":"B209475DD664A4FF439E","title":"Light＆salt","lon":"121.488258","lat":"31.24172","category":"247","category_name":"餐饮美食","address":"上海市 黄浦区圆明园路133号6楼"},{"poiid":"B2094654DA6FA4F4419A","title":"浦光中学","lon":"121.4862","lat":"31.24195","category":"55","category_name":"中学","address":"上海黄浦区四川中路599号(近河南拉面馆)"},{"poiid":"B2094757D065AAFD4898","title":"四川路桥","lon":"121.485728262","lat":"31.2440280796","category":"234","category_name":"海滨浴场","address":"上海四川北路四川中路交界(苏州河上)"},{"poiid":"B2094654DA6FA4FF459D","title":"宝龙大酒楼","lon":"121.48596793288","lat":"31.240782833756","category":"72","category_name":"广东菜","address":"黄浦区北京东路230号(近河南中路)"},{"poiid":"B2094655D26BA2FB4993","title":"四川中路香港路","lon":"121.48635","lat":"31.24187","category":"38","category_name":"公交车站","address":"上海市闸北区北苏州路"},{"poiid":"B2094757D66AA4FE459E","title":"凯恩酒家","lon":"121.48556141797","lat":"31.242659854707","category":"76","category_name":"上海菜","address":"黄浦区香港路123号(近四川中路)"},{"poiid":"B2094757D069A0FE4599","title":"三林塘馄饨店","lon":"121.48568504662","lat":"31.240624646304","category":"68","category_name":"快餐厅","address":"黄浦区江西中路416号(北京东路口)"},{"poiid":"B2094757D068A4F8469A","title":"新亚大酒店宴会厅","lon":"121.48532","lat":"31.24434","category":"217","category_name":"旅馆招待所","address":"上海虹口区天潼路422号(近四川北路)  "},{"poiid":"B2094757D764A5F8489D","title":"外滩美术馆咖啡厅 RAM CAFE","lon":"121.48739","lat":"31.24281","category":"260","category_name":"其他","address":"黄浦区虎丘路20号外滩美术馆内(近外滩)"},{"poiid":"B2094654DB6BABFD469E","title":"上海工商学院(香港路)","lon":"121.48683","lat":"31.2426","category":"52","category_name":"高等院校","address":"黄浦区香港路59号"},{"poiid":"B2094752D668A3F8459A","title":"Shanghai Rose","lon":"121.48865","lat":"31.243312","category":"248","category_name":"生活娱乐","address":"南苏州路1号"},{"poiid":"B2094654DA6FA0FB469F","title":"汇金大厦","lon":"121.48732391965","lat":"31.240035306526","category":"46","category_name":"楼宇","address":"丰台学城海鹰路1号,3号"},{"poiid":"B2094655D26BA6F8489F","title":"银行公会大楼","lon":"121.48683","lat":"31.24261","category":"46","category_name":"楼宇","address":"香港路59号"},{"poiid":"B2094757D168A2FE489D","title":"海上荟","lon":"121.484368738","lat":"31.2424785612","category":"76","category_name":"上海菜","address":"黄浦区江西中路371号(近北京东路)"},{"poiid":"B2094757D16EA4F4429A","title":"乍浦路桥","lon":"121.48704681","lat":"31.244327775","category":"234","category_name":"海滨浴场","address":"上海乍浦路苏州河"},{"poiid":"B2094655D36CA5F5419D","title":"北京东路四川中路","lon":"121.48625","lat":"31.24066","category":"38","category_name":"公交车站","address":"上海北京东路四川中路"},{"poiid":"B209475CDB6AA7F9419B","title":"上海汉庭快捷酒店(四川中路店)","lon":"121.486281","lat":"31.242055","category":"216","category_name":"经济型连锁酒店","address":"上海市黄浦区四川中路607号"},{"poiid":"B2094654DA6FABFC439D","title":"凯恩宾馆商务楼","lon":"121.48567","lat":"31.24248","category":"46","category_name":"楼宇","address":"香港路117"},{"poiid":"B2094654DA6FABFD419A","title":"虎丘小区","lon":"121.48692","lat":"31.24226","category":"47","category_name":"住宅区","address":"虎丘路81弄"},{"poiid":"B2094654DA6FABFC479F","title":"佳利商务楼","lon":"121.48616","lat":"31.24296","category":"46","category_name":"楼宇","address":"四川中路668"},{"poiid":"B2094655D268ABFE409B","title":"同欣大楼","lon":"121.48715","lat":"31.24269","category":"46","category_name":"楼宇","address":"黄浦区香港路55号"},{"poiid":"B2094654DA6FABFC479A","title":"浙江大学上海办事处","lon":"121.48615","lat":"31.24297","category":"52","category_name":"高等院校","address":"四川中路668号佳利商务楼9层"},{"poiid":"B209475CD46DA4F94199","title":"微热山丘","lon":"121.488395","lat":"31.241212","category":"500","category_name":"未知分类","address":"上海市 园明园路133号"},{"poiid":"B2094753DA6AA1FC4499","title":"热带风暴水上乐园","lon":"121.48703","lat":"31.242942","category":"500","category_name":"未知分类","address":"上海市 上海市七宝新镇路78号（近顾戴路口）"},{"poiid":"B2094655D26DA4F84593","title":"华德大楼","lon":"121.48618","lat":"31.24282","category":"47","category_name":"住宅区","address":""},{"poiid":"B2094757D06AABF8489F","title":"阿迪达斯(春天百货店)","lon":"121.48672","lat":"31.24234","category":"140","category_name":"体育用品店","address":"上海虹口区四川北路521号春天百货(近武昌路)  "},{"poiid":"B2094757D068A7FB4998","title":"协进大楼","lon":"121.488130726","lat":"31.2416575359","category":"260","category_name":"其他","address":"上海圆明园路169号 近北京东路"},{"poiid":"B2094757D06FA7F84399","title":"上海外滩美术馆","lon":"121.487291","lat":"31.242912","category":"184","category_name":"美术馆","address":"黄浦区虎丘路20号(近北京东路)"},{"poiid":"B2094757D06EAAF8499F","title":"上海半岛酒店(The Peninsula,Shanghai)","lon":"121.48871485643679","lat":"31.24126498713522","category":"213","category_name":"五星级宾馆","address":"黄浦区中山东一路32号(近北京东路)"},{"poiid":"B2094757D06FA2F8489D","title":"外滩源","lon":"121.488115","lat":"31.241531","category":"260","category_name":"其他","address":"上海黄浦区中山东一路33号"},{"poiid":"B209475CD564A7F84292","title":"上海滩新天地店","lon":"121.47463","lat":"31.22164","category":"119","category_name":"商场","address":"\"太仓路181弄新天地北里15号\r\n\""},{"poiid":"B209475CD564A7F84392","title":"上海滩浦东香格里拉店","lon":"121.50058","lat":"31.23634","category":"119","category_name":"商场","address":"浦东富成路33号香格里拉酒店内大堂层"},{"poiid":"B2094757D06AA2FA4392","title":"香港路","lon":"121.485499","lat":"31.242465","category":"500","category_name":"未知分类","address":"上海香港路"},{"poiid":"B2094757D06FA0FE409C","title":"风波庄(黄浦店)","lon":"121.4865","lat":"31.24275","category":"260","category_name":"其他","address":"黄浦区四川中路670号(近南苏州路)"},{"poiid":"B2094757D06FA2F44099","title":"绿雅酒家","lon":"121.48623","lat":"31.23976","category":"76","category_name":"上海菜","address":"上海黄浦区江西中路372号(近宁波路)  "},{"poiid":"B2094757D569A3F94293","title":"洛克外滩源","lon":"121.48763672","lat":"31.24269775","category":"46","category_name":"楼宇","address":"黄浦苏州河和黄浦江交汇处(上海外滩源头)"},{"poiid":"B2094757D068A0FA489A","title":"圆明园路","lon":"121.488092512","lat":"31.2420983627","category":"260","category_name":"其他","address":"上海黄浦区圆明园路"},{"poiid":"B2094757DB6CA6FD419A","title":"Cuvve","lon":"121.485513","lat":"31.240501","category":"248","category_name":"生活娱乐","address":"外灘十八號"},{"poiid":"B2094757DB68A5F44399","title":"慧公馆 外滩源店 Maison De L'Hui-waitanyuan","lon":"121.48823","lat":"31.24116","category":"72","category_name":"广东菜","address":"黄浦区圆明园路97号安培大楼3-4楼(近外白渡桥)"},{"poiid":"B2094654DB6BABFD479B","title":"明堂上海旅行者青年旅舍","lon":"121.48529","lat":"31.24161","category":"218","category_name":"青年旅舍","address":"黄浦区江西中路450号(近北京东路)"},{"poiid":"B2094750D165A0FC469E","title":"8 1/2 Otto e Mezzo BOMBANA","lon":"121.488143","lat":"31.242341","category":"94","category_name":"西餐厅","address":"黄浦区圆明园路169号协进大楼6-7楼(近虎丘路)"},{"poiid":"B2094753D26AA3F94493","title":"THE LITTLE BLACK JACKET摄影展","lon":"121.487498","lat":"31.241128","category":"183","category_name":"展览馆","address":"上海市 虎丘路14号中实大楼 洛克•外滩源"},{"poiid":"B2094757DB6FA0FA4298","title":"益丰外滩源","lon":"121.484644","lat":"31.242458","category":"637","category_name":"房地产类公司","address":"黄浦区北京东路31-91号(近圆明园路)"},{"poiid":"B2094654DB69A4FE439E","title":"莫泰168连锁旅店(外滩店)","lon":"121.48634","lat":"31.23979","category":"216","category_name":"经济型连锁酒店","address":"上海黄浦区宁波路50号（近江西中路口）"},{"poiid":"B2094751D364A7FA419F","title":"星巴克外滩店","lon":"121.485804","lat":"31.242252","category":"247","category_name":"餐饮美食","address":"外滩"},{"poiid":"B2094654DA6FA2F84799","title":"春申江大厦","lon":"121.485","lat":"31.2422","category":"46","category_name":"楼宇","address":"上海市黄浦区浙江中路400号"},{"poiid":"B2094750D26EA2FA419A","title":"辉哥火锅圆明园路店","lon":"121.488487","lat":"31.241041","category":"86","category_name":"火锅店","address":"黄浦区圆明园路115号洛克外滩源(近北京东路)"},{"poiid":"B2094757D568A5FA4798","title":"锦江之星旅馆(上海外滩滨江店)","lon":"121.486266999998","lat":"31.2424470000003","category":"216","category_name":"经济型连锁酒店","address":"上海市黄浦区四川中路630号(近香港路口)"},{"poiid":"B2094757DA65A5F4439E","title":"锦江之星（上海外滩滨江店）","lon":"121.486291","lat":"31.242547","category":"216","category_name":"经济型连锁酒店","address":"黄浦区四川中路630号(香港路口)"},{"poiid":"B2094757D06AA3F4419E","title":"豪享来上海四川中路店","lon":"121.4872","lat":"31.2407","category":"247","category_name":"餐饮美食","address":"上海市黄浦区四川中路470号"},{"poiid":"B209475DD664A4FF439E","title":"Light＆salt","lon":"121.488258","lat":"31.24172","category":"247","category_name":"餐饮美食","address":"上海市 黄浦区圆明园路133号6楼"},{"poiid":"B2094654DA6FA4F4419A","title":"浦光中学","lon":"121.4862","lat":"31.24195","category":"55","category_name":"中学","address":"上海黄浦区四川中路599号(近河南拉面馆)"},{"poiid":"B2094757D065AAFD4898","title":"四川路桥","lon":"121.485728262","lat":"31.2440280796","category":"234","category_name":"海滨浴场","address":"上海四川北路四川中路交界(苏州河上)"},{"poiid":"B2094654DA6FA4FF459D","title":"宝龙大酒楼","lon":"121.48596793288","lat":"31.240782833756","category":"72","category_name":"广东菜","address":"黄浦区北京东路230号(近河南中路)"},{"poiid":"B2094655D26BA2FB4993","title":"四川中路香港路","lon":"121.48635","lat":"31.24187","category":"38","category_name":"公交车站","address":"上海市闸北区北苏州路"},{"poiid":"B2094757D66AA4FE459E","title":"凯恩酒家","lon":"121.48556141797","lat":"31.242659854707","category":"76","category_name":"上海菜","address":"黄浦区香港路123号(近四川中路)"},{"poiid":"B2094757D069A0FE4599","title":"三林塘馄饨店","lon":"121.48568504662","lat":"31.240624646304","category":"68","category_name":"快餐厅","address":"黄浦区江西中路416号(北京东路口)"},{"poiid":"B2094757D068A4F8469A","title":"新亚大酒店宴会厅","lon":"121.48532","lat":"31.24434","category":"217","category_name":"旅馆招待所","address":"上海虹口区天潼路422号(近四川北路)  "},{"poiid":"B2094757D764A5F8489D","title":"外滩美术馆咖啡厅 RAM CAFE","lon":"121.48739","lat":"31.24281","category":"260","category_name":"其他","address":"黄浦区虎丘路20号外滩美术馆内(近外滩)"},{"poiid":"B2094654DB6BABFD469E","title":"上海工商学院(香港路)","lon":"121.48683","lat":"31.2426","category":"52","category_name":"高等院校","address":"黄浦区香港路59号"},{"poiid":"B2094752D668A3F8459A","title":"Shanghai Rose","lon":"121.48865","lat":"31.243312","category":"248","category_name":"生活娱乐","address":"南苏州路1号"},{"poiid":"B2094654DA6FA0FB469F","title":"汇金大厦","lon":"121.48732391965","lat":"31.240035306526","category":"46","category_name":"楼宇","address":"丰台学城海鹰路1号,3号"},{"poiid":"B2094655D26BA6F8489F","title":"银行公会大楼","lon":"121.48683","lat":"31.24261","category":"46","category_name":"楼宇","address":"香港路59号"},{"poiid":"B2094757D168A2FE489D","title":"海上荟","lon":"121.484368738","lat":"31.2424785612","category":"76","category_name":"上海菜","address":"黄浦区江西中路371号(近北京东路)"},{"poiid":"B2094757D16EA4F4429A","title":"乍浦路桥","lon":"121.48704681","lat":"31.244327775","category":"234","category_name":"海滨浴场","address":"上海乍浦路苏州河"},{"poiid":"B2094655D36CA5F5419D","title":"北京东路四川中路","lon":"121.48625","lat":"31.24066","category":"38","category_name":"公交车站","address":"上海北京东路四川中路"},{"poiid":"B209475CDB6AA7F9419B","title":"上海汉庭快捷酒店(四川中路店)","lon":"121.486281","lat":"31.242055","category":"216","category_name":"经济型连锁酒店","address":"上海市黄浦区四川中路607号"},{"poiid":"B2094654DA6FABFC439D","title":"凯恩宾馆商务楼","lon":"121.48567","lat":"31.24248","category":"46","category_name":"楼宇","address":"香港路117"},{"poiid":"B2094654DA6FABFD419A","title":"虎丘小区","lon":"121.48692","lat":"31.24226","category":"47","category_name":"住宅区","address":"虎丘路81弄"},{"poiid":"B2094654DA6FABFC479F","title":"佳利商务楼","lon":"121.48616","lat":"31.24296","category":"46","category_name":"楼宇","address":"四川中路668"},{"poiid":"B2094655D268ABFE409B","title":"同欣大楼","lon":"121.48715","lat":"31.24269","category":"46","category_name":"楼宇","address":"黄浦区香港路55号"},{"poiid":"B2094654DA6FABFC479A","title":"浙江大学上海办事处","lon":"121.48615","lat":"31.24297","category":"52","category_name":"高等院校","address":"四川中路668号佳利商务楼9层"},{"poiid":"B209475CD46DA4F94199","title":"微热山丘","lon":"121.488395","lat":"31.241212","category":"500","category_name":"未知分类","address":"上海市 园明园路133号"},{"poiid":"B2094753DA6AA1FC4499","title":"热带风暴水上乐园","lon":"121.48703","lat":"31.242942","category":"500","category_name":"未知分类","address":"上海市 上海市七宝新镇路78号（近顾戴路口）"},{"poiid":"B2094655D26DA4F84593","title":"华德大楼","lon":"121.48618","lat":"31.24282","category":"47","category_name":"住宅区","address":""},{"poiid":"B2094757D06AABF8489F","title":"阿迪达斯(春天百货店)","lon":"121.48672","lat":"31.24234","category":"140","category_name":"体育用品店","address":"上海虹口区四川北路521号春天百货(近武昌路)  "},{"poiid":"B2094757D068A7FB4998","title":"协进大楼","lon":"121.488130726","lat":"31.2416575359","category":"260","category_name":"其他","address":"上海圆明园路169号 近北京东路"},{"poiid":"B2094757D06FA7F84399","title":"上海外滩美术馆","lon":"121.487291","lat":"31.242912","category":"184","category_name":"美术馆","address":"黄浦区虎丘路20号(近北京东路)"},{"poiid":"B2094757D06EAAF8499F","title":"上海半岛酒店(The Peninsula,Shanghai)","lon":"121.48871485643679","lat":"31.24126498713522","category":"213","category_name":"五星级宾馆","address":"黄浦区中山东一路32号(近北京东路)"},{"poiid":"B2094757D06FA2F8489D","title":"外滩源","lon":"121.488115","lat":"31.241531","category":"260","category_name":"其他","address":"上海黄浦区中山东一路33号"},{"poiid":"B209475CD564A7F84292","title":"上海滩新天地店","lon":"121.47463","lat":"31.22164","category":"119","category_name":"商场","address":"\"太仓路181弄新天地北里15号\r\n\""},{"poiid":"B209475CD564A7F84392","title":"上海滩浦东香格里拉店","lon":"121.50058","lat":"31.23634","category":"119","category_name":"商场","address":"浦东富成路33号香格里拉酒店内大堂层"},{"poiid":"B2094757D06AA2FA4392","title":"香港路","lon":"121.485499","lat":"31.242465","category":"500","category_name":"未知分类","address":"上海香港路"},{"poiid":"B2094757D06FA0FE409C","title":"风波庄(黄浦店)","lon":"121.4865","lat":"31.24275","category":"260","category_name":"其他","address":"黄浦区四川中路670号(近南苏州路)"},{"poiid":"B2094757D06FA2F44099","title":"绿雅酒家","lon":"121.48623","lat":"31.23976","category":"76","category_name":"上海菜","address":"上海黄浦区江西中路372号(近宁波路)  "},{"poiid":"B2094757D569A3F94293","title":"洛克外滩源","lon":"121.48763672","lat":"31.24269775","category":"46","category_name":"楼宇","address":"黄浦苏州河和黄浦江交汇处(上海外滩源头)"},{"poiid":"B2094757D068A0FA489A","title":"圆明园路","lon":"121.488092512","lat":"31.2420983627","category":"260","category_name":"其他","address":"上海黄浦区圆明园路"},{"poiid":"B2094757DB6CA6FD419A","title":"Cuvve","lon":"121.485513","lat":"31.240501","category":"248","category_name":"生活娱乐","address":"外灘十八號"},{"poiid":"B2094757DB68A5F44399","title":"慧公馆 外滩源店 Maison De L'Hui-waitanyuan","lon":"121.48823","lat":"31.24116","category":"72","category_name":"广东菜","address":"黄浦区圆明园路97号安培大楼3-4楼(近外白渡桥)"},{"poiid":"B2094654DB6BABFD479B","title":"明堂上海旅行者青年旅舍","lon":"121.48529","lat":"31.24161","category":"218","category_name":"青年旅舍","address":"黄浦区江西中路450号(近北京东路)"},{"poiid":"B2094750D165A0FC469E","title":"8 1/2 Otto e Mezzo BOMBANA","lon":"121.488143","lat":"31.242341","category":"94","category_name":"西餐厅","address":"黄浦区圆明园路169号协进大楼6-7楼(近虎丘路)"},{"poiid":"B2094753D26AA3F94493","title":"THE LITTLE BLACK JACKET摄影展","lon":"121.487498","lat":"31.241128","category":"183","category_name":"展览馆","address":"上海市 虎丘路14号中实大楼 洛克•外滩源"},{"poiid":"B2094757DB6FA0FA4298","title":"益丰外滩源","lon":"121.484644","lat":"31.242458","category":"637","category_name":"房地产类公司","address":"黄浦区北京东路31-91号(近圆明园路)"},{"poiid":"B2094654DB69A4FE439E","title":"莫泰168连锁旅店(外滩店)","lon":"121.48634","lat":"31.23979","category":"216","category_name":"经济型连锁酒店","address":"上海黄浦区宁波路50号（近江西中路口）"},{"poiid":"B2094751D364A7FA419F","title":"星巴克外滩店","lon":"121.485804","lat":"31.242252","category":"247","category_name":"餐饮美食","address":"外滩"},{"poiid":"B2094654DA6FA2F84799","title":"春申江大厦","lon":"121.485","lat":"31.2422","category":"46","category_name":"楼宇","address":"上海市黄浦区浙江中路400号"},{"poiid":"B2094750D26EA2FA419A","title":"辉哥火锅圆明园路店","lon":"121.488487","lat":"31.241041","category":"86","category_name":"火锅店","address":"黄浦区圆明园路115号洛克外滩源(近北京东路)"},{"poiid":"B2094757D568A5FA4798","title":"锦江之星旅馆(上海外滩滨江店)","lon":"121.486266999998","lat":"31.2424470000003","category":"216","category_name":"经济型连锁酒店","address":"上海市黄浦区四川中路630号(近香港路口)"},{"poiid":"B2094757DA65A5F4439E","title":"锦江之星（上海外滩滨江店）","lon":"121.486291","lat":"31.242547","category":"216","category_name":"经济型连锁酒店","address":"黄浦区四川中路630号(香港路口)"},{"poiid":"B2094757D06AA3F4419E","title":"豪享来上海四川中路店","lon":"121.4872","lat":"31.2407","category":"247","category_name":"餐饮美食","address":"上海市黄浦区四川中路470号"},{"poiid":"B209475DD664A4FF439E","title":"Light＆salt","lon":"121.488258","lat":"31.24172","category":"247","category_name":"餐饮美食","address":"上海市 黄浦区圆明园路133号6楼"},{"poiid":"B2094654DA6FA4F4419A","title":"浦光中学","lon":"121.4862","lat":"31.24195","category":"55","category_name":"中学","address":"上海黄浦区四川中路599号(近河南拉面馆)"},{"poiid":"B2094757D065AAFD4898","title":"四川路桥","lon":"121.485728262","lat":"31.2440280796","category":"234","category_name":"海滨浴场","address":"上海四川北路四川中路交界(苏州河上)"},{"poiid":"B2094654DA6FA4FF459D","title":"宝龙大酒楼","lon":"121.48596793288","lat":"31.240782833756","category":"72","category_name":"广东菜","address":"黄浦区北京东路230号(近河南中路)"},{"poiid":"B2094655D26BA2FB4993","title":"四川中路香港路","lon":"121.48635","lat":"31.24187","category":"38","category_name":"公交车站","address":"上海市闸北区北苏州路"},{"poiid":"B2094757D66AA4FE459E","title":"凯恩酒家","lon":"121.48556141797","lat":"31.242659854707","category":"76","category_name":"上海菜","address":"黄浦区香港路123号(近四川中路)"},{"poiid":"B2094757D069A0FE4599","title":"三林塘馄饨店","lon":"121.48568504662","lat":"31.240624646304","category":"68","category_name":"快餐厅","address":"黄浦区江西中路416号(北京东路口)"},{"poiid":"B2094757D068A4F8469A","title":"新亚大酒店宴会厅","lon":"121.48532","lat":"31.24434","category":"217","category_name":"旅馆招待所","address":"上海虹口区天潼路422号(近四川北路)  "},{"poiid":"B2094757D764A5F8489D","title":"外滩美术馆咖啡厅 RAM CAFE","lon":"121.48739","lat":"31.24281","category":"260","category_name":"其他","address":"黄浦区虎丘路20号外滩美术馆内(近外滩)"},{"poiid":"B2094654DB6BABFD469E","title":"上海工商学院(香港路)","lon":"121.48683","lat":"31.2426","category":"52","category_name":"高等院校","address":"黄浦区香港路59号"},{"poiid":"B2094752D668A3F8459A","title":"Shanghai Rose","lon":"121.48865","lat":"31.243312","category":"248","category_name":"生活娱乐","address":"南苏州路1号"},{"poiid":"B2094654DA6FA0FB469F","title":"汇金大厦","lon":"121.48732391965","lat":"31.240035306526","category":"46","category_name":"楼宇","address":"丰台学城海鹰路1号,3号"},{"poiid":"B2094655D26BA6F8489F","title":"银行公会大楼","lon":"121.48683","lat":"31.24261","category":"46","category_name":"楼宇","address":"香港路59号"},{"poiid":"B2094757D168A2FE489D","title":"海上荟","lon":"121.484368738","lat":"31.2424785612","category":"76","category_name":"上海菜","address":"黄浦区江西中路371号(近北京东路)"},{"poiid":"B2094757D16EA4F4429A","title":"乍浦路桥","lon":"121.48704681","lat":"31.244327775","category":"234","category_name":"海滨浴场","address":"上海乍浦路苏州河"},{"poiid":"B2094655D36CA5F5419D","title":"北京东路四川中路","lon":"121.48625","lat":"31.24066","category":"38","category_name":"公交车站","address":"上海北京东路四川中路"},{"poiid":"B209475CDB6AA7F9419B","title":"上海汉庭快捷酒店(四川中路店)","lon":"121.486281","lat":"31.242055","category":"216","category_name":"经济型连锁酒店","address":"上海市黄浦区四川中路607号"},{"poiid":"B2094654DA6FABFC439D","title":"凯恩宾馆商务楼","lon":"121.48567","lat":"31.24248","category":"46","category_name":"楼宇","address":"香港路117"},{"poiid":"B2094654DA6FABFD419A","title":"虎丘小区","lon":"121.48692","lat":"31.24226","category":"47","category_name":"住宅区","address":"虎丘路81弄"},{"poiid":"B2094654DA6FABFC479F","title":"佳利商务楼","lon":"121.48616","lat":"31.24296","category":"46","category_name":"楼宇","address":"四川中路668"},{"poiid":"B2094655D268ABFE409B","title":"同欣大楼","lon":"121.48715","lat":"31.24269","category":"46","category_name":"楼宇","address":"黄浦区香港路55号"},{"poiid":"B2094654DA6FABFC479A","title":"浙江大学上海办事处","lon":"121.48615","lat":"31.24297","category":"52","category_name":"高等院校","address":"四川中路668号佳利商务楼9层"},{"poiid":"B209475CD46DA4F94199","title":"微热山丘","lon":"121.488395","lat":"31.241212","category":"500","category_name":"未知分类","address":"上海市 园明园路133号"},{"poiid":"B2094753DA6AA1FC4499","title":"热带风暴水上乐园","lon":"121.48703","lat":"31.242942","category":"500","category_name":"未知分类","address":"上海市 上海市七宝新镇路78号（近顾戴路口）"},{"poiid":"B2094655D26DA4F84593","title":"华德大楼","lon":"121.48618","lat":"31.24282","category":"47","category_name":"住宅区","address":""},{"poiid":"B2094757D06AABF8489F","title":"阿迪达斯(春天百货店)","lon":"121.48672","lat":"31.24234","category":"140","category_name":"体育用品店","address":"上海虹口区四川北路521号春天百货(近武昌路)  "},{"poiid":"B2094757D068A7FB4998","title":"协进大楼","lon":"121.488130726","lat":"31.2416575359","category":"260","category_name":"其他","address":"上海圆明园路169号 近北京东路"}]