[{"poiid":"B2094750D66FA4F44999","title":"上海浦东四季酒店","lon":"121.509437","lat":"31.233774","category":"252","category_name":"楼宇机构","address":"世纪大道210号"},{"poiid":"B2094757D06FA7F84593","title":"黔香阁(浦东店)","lon":"121.51129","lat":"31.22987","category":"83","category_name":"云贵菜","address":"浦东新区浦城路171号(近商城路)"},{"poiid":"B2094757D06BA4F5429A","title":"环球金融中心100层观光厅","lon":"121.512176738","lat":"31.2328213553","category":"500","category_name":"未知分类","address":"上海市浦东新区陆家嘴东路"},{"poiid":"B209475CD564A7F84392","title":"上海滩浦东香格里拉店","lon":"121.50058","lat":"31.23634","category":"119","category_name":"商场","address":"浦东富成路33号香格里拉酒店内大堂层"},{"poiid":"B2094654DA6EABFF439B","title":"久事大厦","lon":"121.507","lat":"31.2307","category":"46","category_name":"楼宇","address":"上海市黄浦区中山南路28号"},{"poiid":"B2094757D06FA7FC4799","title":"环球金融中心92楼柏悦酒店Bar","lon":"121.51080173","lat":"31.234288386","category":"217","category_name":"旅馆招待所","address":"上海市浦东新区陆家嘴东路"},{"poiid":"B2094757D16FA0FC4699","title":"环球金融中心 DADA Hair SaIon","lon":"121.50961873","lat":"31.234726395","category":"500","category_name":"未知分类","address":"上海市浦东新区陆家嘴东路"},{"poiid":"B2094757D068A2FB4693","title":"世纪100餐厅 100Century Avenue","lon":"121.507588054","lat":"31.235582793","category":"76","category_name":"上海菜","address":"浦东新区世纪大道100号环球金融中心上海柏悦酒店91-93楼(近东泰路)"},{"poiid":"B2094757D465A0F44699","title":"尼藏花园餐厅酒吧 Nizang Himalaya","lon":"121.51071683753","lat":"31.232122106704","category":"110","category_name":"其他亚洲菜","address":"浦东新区东昌路498号东园一村内(近浦东南路)"},{"poiid":"B2094750DB6BAAFD4799","title":"一风堂","lon":"121.509391","lat":"31.233442","category":"247","category_name":"餐饮美食","address":"浦东新区世纪大道8号国金中心LG1-79-80号(近正大广场)"},{"poiid":"B2094750D56DA2FB4098","title":"浦东四季酒店Camelia餐厅","lon":"121.5101528358764","lat":"31.234307759796852","category":"94","category_name":"西餐厅","address":"浦东新区世纪大道210号上海浦东四季酒店1楼(近浦成路)"},{"poiid":"B2094757D068A5F8439A","title":"商城路","lon":"121.51235199","lat":"31.2294406891","category":"260","category_name":"其他","address":"上海商城路"},{"poiid":"B2094655D26FA6F54399","title":"仁恒滨江园","lon":"121.50861","lat":"31.23017","category":"47","category_name":"住宅区","address":"浦城路99弄"},{"poiid":"B2094757D068A0FA409A","title":"Living Room","lon":"121.51033273","lat":"31.233739374","category":"260","category_name":"其他","address":"浦东新区世纪大道100号环球金融中心上海柏悦酒店87楼(近东泰路)"},{"poiid":"B2094752D16CAAFD489B","title":"Brotzeit 博璨摩登德国啤酒餐厅","lon":"121.509171","lat":"31.234161","category":"247","category_name":"餐饮美食","address":"世纪大道100号环球金融中心2楼"},{"poiid":"B2094757D06FA5FA459B","title":"上海新东方学校(陆家嘴校区)","lon":"121.51188","lat":"31.22923","category":"253","category_name":"校园生活","address":"浦东新区浦城路190号(商城路路口)"},{"poiid":"B2094757D068A4F4489F","title":"4号线世纪大道站","lon":"121.51115343","lat":"31.233440868","category":"36","category_name":"地铁站","address":"上海世纪大道站"},{"poiid":"B2094757D06FA0FF489D","title":"人民路隧道","lon":"121.50976562","lat":"31.232780456","category":"47","category_name":"住宅区","address":"上海黄浦区人民路-浦东新区东昌路"},{"poiid":"B2094757D16CABFA409E","title":"轨道交通2号线(陆家嘴)","lon":"121.512001738","lat":"31.2323463452","category":"500","category_name":"未知分类","address":"上海陆家嘴"},{"poiid":"B2094655D36CA1FD429C","title":"十六铺","lon":"121.507","lat":"31.2305","category":"38","category_name":"公交车站","address":"中山东二路88弄"},{"poiid":"B209475CDA64A2F9459A","title":"翠華餐廳","lon":"121.509361","lat":"31.233362","category":"500","category_name":"未知分类","address":"上海市 浦東世紀大道8号國金中心"},{"poiid":"B2094757D66FA6FE4999","title":"星巴克 STARBUCKS (浦发大厦店)","lon":"121.510271838","lat":"31.2337665755","category":"260","category_name":"其他","address":"浦东新区浦东南路588号浦发大厦1楼(近世纪大道)"},{"poiid":"B2094757D068A2FD449A","title":"卡玛生活瑜伽会馆","lon":"121.51181","lat":"31.22961","category":"148","category_name":"美容美发店","address":"浦东新区浦城路172号3-4楼(近商城路)"},{"poiid":"B2094752DB6BA7F54698","title":"王鼎.玉食","lon":"121.512244","lat":"31.23297","category":"500","category_name":"未知分类","address":"上海市 商城路665号"},{"poiid":"B2094751D56FA7FE449C","title":"Ashley Steak","lon":"121.512278","lat":"31.230046","category":"247","category_name":"餐饮美食","address":"上海八佰伴9F"},{"poiid":"B2094654DB6BAAF5429E","title":"陆家嘴图书馆","lon":"121.5111","lat":"31.23073","category":"181","category_name":"图书馆","address":"浦东新区浦城路150号(浦城路商城路)"},{"poiid":"B2094757D06BAAFE4893","title":"21世纪大厦","lon":"121.50967136","lat":"31.234596161","category":"252","category_name":"楼宇机构","address":"上海世纪大道210号"},{"poiid":"B2094752D768A4FC489E","title":"cafe lugo八佰伴店","lon":"121.50869","lat":"31.230443","category":"247","category_name":"餐饮美食","address":"上海市浦东新区张杨路1333号八佰伴三楼"},{"poiid":"B2094757D064A6FD4893","title":"法拉利玛莎拉蒂上海","lon":"121.51089973","lat":"31.233486369","category":"500","category_name":"未知分类","address":"上海世纪大道210号"},{"poiid":"B2094757D469A3F44699","title":"和兴湘菜 东昌路店","lon":"121.5094898","lat":"31.2317688","category":"77","category_name":"湖南菜","address":"浦东新区东昌路435号(近浦东南路)"},{"poiid":"B2094654DA69A6FD4292","title":"古都梅盲人保健按摩","lon":"121.51275","lat":"31.23296","category":"149","category_name":"洗浴推拿场所","address":"东昌路565"},{"poiid":"B2094750D669A2FC439F","title":"世纪100酒吧","lon":"121.508346","lat":"31.234354","category":"260","category_name":"其他","address":"浦东新区世纪大道100号环球金融中心上海柏悦酒店92楼(近东泰路)"},{"poiid":"B2094757D165A5FF4398","title":"宾家国际青年旅舍","lon":"121.5121","lat":"31.232","category":"216","category_name":"经济型连锁酒店","address":"上海浦东新区东昌路490弄东园二村210号(近浦东南路)  "},{"poiid":"B2094750D76EA7F8489B","title":"西安印象肉夹馍名小吃(东昌路店)","lon":"121.511","lat":"31.2324","category":"68","category_name":"快餐厅","address":"浦东新区东昌路511号(近浦东南路)"},{"poiid":"B2094757D069A5F84392","title":"安永华明会计师事务所上海分所","lon":"121.50769602","lat":"31.232077909","category":"46","category_name":"楼宇","address":"上海世纪大道100号环球金融中心50楼"},{"poiid":"B2094757D06BABF4419F","title":"Coco都可茶饮　东昌路店","lon":"121.51151373","lat":"31.232043338","category":"113","category_name":"冷饮店","address":"浦东新区东昌路508-1号(浦东南路浦城路间)"},{"poiid":"B2094655D26DA4F9489A","title":"重庆鸡公煲碳烤鱼东昌店","lon":"121.51134","lat":"31.23213","category":"71","category_name":"四川菜","address":"浦东新区东昌路462号(近浦城路)"},{"poiid":"B2094757D16FAAFF4298","title":"四川江湖菜馆 东昌路店","lon":"121.511340054","lat":"31.232892793","category":"71","category_name":"四川菜","address":"浦东新区东昌路507号(近浦东南路)"},{"poiid":"B2094654DB6AA3FE409C","title":"卡西巴 浦城店 La Casbah","lon":"121.51176645063","lat":"31.230116732362","category":"247","category_name":"餐饮美食","address":"浦东新区浦城路172号(近商城路)"},{"poiid":"B2094655D265A7FA469B","title":"东安大楼","lon":"121.5114","lat":"31.23031","category":"46","category_name":"楼宇","address":"东安大楼位于浦东上海浦东东园四村439号"},{"poiid":"B2094654DB69A5FF429F","title":"莫泰168连锁旅店(商城路店)","lon":"121.51207","lat":"31.22941","category":"216","category_name":"经济型连锁酒店","address":"上海市浦东新区商城路365号（近浦东南路）"},{"poiid":"B2094655D26EA5F54692","title":"99西餐厅","lon":"121.51096296011","lat":"31.230585486351","category":"94","category_name":"西餐厅","address":"浦城路99弄16号仁恒滨江园三期会所东昌路商城路间"},{"poiid":"B2094757D169A7FD4393","title":"橙祥烧腊餐厅","lon":"121.507852738","lat":"31.2324276469","category":"72","category_name":"广东菜","address":"浦东新区东昌路453号(近浦东南路)"},{"poiid":"B2094757D069A1F54199","title":"浦东新区陆家嘴图书馆(第二分部)","lon":"121.51166","lat":"31.22988","category":"181","category_name":"图书馆","address":"上海浦东新区浦城路150号"},{"poiid":"B2094757D165A4F9449C","title":"南洋商业银行","lon":"121.51000173","lat":"31.232407346","category":"150","category_name":"银行","address":"上海市浦东新区世纪大道"},{"poiid":"B2094757D06BA6FA469D","title":"巴黎贝甜(商城路店)","lon":"121.511","lat":"31.22885","category":"67","category_name":"甜品店","address":"浦东新区商城路297号申金大厦1楼商铺C区(近浦城路)"},{"poiid":"B2094757D168A7F54592","title":"大唐盲人按摩中心","lon":"121.51137","lat":"31.22904","category":"149","category_name":"洗浴推拿场所","address":"上海浦东新区商城路339号(近浦城路)  "},{"poiid":"B2094757DA65A7FA4699","title":"The Westin bind center Shanghai","lon":"121.5106414414889","lat":"31.22919482826353","category":"247","category_name":"餐饮美食","address":"上海市河南中路88号"},{"poiid":"B2094654DA69A6FC4893","title":"克丽缇娜东昌路店","lon":"121.51076","lat":"31.23233","category":"148","category_name":"美容美发店","address":"浦东新区东昌路447号(近浦东南路)"},{"poiid":"B2094757D569A3FD4298","title":"东北水饺","lon":"121.5117561","lat":"31.232295","category":"82","category_name":"东北菜","address":"浦东新区浦城路88号(东昌路浦城路)"},{"poiid":"B2094750D66FA4F44999","title":"上海浦东四季酒店","lon":"121.509437","lat":"31.233774","category":"252","category_name":"楼宇机构","address":"世纪大道210号"},{"poiid":"B2094757D06FA7F84593","title":"黔香阁(浦东店)","lon":"121.51129","lat":"31.22987","category":"83","category_name":"云贵菜","address":"浦东新区浦城路171号(近商城路)"},{"poiid":"B2094757D06BA4F5429A","title":"环球金融中心100层观光厅","lon":"121.512176738","lat":"31.2328213553","category":"500","category_name":"未知分类","address":"上海市浦东新区陆家嘴东路"},{"poiid":"B209475CD564A7F84392","title":"上海滩浦东香格里拉店","lon":"121.50058","lat":"31.23634","category":"119","category_name":"商场","address":"浦东富成路33号香格里拉酒店内大堂层"},{"poiid":"B2094654DA6EABFF439B","title":"久事大厦","lon":"121.507","lat":"31.2307","category":"46","category_name":"楼宇","address":"上海市黄浦区中山南路28号"},{"poiid":"B2094757D06FA7FC4799","title":"环球金融中心92楼柏悦酒店Bar","lon":"121.51080173","lat":"31.234288386","category":"217","category_name":"旅馆招待所","address":"上海市浦东新区陆家嘴东路"},{"poiid":"B2094757D16FA0FC4699","title":"环球金融中心 DADA Hair SaIon","lon":"121.50961873","lat":"31.234726395","category":"500","category_name":"未知分类","address":"上海市浦东新区陆家嘴东路"},{"poiid":"B2094757D068A2FB4693","title":"世纪100餐厅 100Century Avenue","lon":"121.507588054","lat":"31.235582793","category":"76","category_name":"上海菜","address":"浦东新区世纪大道100号环球金融中心上海柏悦酒店91-93楼(近东泰路)"},{"poiid":"B2094757D465A0F44699","title":"尼藏花园餐厅酒吧 Nizang Himalaya","lon":"121.51071683753","lat":"31.232122106704","category":"110","category_name":"其他亚洲菜","address":"浦东新区东昌路498号东园一村内(近浦东南路)"},{"poiid":"B2094750DB6BAAFD4799","title":"一风堂","lon":"121.509391","lat":"31.233442","category":"247","category_name":"餐饮美食","address":"浦东新区世纪大道8号国金中心LG1-79-80号(近正大广场)"},{"poiid":"B2094750D56DA2FB4098","title":"浦东四季酒店Camelia餐厅","lon":"121.5101528358764","lat":"31.234307759796852","category":"94","category_name":"西餐厅","address":"浦东新区世纪大道210号上海浦东四季酒店1楼(近浦成路)"},{"poiid":"B2094757D068A5F8439A","title":"商城路","lon":"121.51235199","lat":"31.2294406891","category":"260","category_name":"其他","address":"上海商城路"},{"poiid":"B2094655D26FA6F54399","title":"仁恒滨江园","lon":"121.50861","lat":"31.23017","category":"47","category_name":"住宅区","address":"浦城路99弄"},{"poiid":"B2094757D068A0FA409A","title":"Living Room","lon":"121.51033273","lat":"31.233739374","category":"260","category_name":"其他","address":"浦东新区世纪大道100号环球金融中心上海柏悦酒店87楼(近东泰路)"},{"poiid":"B2094752D16CAAFD489B","title":"Brotzeit 博璨摩登德国啤酒餐厅","lon":"121.509171","lat":"31.234161","category":"247","category_name":"餐饮美食","address":"世纪大道100号环球金融中心2楼"},{"poiid":"B2094757D06FA5FA459B","title":"上海新东方学校(陆家嘴校区)","lon":"121.51188","lat":"31.22923","category":"253","category_name":"校园生活","address":"浦东新区浦城路190号(商城路路口)"},{"poiid":"B2094757D068A4F4489F","title":"4号线世纪大道站","lon":"121.51115343","lat":"31.233440868","category":"36","category_name":"地铁站","address":"上海世纪大道站"},{"poiid":"B2094757D06FA0FF489D","title":"人民路隧道","lon":"121.50976562","lat":"31.232780456","category":"47","category_name":"住宅区","address":"上海黄浦区人民路-浦东新区东昌路"},{"poiid":"B2094757D16CABFA409E","title":"轨道交通2号线(陆家嘴)","lon":"121.512001738","lat":"31.2323463452","category":"500","category_name":"未知分类","address":"上海陆家嘴"},{"poiid":"B2094655D36CA1FD429C","title":"十六铺","lon":"121.507","lat":"31.2305","category":"38","category_name":"公交车站","address":"中山东二路88弄"},{"poiid":"B209475CDA64A2F9459A","title":"翠華餐廳","lon":"121.509361","lat":"31.233362","category":"500","category_name":"未知分类","address":"上海市 浦東世紀大道8号國金中心"},{"poiid":"B2094757D66FA6FE4999","title":"星巴克 STARBUCKS (浦发大厦店)","lon":"121.510271838","lat":"31.2337665755","category":"260","category_name":"其他","address":"浦东新区浦东南路588号浦发大厦1楼(近世纪大道)"},{"poiid":"B2094757D068A2FD449A","title":"卡玛生活瑜伽会馆","lon":"121.51181","lat":"31.22961","category":"148","category_name":"美容美发店","address":"浦东新区浦城路172号3-4楼(近商城路)"},{"poiid":"B2094752DB6BA7F54698","title":"王鼎.玉食","lon":"121.512244","lat":"31.23297","category":"500","category_name":"未知分类","address":"上海市 商城路665号"},{"poiid":"B2094751D56FA7FE449C","title":"Ashley Steak","lon":"121.512278","lat":"31.230046","category":"247","category_name":"餐饮美食","address":"上海八佰伴9F"},{"poiid":"B2094654DB6BAAF5429E","title":"陆家嘴图书馆","lon":"121.5111","lat":"31.23073","category":"181","category_name":"图书馆","address":"浦东新区浦城路150号(浦城路商城路)"},{"poiid":"B2094757D06BAAFE4893","title":"21世纪大厦","lon":"121.50967136","lat":"31.234596161","category":"252","category_name":"楼宇机构","address":"上海世纪大道210号"},{"poiid":"B2094752D768A4FC489E","title":"cafe lugo八佰伴店","lon":"121.50869","lat":"31.230443","category":"247","category_name":"餐饮美食","address":"上海市浦东新区张杨路1333号八佰伴三楼"},{"poiid":"B2094757D064A6FD4893","title":"法拉利玛莎拉蒂上海","lon":"121.51089973","lat":"31.233486369","category":"500","category_name":"未知分类","address":"上海世纪大道210号"},{"poiid":"B2094757D469A3F44699","title":"和兴湘菜 东昌路店","lon":"121.5094898","lat":"31.2317688","category":"77","category_name":"湖南菜","address":"浦东新区东昌路435号(近浦东南路)"},{"poiid":"B2094654DA69A6FD4292","title":"古都梅盲人保健按摩","lon":"121.51275","lat":"31.23296","category":"149","category_name":"洗浴推拿场所","address":"东昌路565"},{"poiid":"B2094750D669A2FC439F","title":"世纪100酒吧","lon":"121.508346","lat":"31.234354","category":"260","category_name":"其他","address":"浦东新区世纪大道100号环球金融中心上海柏悦酒店92楼(近东泰路)"},{"poiid":"B2094757D165A5FF4398","title":"宾家国际青年旅舍","lon":"121.5121","lat":"31.232","category":"216","category_name":"经济型连锁酒店","address":"上海浦东新区东昌路490弄东园二村210号(近浦东南路)  "},{"poiid":"B2094750D76EA7F8489B","title":"西安印象肉夹馍名小吃(东昌路店)","lon":"121.511","lat":"31.2324","category":"68","category_name":"快餐厅","address":"浦东新区东昌路511号(近浦东南路)"},{"poiid":"B2094757D069A5F84392","title":"安永华明会计师事务所上海分所","lon":"121.50769602","lat":"31.232077909","category":"46","category_name":"楼宇","address":"上海世纪大道100号环球金融中心50楼"},{"poiid":"B2094757D06BABF4419F","title":"Coco都可茶饮　东昌路店","lon":"121.51151373","lat":"31.232043338","category":"113","category_name":"冷饮店","address":"浦东新区东昌路508-1号(浦东南路浦城路间)"},{"poiid":"B2094655D26DA4F9489A","title":"重庆鸡公煲碳烤鱼东昌店","lon":"121.51134","lat":"31.23213","category":"71","category_name":"四川菜","address":"浦东新区东昌路462号(近浦城路)"},{"poiid":"B2094757D16FAAFF4298","title":"四川江湖菜馆 东昌路店","lon":"121.511340054","lat":"31.232892793","category":"71","category_name":"四川菜","address":"浦东新区东昌路507号(近浦东南路)"},{"poiid":"B2094654DB6AA3FE409C","title":"卡西巴 浦城店 La Casbah","lon":"121.51176645063","lat":"31.230116732362","category":"247","category_name":"餐饮美食","address":"浦东新区浦城路172号(近商城路)"},{"poiid":"B2094655D265A7FA469B","title":"东安大楼","lon":"121.5114","lat":"31.23031","category":"46","category_name":"楼宇","address":"东安大楼位于浦东上海浦东东园四村439号"},{"poiid":"B2094654DB69A5FF429F","title":"莫泰168连锁旅店(商城路店)","lon":"121.51207","lat":"31.22941","category":"216","category_name":"经济型连锁酒店","address":"上海市浦东新区商城路365号（近浦东南路）"},{"poiid":"B2094655D26EA5F54692","title":"99西餐厅","lon":"121.51096296011","lat":"31.230585486351","category":"94","category_name":"西餐厅","address":"浦城路99弄16号仁恒滨江园三期会所东昌路商城路间"},{"poiid":"B2094757D169A7FD4393","title":"橙祥烧腊餐厅","lon":"121.507852738","lat":"31.2324276469","category":"72","category_name":"广东菜","address":"浦东新区东昌路453号(近浦东南路)"},{"poiid":"B2094757D069A1F54199","title":"浦东新区陆家嘴图书馆(第二分部)","lon":"121.51166","lat":"31.22988","category":"181","category_name":"图书馆","address":"上海浦东新区浦城路150号"},{"poiid":"B2094757D165A4F9449C","title":"南洋商业银行","lon":"121.51000173","lat":"31.232407346","category":"150","category_name":"银行","address":"上海市浦东新区世纪大道"},{"poiid":"B2094757D06BA6FA469D","title":"巴黎贝甜(商城路店)","lon":"121.511","lat":"31.22885","category":"67","category_name":"甜品店","address":"浦东新区商城路297号申金大厦1楼商铺C区(近浦城路)"},{"poiid":"B2094757D168A7F54592","title":"大唐盲人按摩中心","lon":"121.51137","lat":"31.22904","category":"149","category_name":"洗浴推拿场所","address":"上海浦东新区商城路339号(近浦城路)  "},{"poiid":"B2094757DA65A7FA4699","title":"The Westin bind center Shanghai","lon":"121.5106414414889","lat":"31.22919482826353","category":"247","category_name":"餐饮美食","address":"上海市河南中路88号"},{"poiid":"B2094654DA69A6FC4893","title":"克丽缇娜东昌路店","lon":"121.51076","lat":"31.23233","category":"148","category_name":"美容美发店","address":"浦东新区东昌路447号(近浦东南路)"},{"poiid":"B2094757D569A3FD4298","title":"东北水饺","lon":"121.5117561","lat":"31.232295","category":"82","category_name":"东北菜","address":"浦东新区浦城路88号(东昌路浦城路)"},{"poiid":"B2094750D66FA4F44999","title":"上海浦东四季酒店","lon":"121.509437","lat":"31.233774","category":"252","category_name":"楼宇机构","address":"世纪大道210号"},{"poiid":"B2094757D06FA7F84593","title":"黔香阁(浦东店)","lon":"121.51129","lat":"31.22987","category":"83","category_name":"云贵菜","address":"浦东新区浦城路171号(近商城路)"},{"poiid":"B2094757D06BA4F5429A","title":"环球金融中心100层观光厅","lon":"121.512176738","lat":"31.2328213553","category":"500","category_name":"未知分类","address":"上海市浦东新区陆家嘴东路"},{"poiid":"B209475CD564A7F84392","title":"上海滩浦东香格里拉店","lon":"121.50058","lat":"31.23634","category":"119","category_name":"商场","address":"浦东富成路33号香格里拉酒店内大堂层"},{"poiid":"B2094654DA6EABFF439B","title":"久事大厦","lon":"121.507","lat":"31.2307","category":"46","category_name":"楼宇","address":"上海市黄浦区中山南路28号"},{"poiid":"B2094757D06FA7FC4799","title":"环球金融中心92楼柏悦酒店Bar","lon":"121.51080173","lat":"31.234288386","category":"217","category_name":"旅馆招待所","address":"上海市浦东新区陆家嘴东路"},{"poiid":"B2094757D16FA0FC4699","title":"环球金融中心 DADA Hair SaIon","lon":"121.50961873","lat":"31.234726395","category":"500","category_name":"未知分类","address":"上海市浦东新区陆家嘴东路"},{"poiid":"B2094757D068A2FB4693","title":"世纪100餐厅 100Century Avenue","lon":"121.507588054","lat":"31.235582793","category":"76","category_name":"上海菜","address":"浦东新区世纪大道100号环球金融中心上海柏悦酒店91-93楼(近东泰路)"},{"poiid":"B2094757D465A0F44699","title":"尼藏花园餐厅酒吧 Nizang Himalaya","lon":"121.51071683753","lat":"31.232122106704","category":"110","category_name":"其他亚洲菜","address":"浦东新区东昌路498号东园一村内(近浦东南路)"},{"poiid":"B2094750DB6BAAFD4799","title":"一风堂","lon":"121.509391","lat":"31.233442","category":"247","category_name":"餐饮美食","address":"浦东新区世纪大道8号国金中心LG1-79-80号(近正大广场)"},{"poiid":"B2094750D56DA2FB4098","title":"浦东四季酒店Camelia餐厅","lon":"121.5101528358764","lat":"31.234307759796852","category":"94","category_name":"西餐厅","address":"浦东新区世纪大道210号上海浦东四季酒店1楼(近浦成路)"},{"poiid":"B2094757D068A5F8439A","title":"商城路","lon":"121.51235199","lat":"31.2294406891","category":"260","category_name":"其他","address":"上海商城路"},{"poiid":"B2094655D26FA6F54399","title":"仁恒滨江园","lon":"121.50861","lat":"31.23017","category":"47","category_name":"住宅区","address":"浦城路99弄"},{"poiid":"B2094757D068A0FA409A","title":"Living Room","lon":"121.51033273","lat":"31.233739374","category":"260","category_name":"其他","address":"浦东新区世纪大道100号环球金融中心上海柏悦酒店87楼(近东泰路)"},{"poiid":"B2094752D16CAAFD489B","title":"Brotzeit 博璨摩登德国啤酒餐厅","lon":"121.509171","lat":"31.234161","category":"247","category_name":"餐饮美食","address":"世纪大道100号环球金融中心2楼"},{"poiid":"B2094757D06FA5FA459B","title":"上海新东方学校(陆家嘴校区)","lon":"121.51188","lat":"31.22923","category":"253","category_name":"校园生活","address":"浦东新区浦城路190号(商城路路口)"},{"poiid":"B2094757D068A4F4489F","title":"4号线世纪大道站","lon":"121.51115343","lat":"31.233440868","category":"36","category_name":"地铁站","address":"上海世纪大道站"},{"poiid":"B2094757D06FA0FF489D","title":"人民路隧道","lon":"121.50976562","lat":"31.232780456","category":"47","category_name":"住宅区","address":"上海黄浦区人民路-浦东新区东昌路"},{"poiid":"B2094757D16CABFA409E","title":"轨道交通2号线(陆家嘴)","lon":"121.512001738","lat":"31.2323463452","category":"500","category_name":"未知分类","address":"上海陆家嘴"},{"poiid":"B2094655D36CA1FD429C","title":"十六铺","lon":"121.507","lat":"31.2305","category":"38","category_name":"公交车站","address":"中山东二路88弄"},{"poiid":"B209475CDA64A2F9459A","title":"翠華餐廳","lon":"121.509361","lat":"31.233362","category":"500","category_name":"未知分类","address":"上海市 浦東世紀大道8号國金中心"},{"poiid":"B2094757D66FA6FE4999","title":"星巴克 STARBUCKS (浦发大厦店)","lon":"121.510271838","lat":"31.2337665755","category":"260","category_name":"其他","address":"浦东新区浦东南路588号浦发大厦1楼(近世纪大道)"},{"poiid":"B2094757D068A2FD449A","title":"卡玛生活瑜伽会馆","lon":"121.51181","lat":"31.22961","category":"148","category_name":"美容美发店","address":"浦东新区浦城路172号3-4楼(近商城路)"},{"poiid":"B2094752DB6BA7F54698","title":"王鼎.玉食","lon":"121.512244","lat":"31.23297","category":"500","category_name":"未知分类","address":"上海市 商城路665号"},{"poiid":"B2094751D56FA7FE449C","title":"Ashley Steak","lon":"121.512278","lat":"31.230046","category":"247","category_name":"餐饮美食","address":"上海八佰伴9F"},{"poiid":"B2094654DB6BAAF5429E","title":"陆家嘴图书馆","lon":"121.5111","lat":"31.23073","category":"181","category_name":"图书馆","address":"浦东新区浦城路150号(浦城路商城路)"},{"poiid":"B2094757D06BAAFE4893","title":"21世纪大厦","lon":"121.50967136","lat":"31.234596161","category":"252","category_name":"楼宇机构","address":"上海世纪大道210号"},{"poiid":"B2094752D768A4FC489E","title":"cafe lugo八佰伴店","lon":"121.50869","lat":"31.230443","category":"247","category_name":"餐饮美食","address":"上海市浦东新区张杨路1333号八佰伴三楼"},{"poiid":"B2094757D064A6FD4893","title":"法拉利玛莎拉蒂上海","lon":"121.51089973","lat":"31.233486369","category":"500","category_name":"未知分类","address":"上海世纪大道210号"},{"poiid":"B2094757D469A3F44699","title":"和兴湘菜 东昌路店","lon":"121.5094898","lat":"31.2317688","category":"77","category_name":"湖南菜","address":"浦东新区东昌路435号(近浦东南路)"},{"poiid":"B2094654DA69A6FD4292","title":"古都梅盲人保健按摩","lon":"121.51275","lat":"31.23296","category":"149","category_name":"洗浴推拿场所","address":"东昌路565"},{"poiid":"B2094750D669A2FC439F","title":"世纪100酒吧","lon":"121.508346","lat":"31.234354","category":"260","category_name":"其他","address":"浦东新区世纪大道100号环球金融中心上海柏悦酒店92楼(近东泰路)"},{"poiid":"B2094757D165A5FF4398","title":"宾家国际青年旅舍","lon":"121.5121","lat":"31.232","category":"216","category_name":"经济型连锁酒店","address":"上海浦东新区东昌路490弄东园二村210号(近浦东南路)  "},{"poiid":"B2094750D76EA7F8489B","title":"西安印象肉夹馍名小吃(东昌路店)","lon":"121.511","lat":"31.2324","category":"68","category_name":"快餐厅","address":"浦东新区东昌路511号(近浦东南路)"},{"poiid":"B2094757D069A5F84392","title":"安永华明会计师事务所上海分所","lon":"121.50769602","lat":"31.232077909","category":"46","category_name":"楼宇","address":"上海世纪大道100号环球金融中心50楼"},{"poiid":"B2094757D06BABF4419F","title":"Coco都可茶饮　东昌路店","lon":"121.51151373","lat":"31.232043338","category":"113","category_name":"冷饮店","address":"浦东新区东昌路508-1号(浦东南路浦城路间)"},{"poiid":"B2094655D26DA4F9489A","title":"重庆鸡公煲碳烤鱼东昌店","lon":"121.51134","lat":"31.23213","category":"71","category_name":"四川菜","address":"浦东新区东昌路462号(近浦城路)"},{"poiid":"B2094757D16FAAFF4298","title":"四川江湖菜馆 东昌路店","lon":"121.511340054","lat":"31.232892793","category":"71","category_name":"四川菜","address":"浦东新区东昌路507号(近浦东南路)"},{"poiid":"B2094654DB6AA3FE409C","title":"卡西巴 浦城店 La Casbah","lon":"121.51176645063","lat":"31.230116732362","category":"247","category_name":"餐饮美食","address":"浦东新区浦城路172号(近商城路)"},{"poiid":"B2094655D265A7FA469B","title":"东安大楼","lon":"121.5114","lat":"31.23031","category":"46","category_name":"楼宇","address":"东安大楼位于浦东上海浦东东园四村439号"},{"poiid":"B2094654DB69A5FF429F","title":"莫泰168连锁旅店(商城路店)","lon":"121.51207","lat":"31.22941","category":"216","category_name":"经济型连锁酒店","address":"上海市浦东新区商城路365号（近浦东南路）"},{"poiid":"B2094655D26EA5F54692","title":"99西餐厅","lon":"121.51096296011","lat":"31.230585486351","category":"94","category_name":"西餐厅","address":"浦城路99弄16号仁恒滨江园三期会所东昌路商城路间"},{"poiid":"B2094757D169A7FD4393","title":"橙祥烧腊餐厅","lon":"121.507852738","lat":"31.2324276469","category":"72","category_name":"广东菜","address":"浦东新区东昌路453号(近浦东南路)"},{"poiid":"B2094757D069A1F54199","title":"浦东新区陆家嘴图书馆(第二分部)","lon":"121.51166","lat":"31.22988","category":"181","category_name":"图书馆","address":"上海浦东新区浦城路150号"},{"poiid":"B2094757D165A4F9449C","title":"南洋商业银行","lon":"121.51000173","lat":"31.232407346","category":"150","category_name":"银行","address":"上海市浦东新区世纪大道"},{"poiid":"B2094757D06BA6FA469D","title":"巴黎贝甜(商城路店)","lon":"121.511","lat":"31.22885","category":"67","category_name":"甜品店","address":"浦东新区商城路297号申金大厦1楼商铺C区(近浦城路)"},{"poiid":"B2094757D168A7F54592","title":"大唐盲人按摩中心","lon":"121.51137","lat":"31.22904","category":"149","category_name":"洗浴推拿场所","address":"上海浦东新区商城路339号(近浦城路)  "},{"poiid":"B2094757DA65A7FA4699","title":"The Westin bind center Shanghai","lon":"121.5106414414889","lat":"31.22919482826353","category":"247","category_name":"餐饮美食","address":"上海市河南中路88号"},{"poiid":"B2094654DA69A6FC4893","title":"克丽缇娜东昌路店","lon":"121.51076","lat":"31.23233","category":"148","category_name":"美容美发店","address":"浦东新区东昌路447号(近浦东南路)"},{"poiid":"B2094757D569A3FD4298","title":"东北水饺","lon":"121.5117561","lat":"31.232295","category":"82","category_name":"东北菜","address":"浦东新区浦城路88号(东昌路浦城路)"},{"poiid":"B2094750D66FA4F44999","title":"上海浦东四季酒店","lon":"121.509437","lat":"31.233774","category":"252","category_name":"楼宇机构","address":"世纪大道210号"},{"poiid":"B2094757D06FA7F84593","title":"黔香阁(浦东店)","lon":"121.51129","lat":"31.22987","category":"83","category_name":"云贵菜","address":"浦东新区浦城路171号(近商城路)"},{"poiid":"B2094757D06BA4F5429A","title":"环球金融中心100层观光厅","lon":"121.512176738","lat":"31.2328213553","category":"500","category_name":"未知分类","address":"上海市浦东新区陆家嘴东路"},{"poiid":"B209475CD564A7F84392","title":"上海滩浦东香格里拉店","lon":"121.50058","lat":"31.23634","category":"119","category_name":"商场","address":"浦东富成路33号香格里拉酒店内大堂层"},{"poiid":"B2094654DA6EABFF439B","title":"久事大厦","lon":"121.507","lat":"31.2307","category":"46","category_name":"楼宇","address":"上海市黄浦区中山南路28号"},{"poiid":"B2094757D06FA7FC4799","title":"环球金融中心92楼柏悦酒店Bar","lon":"121.51080173","lat":"31.234288386","category":"217","category_name":"旅馆招待所","address":"上海市浦东新区陆家嘴东路"},{"poiid":"B2094757D16FA0FC4699","title":"环球金融中心 DADA Hair SaIon","lon":"121.50961873","lat":"31.234726395","category":"500","category_name":"未知分类","address":"上海市浦东新区陆家嘴东路"},{"poiid":"B2094757D068A2FB4693","title":"世纪100餐厅 100Century Avenue","lon":"121.507588054","lat":"31.235582793","category":"76","category_name":"上海菜","address":"浦东新区世纪大道100号环球金融中心上海柏悦酒店91-93楼(近东泰路)"},{"poiid":"B2094757D465A0F44699","title":"尼藏花园餐厅酒吧 Nizang Himalaya","lon":"121.51071683753","lat":"31.232122106704","category":"110","category_name":"其他亚洲菜","address":"浦东新区东昌路498号东园一村内(近浦东南路)"},{"poiid":"B2094750DB6BAAFD4799","title":"一风堂","lon":"121.509391","lat":"31.233442","category":"247","category_name":"餐饮美食","address":"浦东新区世纪大道8号国金中心LG1-79-80号(近正大广场)"},{"poiid":"B2094750D56DA2FB4098","title":"浦东四季酒店Camelia餐厅","lon":"121.5101528358764","lat":"31.234307759796852","category":"94","category_name":"西餐厅","address":"浦东新区世纪大道210号上海浦东四季酒店1楼(近浦成路)"},{"poiid":"B2094757D068A5F8439A","title":"商城路","lon":"121.51235199","lat":"31.2294406891","category":"260","category_name":"其他","address":"上海商城路"},{"poiid":"B2094655D26FA6F54399","title":"仁恒滨江园","lon":"121.50861","lat":"31.23017","category":"47","category_name":"住宅区","address":"浦城路99弄"},{"poiid":"B2094757D068A0FA409A","title":"Living Room","lon":"121.51033273","lat":"31.233739374","category":"260","category_name":"其他","address":"浦东新区世纪大道100号环球金融中心上海柏悦酒店87楼(近东泰路)"},{"poiid":"B2094752D16CAAFD489B","title":"Brotzeit 博璨摩登德国啤酒餐厅","lon":"121.509171","lat":"31.234161","category":"247","category_name":"餐饮美食","address":"世纪大道100号环球金融中心2楼"},{"poiid":"B2094757D06FA5FA459B","title":"上海新东方学校(陆家嘴校区)","lon":"121.51188","lat":"31.22923","category":"253","category_name":"校园生活","address":"浦东新区浦城路190号(商城路路口)"},{"poiid":"B2094757D068A4F4489F","title":"4号线世纪大道站","lon":"121.51115343","lat":"31.233440868","category":"36","category_name":"地铁站","address":"上海世纪大道站"},{"poiid":"B2094757D06FA0FF489D","title":"人民路隧道","lon":"121.50976562","lat":"31.232780456","category":"47","category_name":"住宅区","address":"上海黄浦区人民路-浦东新区东昌路"},{"poiid":"B2094757D16CABFA409E","title":"轨道交通2号线(陆家嘴)","lon":"121.512001738","lat":"31.2323463452","category":"500","category_name":"未知分类","address":"上海陆家嘴"},{"poiid":"B2094655D36CA1FD429C","title":"十六铺","lon":"121.507","lat":"31.2305","category":"38","category_name":"公交车站","address":"中山东二路88弄"},{"poiid":"B209475CDA64A2F9459A","title":"翠華餐廳","lon":"121.509361","lat":"31.233362","category":"500","category_name":"未知分类","address":"上海市 浦東世紀大道8号國金中心"},{"poiid":"B2094757D66FA6FE4999","title":"星巴克 STARBUCKS (浦发大厦店)","lon":"121.510271838","lat":"31.2337665755","category":"260","category_name":"其他","address":"浦东新区浦东南路588号浦发大厦1楼(近世纪大道)"},{"poiid":"B2094757D068A2FD449A","title":"卡玛生活瑜伽会馆","lon":"121.51181","lat":"31.22961","category":"148","category_name":"美容美发店","address":"浦东新区浦城路172号3-4楼(近商城路)"},{"poiid":"B2094752DB6BA7F54698","title":"王鼎.玉食","lon":"121.512244","lat":"31.23297","category":"500","category_name":"未知分类","address":"上海市 商城路665号"},{"poiid":"B2094751D56FA7FE449C","title":"Ashley Steak","lon":"121.512278","lat":"31.230046","category":"247","category_name":"餐饮美食","address":"上海八佰伴9F"},{"poiid":"B2094654DB6BAAF5429E","title":"陆家嘴图书馆","lon":"121.5111","lat":"31.23073","category":"181","category_name":"图书馆","address":"浦东新区浦城路150号(浦城路商城路)"},{"poiid":"B2094757D06BAAFE4893","title":"21世纪大厦","lon":"121.50967136","lat":"31.234596161","category":"252","category_name":"楼宇机构","address":"上海世纪大道210号"},{"poiid":"B2094752D768A4FC489E","title":"cafe lugo八佰伴店","lon":"121.50869","lat":"31.230443","category":"247","category_name":"餐饮美食","address":"上海市浦东新区张杨路1333号八佰伴三楼"},{"poiid":"B2094757D064A6FD4893","title":"法拉利玛莎拉蒂上海","lon":"121.51089973","lat":"31.233486369","category":"500","category_name":"未知分类","address":"上海世纪大道210号"},{"poiid":"B2094757D469A3F44699","title":"和兴湘菜 东昌路店","lon":"121.5094898","lat":"31.2317688","category":"77","category_name":"湖南菜","address":"浦东新区东昌路435号(近浦东南路)"},{"poiid":"B2094654DA69A6FD4292","title":"古都梅盲人保健按摩","lon":"121.51275","lat":"31.23296","category":"149","category_name":"洗浴推拿场所","address":"东昌路565"},{"poiid":"B2094750D669A2FC439F","title":"世纪100酒吧","lon":"121.508346","lat":"31.234354","category":"260","category_name":"其他","address":"浦东新区世纪大道100号环球金融中心上海柏悦酒店92楼(近东泰路)"},{"poiid":"B2094757D165A5FF4398","title":"宾家国际青年旅舍","lon":"121.5121","lat":"31.232","category":"216","category_name":"经济型连锁酒店","address":"上海浦东新区东昌路490弄东园二村210号(近浦东南路)  "},{"poiid":"B2094750D76EA7F8489B","title":"西安印象肉夹馍名小吃(东昌路店)","lon":"121.511","lat":"31.2324","category":"68","category_name":"快餐厅","address":"浦东新区东昌路511号(近浦东南路)"},{"poiid":"B2094757D069A5F84392","title":"安永华明会计师事务所上海分所","lon":"121.50769602","lat":"31.232077909","category":"46","category_name":"楼宇","address":"上海世纪大道100号环球金融中心50楼"},{"poiid":"B2094757D06BABF4419F","title":"Coco都可茶饮　东昌路店","lon":"121.51151373","lat":"31.232043338","category":"113","category_name":"冷饮店","address":"浦东新区东昌路508-1号(浦东南路浦城路间)"},{"poiid":"B2094655D26DA4F9489A","title":"重庆鸡公煲碳烤鱼东昌店","lon":"121.51134","lat":"31.23213","category":"71","category_name":"四川菜","address":"浦东新区东昌路462号(近浦城路)"},{"poiid":"B2094757D16FAAFF4298","title":"四川江湖菜馆 东昌路店","lon":"121.511340054","lat":"31.232892793","category":"71","category_name":"四川菜","address":"浦东新区东昌路507号(近浦东南路)"},{"poiid":"B2094654DB6AA3FE409C","title":"卡西巴 浦城店 La Casbah","lon":"121.51176645063","lat":"31.230116732362","category":"247","category_name":"餐饮美食","address":"浦东新区浦城路172号(近商城路)"},{"poiid":"B2094655D265A7FA469B","title":"东安大楼","lon":"121.5114","lat":"31.23031","category":"46","category_name":"楼宇","address":"东安大楼位于浦东上海浦东东园四村439号"},{"poiid":"B2094654DB69A5FF429F","title":"莫泰168连锁旅店(商城路店)","lon":"121.51207","lat":"31.22941","category":"216","category_name":"经济型连锁酒店","address":"上海市浦东新区商城路365号（近浦东南路）"},{"poiid":"B2094655D26EA5F54692","title":"99西餐厅","lon":"121.51096296011","lat":"31.230585486351","category":"94","category_name":"西餐厅","address":"浦城路99弄16号仁恒滨江园三期会所东昌路商城路间"},{"poiid":"B2094757D169A7FD4393","title":"橙祥烧腊餐厅","lon":"121.507852738","lat":"31.2324276469","category":"72","category_name":"广东菜","address":"浦东新区东昌路453号(近浦东南路)"},{"poiid":"B2094757D069A1F54199","title":"浦东新区陆家嘴图书馆(第二分部)","lon":"121.51166","lat":"31.22988","category":"181","category_name":"图书馆","address":"上海浦东新区浦城路150号"},{"poiid":"B2094757D165A4F9449C","title":"南洋商业银行","lon":"121.51000173","lat":"31.232407346","category":"150","category_name":"银行","address":"上海市浦东新区世纪大道"},{"poiid":"B2094757D06BA6FA469D","title":"巴黎贝甜(商城路店)","lon":"121.511","lat":"31.22885","category":"67","category_name":"甜品店","address":"浦东新区商城路297号申金大厦1楼商铺C区(近浦城路)"},{"poiid":"B2094757D168A7F54592","title":"大唐盲人按摩中心","lon":"121.51137","lat":"31.22904","category":"149","category_name":"洗浴推拿场所","address":"上海浦东新区商城路339号(近浦城路)  "},{"poiid":"B2094757DA65A7FA4699","title":"The Westin bind center Shanghai","lon":"121.5106414414889","lat":"31.22919482826353","category":"247","category_name":"餐饮美食","address":"上海市河南中路88号"},{"poiid":"B2094654DA69A6FC4893","title":"克丽缇娜东昌路店","lon":"121.51076","lat":"31.23233","category":"148","category_name":"美容美发店","address":"浦东新区东昌路447号(近浦东南路)"},{"poiid":"B2094757D569A3FD4298","title":"东北水饺","lon":"121.5117561","lat":"31.232295","category":"82","category_name":"东北菜","address":"浦东新区浦城路88号(东昌路浦城路)"}]