[{"poiid":"B2094654DB6AA5F5489D","title":"同济大学(嘉定校区)","lon":"121.21611","lat":"31.28277","category":"671","category_name":"高校中心点","address":"嘉定区曹安公路4800号(近嘉松北路)"},{"poiid":"B2094757D06FA2FB469B","title":"龙泉驾校","lon":"121.24061","lat":"31.26704","category":"190","category_name":"培训机构","address":"嘉定区联群路88号(近博园路)"},{"poiid":"B2094757D16FA4F4499F","title":"黄渡镇","lon":"121.21343328","lat":"31.269848505","category":"500","category_name":"未知分类","address":"上海市嘉定区黄渡·绿苑路"},{"poiid":"B2094654D46BA2F84498","title":"协通大酒店","lon":"121.21784","lat":"31.27638","category":"215","category_name":"三星级宾馆","address":"嘉定区曹安路4671号(近嘉松北路)"},{"poiid":"B2094655D26BAAFE4099","title":"润渡佳苑","lon":"121.22655","lat":"31.26806","category":"47","category_name":"住宅区","address":"上海市嘉定区春荣路800弄"},{"poiid":"B2094757D068A6FE489B","title":"天上人间〔同济大学嘉定校区店〕","lon":"121.216110229","lat":"31.2827682495","category":"149","category_name":"洗浴推拿场所","address":"上海曹安公路 同济大学嘉定校区附近"},{"poiid":"B2094654D46BA1FB439A","title":"蕾枫大酒店","lon":"121.213608054","lat":"31.272270793","category":"76","category_name":"上海菜","address":"嘉定区黄渡镇绿苑路300号(嘉松北路口)"},{"poiid":"B2094655D36DA0FF459B","title":"许家东街村","lon":"121.22708","lat":"31.27332","category":"38","category_name":"公交车站","address":""},{"poiid":"B2094757D169A3FF499E","title":"上海凯泉泵业(集团)有限公司","lon":"121.2293165","lat":"31.2733141","category":"46","category_name":"楼宇","address":"上海曹安公路4255号"},{"poiid":"B2094757D068A1F9479D","title":"嘉宝•同济新天地","lon":"121.22280078","lat":"31.287134581","category":"260","category_name":"其他","address":"上海嘉定区曹安公路4800号同济大学内"},{"poiid":"B2094757D168A6FE4998","title":"ROXY(奥特莱斯店)","lon":"121.227739889","lat":"31.2731905743","category":"141","category_name":"服装鞋帽皮具店","address":"上海近郊青浦区沪青平公路2888号澳特莱斯广场B113(近嘉松中路)  "},{"poiid":"B2094757D66FA3FA479D","title":"莱英国际","lon":"121.2177178373","lat":"31.283711752928","category":"47","category_name":"住宅区","address":"嘉定区真南路4500号(紧邻11号线南翔站)"},{"poiid":"B2094757D064AAFC429D","title":"嘉定龙泉基地","lon":"121.239865289","lat":"31.2699254072","category":"500","category_name":"未知分类","address":"上海嘉定区联群路88号近曹安路"},{"poiid":"B2094757D068A1FC439B","title":"同济大学嘉定校区A楼","lon":"121.213692","lat":"31.285959","category":"500","category_name":"未知分类","address":"上海曹安公路4800号同济大学嘉定校区内"},{"poiid":"B2094654D46BA2FF4499","title":"美国梦幻乐园(黄渡镇)","lon":"121.23035","lat":"31.27593","category":"250","category_name":"公园户外","address":"黄渡镇"},{"poiid":"B2094757D16EABFF4893","title":"黄渡镇东街村","lon":"121.229943","lat":"31.270246","category":"500","category_name":"未知分类","address":"上海黄渡镇东街村"},{"poiid":"B2094655D26BA7F44792","title":"大众春盛苑","lon":"121.20785","lat":"31.271196","category":"47","category_name":"住宅区","address":"上海市嘉松北路7222弄"},{"poiid":"B2094750D665A3FD4398","title":"肯德基(黄渡店)","lon":"121.218","lat":"31.2768","category":"68","category_name":"快餐厅","address":"嘉定区曹安路4671号(近玉麦路)"},{"poiid":"B2094757D568A0FB419E","title":"莱英郡(莱茵小镇)","lon":"121.21108588","lat":"31.27667833","category":"47","category_name":"住宅区","address":"黄渡镇绿苑路388号"},{"poiid":"B2094757D065A6FF429D","title":"G15沈海高速曹安公路收费站","lon":"121.24169181","lat":"31.269745275","category":"267","category_name":"收费站","address":"上海G15沈海高速曹安公路收费站"},{"poiid":"B2094655D36CA5FA489C","title":"曹安路新黄公路","lon":"121.22114","lat":"31.27532","category":"38","category_name":"公交车站","address":""},{"poiid":"B2094750D26CA3F9409E","title":"黄渡理工大学","lon":"121.212158","lat":"31.283172","category":"52","category_name":"高等院校","address":"嘉定区曹安公路4800号"},{"poiid":"B2094757D06FA4F54792","title":"同济大学嘉定校区七号楼","lon":"121.21774578","lat":"31.285800308","category":"500","category_name":"未知分类","address":"上海曹安公路4800号内"},{"poiid":"B2094654DB69AAF9449E","title":"协通宾馆餐厅","lon":"121.21784","lat":"31.27638","category":"76","category_name":"上海菜","address":"嘉定区曹安路4671号协通宾馆(近嘉定黄渡)"},{"poiid":"B2094655D36DA1FF479E","title":"盐铁塘桥","lon":"121.22854","lat":"31.26694","category":"250","category_name":"公园户外","address":""},{"poiid":"B2094757D66BA7FD479B","title":"小朵颐","lon":"121.217309","lat":"31.279839","category":"71","category_name":"四川菜","address":"嘉定区曹安公路4800号同济大学新天地内(近嘉松北路)"},{"poiid":"B2094654D46BA2F9449D","title":"上海曹安钢材交易市场","lon":"121.22106","lat":"31.27576","category":"123","category_name":"家具建材市场","address":"曹安公路4658"},{"poiid":"B2094757D165A6FC459E","title":"阿勇家常菜馆(黄渡店)","lon":"121.21887238","lat":"31.264072386","category":"76","category_name":"上海菜","address":"嘉定区黄渡镇绿苑路(近博园路)"},{"poiid":"B2094757D66FA6FB409A","title":"腾众进口车销售公司","lon":"121.227377046","lat":"31.2671576577","category":"158","category_name":"汽车销售","address":"上海市安亭国际汽车城核心贸易区步行街401号"},{"poiid":"B2094654D46BA1F5459A","title":"黄渡镇社区卫生服务中心","lon":"121.21744","lat":"31.26756","category":"162","category_name":"医院","address":"新黄路3号"},{"poiid":"B2094655D36CA5FA4898","title":"曹安路星塔路","lon":"121.23676","lat":"31.27404","category":"38","category_name":"公交车站","address":""},{"poiid":"B2094655D36DA0FF459A","title":"许家村","lon":"121.22262","lat":"31.26523","category":"38","category_name":"公交车站","address":""},{"poiid":"B2094654D46BA0FE499C","title":"协通歌顿咖啡","lon":"121.21776","lat":"31.27671","category":"65","category_name":"咖啡厅","address":"嘉定区曹安路4671号(近嘉松公路)"},{"poiid":"B2094654D46BA0FE4992","title":"上海协通宾馆","lon":"121.21703","lat":"31.2756","category":"250","category_name":"公园户外","address":"上海市嘉定区曹安路4671号(协通大酒店后面)"},{"poiid":"B2094757D069A7FC489D","title":"同济大学嘉定校区国际会议中心","lon":"121.21631","lat":"31.282811","category":"249","category_name":"购物服务","address":"上海同济大学嘉定校区内"},{"poiid":"B2094654D46BA1FB4292","title":"绿苑三邨","lon":"121.2198855609","lat":"31.276636342378","category":"47","category_name":"住宅区","address":"绿苑路218弄"},{"poiid":"B2094655D36CA0FA4793","title":"嘉松北路曹安公路","lon":"121.21919","lat":"31.279","category":"38","category_name":"公交车站","address":""},{"poiid":"B2094654D46BA0FE4993","title":"协通商务楼","lon":"121.2173","lat":"31.27573","category":"46","category_name":"楼宇","address":"曹安公路4671"},{"poiid":"B2094654D46BA0FE479B","title":"黄渡镇黄沈村","lon":"121.21909","lat":"31.27692","category":"47","category_name":"住宅区","address":""},{"poiid":"B2094654D46BA1FB409B","title":"上海龙泉机动车驾驶员培训基地有限公司","lon":"121.24024","lat":"31.26768","category":"192","category_name":"驾校","address":"联西路88号"},{"poiid":"B2094757D06AA6FE4792","title":"绿苑路新黄路","lon":"121.215469397","lat":"31.2669060007","category":"500","category_name":"未知分类","address":"上海绿苑路新黄路"},{"poiid":"B2094654DB6AA4FC4892","title":"迪欧咖啡 黄渡店","lon":"121.213667054","lat":"31.272164793","category":"65","category_name":"咖啡厅","address":"嘉定区黄渡镇绿苑路300号(黄渡绿苑路嘉松北路)"},{"poiid":"B2094654D46BA0FF419A","title":"兴总食品企业(上海)有限公司","lon":"121.23515","lat":"31.2737","category":"263","category_name":"公司","address":""},{"poiid":"B2094654D46BA1F5489B","title":"中国电信黄渡营业厅","lon":"121.21765","lat":"31.26818","category":"151","category_name":"电讯营业厅","address":"嘉定区黄渡新黄路38号"},{"poiid":"B2094655D36CA5FB429B","title":"曹安公路","lon":"121.2194","lat":"31.27938","category":"38","category_name":"公交车站","address":""},{"poiid":"B2094655D36CA5FA4993","title":"曹安路嘉松公路","lon":"121.21646","lat":"31.27819","category":"38","category_name":"公交车站","address":""},{"poiid":"B2094655D264A0F94593","title":"财富公馆","lon":"121.21853","lat":"31.27769","category":"47","category_name":"住宅区","address":"曹安路1558号"},{"poiid":"B2094757D169A1F8479B","title":"江桥图书馆","lon":"121.219190955","lat":"31.2693023977","category":"500","category_name":"未知分类","address":"上海市华江路129弄"},{"poiid":"B2094654D46BA1FB4499","title":"绿苑一村","lon":"121.21294","lat":"31.270376","category":"47","category_name":"住宅区","address":"绿苑路177弄"},{"poiid":"B2094757D168A2F94999","title":"同济大学马桶楼","lon":"121.214845857","lat":"31.2853813557","category":"253","category_name":"校园生活","address":"上海曹安公路4800号"},{"poiid":"B2094654DB6AA5F5489D","title":"同济大学(嘉定校区)","lon":"121.21611","lat":"31.28277","category":"671","category_name":"高校中心点","address":"嘉定区曹安公路4800号(近嘉松北路)"},{"poiid":"B2094757D06FA2FB469B","title":"龙泉驾校","lon":"121.24061","lat":"31.26704","category":"190","category_name":"培训机构","address":"嘉定区联群路88号(近博园路)"},{"poiid":"B2094757D16FA4F4499F","title":"黄渡镇","lon":"121.21343328","lat":"31.269848505","category":"500","category_name":"未知分类","address":"上海市嘉定区黄渡·绿苑路"},{"poiid":"B2094654D46BA2F84498","title":"协通大酒店","lon":"121.21784","lat":"31.27638","category":"215","category_name":"三星级宾馆","address":"嘉定区曹安路4671号(近嘉松北路)"},{"poiid":"B2094655D26BAAFE4099","title":"润渡佳苑","lon":"121.22655","lat":"31.26806","category":"47","category_name":"住宅区","address":"上海市嘉定区春荣路800弄"},{"poiid":"B2094757D068A6FE489B","title":"天上人间〔同济大学嘉定校区店〕","lon":"121.216110229","lat":"31.2827682495","category":"149","category_name":"洗浴推拿场所","address":"上海曹安公路 同济大学嘉定校区附近"},{"poiid":"B2094654D46BA1FB439A","title":"蕾枫大酒店","lon":"121.213608054","lat":"31.272270793","category":"76","category_name":"上海菜","address":"嘉定区黄渡镇绿苑路300号(嘉松北路口)"},{"poiid":"B2094655D36DA0FF459B","title":"许家东街村","lon":"121.22708","lat":"31.27332","category":"38","category_name":"公交车站","address":""},{"poiid":"B2094757D169A3FF499E","title":"上海凯泉泵业(集团)有限公司","lon":"121.2293165","lat":"31.2733141","category":"46","category_name":"楼宇","address":"上海曹安公路4255号"},{"poiid":"B2094757D068A1F9479D","title":"嘉宝•同济新天地","lon":"121.22280078","lat":"31.287134581","category":"260","category_name":"其他","address":"上海嘉定区曹安公路4800号同济大学内"},{"poiid":"B2094757D168A6FE4998","title":"ROXY(奥特莱斯店)","lon":"121.227739889","lat":"31.2731905743","category":"141","category_name":"服装鞋帽皮具店","address":"上海近郊青浦区沪青平公路2888号澳特莱斯广场B113(近嘉松中路)  "},{"poiid":"B2094757D66FA3FA479D","title":"莱英国际","lon":"121.2177178373","lat":"31.283711752928","category":"47","category_name":"住宅区","address":"嘉定区真南路4500号(紧邻11号线南翔站)"},{"poiid":"B2094757D064AAFC429D","title":"嘉定龙泉基地","lon":"121.239865289","lat":"31.2699254072","category":"500","category_name":"未知分类","address":"上海嘉定区联群路88号近曹安路"},{"poiid":"B2094757D068A1FC439B","title":"同济大学嘉定校区A楼","lon":"121.213692","lat":"31.285959","category":"500","category_name":"未知分类","address":"上海曹安公路4800号同济大学嘉定校区内"},{"poiid":"B2094654D46BA2FF4499","title":"美国梦幻乐园(黄渡镇)","lon":"121.23035","lat":"31.27593","category":"250","category_name":"公园户外","address":"黄渡镇"},{"poiid":"B2094757D16EABFF4893","title":"黄渡镇东街村","lon":"121.229943","lat":"31.270246","category":"500","category_name":"未知分类","address":"上海黄渡镇东街村"},{"poiid":"B2094655D26BA7F44792","title":"大众春盛苑","lon":"121.20785","lat":"31.271196","category":"47","category_name":"住宅区","address":"上海市嘉松北路7222弄"},{"poiid":"B2094750D665A3FD4398","title":"肯德基(黄渡店)","lon":"121.218","lat":"31.2768","category":"68","category_name":"快餐厅","address":"嘉定区曹安路4671号(近玉麦路)"},{"poiid":"B2094757D568A0FB419E","title":"莱英郡(莱茵小镇)","lon":"121.21108588","lat":"31.27667833","category":"47","category_name":"住宅区","address":"黄渡镇绿苑路388号"},{"poiid":"B2094757D065A6FF429D","title":"G15沈海高速曹安公路收费站","lon":"121.24169181","lat":"31.269745275","category":"267","category_name":"收费站","address":"上海G15沈海高速曹安公路收费站"},{"poiid":"B2094655D36CA5FA489C","title":"曹安路新黄公路","lon":"121.22114","lat":"31.27532","category":"38","category_name":"公交车站","address":""},{"poiid":"B2094750D26CA3F9409E","title":"黄渡理工大学","lon":"121.212158","lat":"31.283172","category":"52","category_name":"高等院校","address":"嘉定区曹安公路4800号"},{"poiid":"B2094757D06FA4F54792","title":"同济大学嘉定校区七号楼","lon":"121.21774578","lat":"31.285800308","category":"500","category_name":"未知分类","address":"上海曹安公路4800号内"},{"poiid":"B2094654DB69AAF9449E","title":"协通宾馆餐厅","lon":"121.21784","lat":"31.27638","category":"76","category_name":"上海菜","address":"嘉定区曹安路4671号协通宾馆(近嘉定黄渡)"},{"poiid":"B2094655D36DA1FF479E","title":"盐铁塘桥","lon":"121.22854","lat":"31.26694","category":"250","category_name":"公园户外","address":""},{"poiid":"B2094757D66BA7FD479B","title":"小朵颐","lon":"121.217309","lat":"31.279839","category":"71","category_name":"四川菜","address":"嘉定区曹安公路4800号同济大学新天地内(近嘉松北路)"},{"poiid":"B2094654D46BA2F9449D","title":"上海曹安钢材交易市场","lon":"121.22106","lat":"31.27576","category":"123","category_name":"家具建材市场","address":"曹安公路4658"},{"poiid":"B2094757D165A6FC459E","title":"阿勇家常菜馆(黄渡店)","lon":"121.21887238","lat":"31.264072386","category":"76","category_name":"上海菜","address":"嘉定区黄渡镇绿苑路(近博园路)"},{"poiid":"B2094757D66FA6FB409A","title":"腾众进口车销售公司","lon":"121.227377046","lat":"31.2671576577","category":"158","category_name":"汽车销售","address":"上海市安亭国际汽车城核心贸易区步行街401号"},{"poiid":"B2094654D46BA1F5459A","title":"黄渡镇社区卫生服务中心","lon":"121.21744","lat":"31.26756","category":"162","category_name":"医院","address":"新黄路3号"},{"poiid":"B2094655D36CA5FA4898","title":"曹安路星塔路","lon":"121.23676","lat":"31.27404","category":"38","category_name":"公交车站","address":""},{"poiid":"B2094655D36DA0FF459A","title":"许家村","lon":"121.22262","lat":"31.26523","category":"38","category_name":"公交车站","address":""},{"poiid":"B2094654D46BA0FE499C","title":"协通歌顿咖啡","lon":"121.21776","lat":"31.27671","category":"65","category_name":"咖啡厅","address":"嘉定区曹安路4671号(近嘉松公路)"},{"poiid":"B2094654D46BA0FE4992","title":"上海协通宾馆","lon":"121.21703","lat":"31.2756","category":"250","category_name":"公园户外","address":"上海市嘉定区曹安路4671号(协通大酒店后面)"},{"poiid":"B2094757D069A7FC489D","title":"同济大学嘉定校区国际会议中心","lon":"121.21631","lat":"31.282811","category":"249","category_name":"购物服务","address":"上海同济大学嘉定校区内"},{"poiid":"B2094654D46BA1FB4292","title":"绿苑三邨","lon":"121.2198855609","lat":"31.276636342378","category":"47","category_name":"住宅区","address":"绿苑路218弄"},{"poiid":"B2094655D36CA0FA4793","title":"嘉松北路曹安公路","lon":"121.21919","lat":"31.279","category":"38","category_name":"公交车站","address":""},{"poiid":"B2094654D46BA0FE4993","title":"协通商务楼","lon":"121.2173","lat":"31.27573","category":"46","category_name":"楼宇","address":"曹安公路4671"},{"poiid":"B2094654D46BA0FE479B","title":"黄渡镇黄沈村","lon":"121.21909","lat":"31.27692","category":"47","category_name":"住宅区","address":""},{"poiid":"B2094654D46BA1FB409B","title":"上海龙泉机动车驾驶员培训基地有限公司","lon":"121.24024","lat":"31.26768","category":"192","category_name":"驾校","address":"联西路88号"},{"poiid":"B2094757D06AA6FE4792","title":"绿苑路新黄路","lon":"121.215469397","lat":"31.2669060007","category":"500","category_name":"未知分类","address":"上海绿苑路新黄路"},{"poiid":"B2094654DB6AA4FC4892","title":"迪欧咖啡 黄渡店","lon":"121.213667054","lat":"31.272164793","category":"65","category_name":"咖啡厅","address":"嘉定区黄渡镇绿苑路300号(黄渡绿苑路嘉松北路)"},{"poiid":"B2094654D46BA0FF419A","title":"兴总食品企业(上海)有限公司","lon":"121.23515","lat":"31.2737","category":"263","category_name":"公司","address":""},{"poiid":"B2094654D46BA1F5489B","title":"中国电信黄渡营业厅","lon":"121.21765","lat":"31.26818","category":"151","category_name":"电讯营业厅","address":"嘉定区黄渡新黄路38号"},{"poiid":"B2094655D36CA5FB429B","title":"曹安公路","lon":"121.2194","lat":"31.27938","category":"38","category_name":"公交车站","address":""},{"poiid":"B2094655D36CA5FA4993","title":"曹安路嘉松公路","lon":"121.21646","lat":"31.27819","category":"38","category_name":"公交车站","address":""},{"poiid":"B2094655D264A0F94593","title":"财富公馆","lon":"121.21853","lat":"31.27769","category":"47","category_name":"住宅区","address":"曹安路1558号"},{"poiid":"B2094757D169A1F8479B","title":"江桥图书馆","lon":"121.219190955","lat":"31.2693023977","category":"500","category_name":"未知分类","address":"上海市华江路129弄"},{"poiid":"B2094654D46BA1FB4499","title":"绿苑一村","lon":"121.21294","lat":"31.270376","category":"47","category_name":"住宅区","address":"绿苑路177弄"},{"poiid":"B2094757D168A2F94999","title":"同济大学马桶楼","lon":"121.214845857","lat":"31.2853813557","category":"253","category_name":"校园生活","address":"上海曹安公路4800号"},{"poiid":"B2094654DB6AA5F5489D","title":"同济大学(嘉定校区)","lon":"121.21611","lat":"31.28277","category":"671","category_name":"高校中心点","address":"嘉定区曹安公路4800号(近嘉松北路)"},{"poiid":"B2094757D06FA2FB469B","title":"龙泉驾校","lon":"121.24061","lat":"31.26704","category":"190","category_name":"培训机构","address":"嘉定区联群路88号(近博园路)"},{"poiid":"B2094757D16FA4F4499F","title":"黄渡镇","lon":"121.21343328","lat":"31.269848505","category":"500","category_name":"未知分类","address":"上海市嘉定区黄渡·绿苑路"},{"poiid":"B2094654D46BA2F84498","title":"协通大酒店","lon":"121.21784","lat":"31.27638","category":"215","category_name":"三星级宾馆","address":"嘉定区曹安路4671号(近嘉松北路)"},{"poiid":"B2094655D26BAAFE4099","title":"润渡佳苑","lon":"121.22655","lat":"31.26806","category":"47","category_name":"住宅区","address":"上海市嘉定区春荣路800弄"},{"poiid":"B2094757D068A6FE489B","title":"天上人间〔同济大学嘉定校区店〕","lon":"121.216110229","lat":"31.2827682495","category":"149","category_name":"洗浴推拿场所","address":"上海曹安公路 同济大学嘉定校区附近"},{"poiid":"B2094654D46BA1FB439A","title":"蕾枫大酒店","lon":"121.213608054","lat":"31.272270793","category":"76","category_name":"上海菜","address":"嘉定区黄渡镇绿苑路300号(嘉松北路口)"},{"poiid":"B2094655D36DA0FF459B","title":"许家东街村","lon":"121.22708","lat":"31.27332","category":"38","category_name":"公交车站","address":""},{"poiid":"B2094757D169A3FF499E","title":"上海凯泉泵业(集团)有限公司","lon":"121.2293165","lat":"31.2733141","category":"46","category_name":"楼宇","address":"上海曹安公路4255号"},{"poiid":"B2094757D068A1F9479D","title":"嘉宝•同济新天地","lon":"121.22280078","lat":"31.287134581","category":"260","category_name":"其他","address":"上海嘉定区曹安公路4800号同济大学内"},{"poiid":"B2094757D168A6FE4998","title":"ROXY(奥特莱斯店)","lon":"121.227739889","lat":"31.2731905743","category":"141","category_name":"服装鞋帽皮具店","address":"上海近郊青浦区沪青平公路2888号澳特莱斯广场B113(近嘉松中路)  "},{"poiid":"B2094757D66FA3FA479D","title":"莱英国际","lon":"121.2177178373","lat":"31.283711752928","category":"47","category_name":"住宅区","address":"嘉定区真南路4500号(紧邻11号线南翔站)"},{"poiid":"B2094757D064AAFC429D","title":"嘉定龙泉基地","lon":"121.239865289","lat":"31.2699254072","category":"500","category_name":"未知分类","address":"上海嘉定区联群路88号近曹安路"},{"poiid":"B2094757D068A1FC439B","title":"同济大学嘉定校区A楼","lon":"121.213692","lat":"31.285959","category":"500","category_name":"未知分类","address":"上海曹安公路4800号同济大学嘉定校区内"},{"poiid":"B2094654D46BA2FF4499","title":"美国梦幻乐园(黄渡镇)","lon":"121.23035","lat":"31.27593","category":"250","category_name":"公园户外","address":"黄渡镇"},{"poiid":"B2094757D16EABFF4893","title":"黄渡镇东街村","lon":"121.229943","lat":"31.270246","category":"500","category_name":"未知分类","address":"上海黄渡镇东街村"},{"poiid":"B2094655D26BA7F44792","title":"大众春盛苑","lon":"121.20785","lat":"31.271196","category":"47","category_name":"住宅区","address":"上海市嘉松北路7222弄"},{"poiid":"B2094750D665A3FD4398","title":"肯德基(黄渡店)","lon":"121.218","lat":"31.2768","category":"68","category_name":"快餐厅","address":"嘉定区曹安路4671号(近玉麦路)"},{"poiid":"B2094757D568A0FB419E","title":"莱英郡(莱茵小镇)","lon":"121.21108588","lat":"31.27667833","category":"47","category_name":"住宅区","address":"黄渡镇绿苑路388号"},{"poiid":"B2094757D065A6FF429D","title":"G15沈海高速曹安公路收费站","lon":"121.24169181","lat":"31.269745275","category":"267","category_name":"收费站","address":"上海G15沈海高速曹安公路收费站"},{"poiid":"B2094655D36CA5FA489C","title":"曹安路新黄公路","lon":"121.22114","lat":"31.27532","category":"38","category_name":"公交车站","address":""},{"poiid":"B2094750D26CA3F9409E","title":"黄渡理工大学","lon":"121.212158","lat":"31.283172","category":"52","category_name":"高等院校","address":"嘉定区曹安公路4800号"},{"poiid":"B2094757D06FA4F54792","title":"同济大学嘉定校区七号楼","lon":"121.21774578","lat":"31.285800308","category":"500","category_name":"未知分类","address":"上海曹安公路4800号内"},{"poiid":"B2094654DB69AAF9449E","title":"协通宾馆餐厅","lon":"121.21784","lat":"31.27638","category":"76","category_name":"上海菜","address":"嘉定区曹安路4671号协通宾馆(近嘉定黄渡)"},{"poiid":"B2094655D36DA1FF479E","title":"盐铁塘桥","lon":"121.22854","lat":"31.26694","category":"250","category_name":"公园户外","address":""},{"poiid":"B2094757D66BA7FD479B","title":"小朵颐","lon":"121.217309","lat":"31.279839","category":"71","category_name":"四川菜","address":"嘉定区曹安公路4800号同济大学新天地内(近嘉松北路)"},{"poiid":"B2094654D46BA2F9449D","title":"上海曹安钢材交易市场","lon":"121.22106","lat":"31.27576","category":"123","category_name":"家具建材市场","address":"曹安公路4658"},{"poiid":"B2094757D165A6FC459E","title":"阿勇家常菜馆(黄渡店)","lon":"121.21887238","lat":"31.264072386","category":"76","category_name":"上海菜","address":"嘉定区黄渡镇绿苑路(近博园路)"},{"poiid":"B2094757D66FA6FB409A","title":"腾众进口车销售公司","lon":"121.227377046","lat":"31.2671576577","category":"158","category_name":"汽车销售","address":"上海市安亭国际汽车城核心贸易区步行街401号"},{"poiid":"B2094654D46BA1F5459A","title":"黄渡镇社区卫生服务中心","lon":"121.21744","lat":"31.26756","category":"162","category_name":"医院","address":"新黄路3号"},{"poiid":"B2094655D36CA5FA4898","title":"曹安路星塔路","lon":"121.23676","lat":"31.27404","category":"38","category_name":"公交车站","address":""},{"poiid":"B2094655D36DA0FF459A","title":"许家村","lon":"121.22262","lat":"31.26523","category":"38","category_name":"公交车站","address":""},{"poiid":"B2094654D46BA0FE499C","title":"协通歌顿咖啡","lon":"121.21776","lat":"31.27671","category":"65","category_name":"咖啡厅","address":"嘉定区曹安路4671号(近嘉松公路)"},{"poiid":"B2094654D46BA0FE4992","title":"上海协通宾馆","lon":"121.21703","lat":"31.2756","category":"250","category_name":"公园户外","address":"上海市嘉定区曹安路4671号(协通大酒店后面)"},{"poiid":"B2094757D069A7FC489D","title":"同济大学嘉定校区国际会议中心","lon":"121.21631","lat":"31.282811","category":"249","category_name":"购物服务","address":"上海同济大学嘉定校区内"},{"poiid":"B2094654D46BA1FB4292","title":"绿苑三邨","lon":"121.2198855609","lat":"31.276636342378","category":"47","category_name":"住宅区","address":"绿苑路218弄"},{"poiid":"B2094655D36CA0FA4793","title":"嘉松北路曹安公路","lon":"121.21919","lat":"31.279","category":"38","category_name":"公交车站","address":""},{"poiid":"B2094654D46BA0FE4993","title":"协通商务楼","lon":"121.2173","lat":"31.27573","category":"46","category_name":"楼宇","address":"曹安公路4671"},{"poiid":"B2094654D46BA0FE479B","title":"黄渡镇黄沈村","lon":"121.21909","lat":"31.27692","category":"47","category_name":"住宅区","address":""},{"poiid":"B2094654D46BA1FB409B","title":"上海龙泉机动车驾驶员培训基地有限公司","lon":"121.24024","lat":"31.26768","category":"192","category_name":"驾校","address":"联西路88号"},{"poiid":"B2094757D06AA6FE4792","title":"绿苑路新黄路","lon":"121.215469397","lat":"31.2669060007","category":"500","category_name":"未知分类","address":"上海绿苑路新黄路"},{"poiid":"B2094654DB6AA4FC4892","title":"迪欧咖啡 黄渡店","lon":"121.213667054","lat":"31.272164793","category":"65","category_name":"咖啡厅","address":"嘉定区黄渡镇绿苑路300号(黄渡绿苑路嘉松北路)"},{"poiid":"B2094654D46BA0FF419A","title":"兴总食品企业(上海)有限公司","lon":"121.23515","lat":"31.2737","category":"263","category_name":"公司","address":""},{"poiid":"B2094654D46BA1F5489B","title":"中国电信黄渡营业厅","lon":"121.21765","lat":"31.26818","category":"151","category_name":"电讯营业厅","address":"嘉定区黄渡新黄路38号"},{"poiid":"B2094655D36CA5FB429B","title":"曹安公路","lon":"121.2194","lat":"31.27938","category":"38","category_name":"公交车站","address":""},{"poiid":"B2094655D36CA5FA4993","title":"曹安路嘉松公路","lon":"121.21646","lat":"31.27819","category":"38","category_name":"公交车站","address":""},{"poiid":"B2094655D264A0F94593","title":"财富公馆","lon":"121.21853","lat":"31.27769","category":"47","category_name":"住宅区","address":"曹安路1558号"},{"poiid":"B2094757D169A1F8479B","title":"江桥图书馆","lon":"121.219190955","lat":"31.2693023977","category":"500","category_name":"未知分类","address":"上海市华江路129弄"},{"poiid":"B2094654D46BA1FB4499","title":"绿苑一村","lon":"121.21294","lat":"31.270376","category":"47","category_name":"住宅区","address":"绿苑路177弄"},{"poiid":"B2094757D168A2F94999","title":"同济大学马桶楼","lon":"121.214845857","lat":"31.2853813557","category":"253","category_name":"校园生活","address":"上海曹安公路4800号"},{"poiid":"B2094654DB6AA5F5489D","title":"同济大学(嘉定校区)","lon":"121.21611","lat":"31.28277","category":"671","category_name":"高校中心点","address":"嘉定区曹安公路4800号(近嘉松北路)"},{"poiid":"B2094757D06FA2FB469B","title":"龙泉驾校","lon":"121.24061","lat":"31.26704","category":"190","category_name":"培训机构","address":"嘉定区联群路88号(近博园路)"},{"poiid":"B2094757D16FA4F4499F","title":"黄渡镇","lon":"121.21343328","lat":"31.269848505","category":"500","category_name":"未知分类","address":"上海市嘉定区黄渡·绿苑路"},{"poiid":"B2094654D46BA2F84498","title":"协通大酒店","lon":"121.21784","lat":"31.27638","category":"215","category_name":"三星级宾馆","address":"嘉定区曹安路4671号(近嘉松北路)"},{"poiid":"B2094655D26BAAFE4099","title":"润渡佳苑","lon":"121.22655","lat":"31.26806","category":"47","category_name":"住宅区","address":"上海市嘉定区春荣路800弄"},{"poiid":"B2094757D068A6FE489B","title":"天上人间〔同济大学嘉定校区店〕","lon":"121.216110229","lat":"31.2827682495","category":"149","category_name":"洗浴推拿场所","address":"上海曹安公路 同济大学嘉定校区附近"},{"poiid":"B2094654D46BA1FB439A","title":"蕾枫大酒店","lon":"121.213608054","lat":"31.272270793","category":"76","category_name":"上海菜","address":"嘉定区黄渡镇绿苑路300号(嘉松北路口)"},{"poiid":"B2094655D36DA0FF459B","title":"许家东街村","lon":"121.22708","lat":"31.27332","category":"38","category_name":"公交车站","address":""},{"poiid":"B2094757D169A3FF499E","title":"上海凯泉泵业(集团)有限公司","lon":"121.2293165","lat":"31.2733141","category":"46","category_name":"楼宇","address":"上海曹安公路4255号"},{"poiid":"B2094757D068A1F9479D","title":"嘉宝•同济新天地","lon":"121.22280078","lat":"31.287134581","category":"260","category_name":"其他","address":"上海嘉定区曹安公路4800号同济大学内"},{"poiid":"B2094757D168A6FE4998","title":"ROXY(奥特莱斯店)","lon":"121.227739889","lat":"31.2731905743","category":"141","category_name":"服装鞋帽皮具店","address":"上海近郊青浦区沪青平公路2888号澳特莱斯广场B113(近嘉松中路)  "},{"poiid":"B2094757D66FA3FA479D","title":"莱英国际","lon":"121.2177178373","lat":"31.283711752928","category":"47","category_name":"住宅区","address":"嘉定区真南路4500号(紧邻11号线南翔站)"},{"poiid":"B2094757D064AAFC429D","title":"嘉定龙泉基地","lon":"121.239865289","lat":"31.2699254072","category":"500","category_name":"未知分类","address":"上海嘉定区联群路88号近曹安路"},{"poiid":"B2094757D068A1FC439B","title":"同济大学嘉定校区A楼","lon":"121.213692","lat":"31.285959","category":"500","category_name":"未知分类","address":"上海曹安公路4800号同济大学嘉定校区内"},{"poiid":"B2094654D46BA2FF4499","title":"美国梦幻乐园(黄渡镇)","lon":"121.23035","lat":"31.27593","category":"250","category_name":"公园户外","address":"黄渡镇"},{"poiid":"B2094757D16EABFF4893","title":"黄渡镇东街村","lon":"121.229943","lat":"31.270246","category":"500","category_name":"未知分类","address":"上海黄渡镇东街村"},{"poiid":"B2094655D26BA7F44792","title":"大众春盛苑","lon":"121.20785","lat":"31.271196","category":"47","category_name":"住宅区","address":"上海市嘉松北路7222弄"},{"poiid":"B2094750D665A3FD4398","title":"肯德基(黄渡店)","lon":"121.218","lat":"31.2768","category":"68","category_name":"快餐厅","address":"嘉定区曹安路4671号(近玉麦路)"},{"poiid":"B2094757D568A0FB419E","title":"莱英郡(莱茵小镇)","lon":"121.21108588","lat":"31.27667833","category":"47","category_name":"住宅区","address":"黄渡镇绿苑路388号"},{"poiid":"B2094757D065A6FF429D","title":"G15沈海高速曹安公路收费站","lon":"121.24169181","lat":"31.269745275","category":"267","category_name":"收费站","address":"上海G15沈海高速曹安公路收费站"},{"poiid":"B2094655D36CA5FA489C","title":"曹安路新黄公路","lon":"121.22114","lat":"31.27532","category":"38","category_name":"公交车站","address":""},{"poiid":"B2094750D26CA3F9409E","title":"黄渡理工大学","lon":"121.212158","lat":"31.283172","category":"52","category_name":"高等院校","address":"嘉定区曹安公路4800号"},{"poiid":"B2094757D06FA4F54792","title":"同济大学嘉定校区七号楼","lon":"121.21774578","lat":"31.285800308","category":"500","category_name":"未知分类","address":"上海曹安公路4800号内"},{"poiid":"B2094654DB69AAF9449E","title":"协通宾馆餐厅","lon":"121.21784","lat":"31.27638","category":"76","category_name":"上海菜","address":"嘉定区曹安路4671号协通宾馆(近嘉定黄渡)"},{"poiid":"B2094655D36DA1FF479E","title":"盐铁塘桥","lon":"121.22854","lat":"31.26694","category":"250","category_name":"公园户外","address":""},{"poiid":"B2094757D66BA7FD479B","title":"小朵颐","lon":"121.217309","lat":"31.279839","category":"71","category_name":"四川菜","address":"嘉定区曹安公路4800号同济大学新天地内(近嘉松北路)"},{"poiid":"B2094654D46BA2F9449D","title":"上海曹安钢材交易市场","lon":"121.22106","lat":"31.27576","category":"123","category_name":"家具建材市场","address":"曹安公路4658"},{"poiid":"B2094757D165A6FC459E","title":"阿勇家常菜馆(黄渡店)","lon":"121.21887238","lat":"31.264072386","category":"76","category_name":"上海菜","address":"嘉定区黄渡镇绿苑路(近博园路)"},{"poiid":"B2094757D66FA6FB409A","title":"腾众进口车销售公司","lon":"121.227377046","lat":"31.2671576577","category":"158","category_name":"汽车销售","address":"上海市安亭国际汽车城核心贸易区步行街401号"},{"poiid":"B2094654D46BA1F5459A","title":"黄渡镇社区卫生服务中心","lon":"121.21744","lat":"31.26756","category":"162","category_name":"医院","address":"新黄路3号"},{"poiid":"B2094655D36CA5FA4898","title":"曹安路星塔路","lon":"121.23676","lat":"31.27404","category":"38","category_name":"公交车站","address":""},{"poiid":"B2094655D36DA0FF459A","title":"许家村","lon":"121.22262","lat":"31.26523","category":"38","category_name":"公交车站","address":""},{"poiid":"B2094654D46BA0FE499C","title":"协通歌顿咖啡","lon":"121.21776","lat":"31.27671","category":"65","category_name":"咖啡厅","address":"嘉定区曹安路4671号(近嘉松公路)"},{"poiid":"B2094654D46BA0FE4992","title":"上海协通宾馆","lon":"121.21703","lat":"31.2756","category":"250","category_name":"公园户外","address":"上海市嘉定区曹安路4671号(协通大酒店后面)"},{"poiid":"B2094757D069A7FC489D","title":"同济大学嘉定校区国际会议中心","lon":"121.21631","lat":"31.282811","category":"249","category_name":"购物服务","address":"上海同济大学嘉定校区内"},{"poiid":"B2094654D46BA1FB4292","title":"绿苑三邨","lon":"121.2198855609","lat":"31.276636342378","category":"47","category_name":"住宅区","address":"绿苑路218弄"},{"poiid":"B2094655D36CA0FA4793","title":"嘉松北路曹安公路","lon":"121.21919","lat":"31.279","category":"38","category_name":"公交车站","address":""},{"poiid":"B2094654D46BA0FE4993","title":"协通商务楼","lon":"121.2173","lat":"31.27573","category":"46","category_name":"楼宇","address":"曹安公路4671"},{"poiid":"B2094654D46BA0FE479B","title":"黄渡镇黄沈村","lon":"121.21909","lat":"31.27692","category":"47","category_name":"住宅区","address":""},{"poiid":"B2094654D46BA1FB409B","title":"上海龙泉机动车驾驶员培训基地有限公司","lon":"121.24024","lat":"31.26768","category":"192","category_name":"驾校","address":"联西路88号"},{"poiid":"B2094757D06AA6FE4792","title":"绿苑路新黄路","lon":"121.215469397","lat":"31.2669060007","category":"500","category_name":"未知分类","address":"上海绿苑路新黄路"},{"poiid":"B2094654DB6AA4FC4892","title":"迪欧咖啡 黄渡店","lon":"121.213667054","lat":"31.272164793","category":"65","category_name":"咖啡厅","address":"嘉定区黄渡镇绿苑路300号(黄渡绿苑路嘉松北路)"},{"poiid":"B2094654D46BA0FF419A","title":"兴总食品企业(上海)有限公司","lon":"121.23515","lat":"31.2737","category":"263","category_name":"公司","address":""},{"poiid":"B2094654D46BA1F5489B","title":"中国电信黄渡营业厅","lon":"121.21765","lat":"31.26818","category":"151","category_name":"电讯营业厅","address":"嘉定区黄渡新黄路38号"},{"poiid":"B2094655D36CA5FB429B","title":"曹安公路","lon":"121.2194","lat":"31.27938","category":"38","category_name":"公交车站","address":""},{"poiid":"B2094655D36CA5FA4993","title":"曹安路嘉松公路","lon":"121.21646","lat":"31.27819","category":"38","category_name":"公交车站","address":""},{"poiid":"B2094655D264A0F94593","title":"财富公馆","lon":"121.21853","lat":"31.27769","category":"47","category_name":"住宅区","address":"曹安路1558号"},{"poiid":"B2094757D169A1F8479B","title":"江桥图书馆","lon":"121.219190955","lat":"31.2693023977","category":"500","category_name":"未知分类","address":"上海市华江路129弄"},{"poiid":"B2094654D46BA1FB4499","title":"绿苑一村","lon":"121.21294","lat":"31.270376","category":"47","category_name":"住宅区","address":"绿苑路177弄"},{"poiid":"B2094757D168A2F94999","title":"同济大学马桶楼","lon":"121.214845857","lat":"31.2853813557","category":"253","category_name":"校园生活","address":"上海曹安公路4800号"}]