[{"poiid":"B2094655D268ABF94898","title":"徐浦大桥","lon":"121.46894","lat":"31.12749","category":"250","category_name":"公园户外","address":"上海徐汇区环南二大道-浦东新区环南二大道"},{"poiid":"B2094757D06FA1F5489B","title":"徐汇新城","lon":"121.453094482","lat":"31.1309185028","category":"47","category_name":"住宅区","address":"上海市徐汇区龙吴路1595号"},{"poiid":"B2094757D06FA0FC429C","title":"龙吴路罗秀路","lon":"121.452246","lat":"31.135412","category":"260","category_name":"其他","address":"上海市徐汇区龙吴路罗秀路"},{"poiid":"B2094655D26BAAFD479F","title":"印象欧洲","lon":"121.462118","lat":"31.118556","category":"47","category_name":"住宅区","address":"华泾镇龙吴路2488号"},{"poiid":"B2094757D06FABFE4492","title":"中海瀛台","lon":"121.45292","lat":"31.140421","category":"500","category_name":"未知分类","address":"徐汇区龙瑞路77弄"},{"poiid":"B2094757D06FA2FA4192","title":"明丰新纪苑","lon":"121.45352","lat":"31.126495","category":"47","category_name":"住宅区","address":"上海市徐汇区华发路99弄"},{"poiid":"B2094757D06FA1FA489B","title":"紫阳花苑","lon":"121.45851978229","lat":"31.119646803034","category":"47","category_name":"住宅区","address":"紫阳花苑位于徐汇龙吴路2589号"},{"poiid":"B2094655D26FA3F4459D","title":"华泾绿苑","lon":"121.45804","lat":"31.1153","category":"47","category_name":"住宅区","address":"上海市徐汇区龙吴路2588弄"},{"poiid":"B2094757D065A0FA4999","title":"馨宁公寓","lon":"121.44778","lat":"31.128372","category":"47","category_name":"住宅区","address":"上海华发路368弄"},{"poiid":"B2094655D268A1FE489D","title":"华滨家园","lon":"121.45071","lat":"31.1392","category":"47","category_name":"住宅区","address":"龙吴路1323弄"},{"poiid":"B2094655D36CA1F8419E","title":"龙吴路华发路","lon":"121.45608","lat":"31.12669","category":"38","category_name":"公交车站","address":""},{"poiid":"B2094654DB6CA5F8449D","title":"华欣家园","lon":"121.45748","lat":"31.11902","category":"47","category_name":"住宅区","address":"龙吴路2418号"},{"poiid":"B2094655D26FAAFC479E","title":"徐汇臻园","lon":"121.45024","lat":"31.126078","category":"47","category_name":"住宅区","address":"上海市徐汇区华发路151号"},{"poiid":"B2094757D068A1F8419D","title":"上海市材料工程学校","lon":"121.446624394","lat":"31.1310546604","category":"52","category_name":"高等院校","address":"徐汇区罗秀新村136号(近龙吴路)"},{"poiid":"B2094757D068A0FF4693","title":"罗秀新村","lon":"121.44658","lat":"31.133022","category":"47","category_name":"住宅区","address":"上海市徐汇区龙川路"},{"poiid":"B2094654DA65A6F54192","title":"上海市公安局徐汇分局交警支队对外办事窗口","lon":"121.45696","lat":"31.12466","category":"250","category_name":"公园户外","address":"龙吴路2138"},{"poiid":"B2094654DB6DA3FC439A","title":"华泾公园","lon":"121.4546","lat":"31.12032","category":"196","category_name":"公园","address":"徐汇区华泾路190号(近龙吴路)"},{"poiid":"B2094655D36CA0F5449D","title":"华泾小区","lon":"121.467","lat":"31.1225","category":"47","category_name":"住宅区","address":"华泾路38弄"},{"poiid":"B2094750D66CA1FF469D","title":"华沁家园","lon":"121.449996","lat":"31.134494","category":"500","category_name":"未知分类","address":"上海徐汇区龙吴路1343弄"},{"poiid":"B2094757D06FA5FE469D","title":"徐汇华园","lon":"121.45417","lat":"31.128843","category":"47","category_name":"住宅区","address":"上海华发路58弄"},{"poiid":"B2094757D06FA6F8479C","title":"TONY WEAR(汤尼威尔)上海公司","lon":"121.457831","lat":"31.126421","category":"500","category_name":"未知分类","address":"上海龙吴路2046号"},{"poiid":"B2094654DA65A6F4449C","title":"港口渡口","lon":"121.45875","lat":"31.1334","category":"34","category_name":"港口码头","address":""},{"poiid":"B2094654DA65A6F44293","title":"上海市划船俱乐部","lon":"121.45666","lat":"31.13521","category":"220","category_name":"运动场所","address":"龙吴路1594"},{"poiid":"B2094750D26FABFA4793","title":"东湾小区","lon":"121.45731","lat":"31.12269","category":"251","category_name":"出行住宿","address":"东湾小区位于徐汇龙吴路2388弄"},{"poiid":"B2094757D66DABF94898","title":"永达BUICK龙吴店","lon":"121.453904857","lat":"31.1345930549","category":"500","category_name":"未知分类","address":"上海市徐汇区罗秀路"},{"poiid":"B2094757D065A2F8429C","title":"新红园大酒店","lon":"121.455392643","lat":"31.1244974373","category":"76","category_name":"上海菜","address":"徐汇区华泾镇龙吟路9号(近华泾路)查看地图"},{"poiid":"B2094654DB64A2FA419D","title":"世纪华联","lon":"121.45601","lat":"31.12823","category":"117","category_name":"便民商店/便利店","address":"龙吴路2028识别"},{"poiid":"B2094654DA65A6F54298","title":"上海良友海狮油脂实业有限公司","lon":"121.46038","lat":"31.12612","category":"263","category_name":"公司","address":"龙吴路2080号"},{"poiid":"B2094757D66DABFA4693","title":"三林渡口","lon":"121.455088509","lat":"31.1312720848","category":"500","category_name":"未知分类","address":"上海沿江公路"},{"poiid":"B2094757D16CA1F8489D","title":"华发小区","lon":"121.45112485","lat":"31.128025923","category":"47","category_name":"住宅区","address":"华发小区位于徐汇华发路176号"},{"poiid":"B2094655D268ABF9489B","title":"龙吴路立交桥","lon":"121.45769","lat":"31.1244","category":"250","category_name":"公园户外","address":""},{"poiid":"B2094654DA65A6F5419C","title":"上海市公安局徐汇分局交警支队事故审理科","lon":"121.45696","lat":"31.12466","category":"250","category_name":"公园户外","address":"龙吴路2138"},{"poiid":"B2094752D06DA2F44992","title":"浦东假日酒店","lon":"121.463451","lat":"31.128871","category":"247","category_name":"餐饮美食","address":"上海东方路899号"},{"poiid":"B2094655D268A6FC4592","title":"徐汇公安分局交通警察支队业务受理点","lon":"121.45697","lat":"31.12466","category":"250","category_name":"公园户外","address":""},{"poiid":"B2094750DB6AA0F94898","title":"龙华医院","lon":"121.454566","lat":"31.128583","category":"162","category_name":"医院","address":null},{"poiid":"B2094757D068A7F54592","title":"永达别克汽车龙吴路4s店","lon":"121.458501009","lat":"31.1251955525","category":"500","category_name":"未知分类","address":"上海市徐汇区龙吴路1600号"},{"poiid":"B2094757D16FA7FD409A","title":"华育中学","lon":"121.453852857","lat":"31.1190827441","category":"55","category_name":"中学","address":"徐汇区龙吟路99号(近华济路)"},{"poiid":"B2094654DB6CA1FB409F","title":"华馨公寓","lon":"121.459","lat":"31.1407","category":"47","category_name":"住宅区","address":"上海市徐汇区罗秀路55弄"},{"poiid":"B2094654DA65A6F4489B","title":"汤尼威尔(上海)服饰有限公司","lon":"121.45782","lat":"31.12642","category":"263","category_name":"公司","address":"龙吴路2046号"},{"poiid":"B2094757D66DA2F4469B","title":"趴课桌上~","lon":"121.456016541","lat":"31.1282272339","category":"500","category_name":"未知分类","address":"上海1788"},{"poiid":"B2094654DB6CA2FB419D","title":"快客No.6981","lon":"121.45454","lat":"31.12693","category":"117","category_name":"便民商店/便利店","address":"华发路21"},{"poiid":"B2094654DA65A6F44698","title":"福兰特上海龙吴店","lon":"121.45641","lat":"31.12736","category":"217","category_name":"旅馆招待所","address":"龙吴路2038弄甲2号"},{"poiid":"B2094654DB6CA2FB4299","title":"瀚汇美容美发华发店","lon":"121.45465","lat":"31.12693","category":"148","category_name":"美容美发店","address":"徐汇区华发路15-17号"},{"poiid":"B2094655D268A7FA409D","title":"好又多超市","lon":"121.45323","lat":"31.12682","category":"118","category_name":"超级市场","address":""},{"poiid":"B2094654DA65A6F54193","title":"上海星州汽车维修有限公司(龙吴路)","lon":"121.45843","lat":"31.12495","category":"159","category_name":"汽车维修","address":"龙吴路2148号"},{"poiid":"B2094757D16BA2F8479E","title":"770路龙吴路华泾路(东湾小区)站","lon":"121.459006009","lat":"31.1240475275","category":"500","category_name":"未知分类","address":"上海龙吴路 华泾路 东湾小区"},{"poiid":"B2094757D169AAF4469E","title":"豪大大鸡排","lon":"121.454907009","lat":"31.1255505602","category":"247","category_name":"餐饮美食","address":"上海市徐汇区华发路41号"},{"poiid":"B2094757D064A6FB479F","title":"小yiの屋","lon":"121.4558085","lat":"31.12647318","category":"500","category_name":"未知分类","address":"上海华发路99弄 5号 ×0×室"},{"poiid":"B2094654DB6CA2FB409E","title":"雷允上华发大药房","lon":"121.45373","lat":"31.1269","category":"162","category_name":"医院","address":"华发路47"},{"poiid":"B2094753D665A0FF429B","title":"徐浦大桥","lon":"121.456626","lat":"31.124225","category":"500","category_name":"未知分类","address":"上海市 外环徐浦大桥"},{"poiid":"B2094655D268ABF94898","title":"徐浦大桥","lon":"121.46894","lat":"31.12749","category":"250","category_name":"公园户外","address":"上海徐汇区环南二大道-浦东新区环南二大道"},{"poiid":"B2094757D06FA1F5489B","title":"徐汇新城","lon":"121.453094482","lat":"31.1309185028","category":"47","category_name":"住宅区","address":"上海市徐汇区龙吴路1595号"},{"poiid":"B2094757D06FA0FC429C","title":"龙吴路罗秀路","lon":"121.452246","lat":"31.135412","category":"260","category_name":"其他","address":"上海市徐汇区龙吴路罗秀路"},{"poiid":"B2094655D26BAAFD479F","title":"印象欧洲","lon":"121.462118","lat":"31.118556","category":"47","category_name":"住宅区","address":"华泾镇龙吴路2488号"},{"poiid":"B2094757D06FABFE4492","title":"中海瀛台","lon":"121.45292","lat":"31.140421","category":"500","category_name":"未知分类","address":"徐汇区龙瑞路77弄"},{"poiid":"B2094757D06FA2FA4192","title":"明丰新纪苑","lon":"121.45352","lat":"31.126495","category":"47","category_name":"住宅区","address":"上海市徐汇区华发路99弄"},{"poiid":"B2094757D06FA1FA489B","title":"紫阳花苑","lon":"121.45851978229","lat":"31.119646803034","category":"47","category_name":"住宅区","address":"紫阳花苑位于徐汇龙吴路2589号"},{"poiid":"B2094655D26FA3F4459D","title":"华泾绿苑","lon":"121.45804","lat":"31.1153","category":"47","category_name":"住宅区","address":"上海市徐汇区龙吴路2588弄"},{"poiid":"B2094757D065A0FA4999","title":"馨宁公寓","lon":"121.44778","lat":"31.128372","category":"47","category_name":"住宅区","address":"上海华发路368弄"},{"poiid":"B2094655D268A1FE489D","title":"华滨家园","lon":"121.45071","lat":"31.1392","category":"47","category_name":"住宅区","address":"龙吴路1323弄"},{"poiid":"B2094655D36CA1F8419E","title":"龙吴路华发路","lon":"121.45608","lat":"31.12669","category":"38","category_name":"公交车站","address":""},{"poiid":"B2094654DB6CA5F8449D","title":"华欣家园","lon":"121.45748","lat":"31.11902","category":"47","category_name":"住宅区","address":"龙吴路2418号"},{"poiid":"B2094655D26FAAFC479E","title":"徐汇臻园","lon":"121.45024","lat":"31.126078","category":"47","category_name":"住宅区","address":"上海市徐汇区华发路151号"},{"poiid":"B2094757D068A1F8419D","title":"上海市材料工程学校","lon":"121.446624394","lat":"31.1310546604","category":"52","category_name":"高等院校","address":"徐汇区罗秀新村136号(近龙吴路)"},{"poiid":"B2094757D068A0FF4693","title":"罗秀新村","lon":"121.44658","lat":"31.133022","category":"47","category_name":"住宅区","address":"上海市徐汇区龙川路"},{"poiid":"B2094654DA65A6F54192","title":"上海市公安局徐汇分局交警支队对外办事窗口","lon":"121.45696","lat":"31.12466","category":"250","category_name":"公园户外","address":"龙吴路2138"},{"poiid":"B2094654DB6DA3FC439A","title":"华泾公园","lon":"121.4546","lat":"31.12032","category":"196","category_name":"公园","address":"徐汇区华泾路190号(近龙吴路)"},{"poiid":"B2094655D36CA0F5449D","title":"华泾小区","lon":"121.467","lat":"31.1225","category":"47","category_name":"住宅区","address":"华泾路38弄"},{"poiid":"B2094750D66CA1FF469D","title":"华沁家园","lon":"121.449996","lat":"31.134494","category":"500","category_name":"未知分类","address":"上海徐汇区龙吴路1343弄"},{"poiid":"B2094757D06FA5FE469D","title":"徐汇华园","lon":"121.45417","lat":"31.128843","category":"47","category_name":"住宅区","address":"上海华发路58弄"},{"poiid":"B2094757D06FA6F8479C","title":"TONY WEAR(汤尼威尔)上海公司","lon":"121.457831","lat":"31.126421","category":"500","category_name":"未知分类","address":"上海龙吴路2046号"},{"poiid":"B2094654DA65A6F4449C","title":"港口渡口","lon":"121.45875","lat":"31.1334","category":"34","category_name":"港口码头","address":""},{"poiid":"B2094654DA65A6F44293","title":"上海市划船俱乐部","lon":"121.45666","lat":"31.13521","category":"220","category_name":"运动场所","address":"龙吴路1594"},{"poiid":"B2094750D26FABFA4793","title":"东湾小区","lon":"121.45731","lat":"31.12269","category":"251","category_name":"出行住宿","address":"东湾小区位于徐汇龙吴路2388弄"},{"poiid":"B2094757D66DABF94898","title":"永达BUICK龙吴店","lon":"121.453904857","lat":"31.1345930549","category":"500","category_name":"未知分类","address":"上海市徐汇区罗秀路"},{"poiid":"B2094757D065A2F8429C","title":"新红园大酒店","lon":"121.455392643","lat":"31.1244974373","category":"76","category_name":"上海菜","address":"徐汇区华泾镇龙吟路9号(近华泾路)查看地图"},{"poiid":"B2094654DB64A2FA419D","title":"世纪华联","lon":"121.45601","lat":"31.12823","category":"117","category_name":"便民商店/便利店","address":"龙吴路2028识别"},{"poiid":"B2094654DA65A6F54298","title":"上海良友海狮油脂实业有限公司","lon":"121.46038","lat":"31.12612","category":"263","category_name":"公司","address":"龙吴路2080号"},{"poiid":"B2094757D66DABFA4693","title":"三林渡口","lon":"121.455088509","lat":"31.1312720848","category":"500","category_name":"未知分类","address":"上海沿江公路"},{"poiid":"B2094757D16CA1F8489D","title":"华发小区","lon":"121.45112485","lat":"31.128025923","category":"47","category_name":"住宅区","address":"华发小区位于徐汇华发路176号"},{"poiid":"B2094655D268ABF9489B","title":"龙吴路立交桥","lon":"121.45769","lat":"31.1244","category":"250","category_name":"公园户外","address":""},{"poiid":"B2094654DA65A6F5419C","title":"上海市公安局徐汇分局交警支队事故审理科","lon":"121.45696","lat":"31.12466","category":"250","category_name":"公园户外","address":"龙吴路2138"},{"poiid":"B2094752D06DA2F44992","title":"浦东假日酒店","lon":"121.463451","lat":"31.128871","category":"247","category_name":"餐饮美食","address":"上海东方路899号"},{"poiid":"B2094655D268A6FC4592","title":"徐汇公安分局交通警察支队业务受理点","lon":"121.45697","lat":"31.12466","category":"250","category_name":"公园户外","address":""},{"poiid":"B2094750DB6AA0F94898","title":"龙华医院","lon":"121.454566","lat":"31.128583","category":"162","category_name":"医院","address":null},{"poiid":"B2094757D068A7F54592","title":"永达别克汽车龙吴路4s店","lon":"121.458501009","lat":"31.1251955525","category":"500","category_name":"未知分类","address":"上海市徐汇区龙吴路1600号"},{"poiid":"B2094757D16FA7FD409A","title":"华育中学","lon":"121.453852857","lat":"31.1190827441","category":"55","category_name":"中学","address":"徐汇区龙吟路99号(近华济路)"},{"poiid":"B2094654DB6CA1FB409F","title":"华馨公寓","lon":"121.459","lat":"31.1407","category":"47","category_name":"住宅区","address":"上海市徐汇区罗秀路55弄"},{"poiid":"B2094654DA65A6F4489B","title":"汤尼威尔(上海)服饰有限公司","lon":"121.45782","lat":"31.12642","category":"263","category_name":"公司","address":"龙吴路2046号"},{"poiid":"B2094757D66DA2F4469B","title":"趴课桌上~","lon":"121.456016541","lat":"31.1282272339","category":"500","category_name":"未知分类","address":"上海1788"},{"poiid":"B2094654DB6CA2FB419D","title":"快客No.6981","lon":"121.45454","lat":"31.12693","category":"117","category_name":"便民商店/便利店","address":"华发路21"},{"poiid":"B2094654DA65A6F44698","title":"福兰特上海龙吴店","lon":"121.45641","lat":"31.12736","category":"217","category_name":"旅馆招待所","address":"龙吴路2038弄甲2号"},{"poiid":"B2094654DB6CA2FB4299","title":"瀚汇美容美发华发店","lon":"121.45465","lat":"31.12693","category":"148","category_name":"美容美发店","address":"徐汇区华发路15-17号"},{"poiid":"B2094655D268A7FA409D","title":"好又多超市","lon":"121.45323","lat":"31.12682","category":"118","category_name":"超级市场","address":""},{"poiid":"B2094654DA65A6F54193","title":"上海星州汽车维修有限公司(龙吴路)","lon":"121.45843","lat":"31.12495","category":"159","category_name":"汽车维修","address":"龙吴路2148号"},{"poiid":"B2094757D16BA2F8479E","title":"770路龙吴路华泾路(东湾小区)站","lon":"121.459006009","lat":"31.1240475275","category":"500","category_name":"未知分类","address":"上海龙吴路 华泾路 东湾小区"},{"poiid":"B2094757D169AAF4469E","title":"豪大大鸡排","lon":"121.454907009","lat":"31.1255505602","category":"247","category_name":"餐饮美食","address":"上海市徐汇区华发路41号"},{"poiid":"B2094757D064A6FB479F","title":"小yiの屋","lon":"121.4558085","lat":"31.12647318","category":"500","category_name":"未知分类","address":"上海华发路99弄 5号 ×0×室"},{"poiid":"B2094654DB6CA2FB409E","title":"雷允上华发大药房","lon":"121.45373","lat":"31.1269","category":"162","category_name":"医院","address":"华发路47"},{"poiid":"B2094753D665A0FF429B","title":"徐浦大桥","lon":"121.456626","lat":"31.124225","category":"500","category_name":"未知分类","address":"上海市 外环徐浦大桥"},{"poiid":"B2094655D268ABF94898","title":"徐浦大桥","lon":"121.46894","lat":"31.12749","category":"250","category_name":"公园户外","address":"上海徐汇区环南二大道-浦东新区环南二大道"},{"poiid":"B2094757D06FA1F5489B","title":"徐汇新城","lon":"121.453094482","lat":"31.1309185028","category":"47","category_name":"住宅区","address":"上海市徐汇区龙吴路1595号"},{"poiid":"B2094757D06FA0FC429C","title":"龙吴路罗秀路","lon":"121.452246","lat":"31.135412","category":"260","category_name":"其他","address":"上海市徐汇区龙吴路罗秀路"},{"poiid":"B2094655D26BAAFD479F","title":"印象欧洲","lon":"121.462118","lat":"31.118556","category":"47","category_name":"住宅区","address":"华泾镇龙吴路2488号"},{"poiid":"B2094757D06FABFE4492","title":"中海瀛台","lon":"121.45292","lat":"31.140421","category":"500","category_name":"未知分类","address":"徐汇区龙瑞路77弄"},{"poiid":"B2094757D06FA2FA4192","title":"明丰新纪苑","lon":"121.45352","lat":"31.126495","category":"47","category_name":"住宅区","address":"上海市徐汇区华发路99弄"},{"poiid":"B2094757D06FA1FA489B","title":"紫阳花苑","lon":"121.45851978229","lat":"31.119646803034","category":"47","category_name":"住宅区","address":"紫阳花苑位于徐汇龙吴路2589号"},{"poiid":"B2094655D26FA3F4459D","title":"华泾绿苑","lon":"121.45804","lat":"31.1153","category":"47","category_name":"住宅区","address":"上海市徐汇区龙吴路2588弄"},{"poiid":"B2094757D065A0FA4999","title":"馨宁公寓","lon":"121.44778","lat":"31.128372","category":"47","category_name":"住宅区","address":"上海华发路368弄"},{"poiid":"B2094655D268A1FE489D","title":"华滨家园","lon":"121.45071","lat":"31.1392","category":"47","category_name":"住宅区","address":"龙吴路1323弄"},{"poiid":"B2094655D36CA1F8419E","title":"龙吴路华发路","lon":"121.45608","lat":"31.12669","category":"38","category_name":"公交车站","address":""},{"poiid":"B2094654DB6CA5F8449D","title":"华欣家园","lon":"121.45748","lat":"31.11902","category":"47","category_name":"住宅区","address":"龙吴路2418号"},{"poiid":"B2094655D26FAAFC479E","title":"徐汇臻园","lon":"121.45024","lat":"31.126078","category":"47","category_name":"住宅区","address":"上海市徐汇区华发路151号"},{"poiid":"B2094757D068A1F8419D","title":"上海市材料工程学校","lon":"121.446624394","lat":"31.1310546604","category":"52","category_name":"高等院校","address":"徐汇区罗秀新村136号(近龙吴路)"},{"poiid":"B2094757D068A0FF4693","title":"罗秀新村","lon":"121.44658","lat":"31.133022","category":"47","category_name":"住宅区","address":"上海市徐汇区龙川路"},{"poiid":"B2094654DA65A6F54192","title":"上海市公安局徐汇分局交警支队对外办事窗口","lon":"121.45696","lat":"31.12466","category":"250","category_name":"公园户外","address":"龙吴路2138"},{"poiid":"B2094654DB6DA3FC439A","title":"华泾公园","lon":"121.4546","lat":"31.12032","category":"196","category_name":"公园","address":"徐汇区华泾路190号(近龙吴路)"},{"poiid":"B2094655D36CA0F5449D","title":"华泾小区","lon":"121.467","lat":"31.1225","category":"47","category_name":"住宅区","address":"华泾路38弄"},{"poiid":"B2094750D66CA1FF469D","title":"华沁家园","lon":"121.449996","lat":"31.134494","category":"500","category_name":"未知分类","address":"上海徐汇区龙吴路1343弄"},{"poiid":"B2094757D06FA5FE469D","title":"徐汇华园","lon":"121.45417","lat":"31.128843","category":"47","category_name":"住宅区","address":"上海华发路58弄"},{"poiid":"B2094757D06FA6F8479C","title":"TONY WEAR(汤尼威尔)上海公司","lon":"121.457831","lat":"31.126421","category":"500","category_name":"未知分类","address":"上海龙吴路2046号"},{"poiid":"B2094654DA65A6F4449C","title":"港口渡口","lon":"121.45875","lat":"31.1334","category":"34","category_name":"港口码头","address":""},{"poiid":"B2094654DA65A6F44293","title":"上海市划船俱乐部","lon":"121.45666","lat":"31.13521","category":"220","category_name":"运动场所","address":"龙吴路1594"},{"poiid":"B2094750D26FABFA4793","title":"东湾小区","lon":"121.45731","lat":"31.12269","category":"251","category_name":"出行住宿","address":"东湾小区位于徐汇龙吴路2388弄"},{"poiid":"B2094757D66DABF94898","title":"永达BUICK龙吴店","lon":"121.453904857","lat":"31.1345930549","category":"500","category_name":"未知分类","address":"上海市徐汇区罗秀路"},{"poiid":"B2094757D065A2F8429C","title":"新红园大酒店","lon":"121.455392643","lat":"31.1244974373","category":"76","category_name":"上海菜","address":"徐汇区华泾镇龙吟路9号(近华泾路)查看地图"},{"poiid":"B2094654DB64A2FA419D","title":"世纪华联","lon":"121.45601","lat":"31.12823","category":"117","category_name":"便民商店/便利店","address":"龙吴路2028识别"},{"poiid":"B2094654DA65A6F54298","title":"上海良友海狮油脂实业有限公司","lon":"121.46038","lat":"31.12612","category":"263","category_name":"公司","address":"龙吴路2080号"},{"poiid":"B2094757D66DABFA4693","title":"三林渡口","lon":"121.455088509","lat":"31.1312720848","category":"500","category_name":"未知分类","address":"上海沿江公路"},{"poiid":"B2094757D16CA1F8489D","title":"华发小区","lon":"121.45112485","lat":"31.128025923","category":"47","category_name":"住宅区","address":"华发小区位于徐汇华发路176号"},{"poiid":"B2094655D268ABF9489B","title":"龙吴路立交桥","lon":"121.45769","lat":"31.1244","category":"250","category_name":"公园户外","address":""},{"poiid":"B2094654DA65A6F5419C","title":"上海市公安局徐汇分局交警支队事故审理科","lon":"121.45696","lat":"31.12466","category":"250","category_name":"公园户外","address":"龙吴路2138"},{"poiid":"B2094752D06DA2F44992","title":"浦东假日酒店","lon":"121.463451","lat":"31.128871","category":"247","category_name":"餐饮美食","address":"上海东方路899号"},{"poiid":"B2094655D268A6FC4592","title":"徐汇公安分局交通警察支队业务受理点","lon":"121.45697","lat":"31.12466","category":"250","category_name":"公园户外","address":""},{"poiid":"B2094750DB6AA0F94898","title":"龙华医院","lon":"121.454566","lat":"31.128583","category":"162","category_name":"医院","address":null},{"poiid":"B2094757D068A7F54592","title":"永达别克汽车龙吴路4s店","lon":"121.458501009","lat":"31.1251955525","category":"500","category_name":"未知分类","address":"上海市徐汇区龙吴路1600号"},{"poiid":"B2094757D16FA7FD409A","title":"华育中学","lon":"121.453852857","lat":"31.1190827441","category":"55","category_name":"中学","address":"徐汇区龙吟路99号(近华济路)"},{"poiid":"B2094654DB6CA1FB409F","title":"华馨公寓","lon":"121.459","lat":"31.1407","category":"47","category_name":"住宅区","address":"上海市徐汇区罗秀路55弄"},{"poiid":"B2094654DA65A6F4489B","title":"汤尼威尔(上海)服饰有限公司","lon":"121.45782","lat":"31.12642","category":"263","category_name":"公司","address":"龙吴路2046号"},{"poiid":"B2094757D66DA2F4469B","title":"趴课桌上~","lon":"121.456016541","lat":"31.1282272339","category":"500","category_name":"未知分类","address":"上海1788"},{"poiid":"B2094654DB6CA2FB419D","title":"快客No.6981","lon":"121.45454","lat":"31.12693","category":"117","category_name":"便民商店/便利店","address":"华发路21"},{"poiid":"B2094654DA65A6F44698","title":"福兰特上海龙吴店","lon":"121.45641","lat":"31.12736","category":"217","category_name":"旅馆招待所","address":"龙吴路2038弄甲2号"},{"poiid":"B2094654DB6CA2FB4299","title":"瀚汇美容美发华发店","lon":"121.45465","lat":"31.12693","category":"148","category_name":"美容美发店","address":"徐汇区华发路15-17号"},{"poiid":"B2094655D268A7FA409D","title":"好又多超市","lon":"121.45323","lat":"31.12682","category":"118","category_name":"超级市场","address":""},{"poiid":"B2094654DA65A6F54193","title":"上海星州汽车维修有限公司(龙吴路)","lon":"121.45843","lat":"31.12495","category":"159","category_name":"汽车维修","address":"龙吴路2148号"},{"poiid":"B2094757D16BA2F8479E","title":"770路龙吴路华泾路(东湾小区)站","lon":"121.459006009","lat":"31.1240475275","category":"500","category_name":"未知分类","address":"上海龙吴路 华泾路 东湾小区"},{"poiid":"B2094757D169AAF4469E","title":"豪大大鸡排","lon":"121.454907009","lat":"31.1255505602","category":"247","category_name":"餐饮美食","address":"上海市徐汇区华发路41号"},{"poiid":"B2094757D064A6FB479F","title":"小yiの屋","lon":"121.4558085","lat":"31.12647318","category":"500","category_name":"未知分类","address":"上海华发路99弄 5号 ×0×室"},{"poiid":"B2094654DB6CA2FB409E","title":"雷允上华发大药房","lon":"121.45373","lat":"31.1269","category":"162","category_name":"医院","address":"华发路47"},{"poiid":"B2094753D665A0FF429B","title":"徐浦大桥","lon":"121.456626","lat":"31.124225","category":"500","category_name":"未知分类","address":"上海市 外环徐浦大桥"},{"poiid":"B2094655D268ABF94898","title":"徐浦大桥","lon":"121.46894","lat":"31.12749","category":"250","category_name":"公园户外","address":"上海徐汇区环南二大道-浦东新区环南二大道"},{"poiid":"B2094757D06FA1F5489B","title":"徐汇新城","lon":"121.453094482","lat":"31.1309185028","category":"47","category_name":"住宅区","address":"上海市徐汇区龙吴路1595号"},{"poiid":"B2094757D06FA0FC429C","title":"龙吴路罗秀路","lon":"121.452246","lat":"31.135412","category":"260","category_name":"其他","address":"上海市徐汇区龙吴路罗秀路"},{"poiid":"B2094655D26BAAFD479F","title":"印象欧洲","lon":"121.462118","lat":"31.118556","category":"47","category_name":"住宅区","address":"华泾镇龙吴路2488号"},{"poiid":"B2094757D06FABFE4492","title":"中海瀛台","lon":"121.45292","lat":"31.140421","category":"500","category_name":"未知分类","address":"徐汇区龙瑞路77弄"},{"poiid":"B2094757D06FA2FA4192","title":"明丰新纪苑","lon":"121.45352","lat":"31.126495","category":"47","category_name":"住宅区","address":"上海市徐汇区华发路99弄"},{"poiid":"B2094757D06FA1FA489B","title":"紫阳花苑","lon":"121.45851978229","lat":"31.119646803034","category":"47","category_name":"住宅区","address":"紫阳花苑位于徐汇龙吴路2589号"},{"poiid":"B2094655D26FA3F4459D","title":"华泾绿苑","lon":"121.45804","lat":"31.1153","category":"47","category_name":"住宅区","address":"上海市徐汇区龙吴路2588弄"},{"poiid":"B2094757D065A0FA4999","title":"馨宁公寓","lon":"121.44778","lat":"31.128372","category":"47","category_name":"住宅区","address":"上海华发路368弄"},{"poiid":"B2094655D268A1FE489D","title":"华滨家园","lon":"121.45071","lat":"31.1392","category":"47","category_name":"住宅区","address":"龙吴路1323弄"},{"poiid":"B2094655D36CA1F8419E","title":"龙吴路华发路","lon":"121.45608","lat":"31.12669","category":"38","category_name":"公交车站","address":""},{"poiid":"B2094654DB6CA5F8449D","title":"华欣家园","lon":"121.45748","lat":"31.11902","category":"47","category_name":"住宅区","address":"龙吴路2418号"},{"poiid":"B2094655D26FAAFC479E","title":"徐汇臻园","lon":"121.45024","lat":"31.126078","category":"47","category_name":"住宅区","address":"上海市徐汇区华发路151号"},{"poiid":"B2094757D068A1F8419D","title":"上海市材料工程学校","lon":"121.446624394","lat":"31.1310546604","category":"52","category_name":"高等院校","address":"徐汇区罗秀新村136号(近龙吴路)"},{"poiid":"B2094757D068A0FF4693","title":"罗秀新村","lon":"121.44658","lat":"31.133022","category":"47","category_name":"住宅区","address":"上海市徐汇区龙川路"},{"poiid":"B2094654DA65A6F54192","title":"上海市公安局徐汇分局交警支队对外办事窗口","lon":"121.45696","lat":"31.12466","category":"250","category_name":"公园户外","address":"龙吴路2138"},{"poiid":"B2094654DB6DA3FC439A","title":"华泾公园","lon":"121.4546","lat":"31.12032","category":"196","category_name":"公园","address":"徐汇区华泾路190号(近龙吴路)"},{"poiid":"B2094655D36CA0F5449D","title":"华泾小区","lon":"121.467","lat":"31.1225","category":"47","category_name":"住宅区","address":"华泾路38弄"},{"poiid":"B2094750D66CA1FF469D","title":"华沁家园","lon":"121.449996","lat":"31.134494","category":"500","category_name":"未知分类","address":"上海徐汇区龙吴路1343弄"},{"poiid":"B2094757D06FA5FE469D","title":"徐汇华园","lon":"121.45417","lat":"31.128843","category":"47","category_name":"住宅区","address":"上海华发路58弄"},{"poiid":"B2094757D06FA6F8479C","title":"TONY WEAR(汤尼威尔)上海公司","lon":"121.457831","lat":"31.126421","category":"500","category_name":"未知分类","address":"上海龙吴路2046号"},{"poiid":"B2094654DA65A6F4449C","title":"港口渡口","lon":"121.45875","lat":"31.1334","category":"34","category_name":"港口码头","address":""},{"poiid":"B2094654DA65A6F44293","title":"上海市划船俱乐部","lon":"121.45666","lat":"31.13521","category":"220","category_name":"运动场所","address":"龙吴路1594"},{"poiid":"B2094750D26FABFA4793","title":"东湾小区","lon":"121.45731","lat":"31.12269","category":"251","category_name":"出行住宿","address":"东湾小区位于徐汇龙吴路2388弄"},{"poiid":"B2094757D66DABF94898","title":"永达BUICK龙吴店","lon":"121.453904857","lat":"31.1345930549","category":"500","category_name":"未知分类","address":"上海市徐汇区罗秀路"},{"poiid":"B2094757D065A2F8429C","title":"新红园大酒店","lon":"121.455392643","lat":"31.1244974373","category":"76","category_name":"上海菜","address":"徐汇区华泾镇龙吟路9号(近华泾路)查看地图"},{"poiid":"B2094654DB64A2FA419D","title":"世纪华联","lon":"121.45601","lat":"31.12823","category":"117","category_name":"便民商店/便利店","address":"龙吴路2028识别"},{"poiid":"B2094654DA65A6F54298","title":"上海良友海狮油脂实业有限公司","lon":"121.46038","lat":"31.12612","category":"263","category_name":"公司","address":"龙吴路2080号"},{"poiid":"B2094757D66DABFA4693","title":"三林渡口","lon":"121.455088509","lat":"31.1312720848","category":"500","category_name":"未知分类","address":"上海沿江公路"},{"poiid":"B2094757D16CA1F8489D","title":"华发小区","lon":"121.45112485","lat":"31.128025923","category":"47","category_name":"住宅区","address":"华发小区位于徐汇华发路176号"},{"poiid":"B2094655D268ABF9489B","title":"龙吴路立交桥","lon":"121.45769","lat":"31.1244","category":"250","category_name":"公园户外","address":""},{"poiid":"B2094654DA65A6F5419C","title":"上海市公安局徐汇分局交警支队事故审理科","lon":"121.45696","lat":"31.12466","category":"250","category_name":"公园户外","address":"龙吴路2138"},{"poiid":"B2094752D06DA2F44992","title":"浦东假日酒店","lon":"121.463451","lat":"31.128871","category":"247","category_name":"餐饮美食","address":"上海东方路899号"},{"poiid":"B2094655D268A6FC4592","title":"徐汇公安分局交通警察支队业务受理点","lon":"121.45697","lat":"31.12466","category":"250","category_name":"公园户外","address":""},{"poiid":"B2094750DB6AA0F94898","title":"龙华医院","lon":"121.454566","lat":"31.128583","category":"162","category_name":"医院","address":null},{"poiid":"B2094757D068A7F54592","title":"永达别克汽车龙吴路4s店","lon":"121.458501009","lat":"31.1251955525","category":"500","category_name":"未知分类","address":"上海市徐汇区龙吴路1600号"},{"poiid":"B2094757D16FA7FD409A","title":"华育中学","lon":"121.453852857","lat":"31.1190827441","category":"55","category_name":"中学","address":"徐汇区龙吟路99号(近华济路)"},{"poiid":"B2094654DB6CA1FB409F","title":"华馨公寓","lon":"121.459","lat":"31.1407","category":"47","category_name":"住宅区","address":"上海市徐汇区罗秀路55弄"},{"poiid":"B2094654DA65A6F4489B","title":"汤尼威尔(上海)服饰有限公司","lon":"121.45782","lat":"31.12642","category":"263","category_name":"公司","address":"龙吴路2046号"},{"poiid":"B2094757D66DA2F4469B","title":"趴课桌上~","lon":"121.456016541","lat":"31.1282272339","category":"500","category_name":"未知分类","address":"上海1788"},{"poiid":"B2094654DB6CA2FB419D","title":"快客No.6981","lon":"121.45454","lat":"31.12693","category":"117","category_name":"便民商店/便利店","address":"华发路21"},{"poiid":"B2094654DA65A6F44698","title":"福兰特上海龙吴店","lon":"121.45641","lat":"31.12736","category":"217","category_name":"旅馆招待所","address":"龙吴路2038弄甲2号"},{"poiid":"B2094654DB6CA2FB4299","title":"瀚汇美容美发华发店","lon":"121.45465","lat":"31.12693","category":"148","category_name":"美容美发店","address":"徐汇区华发路15-17号"},{"poiid":"B2094655D268A7FA409D","title":"好又多超市","lon":"121.45323","lat":"31.12682","category":"118","category_name":"超级市场","address":""},{"poiid":"B2094654DA65A6F54193","title":"上海星州汽车维修有限公司(龙吴路)","lon":"121.45843","lat":"31.12495","category":"159","category_name":"汽车维修","address":"龙吴路2148号"},{"poiid":"B2094757D16BA2F8479E","title":"770路龙吴路华泾路(东湾小区)站","lon":"121.459006009","lat":"31.1240475275","category":"500","category_name":"未知分类","address":"上海龙吴路 华泾路 东湾小区"},{"poiid":"B2094757D169AAF4469E","title":"豪大大鸡排","lon":"121.454907009","lat":"31.1255505602","category":"247","category_name":"餐饮美食","address":"上海市徐汇区华发路41号"},{"poiid":"B2094757D064A6FB479F","title":"小yiの屋","lon":"121.4558085","lat":"31.12647318","category":"500","category_name":"未知分类","address":"上海华发路99弄 5号 ×0×室"},{"poiid":"B2094654DB6CA2FB409E","title":"雷允上华发大药房","lon":"121.45373","lat":"31.1269","category":"162","category_name":"医院","address":"华发路47"},{"poiid":"B2094753D665A0FF429B","title":"徐浦大桥","lon":"121.456626","lat":"31.124225","category":"500","category_name":"未知分类","address":"上海市 外环徐浦大桥"}]