[{"poiid":"B2094757D06EAAF8469C","title":"虹桥路地铁站","lon":"121.42085764","lat":"31.196969371","category":"36","category_name":"地铁站","address":"上海轨道交通,三号线,四号线,十号线,轨交虹桥路站,轻轨,3,,4,,10"},{"poiid":"B2094654D564A6F84399","title":"红坊","lon":"121.42382","lat":"31.19873","category":"183","category_name":"展览馆","address":"红坊位于淮海西路570—588号，南邻徐家汇商业中心，西靠虹桥CBD商务区。"},{"poiid":"B2094757D465A3F84792","title":"捞王猪肚鸡 凯旋路店","lon":"121.42031","lat":"31.19974","category":"86","category_name":"火锅店","address":"长宁区凯旋路1456号1座(近虹桥路)"},{"poiid":"B2094757D16CA1F8469C","title":"新淮海坊","lon":"121.42218328","lat":"31.196099263","category":"119","category_name":"商场","address":"长宁区淮海西路680号"},{"poiid":"B2094750DA6FAAFE4392","title":"茶香书香(新淮海坊店)","lon":"121.423049","lat":"31.197093","category":"113","category_name":"冷饮店","address":"徐汇区淮海西路676号1-02号铺新淮海坊内(近虹桥路地铁站)"},{"poiid":"B2094654DB69A5F9449C","title":"星巴克(新华路店)","lon":"121.42278","lat":"31.19601","category":"260","category_name":"其他","address":"长宁区淮海西路666号(近虹桥路)"},{"poiid":"B2094757D06EAAFA459B","title":"红坊国际艺术文化社区","lon":"121.4217","lat":"31.19888","category":"260","category_name":"其他","address":"长宁区淮海西路570号红坊创意园区内(近虹桥路)"},{"poiid":"B2094757D069ABFB479D","title":"中山万博国际中心","lon":"121.421343","lat":"31.19718","category":"184","category_name":"美术馆","address":"上海淮海西路凯旋路"},{"poiid":"B2094757D16EA3F4449B","title":"地铁10号线虹桥路站","lon":"121.418546286","lat":"31.1987820161","category":"500","category_name":"未知分类","address":"上海水城路虹桥路"},{"poiid":"B2094655D36CA7F8449A","title":"虹桥路凯旋路","lon":"121.42317","lat":"31.19512","category":"38","category_name":"公交车站","address":""},{"poiid":"B2094757D06BA5FD4593","title":"四号线虹桥路站","lon":"121.421168986","lat":"31.1982426055","category":"500","category_name":"未知分类","address":"上海轨道交通三四号线虹桥路站"},{"poiid":"B2094757D06FA2FB419E","title":"肯德基 KFC (虹凯店)","lon":"121.42098","lat":"31.197368","category":"68","category_name":"快餐厅","address":"长宁区虹桥路轻轨站1楼"},{"poiid":"B2094655D36DA6FD449C","title":"虹桥路","lon":"121.42227","lat":"31.19679","category":"38","category_name":"公交车站","address":"长宁区长宁区虹桥路1010号(靠凯旋路)"},{"poiid":"B2094757D06FA7FD4399","title":"呷哺呷哺(虹桥店)","lon":"121.42093526","lat":"31.197682224","category":"86","category_name":"火锅店","address":"宝山区轨道交通三号线水产路站1楼SC101、SC102号商铺"},{"poiid":"B2094757D06FA7F4429F","title":"味千拉面(凯虹店)","lon":"121.42138","lat":"31.19701","category":"95","category_name":"日本料理","address":"长宁区凯旋路1529号轻轨虹桥路站1楼(近虹桥路轻轨站)"},{"poiid":"B2094757D164A1FA489C","title":"十号线虹桥站","lon":"121.421655586","lat":"31.1963447685","category":"500","category_name":"未知分类","address":"上海虹桥路"},{"poiid":"B2094750DB65A1FC419A","title":"边城1803","lon":"121.422","lat":"31.19701","category":"77","category_name":"湖南菜","address":"长宁区凯旋路1582号-5新淮海坊内(近虹桥路)"},{"poiid":"B2094757D068A2FB4898","title":"旬彩亭","lon":"121.42219","lat":"31.19471","category":"95","category_name":"日本料理","address":"徐汇区凯旋路1669号2楼(虹桥路口)"},{"poiid":"B2094750DA6BA2F8489C","title":"上海虹桥火车站","lon":"121.420272","lat":"31.197834","category":"627","category_name":"一般地点标志","address":null},{"poiid":"B2094750DA6EA5F9429E","title":"麦当劳","lon":"121.4206","lat":"31.196416","category":"68","category_name":"快餐厅","address":"长宁区凯旋路1586号(近虹桥路)"},{"poiid":"B2094757D469A4FA489D","title":"永和大王 凯旋路店","lon":"121.42087","lat":"31.19782","category":"68","category_name":"快餐厅","address":"长宁区凯旋路1509号"},{"poiid":"B2094750D56FA3FD4399","title":"玖洋捞精品牛肉海鲜火锅","lon":"121.422691","lat":"31.196554","category":"86","category_name":"火锅店","address":"上海市长宁区淮海西路678号新淮海坊内(近虹桥路)"},{"poiid":"B2094757D06BAAFF4892","title":"粤来记","lon":"121.41979","lat":"31.20057","category":"72","category_name":"广东菜","address":"长宁区凯旋路1392号(近轻轨虹桥路站)"},{"poiid":"B2094753D76FA5FE4093","title":"小黑蚝情","lon":"121.423011","lat":"31.195306","category":"247","category_name":"餐饮美食","address":"上海市 长宁区淮海西路新淮海坊"},{"poiid":"B2094757D06FA5FE4499","title":"Beca Cafe &amp; Bar","lon":"121.42359","lat":"31.19671","category":"94","category_name":"西餐厅","address":"长宁区淮海西路570号红坊创意园区C-6单元(近虹桥路)"},{"poiid":"B2094757D069A3FA4792","title":"华德饭店(虹桥店)","lon":"121.42183","lat":"31.19564","category":"76","category_name":"上海菜","address":"徐汇区虹桥路955号(凯旋路口)"},{"poiid":"B2094757D469A0FB4699","title":"克切拉素品茶","lon":"121.4242652","lat":"31.1976016","category":"89","category_name":"中式素餐馆","address":"长宁区淮海西路570号G113单元(近虹桥路)"},{"poiid":"B2094757D568AAF9439C","title":"莉莲蛋挞饼屋(凯旋路)","lon":"121.4210574","lat":"31.19720676","category":"67","category_name":"甜品店","address":"长宁区凯旋路1552号轻轨虹桥路站1楼"},{"poiid":"B2094757D66EA5F9429D","title":"苏菲雅","lon":"121.423238586","lat":"31.1985828122","category":"500","category_name":"未知分类","address":"上海淮海西路570号G 108"},{"poiid":"B2094654DA6DA2FF419A","title":"丽池(虹桥)会所","lon":"121.41874","lat":"31.19545","category":"248","category_name":"生活娱乐","address":"虹桥路1030"},{"poiid":"B2094750DA68A6F5439E","title":"Jeff的店","lon":"121.419944","lat":"31.20049","category":"94","category_name":"西餐厅","address":"长宁区凯旋路1456号(近虹桥路站地铁口)"},{"poiid":"B2094753D36EA7F94192","title":"小黑耗情","lon":"121.422232","lat":"31.196226","category":"500","category_name":"未知分类","address":"上海市 淮海西路1582-6号"},{"poiid":"B2094654D56BABF8419A","title":"领尚国际酒店公寓","lon":"121.421","lat":"31.1982","category":"214","category_name":"四星级宾馆","address":"长宁区宋园路58号(近儿童博物馆)"},{"poiid":"B2094655D268A1FA4799","title":"新顺小区","lon":"121.41982","lat":"31.19788","category":"47","category_name":"住宅区","address":"虹桥路953弄"},{"poiid":"B209475CD36FA1F5479E","title":"泰生厨房 新淮海坊店","lon":"121.42252","lat":"31.19704","category":"86","category_name":"火锅店","address":"凯旋路1580号10-1F(近虹桥路)"},{"poiid":"B2094654D564A6FA479B","title":"利联商行","lon":"121.42099","lat":"31.19738","category":"119","category_name":"商场","address":"凯旋路1533识别"},{"poiid":"B2094752D26CA2F94599","title":"串坊创意烧肉餐吧","lon":"121.42284","lat":"31.19605","category":"269","category_name":"烧烤","address":"长宁区淮海西路686号新淮海坊内(近虹桥路地铁站)"},{"poiid":"B2094750DA6AABF54493","title":"京世造型","lon":"121.421615","lat":"31.196636","category":"248","category_name":"生活娱乐","address":"虹桥路1576号"},{"poiid":"B2094751DB65A1F8489C","title":"泰生天地","lon":"121.42278","lat":"31.19601","category":"86","category_name":"火锅店","address":"长宁区淮海西路666号裙楼1楼(近虹桥路)"},{"poiid":"B2094757D16BA6FC489C","title":"836路公交车(虹桥路长顺路站)","lon":"121.420338886","lat":"31.1972720866","category":"38","category_name":"公交车站","address":"上海虹桥路长顺路口"},{"poiid":"B2094757D16BA1FB439D","title":"KECHARA TEA HOUSE","lon":"121.423240586","lat":"31.1988928183","category":"500","category_name":"未知分类","address":"上海淮海西路570號28幢G113單元"},{"poiid":"B2094757D16FAAFC409E","title":"豪大大台湾大鸡排(凯旋路店)","lon":"121.41934358","lat":"31.197369788","category":"68","category_name":"快餐厅","address":"长宁区凯旋路1501号(虹桥路口)"},{"poiid":"B2094757D76DA2F4459B","title":"鱼寿司","lon":"121.421674","lat":"31.19629","category":"95","category_name":"日本料理","address":"长宁区凯旋路1415号118室(近虹桥路)"},{"poiid":"B2094655D265A6FD4899","title":"莱卡小厨","lon":"121.42082","lat":"31.19636","category":"68","category_name":"快餐厅","address":"徐汇区虹桥路885弄3号东侧(近轻轨3号线虹桥路2号出口)"},{"poiid":"B2094752D26DA0FF469D","title":"伊贺","lon":"121.42279","lat":"31.19626","category":"95","category_name":"日本料理","address":"徐汇区新淮海坊(轨道3，4、10号线虹桥路站)"},{"poiid":"B2094757D469A7FA419D","title":"波力牧场 虹桥路站 PO-LI DAIRY FARM","lon":"121.42052","lat":"31.19819","category":"67","category_name":"甜品店","address":"地铁3号线虹桥路站2楼近凯旋路"},{"poiid":"B2094757D568AAF5439F","title":"利联流行线","lon":"121.421056","lat":"31.19721734","category":"141","category_name":"服装鞋帽皮具店","address":"凯旋路1538"},{"poiid":"B2094757D16DA3F84992","title":"咖喱时代48(curry generation 48)","lon":"121.420376886","lat":"31.1957836575","category":"68","category_name":"快餐厅","address":"长宁区凯旋路1507号(近地铁4号线虹桥路站)"},{"poiid":"B2094751D568A7FB409F","title":"艾平榭Epi-ciel","lon":"121.422379","lat":"31.196348","category":"112","category_name":"糕饼店","address":"长宁区淮海西路686号1楼(近虹桥路)"},{"poiid":"B2094753D16CA0FF4099","title":"京世造型美容(虹桥店)","lon":"121.420921","lat":"31.196676","category":"148","category_name":"美容美发店","address":"徐汇区凯旋路1576号"},{"poiid":"B2094757D06EAAF8469C","title":"虹桥路地铁站","lon":"121.42085764","lat":"31.196969371","category":"36","category_name":"地铁站","address":"上海轨道交通,三号线,四号线,十号线,轨交虹桥路站,轻轨,3,,4,,10"},{"poiid":"B2094654D564A6F84399","title":"红坊","lon":"121.42382","lat":"31.19873","category":"183","category_name":"展览馆","address":"红坊位于淮海西路570—588号，南邻徐家汇商业中心，西靠虹桥CBD商务区。"},{"poiid":"B2094757D465A3F84792","title":"捞王猪肚鸡 凯旋路店","lon":"121.42031","lat":"31.19974","category":"86","category_name":"火锅店","address":"长宁区凯旋路1456号1座(近虹桥路)"},{"poiid":"B2094757D16CA1F8469C","title":"新淮海坊","lon":"121.42218328","lat":"31.196099263","category":"119","category_name":"商场","address":"长宁区淮海西路680号"},{"poiid":"B2094750DA6FAAFE4392","title":"茶香书香(新淮海坊店)","lon":"121.423049","lat":"31.197093","category":"113","category_name":"冷饮店","address":"徐汇区淮海西路676号1-02号铺新淮海坊内(近虹桥路地铁站)"},{"poiid":"B2094654DB69A5F9449C","title":"星巴克(新华路店)","lon":"121.42278","lat":"31.19601","category":"260","category_name":"其他","address":"长宁区淮海西路666号(近虹桥路)"},{"poiid":"B2094757D06EAAFA459B","title":"红坊国际艺术文化社区","lon":"121.4217","lat":"31.19888","category":"260","category_name":"其他","address":"长宁区淮海西路570号红坊创意园区内(近虹桥路)"},{"poiid":"B2094757D069ABFB479D","title":"中山万博国际中心","lon":"121.421343","lat":"31.19718","category":"184","category_name":"美术馆","address":"上海淮海西路凯旋路"},{"poiid":"B2094757D16EA3F4449B","title":"地铁10号线虹桥路站","lon":"121.418546286","lat":"31.1987820161","category":"500","category_name":"未知分类","address":"上海水城路虹桥路"},{"poiid":"B2094655D36CA7F8449A","title":"虹桥路凯旋路","lon":"121.42317","lat":"31.19512","category":"38","category_name":"公交车站","address":""},{"poiid":"B2094757D06BA5FD4593","title":"四号线虹桥路站","lon":"121.421168986","lat":"31.1982426055","category":"500","category_name":"未知分类","address":"上海轨道交通三四号线虹桥路站"},{"poiid":"B2094757D06FA2FB419E","title":"肯德基 KFC (虹凯店)","lon":"121.42098","lat":"31.197368","category":"68","category_name":"快餐厅","address":"长宁区虹桥路轻轨站1楼"},{"poiid":"B2094655D36DA6FD449C","title":"虹桥路","lon":"121.42227","lat":"31.19679","category":"38","category_name":"公交车站","address":"长宁区长宁区虹桥路1010号(靠凯旋路)"},{"poiid":"B2094757D06FA7FD4399","title":"呷哺呷哺(虹桥店)","lon":"121.42093526","lat":"31.197682224","category":"86","category_name":"火锅店","address":"宝山区轨道交通三号线水产路站1楼SC101、SC102号商铺"},{"poiid":"B2094757D06FA7F4429F","title":"味千拉面(凯虹店)","lon":"121.42138","lat":"31.19701","category":"95","category_name":"日本料理","address":"长宁区凯旋路1529号轻轨虹桥路站1楼(近虹桥路轻轨站)"},{"poiid":"B2094757D164A1FA489C","title":"十号线虹桥站","lon":"121.421655586","lat":"31.1963447685","category":"500","category_name":"未知分类","address":"上海虹桥路"},{"poiid":"B2094750DB65A1FC419A","title":"边城1803","lon":"121.422","lat":"31.19701","category":"77","category_name":"湖南菜","address":"长宁区凯旋路1582号-5新淮海坊内(近虹桥路)"},{"poiid":"B2094757D068A2FB4898","title":"旬彩亭","lon":"121.42219","lat":"31.19471","category":"95","category_name":"日本料理","address":"徐汇区凯旋路1669号2楼(虹桥路口)"},{"poiid":"B2094750DA6BA2F8489C","title":"上海虹桥火车站","lon":"121.420272","lat":"31.197834","category":"627","category_name":"一般地点标志","address":null},{"poiid":"B2094750DA6EA5F9429E","title":"麦当劳","lon":"121.4206","lat":"31.196416","category":"68","category_name":"快餐厅","address":"长宁区凯旋路1586号(近虹桥路)"},{"poiid":"B2094757D469A4FA489D","title":"永和大王 凯旋路店","lon":"121.42087","lat":"31.19782","category":"68","category_name":"快餐厅","address":"长宁区凯旋路1509号"},{"poiid":"B2094750D56FA3FD4399","title":"玖洋捞精品牛肉海鲜火锅","lon":"121.422691","lat":"31.196554","category":"86","category_name":"火锅店","address":"上海市长宁区淮海西路678号新淮海坊内(近虹桥路)"},{"poiid":"B2094757D06BAAFF4892","title":"粤来记","lon":"121.41979","lat":"31.20057","category":"72","category_name":"广东菜","address":"长宁区凯旋路1392号(近轻轨虹桥路站)"},{"poiid":"B2094753D76FA5FE4093","title":"小黑蚝情","lon":"121.423011","lat":"31.195306","category":"247","category_name":"餐饮美食","address":"上海市 长宁区淮海西路新淮海坊"},{"poiid":"B2094757D06FA5FE4499","title":"Beca Cafe &amp; Bar","lon":"121.42359","lat":"31.19671","category":"94","category_name":"西餐厅","address":"长宁区淮海西路570号红坊创意园区C-6单元(近虹桥路)"},{"poiid":"B2094757D069A3FA4792","title":"华德饭店(虹桥店)","lon":"121.42183","lat":"31.19564","category":"76","category_name":"上海菜","address":"徐汇区虹桥路955号(凯旋路口)"},{"poiid":"B2094757D469A0FB4699","title":"克切拉素品茶","lon":"121.4242652","lat":"31.1976016","category":"89","category_name":"中式素餐馆","address":"长宁区淮海西路570号G113单元(近虹桥路)"},{"poiid":"B2094757D568AAF9439C","title":"莉莲蛋挞饼屋(凯旋路)","lon":"121.4210574","lat":"31.19720676","category":"67","category_name":"甜品店","address":"长宁区凯旋路1552号轻轨虹桥路站1楼"},{"poiid":"B2094757D66EA5F9429D","title":"苏菲雅","lon":"121.423238586","lat":"31.1985828122","category":"500","category_name":"未知分类","address":"上海淮海西路570号G 108"},{"poiid":"B2094654DA6DA2FF419A","title":"丽池(虹桥)会所","lon":"121.41874","lat":"31.19545","category":"248","category_name":"生活娱乐","address":"虹桥路1030"},{"poiid":"B2094750DA68A6F5439E","title":"Jeff的店","lon":"121.419944","lat":"31.20049","category":"94","category_name":"西餐厅","address":"长宁区凯旋路1456号(近虹桥路站地铁口)"},{"poiid":"B2094753D36EA7F94192","title":"小黑耗情","lon":"121.422232","lat":"31.196226","category":"500","category_name":"未知分类","address":"上海市 淮海西路1582-6号"},{"poiid":"B2094654D56BABF8419A","title":"领尚国际酒店公寓","lon":"121.421","lat":"31.1982","category":"214","category_name":"四星级宾馆","address":"长宁区宋园路58号(近儿童博物馆)"},{"poiid":"B2094655D268A1FA4799","title":"新顺小区","lon":"121.41982","lat":"31.19788","category":"47","category_name":"住宅区","address":"虹桥路953弄"},{"poiid":"B209475CD36FA1F5479E","title":"泰生厨房 新淮海坊店","lon":"121.42252","lat":"31.19704","category":"86","category_name":"火锅店","address":"凯旋路1580号10-1F(近虹桥路)"},{"poiid":"B2094654D564A6FA479B","title":"利联商行","lon":"121.42099","lat":"31.19738","category":"119","category_name":"商场","address":"凯旋路1533识别"},{"poiid":"B2094752D26CA2F94599","title":"串坊创意烧肉餐吧","lon":"121.42284","lat":"31.19605","category":"269","category_name":"烧烤","address":"长宁区淮海西路686号新淮海坊内(近虹桥路地铁站)"},{"poiid":"B2094750DA6AABF54493","title":"京世造型","lon":"121.421615","lat":"31.196636","category":"248","category_name":"生活娱乐","address":"虹桥路1576号"},{"poiid":"B2094751DB65A1F8489C","title":"泰生天地","lon":"121.42278","lat":"31.19601","category":"86","category_name":"火锅店","address":"长宁区淮海西路666号裙楼1楼(近虹桥路)"},{"poiid":"B2094757D16BA6FC489C","title":"836路公交车(虹桥路长顺路站)","lon":"121.420338886","lat":"31.1972720866","category":"38","category_name":"公交车站","address":"上海虹桥路长顺路口"},{"poiid":"B2094757D16BA1FB439D","title":"KECHARA TEA HOUSE","lon":"121.423240586","lat":"31.1988928183","category":"500","category_name":"未知分类","address":"上海淮海西路570號28幢G113單元"},{"poiid":"B2094757D16FAAFC409E","title":"豪大大台湾大鸡排(凯旋路店)","lon":"121.41934358","lat":"31.197369788","category":"68","category_name":"快餐厅","address":"长宁区凯旋路1501号(虹桥路口)"},{"poiid":"B2094757D76DA2F4459B","title":"鱼寿司","lon":"121.421674","lat":"31.19629","category":"95","category_name":"日本料理","address":"长宁区凯旋路1415号118室(近虹桥路)"},{"poiid":"B2094655D265A6FD4899","title":"莱卡小厨","lon":"121.42082","lat":"31.19636","category":"68","category_name":"快餐厅","address":"徐汇区虹桥路885弄3号东侧(近轻轨3号线虹桥路2号出口)"},{"poiid":"B2094752D26DA0FF469D","title":"伊贺","lon":"121.42279","lat":"31.19626","category":"95","category_name":"日本料理","address":"徐汇区新淮海坊(轨道3，4、10号线虹桥路站)"},{"poiid":"B2094757D469A7FA419D","title":"波力牧场 虹桥路站 PO-LI DAIRY FARM","lon":"121.42052","lat":"31.19819","category":"67","category_name":"甜品店","address":"地铁3号线虹桥路站2楼近凯旋路"},{"poiid":"B2094757D568AAF5439F","title":"利联流行线","lon":"121.421056","lat":"31.19721734","category":"141","category_name":"服装鞋帽皮具店","address":"凯旋路1538"},{"poiid":"B2094757D16DA3F84992","title":"咖喱时代48(curry generation 48)","lon":"121.420376886","lat":"31.1957836575","category":"68","category_name":"快餐厅","address":"长宁区凯旋路1507号(近地铁4号线虹桥路站)"},{"poiid":"B2094751D568A7FB409F","title":"艾平榭Epi-ciel","lon":"121.422379","lat":"31.196348","category":"112","category_name":"糕饼店","address":"长宁区淮海西路686号1楼(近虹桥路)"},{"poiid":"B2094753D16CA0FF4099","title":"京世造型美容(虹桥店)","lon":"121.420921","lat":"31.196676","category":"148","category_name":"美容美发店","address":"徐汇区凯旋路1576号"},{"poiid":"B2094757D06EAAF8469C","title":"虹桥路地铁站","lon":"121.42085764","lat":"31.196969371","category":"36","category_name":"地铁站","address":"上海轨道交通,三号线,四号线,十号线,轨交虹桥路站,轻轨,3,,4,,10"},{"poiid":"B2094654D564A6F84399","title":"红坊","lon":"121.42382","lat":"31.19873","category":"183","category_name":"展览馆","address":"红坊位于淮海西路570—588号，南邻徐家汇商业中心，西靠虹桥CBD商务区。"},{"poiid":"B2094757D465A3F84792","title":"捞王猪肚鸡 凯旋路店","lon":"121.42031","lat":"31.19974","category":"86","category_name":"火锅店","address":"长宁区凯旋路1456号1座(近虹桥路)"},{"poiid":"B2094757D16CA1F8469C","title":"新淮海坊","lon":"121.42218328","lat":"31.196099263","category":"119","category_name":"商场","address":"长宁区淮海西路680号"},{"poiid":"B2094750DA6FAAFE4392","title":"茶香书香(新淮海坊店)","lon":"121.423049","lat":"31.197093","category":"113","category_name":"冷饮店","address":"徐汇区淮海西路676号1-02号铺新淮海坊内(近虹桥路地铁站)"},{"poiid":"B2094654DB69A5F9449C","title":"星巴克(新华路店)","lon":"121.42278","lat":"31.19601","category":"260","category_name":"其他","address":"长宁区淮海西路666号(近虹桥路)"},{"poiid":"B2094757D06EAAFA459B","title":"红坊国际艺术文化社区","lon":"121.4217","lat":"31.19888","category":"260","category_name":"其他","address":"长宁区淮海西路570号红坊创意园区内(近虹桥路)"},{"poiid":"B2094757D069ABFB479D","title":"中山万博国际中心","lon":"121.421343","lat":"31.19718","category":"184","category_name":"美术馆","address":"上海淮海西路凯旋路"},{"poiid":"B2094757D16EA3F4449B","title":"地铁10号线虹桥路站","lon":"121.418546286","lat":"31.1987820161","category":"500","category_name":"未知分类","address":"上海水城路虹桥路"},{"poiid":"B2094655D36CA7F8449A","title":"虹桥路凯旋路","lon":"121.42317","lat":"31.19512","category":"38","category_name":"公交车站","address":""},{"poiid":"B2094757D06BA5FD4593","title":"四号线虹桥路站","lon":"121.421168986","lat":"31.1982426055","category":"500","category_name":"未知分类","address":"上海轨道交通三四号线虹桥路站"},{"poiid":"B2094757D06FA2FB419E","title":"肯德基 KFC (虹凯店)","lon":"121.42098","lat":"31.197368","category":"68","category_name":"快餐厅","address":"长宁区虹桥路轻轨站1楼"},{"poiid":"B2094655D36DA6FD449C","title":"虹桥路","lon":"121.42227","lat":"31.19679","category":"38","category_name":"公交车站","address":"长宁区长宁区虹桥路1010号(靠凯旋路)"},{"poiid":"B2094757D06FA7FD4399","title":"呷哺呷哺(虹桥店)","lon":"121.42093526","lat":"31.197682224","category":"86","category_name":"火锅店","address":"宝山区轨道交通三号线水产路站1楼SC101、SC102号商铺"},{"poiid":"B2094757D06FA7F4429F","title":"味千拉面(凯虹店)","lon":"121.42138","lat":"31.19701","category":"95","category_name":"日本料理","address":"长宁区凯旋路1529号轻轨虹桥路站1楼(近虹桥路轻轨站)"},{"poiid":"B2094757D164A1FA489C","title":"十号线虹桥站","lon":"121.421655586","lat":"31.1963447685","category":"500","category_name":"未知分类","address":"上海虹桥路"},{"poiid":"B2094750DB65A1FC419A","title":"边城1803","lon":"121.422","lat":"31.19701","category":"77","category_name":"湖南菜","address":"长宁区凯旋路1582号-5新淮海坊内(近虹桥路)"},{"poiid":"B2094757D068A2FB4898","title":"旬彩亭","lon":"121.42219","lat":"31.19471","category":"95","category_name":"日本料理","address":"徐汇区凯旋路1669号2楼(虹桥路口)"},{"poiid":"B2094750DA6BA2F8489C","title":"上海虹桥火车站","lon":"121.420272","lat":"31.197834","category":"627","category_name":"一般地点标志","address":null},{"poiid":"B2094750DA6EA5F9429E","title":"麦当劳","lon":"121.4206","lat":"31.196416","category":"68","category_name":"快餐厅","address":"长宁区凯旋路1586号(近虹桥路)"},{"poiid":"B2094757D469A4FA489D","title":"永和大王 凯旋路店","lon":"121.42087","lat":"31.19782","category":"68","category_name":"快餐厅","address":"长宁区凯旋路1509号"},{"poiid":"B2094750D56FA3FD4399","title":"玖洋捞精品牛肉海鲜火锅","lon":"121.422691","lat":"31.196554","category":"86","category_name":"火锅店","address":"上海市长宁区淮海西路678号新淮海坊内(近虹桥路)"},{"poiid":"B2094757D06BAAFF4892","title":"粤来记","lon":"121.41979","lat":"31.20057","category":"72","category_name":"广东菜","address":"长宁区凯旋路1392号(近轻轨虹桥路站)"},{"poiid":"B2094753D76FA5FE4093","title":"小黑蚝情","lon":"121.423011","lat":"31.195306","category":"247","category_name":"餐饮美食","address":"上海市 长宁区淮海西路新淮海坊"},{"poiid":"B2094757D06FA5FE4499","title":"Beca Cafe &amp; Bar","lon":"121.42359","lat":"31.19671","category":"94","category_name":"西餐厅","address":"长宁区淮海西路570号红坊创意园区C-6单元(近虹桥路)"},{"poiid":"B2094757D069A3FA4792","title":"华德饭店(虹桥店)","lon":"121.42183","lat":"31.19564","category":"76","category_name":"上海菜","address":"徐汇区虹桥路955号(凯旋路口)"},{"poiid":"B2094757D469A0FB4699","title":"克切拉素品茶","lon":"121.4242652","lat":"31.1976016","category":"89","category_name":"中式素餐馆","address":"长宁区淮海西路570号G113单元(近虹桥路)"},{"poiid":"B2094757D568AAF9439C","title":"莉莲蛋挞饼屋(凯旋路)","lon":"121.4210574","lat":"31.19720676","category":"67","category_name":"甜品店","address":"长宁区凯旋路1552号轻轨虹桥路站1楼"},{"poiid":"B2094757D66EA5F9429D","title":"苏菲雅","lon":"121.423238586","lat":"31.1985828122","category":"500","category_name":"未知分类","address":"上海淮海西路570号G 108"},{"poiid":"B2094654DA6DA2FF419A","title":"丽池(虹桥)会所","lon":"121.41874","lat":"31.19545","category":"248","category_name":"生活娱乐","address":"虹桥路1030"},{"poiid":"B2094750DA68A6F5439E","title":"Jeff的店","lon":"121.419944","lat":"31.20049","category":"94","category_name":"西餐厅","address":"长宁区凯旋路1456号(近虹桥路站地铁口)"},{"poiid":"B2094753D36EA7F94192","title":"小黑耗情","lon":"121.422232","lat":"31.196226","category":"500","category_name":"未知分类","address":"上海市 淮海西路1582-6号"},{"poiid":"B2094654D56BABF8419A","title":"领尚国际酒店公寓","lon":"121.421","lat":"31.1982","category":"214","category_name":"四星级宾馆","address":"长宁区宋园路58号(近儿童博物馆)"},{"poiid":"B2094655D268A1FA4799","title":"新顺小区","lon":"121.41982","lat":"31.19788","category":"47","category_name":"住宅区","address":"虹桥路953弄"},{"poiid":"B209475CD36FA1F5479E","title":"泰生厨房 新淮海坊店","lon":"121.42252","lat":"31.19704","category":"86","category_name":"火锅店","address":"凯旋路1580号10-1F(近虹桥路)"},{"poiid":"B2094654D564A6FA479B","title":"利联商行","lon":"121.42099","lat":"31.19738","category":"119","category_name":"商场","address":"凯旋路1533识别"},{"poiid":"B2094752D26CA2F94599","title":"串坊创意烧肉餐吧","lon":"121.42284","lat":"31.19605","category":"269","category_name":"烧烤","address":"长宁区淮海西路686号新淮海坊内(近虹桥路地铁站)"},{"poiid":"B2094750DA6AABF54493","title":"京世造型","lon":"121.421615","lat":"31.196636","category":"248","category_name":"生活娱乐","address":"虹桥路1576号"},{"poiid":"B2094751DB65A1F8489C","title":"泰生天地","lon":"121.42278","lat":"31.19601","category":"86","category_name":"火锅店","address":"长宁区淮海西路666号裙楼1楼(近虹桥路)"},{"poiid":"B2094757D16BA6FC489C","title":"836路公交车(虹桥路长顺路站)","lon":"121.420338886","lat":"31.1972720866","category":"38","category_name":"公交车站","address":"上海虹桥路长顺路口"},{"poiid":"B2094757D16BA1FB439D","title":"KECHARA TEA HOUSE","lon":"121.423240586","lat":"31.1988928183","category":"500","category_name":"未知分类","address":"上海淮海西路570號28幢G113單元"},{"poiid":"B2094757D16FAAFC409E","title":"豪大大台湾大鸡排(凯旋路店)","lon":"121.41934358","lat":"31.197369788","category":"68","category_name":"快餐厅","address":"长宁区凯旋路1501号(虹桥路口)"},{"poiid":"B2094757D76DA2F4459B","title":"鱼寿司","lon":"121.421674","lat":"31.19629","category":"95","category_name":"日本料理","address":"长宁区凯旋路1415号118室(近虹桥路)"},{"poiid":"B2094655D265A6FD4899","title":"莱卡小厨","lon":"121.42082","lat":"31.19636","category":"68","category_name":"快餐厅","address":"徐汇区虹桥路885弄3号东侧(近轻轨3号线虹桥路2号出口)"},{"poiid":"B2094752D26DA0FF469D","title":"伊贺","lon":"121.42279","lat":"31.19626","category":"95","category_name":"日本料理","address":"徐汇区新淮海坊(轨道3，4、10号线虹桥路站)"},{"poiid":"B2094757D469A7FA419D","title":"波力牧场 虹桥路站 PO-LI DAIRY FARM","lon":"121.42052","lat":"31.19819","category":"67","category_name":"甜品店","address":"地铁3号线虹桥路站2楼近凯旋路"},{"poiid":"B2094757D568AAF5439F","title":"利联流行线","lon":"121.421056","lat":"31.19721734","category":"141","category_name":"服装鞋帽皮具店","address":"凯旋路1538"},{"poiid":"B2094757D16DA3F84992","title":"咖喱时代48(curry generation 48)","lon":"121.420376886","lat":"31.1957836575","category":"68","category_name":"快餐厅","address":"长宁区凯旋路1507号(近地铁4号线虹桥路站)"},{"poiid":"B2094751D568A7FB409F","title":"艾平榭Epi-ciel","lon":"121.422379","lat":"31.196348","category":"112","category_name":"糕饼店","address":"长宁区淮海西路686号1楼(近虹桥路)"},{"poiid":"B2094753D16CA0FF4099","title":"京世造型美容(虹桥店)","lon":"121.420921","lat":"31.196676","category":"148","category_name":"美容美发店","address":"徐汇区凯旋路1576号"},{"poiid":"B2094757D06EAAF8469C","title":"虹桥路地铁站","lon":"121.42085764","lat":"31.196969371","category":"36","category_name":"地铁站","address":"上海轨道交通,三号线,四号线,十号线,轨交虹桥路站,轻轨,3,,4,,10"},{"poiid":"B2094654D564A6F84399","title":"红坊","lon":"121.42382","lat":"31.19873","category":"183","category_name":"展览馆","address":"红坊位于淮海西路570—588号，南邻徐家汇商业中心，西靠虹桥CBD商务区。"},{"poiid":"B2094757D465A3F84792","title":"捞王猪肚鸡 凯旋路店","lon":"121.42031","lat":"31.19974","category":"86","category_name":"火锅店","address":"长宁区凯旋路1456号1座(近虹桥路)"},{"poiid":"B2094757D16CA1F8469C","title":"新淮海坊","lon":"121.42218328","lat":"31.196099263","category":"119","category_name":"商场","address":"长宁区淮海西路680号"},{"poiid":"B2094750DA6FAAFE4392","title":"茶香书香(新淮海坊店)","lon":"121.423049","lat":"31.197093","category":"113","category_name":"冷饮店","address":"徐汇区淮海西路676号1-02号铺新淮海坊内(近虹桥路地铁站)"},{"poiid":"B2094654DB69A5F9449C","title":"星巴克(新华路店)","lon":"121.42278","lat":"31.19601","category":"260","category_name":"其他","address":"长宁区淮海西路666号(近虹桥路)"},{"poiid":"B2094757D06EAAFA459B","title":"红坊国际艺术文化社区","lon":"121.4217","lat":"31.19888","category":"260","category_name":"其他","address":"长宁区淮海西路570号红坊创意园区内(近虹桥路)"},{"poiid":"B2094757D069ABFB479D","title":"中山万博国际中心","lon":"121.421343","lat":"31.19718","category":"184","category_name":"美术馆","address":"上海淮海西路凯旋路"},{"poiid":"B2094757D16EA3F4449B","title":"地铁10号线虹桥路站","lon":"121.418546286","lat":"31.1987820161","category":"500","category_name":"未知分类","address":"上海水城路虹桥路"},{"poiid":"B2094655D36CA7F8449A","title":"虹桥路凯旋路","lon":"121.42317","lat":"31.19512","category":"38","category_name":"公交车站","address":""},{"poiid":"B2094757D06BA5FD4593","title":"四号线虹桥路站","lon":"121.421168986","lat":"31.1982426055","category":"500","category_name":"未知分类","address":"上海轨道交通三四号线虹桥路站"},{"poiid":"B2094757D06FA2FB419E","title":"肯德基 KFC (虹凯店)","lon":"121.42098","lat":"31.197368","category":"68","category_name":"快餐厅","address":"长宁区虹桥路轻轨站1楼"},{"poiid":"B2094655D36DA6FD449C","title":"虹桥路","lon":"121.42227","lat":"31.19679","category":"38","category_name":"公交车站","address":"长宁区长宁区虹桥路1010号(靠凯旋路)"},{"poiid":"B2094757D06FA7FD4399","title":"呷哺呷哺(虹桥店)","lon":"121.42093526","lat":"31.197682224","category":"86","category_name":"火锅店","address":"宝山区轨道交通三号线水产路站1楼SC101、SC102号商铺"},{"poiid":"B2094757D06FA7F4429F","title":"味千拉面(凯虹店)","lon":"121.42138","lat":"31.19701","category":"95","category_name":"日本料理","address":"长宁区凯旋路1529号轻轨虹桥路站1楼(近虹桥路轻轨站)"},{"poiid":"B2094757D164A1FA489C","title":"十号线虹桥站","lon":"121.421655586","lat":"31.1963447685","category":"500","category_name":"未知分类","address":"上海虹桥路"},{"poiid":"B2094750DB65A1FC419A","title":"边城1803","lon":"121.422","lat":"31.19701","category":"77","category_name":"湖南菜","address":"长宁区凯旋路1582号-5新淮海坊内(近虹桥路)"},{"poiid":"B2094757D068A2FB4898","title":"旬彩亭","lon":"121.42219","lat":"31.19471","category":"95","category_name":"日本料理","address":"徐汇区凯旋路1669号2楼(虹桥路口)"},{"poiid":"B2094750DA6BA2F8489C","title":"上海虹桥火车站","lon":"121.420272","lat":"31.197834","category":"627","category_name":"一般地点标志","address":null},{"poiid":"B2094750DA6EA5F9429E","title":"麦当劳","lon":"121.4206","lat":"31.196416","category":"68","category_name":"快餐厅","address":"长宁区凯旋路1586号(近虹桥路)"},{"poiid":"B2094757D469A4FA489D","title":"永和大王 凯旋路店","lon":"121.42087","lat":"31.19782","category":"68","category_name":"快餐厅","address":"长宁区凯旋路1509号"},{"poiid":"B2094750D56FA3FD4399","title":"玖洋捞精品牛肉海鲜火锅","lon":"121.422691","lat":"31.196554","category":"86","category_name":"火锅店","address":"上海市长宁区淮海西路678号新淮海坊内(近虹桥路)"},{"poiid":"B2094757D06BAAFF4892","title":"粤来记","lon":"121.41979","lat":"31.20057","category":"72","category_name":"广东菜","address":"长宁区凯旋路1392号(近轻轨虹桥路站)"},{"poiid":"B2094753D76FA5FE4093","title":"小黑蚝情","lon":"121.423011","lat":"31.195306","category":"247","category_name":"餐饮美食","address":"上海市 长宁区淮海西路新淮海坊"},{"poiid":"B2094757D06FA5FE4499","title":"Beca Cafe &amp; Bar","lon":"121.42359","lat":"31.19671","category":"94","category_name":"西餐厅","address":"长宁区淮海西路570号红坊创意园区C-6单元(近虹桥路)"},{"poiid":"B2094757D069A3FA4792","title":"华德饭店(虹桥店)","lon":"121.42183","lat":"31.19564","category":"76","category_name":"上海菜","address":"徐汇区虹桥路955号(凯旋路口)"},{"poiid":"B2094757D469A0FB4699","title":"克切拉素品茶","lon":"121.4242652","lat":"31.1976016","category":"89","category_name":"中式素餐馆","address":"长宁区淮海西路570号G113单元(近虹桥路)"},{"poiid":"B2094757D568AAF9439C","title":"莉莲蛋挞饼屋(凯旋路)","lon":"121.4210574","lat":"31.19720676","category":"67","category_name":"甜品店","address":"长宁区凯旋路1552号轻轨虹桥路站1楼"},{"poiid":"B2094757D66EA5F9429D","title":"苏菲雅","lon":"121.423238586","lat":"31.1985828122","category":"500","category_name":"未知分类","address":"上海淮海西路570号G 108"},{"poiid":"B2094654DA6DA2FF419A","title":"丽池(虹桥)会所","lon":"121.41874","lat":"31.19545","category":"248","category_name":"生活娱乐","address":"虹桥路1030"},{"poiid":"B2094750DA68A6F5439E","title":"Jeff的店","lon":"121.419944","lat":"31.20049","category":"94","category_name":"西餐厅","address":"长宁区凯旋路1456号(近虹桥路站地铁口)"},{"poiid":"B2094753D36EA7F94192","title":"小黑耗情","lon":"121.422232","lat":"31.196226","category":"500","category_name":"未知分类","address":"上海市 淮海西路1582-6号"},{"poiid":"B2094654D56BABF8419A","title":"领尚国际酒店公寓","lon":"121.421","lat":"31.1982","category":"214","category_name":"四星级宾馆","address":"长宁区宋园路58号(近儿童博物馆)"},{"poiid":"B2094655D268A1FA4799","title":"新顺小区","lon":"121.41982","lat":"31.19788","category":"47","category_name":"住宅区","address":"虹桥路953弄"},{"poiid":"B209475CD36FA1F5479E","title":"泰生厨房 新淮海坊店","lon":"121.42252","lat":"31.19704","category":"86","category_name":"火锅店","address":"凯旋路1580号10-1F(近虹桥路)"},{"poiid":"B2094654D564A6FA479B","title":"利联商行","lon":"121.42099","lat":"31.19738","category":"119","category_name":"商场","address":"凯旋路1533识别"},{"poiid":"B2094752D26CA2F94599","title":"串坊创意烧肉餐吧","lon":"121.42284","lat":"31.19605","category":"269","category_name":"烧烤","address":"长宁区淮海西路686号新淮海坊内(近虹桥路地铁站)"},{"poiid":"B2094750DA6AABF54493","title":"京世造型","lon":"121.421615","lat":"31.196636","category":"248","category_name":"生活娱乐","address":"虹桥路1576号"},{"poiid":"B2094751DB65A1F8489C","title":"泰生天地","lon":"121.42278","lat":"31.19601","category":"86","category_name":"火锅店","address":"长宁区淮海西路666号裙楼1楼(近虹桥路)"},{"poiid":"B2094757D16BA6FC489C","title":"836路公交车(虹桥路长顺路站)","lon":"121.420338886","lat":"31.1972720866","category":"38","category_name":"公交车站","address":"上海虹桥路长顺路口"},{"poiid":"B2094757D16BA1FB439D","title":"KECHARA TEA HOUSE","lon":"121.423240586","lat":"31.1988928183","category":"500","category_name":"未知分类","address":"上海淮海西路570號28幢G113單元"},{"poiid":"B2094757D16FAAFC409E","title":"豪大大台湾大鸡排(凯旋路店)","lon":"121.41934358","lat":"31.197369788","category":"68","category_name":"快餐厅","address":"长宁区凯旋路1501号(虹桥路口)"},{"poiid":"B2094757D76DA2F4459B","title":"鱼寿司","lon":"121.421674","lat":"31.19629","category":"95","category_name":"日本料理","address":"长宁区凯旋路1415号118室(近虹桥路)"},{"poiid":"B2094655D265A6FD4899","title":"莱卡小厨","lon":"121.42082","lat":"31.19636","category":"68","category_name":"快餐厅","address":"徐汇区虹桥路885弄3号东侧(近轻轨3号线虹桥路2号出口)"},{"poiid":"B2094752D26DA0FF469D","title":"伊贺","lon":"121.42279","lat":"31.19626","category":"95","category_name":"日本料理","address":"徐汇区新淮海坊(轨道3，4、10号线虹桥路站)"},{"poiid":"B2094757D469A7FA419D","title":"波力牧场 虹桥路站 PO-LI DAIRY FARM","lon":"121.42052","lat":"31.19819","category":"67","category_name":"甜品店","address":"地铁3号线虹桥路站2楼近凯旋路"},{"poiid":"B2094757D568AAF5439F","title":"利联流行线","lon":"121.421056","lat":"31.19721734","category":"141","category_name":"服装鞋帽皮具店","address":"凯旋路1538"},{"poiid":"B2094757D16DA3F84992","title":"咖喱时代48(curry generation 48)","lon":"121.420376886","lat":"31.1957836575","category":"68","category_name":"快餐厅","address":"长宁区凯旋路1507号(近地铁4号线虹桥路站)"},{"poiid":"B2094751D568A7FB409F","title":"艾平榭Epi-ciel","lon":"121.422379","lat":"31.196348","category":"112","category_name":"糕饼店","address":"长宁区淮海西路686号1楼(近虹桥路)"},{"poiid":"B2094753D16CA0FF4099","title":"京世造型美容(虹桥店)","lon":"121.420921","lat":"31.196676","category":"148","category_name":"美容美发店","address":"徐汇区凯旋路1576号"}]