[{"poiid":"B2094757D069A6FB459F","title":"龙腾大道","lon":"121.45933573","lat":"31.175346131","category":"500","category_name":"未知分类","address":"上海龙腾大道"},{"poiid":"B2094654DA6DA4FF439A","title":"上海绿地徐汇","lon":"121.4599","lat":"31.18599","category":"159","category_name":"汽车维修","address":"船厂路185号"},{"poiid":"B2094757D16CA6FA479B","title":"徐汇滨江龙腾大道","lon":"121.46242978","lat":"31.171125424","category":"500","category_name":"未知分类","address":"上海龙腾大道丰谷路"},{"poiid":"B2094757D16FAAF84392","title":"龙腾大道","lon":"121.46266273","lat":"31.182472283","category":"500","category_name":"未知分类","address":"上海市徐汇区龙恒路"},{"poiid":"B2094752D06CA0F44198","title":"上海华士达东方影城","lon":"121.4572","lat":"31.18539","category":"178","category_name":"电影院","address":"上海市徐汇区东安路599号绿地中心正大乐城1号楼301"},{"poiid":"B2094753D165A3F8459E","title":"查理布朗咖啡馆正大乐城店","lon":"121.458608","lat":"31.186094","category":"65","category_name":"咖啡厅","address":"上海市 东安路599号 正大乐城6-101-1号"},{"poiid":"B2094654DA6DA4F9419C","title":"尚海湾豪庭","lon":"121.45771","lat":"31.178894","category":"47","category_name":"住宅区","address":"徐汇区宛平南路1455弄"},{"poiid":"B2094757D06FA6FD4293","title":"龙腾大道","lon":"121.46263851","lat":"31.171261612","category":"260","category_name":"其他","address":"上海徐汇滨江亲水区"},{"poiid":"B2094757D06FA1FA4893","title":"盛大花园","lon":"121.45329","lat":"31.179134","category":"47","category_name":"住宅区","address":"上海市徐汇区龙华路2518弄"},{"poiid":"B2094753DB69A7FF439B","title":"翠華餐廳（正大樂城店）","lon":"121.463157","lat":"31.184999","category":"500","category_name":"未知分类","address":"上海市 上海徐匯區中山南二路"},{"poiid":"B2094751DA6BA2F4499C","title":"美丽岛意大利餐厅","lon":"121.459256540038","lat":"31.18285984269632","category":"247","category_name":"餐饮美食","address":"徐汇区龙腾大道3222号(东安路口)"},{"poiid":"B2094757D06FA6FC469A","title":"卜蜂莲花(船厂路店)","lon":"121.45965576","lat":"31.18546145","category":"118","category_name":"超级市场","address":"徐汇区船厂路178号(近中山南二路)"},{"poiid":"B2094750DA6BA4F44698","title":"上海西岸音乐节","lon":"121.462753","lat":"31.182302","category":"500","category_name":"未知分类","address":null},{"poiid":"B2094757D06FA3FD4192","title":"船厂路地铁站","lon":"121.46025679","lat":"31.185244349","category":"36","category_name":"地铁站","address":"上海轨道交通 七号线 轨交船厂路站 7"},{"poiid":"B2094757D068A2FA4599","title":"上海市机动车物损交通事故保险理赔服务中心绿地分中心","lon":"121.460469","lat":"31.185364","category":"500","category_name":"未知分类","address":"上海市徐汇区船厂路185号"},{"poiid":"B2094757D069A7FF4598","title":"上海世博园冰雕艺术展","lon":"121.469558038","lat":"31.1745844152","category":"500","category_name":"未知分类","address":"浦东新区世博大道1200号梅赛德斯奔驰文化中心"},{"poiid":"B2094757D06FA2FA4293","title":"后滩地铁站","lon":"121.46936755","lat":"31.174126931","category":"36","category_name":"地铁站","address":"上海轨道交通 七号线 轨交后滩站 7"},{"poiid":"B2094757D66CA1FF4692","title":"南滨江","lon":"121.46897173","lat":"31.184909334","category":"500","category_name":"未知分类","address":"上海市徐汇区瑞宁路"},{"poiid":"B2094752DA69A1F5449B","title":"博大汽车公园","lon":"121.472341","lat":"31.179505","category":"500","category_name":"未知分类","address":"上海市 国展路189号"},{"poiid":"B2094757D168A4FE489D","title":"全家便利 FamilyMart(龙腾大道店)","lon":"121.463484892","lat":"31.1813841005","category":"249","category_name":"购物服务","address":"上海徐汇区龙腾大道／东安路口"},{"poiid":"B2094750DA69A5FC4393","title":"上海市第九人民医院","lon":"121.46212","lat":"31.177307","category":"162","category_name":"医院","address":"制造局路639号"},{"poiid":"B2094654DA6DABF54493","title":"俞一小区","lon":"121.458","lat":"31.1762","category":"47","category_name":"住宅区","address":"龙华西路31弄"},{"poiid":"B2094750D26FA0F44898","title":"上海绿地中心","lon":"121.460937","lat":"31.186069","category":"252","category_name":"楼宇机构","address":"徐汇区 船厂路东安路"},{"poiid":"B2094753D56BABFC439D","title":"大众书局(正大乐城店)","lon":"121.457672","lat":"31.185836","category":"249","category_name":"购物服务","address":"上海市 徐汇区中山南二路699号正大乐城2层(近东安路)"},{"poiid":"B2094753D768AAFC4499","title":"BBQ 比比客","lon":"121.45932","lat":"31.184492","category":"247","category_name":"餐饮美食","address":"上海市 正大乐城"},{"poiid":"B2094750DA65A3FF4898","title":"徐汇滨江","lon":"121.467994","lat":"31.181165","category":"47","category_name":"住宅区","address":null},{"poiid":"B2094750D565A2FE4692","title":"上海民航职业技术学院","lon":"121.457061","lat":"31.17053","category":"671","category_name":"高校中心点","address":"上海市徐汇区龙华西路1号"},{"poiid":"B2094654DA6DAAFC419A","title":"华龙新苑小区","lon":"121.45664","lat":"31.17359","category":"47","category_name":"住宅区","address":"上海徐汇区云锦路50弄"},{"poiid":"B2094750DB68AAFB469E","title":"新天地时尚","lon":"121.461364","lat":"31.177936","category":"500","category_name":"未知分类","address":null},{"poiid":"B2094654DA6DAAFC409C","title":"上飞新村","lon":"121.464091","lat":"31.179351","category":"47","category_name":"住宅区","address":"徐汇区云锦路185弄1-13号"},{"poiid":"B2094753D769A1F54499","title":"茶马颐苑","lon":"121.45903","lat":"31.186122","category":"47","category_name":"住宅区","address":"上海市 上海市徐汇区东安路598号绿地中心正大乐城2楼"},{"poiid":"B2094654DB6BA4FE429F","title":"龙华西路81弄小区","lon":"121.458","lat":"31.178","category":"47","category_name":"住宅区","address":"龙华西路81弄41-66号,70-92号"},{"poiid":"B2094750D768ABF8449B","title":"查尔斯咖啡","lon":"121.462","lat":"31.1773","category":"260","category_name":"其他","address":"徐汇区龙腾大道3036号"},{"poiid":"B2094655D26AA1FF4999","title":"通用雪佛兰绿地4S店","lon":"121.46107","lat":"31.18481","category":"247","category_name":"餐饮美食","address":"徐汇区船厂路187号(近中山南二路)"},{"poiid":"B2094654DA6DAAFC409E","title":"上海晟豪机动车驾驶员培训有限公司","lon":"121.45805","lat":"31.17028","category":"192","category_name":"驾校","address":"机场东一路1"},{"poiid":"B2094757D069A0FC479C","title":"百匯園","lon":"121.45893307","lat":"31.17263744","category":"500","category_name":"未知分类","address":"上海市卢湾区济南路8号"},{"poiid":"B2094654DA6DAAFC409F","title":"民苑小区","lon":"121.45907","lat":"31.17126","category":"47","category_name":"住宅区","address":"上海云锦路201弄"},{"poiid":"B2094750DA6AA7FA4992","title":"复旦大学附属眼耳鼻喉科医院","lon":"121.458534","lat":"31.182331","category":"162","category_name":"医院","address":"汾阳路83号"},{"poiid":"B209475DD468A4F5499B","title":"龙美术馆西岸馆","lon":"121.465316","lat":"31.185104","category":"248","category_name":"生活娱乐","address":"上海市 徐汇区龙腾大道3398号"},{"poiid":"B2094654DA6EA1F9489B","title":"盛大花园(2号门)","lon":"121.455","lat":"31.17938","category":"47","category_name":"住宅区","address":"宛平南路1408"},{"poiid":"B2094757D06FA4FA499B","title":"金龙花苑","lon":"121.459503","lat":"31.180959","category":"47","category_name":"住宅区","address":"上海市徐汇区丰谷路225弄1号"},{"poiid":"B2094757D16AABFA4099","title":"沪闵高架","lon":"121.45958143","lat":"31.179679223","category":"500","category_name":"未知分类","address":"上海虹梅路出口"},{"poiid":"B2094757D068A4FD4592","title":"上海飞机设计研究院","lon":"121.457473516","lat":"31.1714706279","category":"191","category_name":"科研机构","address":"上海云锦路5号"},{"poiid":"B2094753D76DA1FE449B","title":"正大乐城","lon":"121.458435","lat":"31.186231","category":"170","category_name":"KTV","address":"上海市 上海市徐汇区龙华中路602号"},{"poiid":"B209475CD565A5FA4592","title":"Ashley 正大乐城店","lon":"121.462982","lat":"31.184814","category":"247","category_name":"餐饮美食","address":"上海市中山南二路699号"},{"poiid":"B2094753D265AAFC4493","title":"Isola,Bella美丽岛意大利餐厅(龙腾大道店)","lon":"121.462697","lat":"31.171052","category":"98","category_name":"意式菜品餐厅","address":"滨江龙腾大道3222号(东安路路口)"},{"poiid":"B2094757D164A5FC4392","title":"一号线锦江乐园站","lon":"121.460916738","lat":"31.1730130817","category":"500","category_name":"未知分类","address":"上海市徐汇区沪闵路高架"},{"poiid":"B2094750D165A3FA459C","title":"Mo-mo 牧场","lon":"121.458381","lat":"31.179075","category":"500","category_name":"未知分类","address":null},{"poiid":"B2094654DB6BA5F5469D","title":"龙华苑","lon":"121.458","lat":"31.1738","category":"47","category_name":"住宅区","address":"龙华机场新村34-61号"},{"poiid":"B2094757D065A3F54198","title":"尚海湾","lon":"121.45691","lat":"31.177977","category":"500","category_name":"未知分类","address":"上海宛平南路1441号13"},{"poiid":"B2094757D069A6FB459F","title":"龙腾大道","lon":"121.45933573","lat":"31.175346131","category":"500","category_name":"未知分类","address":"上海龙腾大道"},{"poiid":"B2094654DA6DA4FF439A","title":"上海绿地徐汇","lon":"121.4599","lat":"31.18599","category":"159","category_name":"汽车维修","address":"船厂路185号"},{"poiid":"B2094757D16CA6FA479B","title":"徐汇滨江龙腾大道","lon":"121.46242978","lat":"31.171125424","category":"500","category_name":"未知分类","address":"上海龙腾大道丰谷路"},{"poiid":"B2094757D16FAAF84392","title":"龙腾大道","lon":"121.46266273","lat":"31.182472283","category":"500","category_name":"未知分类","address":"上海市徐汇区龙恒路"},{"poiid":"B2094752D06CA0F44198","title":"上海华士达东方影城","lon":"121.4572","lat":"31.18539","category":"178","category_name":"电影院","address":"上海市徐汇区东安路599号绿地中心正大乐城1号楼301"},{"poiid":"B2094753D165A3F8459E","title":"查理布朗咖啡馆正大乐城店","lon":"121.458608","lat":"31.186094","category":"65","category_name":"咖啡厅","address":"上海市 东安路599号 正大乐城6-101-1号"},{"poiid":"B2094654DA6DA4F9419C","title":"尚海湾豪庭","lon":"121.45771","lat":"31.178894","category":"47","category_name":"住宅区","address":"徐汇区宛平南路1455弄"},{"poiid":"B2094757D06FA6FD4293","title":"龙腾大道","lon":"121.46263851","lat":"31.171261612","category":"260","category_name":"其他","address":"上海徐汇滨江亲水区"},{"poiid":"B2094757D06FA1FA4893","title":"盛大花园","lon":"121.45329","lat":"31.179134","category":"47","category_name":"住宅区","address":"上海市徐汇区龙华路2518弄"},{"poiid":"B2094753DB69A7FF439B","title":"翠華餐廳（正大樂城店）","lon":"121.463157","lat":"31.184999","category":"500","category_name":"未知分类","address":"上海市 上海徐匯區中山南二路"},{"poiid":"B2094751DA6BA2F4499C","title":"美丽岛意大利餐厅","lon":"121.459256540038","lat":"31.18285984269632","category":"247","category_name":"餐饮美食","address":"徐汇区龙腾大道3222号(东安路口)"},{"poiid":"B2094757D06FA6FC469A","title":"卜蜂莲花(船厂路店)","lon":"121.45965576","lat":"31.18546145","category":"118","category_name":"超级市场","address":"徐汇区船厂路178号(近中山南二路)"},{"poiid":"B2094750DA6BA4F44698","title":"上海西岸音乐节","lon":"121.462753","lat":"31.182302","category":"500","category_name":"未知分类","address":null},{"poiid":"B2094757D06FA3FD4192","title":"船厂路地铁站","lon":"121.46025679","lat":"31.185244349","category":"36","category_name":"地铁站","address":"上海轨道交通 七号线 轨交船厂路站 7"},{"poiid":"B2094757D068A2FA4599","title":"上海市机动车物损交通事故保险理赔服务中心绿地分中心","lon":"121.460469","lat":"31.185364","category":"500","category_name":"未知分类","address":"上海市徐汇区船厂路185号"},{"poiid":"B2094757D069A7FF4598","title":"上海世博园冰雕艺术展","lon":"121.469558038","lat":"31.1745844152","category":"500","category_name":"未知分类","address":"浦东新区世博大道1200号梅赛德斯奔驰文化中心"},{"poiid":"B2094757D06FA2FA4293","title":"后滩地铁站","lon":"121.46936755","lat":"31.174126931","category":"36","category_name":"地铁站","address":"上海轨道交通 七号线 轨交后滩站 7"},{"poiid":"B2094757D66CA1FF4692","title":"南滨江","lon":"121.46897173","lat":"31.184909334","category":"500","category_name":"未知分类","address":"上海市徐汇区瑞宁路"},{"poiid":"B2094752DA69A1F5449B","title":"博大汽车公园","lon":"121.472341","lat":"31.179505","category":"500","category_name":"未知分类","address":"上海市 国展路189号"},{"poiid":"B2094757D168A4FE489D","title":"全家便利 FamilyMart(龙腾大道店)","lon":"121.463484892","lat":"31.1813841005","category":"249","category_name":"购物服务","address":"上海徐汇区龙腾大道／东安路口"},{"poiid":"B2094750DA69A5FC4393","title":"上海市第九人民医院","lon":"121.46212","lat":"31.177307","category":"162","category_name":"医院","address":"制造局路639号"},{"poiid":"B2094654DA6DABF54493","title":"俞一小区","lon":"121.458","lat":"31.1762","category":"47","category_name":"住宅区","address":"龙华西路31弄"},{"poiid":"B2094750D26FA0F44898","title":"上海绿地中心","lon":"121.460937","lat":"31.186069","category":"252","category_name":"楼宇机构","address":"徐汇区 船厂路东安路"},{"poiid":"B2094753D56BABFC439D","title":"大众书局(正大乐城店)","lon":"121.457672","lat":"31.185836","category":"249","category_name":"购物服务","address":"上海市 徐汇区中山南二路699号正大乐城2层(近东安路)"},{"poiid":"B2094753D768AAFC4499","title":"BBQ 比比客","lon":"121.45932","lat":"31.184492","category":"247","category_name":"餐饮美食","address":"上海市 正大乐城"},{"poiid":"B2094750DA65A3FF4898","title":"徐汇滨江","lon":"121.467994","lat":"31.181165","category":"47","category_name":"住宅区","address":null},{"poiid":"B2094750D565A2FE4692","title":"上海民航职业技术学院","lon":"121.457061","lat":"31.17053","category":"671","category_name":"高校中心点","address":"上海市徐汇区龙华西路1号"},{"poiid":"B2094654DA6DAAFC419A","title":"华龙新苑小区","lon":"121.45664","lat":"31.17359","category":"47","category_name":"住宅区","address":"上海徐汇区云锦路50弄"},{"poiid":"B2094750DB68AAFB469E","title":"新天地时尚","lon":"121.461364","lat":"31.177936","category":"500","category_name":"未知分类","address":null},{"poiid":"B2094654DA6DAAFC409C","title":"上飞新村","lon":"121.464091","lat":"31.179351","category":"47","category_name":"住宅区","address":"徐汇区云锦路185弄1-13号"},{"poiid":"B2094753D769A1F54499","title":"茶马颐苑","lon":"121.45903","lat":"31.186122","category":"47","category_name":"住宅区","address":"上海市 上海市徐汇区东安路598号绿地中心正大乐城2楼"},{"poiid":"B2094654DB6BA4FE429F","title":"龙华西路81弄小区","lon":"121.458","lat":"31.178","category":"47","category_name":"住宅区","address":"龙华西路81弄41-66号,70-92号"},{"poiid":"B2094750D768ABF8449B","title":"查尔斯咖啡","lon":"121.462","lat":"31.1773","category":"260","category_name":"其他","address":"徐汇区龙腾大道3036号"},{"poiid":"B2094655D26AA1FF4999","title":"通用雪佛兰绿地4S店","lon":"121.46107","lat":"31.18481","category":"247","category_name":"餐饮美食","address":"徐汇区船厂路187号(近中山南二路)"},{"poiid":"B2094654DA6DAAFC409E","title":"上海晟豪机动车驾驶员培训有限公司","lon":"121.45805","lat":"31.17028","category":"192","category_name":"驾校","address":"机场东一路1"},{"poiid":"B2094757D069A0FC479C","title":"百匯園","lon":"121.45893307","lat":"31.17263744","category":"500","category_name":"未知分类","address":"上海市卢湾区济南路8号"},{"poiid":"B2094654DA6DAAFC409F","title":"民苑小区","lon":"121.45907","lat":"31.17126","category":"47","category_name":"住宅区","address":"上海云锦路201弄"},{"poiid":"B2094750DA6AA7FA4992","title":"复旦大学附属眼耳鼻喉科医院","lon":"121.458534","lat":"31.182331","category":"162","category_name":"医院","address":"汾阳路83号"},{"poiid":"B209475DD468A4F5499B","title":"龙美术馆西岸馆","lon":"121.465316","lat":"31.185104","category":"248","category_name":"生活娱乐","address":"上海市 徐汇区龙腾大道3398号"},{"poiid":"B2094654DA6EA1F9489B","title":"盛大花园(2号门)","lon":"121.455","lat":"31.17938","category":"47","category_name":"住宅区","address":"宛平南路1408"},{"poiid":"B2094757D06FA4FA499B","title":"金龙花苑","lon":"121.459503","lat":"31.180959","category":"47","category_name":"住宅区","address":"上海市徐汇区丰谷路225弄1号"},{"poiid":"B2094757D16AABFA4099","title":"沪闵高架","lon":"121.45958143","lat":"31.179679223","category":"500","category_name":"未知分类","address":"上海虹梅路出口"},{"poiid":"B2094757D068A4FD4592","title":"上海飞机设计研究院","lon":"121.457473516","lat":"31.1714706279","category":"191","category_name":"科研机构","address":"上海云锦路5号"},{"poiid":"B2094753D76DA1FE449B","title":"正大乐城","lon":"121.458435","lat":"31.186231","category":"170","category_name":"KTV","address":"上海市 上海市徐汇区龙华中路602号"},{"poiid":"B209475CD565A5FA4592","title":"Ashley 正大乐城店","lon":"121.462982","lat":"31.184814","category":"247","category_name":"餐饮美食","address":"上海市中山南二路699号"},{"poiid":"B2094753D265AAFC4493","title":"Isola,Bella美丽岛意大利餐厅(龙腾大道店)","lon":"121.462697","lat":"31.171052","category":"98","category_name":"意式菜品餐厅","address":"滨江龙腾大道3222号(东安路路口)"},{"poiid":"B2094757D164A5FC4392","title":"一号线锦江乐园站","lon":"121.460916738","lat":"31.1730130817","category":"500","category_name":"未知分类","address":"上海市徐汇区沪闵路高架"},{"poiid":"B2094750D165A3FA459C","title":"Mo-mo 牧场","lon":"121.458381","lat":"31.179075","category":"500","category_name":"未知分类","address":null},{"poiid":"B2094654DB6BA5F5469D","title":"龙华苑","lon":"121.458","lat":"31.1738","category":"47","category_name":"住宅区","address":"龙华机场新村34-61号"},{"poiid":"B2094757D065A3F54198","title":"尚海湾","lon":"121.45691","lat":"31.177977","category":"500","category_name":"未知分类","address":"上海宛平南路1441号13"},{"poiid":"B2094757D069A6FB459F","title":"龙腾大道","lon":"121.45933573","lat":"31.175346131","category":"500","category_name":"未知分类","address":"上海龙腾大道"},{"poiid":"B2094654DA6DA4FF439A","title":"上海绿地徐汇","lon":"121.4599","lat":"31.18599","category":"159","category_name":"汽车维修","address":"船厂路185号"},{"poiid":"B2094757D16CA6FA479B","title":"徐汇滨江龙腾大道","lon":"121.46242978","lat":"31.171125424","category":"500","category_name":"未知分类","address":"上海龙腾大道丰谷路"},{"poiid":"B2094757D16FAAF84392","title":"龙腾大道","lon":"121.46266273","lat":"31.182472283","category":"500","category_name":"未知分类","address":"上海市徐汇区龙恒路"},{"poiid":"B2094752D06CA0F44198","title":"上海华士达东方影城","lon":"121.4572","lat":"31.18539","category":"178","category_name":"电影院","address":"上海市徐汇区东安路599号绿地中心正大乐城1号楼301"},{"poiid":"B2094753D165A3F8459E","title":"查理布朗咖啡馆正大乐城店","lon":"121.458608","lat":"31.186094","category":"65","category_name":"咖啡厅","address":"上海市 东安路599号 正大乐城6-101-1号"},{"poiid":"B2094654DA6DA4F9419C","title":"尚海湾豪庭","lon":"121.45771","lat":"31.178894","category":"47","category_name":"住宅区","address":"徐汇区宛平南路1455弄"},{"poiid":"B2094757D06FA6FD4293","title":"龙腾大道","lon":"121.46263851","lat":"31.171261612","category":"260","category_name":"其他","address":"上海徐汇滨江亲水区"},{"poiid":"B2094757D06FA1FA4893","title":"盛大花园","lon":"121.45329","lat":"31.179134","category":"47","category_name":"住宅区","address":"上海市徐汇区龙华路2518弄"},{"poiid":"B2094753DB69A7FF439B","title":"翠華餐廳（正大樂城店）","lon":"121.463157","lat":"31.184999","category":"500","category_name":"未知分类","address":"上海市 上海徐匯區中山南二路"},{"poiid":"B2094751DA6BA2F4499C","title":"美丽岛意大利餐厅","lon":"121.459256540038","lat":"31.18285984269632","category":"247","category_name":"餐饮美食","address":"徐汇区龙腾大道3222号(东安路口)"},{"poiid":"B2094757D06FA6FC469A","title":"卜蜂莲花(船厂路店)","lon":"121.45965576","lat":"31.18546145","category":"118","category_name":"超级市场","address":"徐汇区船厂路178号(近中山南二路)"},{"poiid":"B2094750DA6BA4F44698","title":"上海西岸音乐节","lon":"121.462753","lat":"31.182302","category":"500","category_name":"未知分类","address":null},{"poiid":"B2094757D06FA3FD4192","title":"船厂路地铁站","lon":"121.46025679","lat":"31.185244349","category":"36","category_name":"地铁站","address":"上海轨道交通 七号线 轨交船厂路站 7"},{"poiid":"B2094757D068A2FA4599","title":"上海市机动车物损交通事故保险理赔服务中心绿地分中心","lon":"121.460469","lat":"31.185364","category":"500","category_name":"未知分类","address":"上海市徐汇区船厂路185号"},{"poiid":"B2094757D069A7FF4598","title":"上海世博园冰雕艺术展","lon":"121.469558038","lat":"31.1745844152","category":"500","category_name":"未知分类","address":"浦东新区世博大道1200号梅赛德斯奔驰文化中心"},{"poiid":"B2094757D06FA2FA4293","title":"后滩地铁站","lon":"121.46936755","lat":"31.174126931","category":"36","category_name":"地铁站","address":"上海轨道交通 七号线 轨交后滩站 7"},{"poiid":"B2094757D66CA1FF4692","title":"南滨江","lon":"121.46897173","lat":"31.184909334","category":"500","category_name":"未知分类","address":"上海市徐汇区瑞宁路"},{"poiid":"B2094752DA69A1F5449B","title":"博大汽车公园","lon":"121.472341","lat":"31.179505","category":"500","category_name":"未知分类","address":"上海市 国展路189号"},{"poiid":"B2094757D168A4FE489D","title":"全家便利 FamilyMart(龙腾大道店)","lon":"121.463484892","lat":"31.1813841005","category":"249","category_name":"购物服务","address":"上海徐汇区龙腾大道／东安路口"},{"poiid":"B2094750DA69A5FC4393","title":"上海市第九人民医院","lon":"121.46212","lat":"31.177307","category":"162","category_name":"医院","address":"制造局路639号"},{"poiid":"B2094654DA6DABF54493","title":"俞一小区","lon":"121.458","lat":"31.1762","category":"47","category_name":"住宅区","address":"龙华西路31弄"},{"poiid":"B2094750D26FA0F44898","title":"上海绿地中心","lon":"121.460937","lat":"31.186069","category":"252","category_name":"楼宇机构","address":"徐汇区 船厂路东安路"},{"poiid":"B2094753D56BABFC439D","title":"大众书局(正大乐城店)","lon":"121.457672","lat":"31.185836","category":"249","category_name":"购物服务","address":"上海市 徐汇区中山南二路699号正大乐城2层(近东安路)"},{"poiid":"B2094753D768AAFC4499","title":"BBQ 比比客","lon":"121.45932","lat":"31.184492","category":"247","category_name":"餐饮美食","address":"上海市 正大乐城"},{"poiid":"B2094750DA65A3FF4898","title":"徐汇滨江","lon":"121.467994","lat":"31.181165","category":"47","category_name":"住宅区","address":null},{"poiid":"B2094750D565A2FE4692","title":"上海民航职业技术学院","lon":"121.457061","lat":"31.17053","category":"671","category_name":"高校中心点","address":"上海市徐汇区龙华西路1号"},{"poiid":"B2094654DA6DAAFC419A","title":"华龙新苑小区","lon":"121.45664","lat":"31.17359","category":"47","category_name":"住宅区","address":"上海徐汇区云锦路50弄"},{"poiid":"B2094750DB68AAFB469E","title":"新天地时尚","lon":"121.461364","lat":"31.177936","category":"500","category_name":"未知分类","address":null},{"poiid":"B2094654DA6DAAFC409C","title":"上飞新村","lon":"121.464091","lat":"31.179351","category":"47","category_name":"住宅区","address":"徐汇区云锦路185弄1-13号"},{"poiid":"B2094753D769A1F54499","title":"茶马颐苑","lon":"121.45903","lat":"31.186122","category":"47","category_name":"住宅区","address":"上海市 上海市徐汇区东安路598号绿地中心正大乐城2楼"},{"poiid":"B2094654DB6BA4FE429F","title":"龙华西路81弄小区","lon":"121.458","lat":"31.178","category":"47","category_name":"住宅区","address":"龙华西路81弄41-66号,70-92号"},{"poiid":"B2094750D768ABF8449B","title":"查尔斯咖啡","lon":"121.462","lat":"31.1773","category":"260","category_name":"其他","address":"徐汇区龙腾大道3036号"},{"poiid":"B2094655D26AA1FF4999","title":"通用雪佛兰绿地4S店","lon":"121.46107","lat":"31.18481","category":"247","category_name":"餐饮美食","address":"徐汇区船厂路187号(近中山南二路)"},{"poiid":"B2094654DA6DAAFC409E","title":"上海晟豪机动车驾驶员培训有限公司","lon":"121.45805","lat":"31.17028","category":"192","category_name":"驾校","address":"机场东一路1"},{"poiid":"B2094757D069A0FC479C","title":"百匯園","lon":"121.45893307","lat":"31.17263744","category":"500","category_name":"未知分类","address":"上海市卢湾区济南路8号"},{"poiid":"B2094654DA6DAAFC409F","title":"民苑小区","lon":"121.45907","lat":"31.17126","category":"47","category_name":"住宅区","address":"上海云锦路201弄"},{"poiid":"B2094750DA6AA7FA4992","title":"复旦大学附属眼耳鼻喉科医院","lon":"121.458534","lat":"31.182331","category":"162","category_name":"医院","address":"汾阳路83号"},{"poiid":"B209475DD468A4F5499B","title":"龙美术馆西岸馆","lon":"121.465316","lat":"31.185104","category":"248","category_name":"生活娱乐","address":"上海市 徐汇区龙腾大道3398号"},{"poiid":"B2094654DA6EA1F9489B","title":"盛大花园(2号门)","lon":"121.455","lat":"31.17938","category":"47","category_name":"住宅区","address":"宛平南路1408"},{"poiid":"B2094757D06FA4FA499B","title":"金龙花苑","lon":"121.459503","lat":"31.180959","category":"47","category_name":"住宅区","address":"上海市徐汇区丰谷路225弄1号"},{"poiid":"B2094757D16AABFA4099","title":"沪闵高架","lon":"121.45958143","lat":"31.179679223","category":"500","category_name":"未知分类","address":"上海虹梅路出口"},{"poiid":"B2094757D068A4FD4592","title":"上海飞机设计研究院","lon":"121.457473516","lat":"31.1714706279","category":"191","category_name":"科研机构","address":"上海云锦路5号"},{"poiid":"B2094753D76DA1FE449B","title":"正大乐城","lon":"121.458435","lat":"31.186231","category":"170","category_name":"KTV","address":"上海市 上海市徐汇区龙华中路602号"},{"poiid":"B209475CD565A5FA4592","title":"Ashley 正大乐城店","lon":"121.462982","lat":"31.184814","category":"247","category_name":"餐饮美食","address":"上海市中山南二路699号"},{"poiid":"B2094753D265AAFC4493","title":"Isola,Bella美丽岛意大利餐厅(龙腾大道店)","lon":"121.462697","lat":"31.171052","category":"98","category_name":"意式菜品餐厅","address":"滨江龙腾大道3222号(东安路路口)"},{"poiid":"B2094757D164A5FC4392","title":"一号线锦江乐园站","lon":"121.460916738","lat":"31.1730130817","category":"500","category_name":"未知分类","address":"上海市徐汇区沪闵路高架"},{"poiid":"B2094750D165A3FA459C","title":"Mo-mo 牧场","lon":"121.458381","lat":"31.179075","category":"500","category_name":"未知分类","address":null},{"poiid":"B2094654DB6BA5F5469D","title":"龙华苑","lon":"121.458","lat":"31.1738","category":"47","category_name":"住宅区","address":"龙华机场新村34-61号"},{"poiid":"B2094757D065A3F54198","title":"尚海湾","lon":"121.45691","lat":"31.177977","category":"500","category_name":"未知分类","address":"上海宛平南路1441号13"}]