[{"poiid":"B2094654DB64A0FD439D","title":"易初莲花购物中心","lon":"121.24114","lat":"31.01773","category":"118","category_name":"超级市场","address":"松江区松江荣乐中路8号"},{"poiid":"B2094654DB6DAAFE489B","title":"松江体育馆","lon":"121.23225","lat":"31.01583","category":"224","category_name":"综合体育馆","address":"松江区九峰路2号(九峰路乐都路)"},{"poiid":"B2094757D068A7FD4099","title":"卜蜂莲花(松江岳阳店)","lon":"121.24351","lat":"31.01668","category":"118","category_name":"超级市场","address":"松江区荣乐中路8号"},{"poiid":"B2094757D06AA4FE469B","title":"肯德基 KFC (方舟店)","lon":"121.240858","lat":"31.017601","category":"500","category_name":"未知分类","address":"松江区荣乐中路8号"},{"poiid":"B2094655D268A2F8459E","title":"绿地伯顿广场","lon":"121.24660055340769","lat":"31.01704298003939","category":"46","category_name":"楼宇","address":"松江区荣乐东路2369弄"},{"poiid":"B2094654DB6EA2FD459D","title":"通波小区(荣乐中路)","lon":"121.23902","lat":"31.01689","category":"47","category_name":"住宅区","address":"荣乐中路32弄"},{"poiid":"B2094655D26FA2FA449B","title":"如家快捷酒店","lon":"121.23883","lat":"31.01902","category":"216","category_name":"经济型连锁酒店","address":"松江区荣乐中路12弄方中广场282号(近沪松路)"},{"poiid":"B2094655D268A5F94598","title":"乐都大厦","lon":"121.2334","lat":"31.01309","category":"46","category_name":"楼宇","address":"乐都路251号"},{"poiid":"B2094654DB6EA1F8429A","title":"迪欧咖啡 松江店 DIO CAFE","lon":"121.24261775159","lat":"31.017687596121","category":"65","category_name":"咖啡厅","address":"松江区荣乐中路2弄110号(荣乐东路荣乐中路)"},{"poiid":"B2094757D66DA7F44499","title":"新石器盘古烤肉","lon":"121.240959767","lat":"31.0177071289","category":"96","category_name":"韩国料理","address":"上海松江区荣乐中路"},{"poiid":"B2094654DB69A4FB429C","title":"重庆鸡公煲(方舟店)","lon":"121.24043","lat":"31.01787","category":"71","category_name":"四川菜","address":"松江区荣乐中路12弄29号(近卜蜂莲花)"},{"poiid":"B2094654DB6EA3F54292","title":"樟馨家园","lon":"121.23857","lat":"31.011311","category":"47","category_name":"住宅区","address":"上海市松江区松乐路88弄"},{"poiid":"B2094757D16EA4F5479B","title":"呷哺呷哺(松江卜蜂莲花荣乐餐厅)","lon":"121.241108053","lat":"31.017171277","category":"86","category_name":"火锅店","address":"松江区荣乐中路8号卜蜂莲花2A-04室"},{"poiid":"B2094654DB6EA2F4469B","title":"高乐小区","lon":"121.23349","lat":"31.018749","category":"47","category_name":"住宅区","address":"谷阳北路525弄"},{"poiid":"B2094654DB64A0FD439C","title":"方舟园三村","lon":"121.23726","lat":"31.018473","category":"47","category_name":"住宅区","address":"上海市松江区荣乐中路30弄"},{"poiid":"B2094757D66BA5FF419C","title":"克莉丝汀 荣乐店","lon":"121.240086054","lat":"31.017999793","category":"112","category_name":"糕饼店","address":"松江区荣乐中路12弄方舟广场10号(近沪松路)"},{"poiid":"B2094655D26FABF94099","title":"方舟园四村","lon":"121.23823","lat":"31.020174","category":"47","category_name":"住宅区","address":"谷阳北路526弄"},{"poiid":"B2094655D36CA1F84092","title":"龙潭苑","lon":"121.239","lat":"31.0157","category":"38","category_name":"公交车站","address":"中山二路182弄"},{"poiid":"B2094757D465A6FB4193","title":"秦庄 荣乐中路店","lon":"121.239281054","lat":"31.017588793","category":"247","category_name":"餐饮美食","address":"松江区荣乐中路12弄方中广场37号(近沪松路)"},{"poiid":"B2094654DB6EA1FF4993","title":"上岛咖啡方舟店","lon":"121.23876","lat":"31.01847","category":"65","category_name":"咖啡厅","address":"松江区荣乐中路30弄27-29号(近沪松路)"},{"poiid":"B2094655D26DA6FD4498","title":"花园浜小区","lon":"121.243","lat":"31.0153","category":"47","category_name":"住宅区","address":"仓汇路400弄"},{"poiid":"B2094757D16FA7FC4792","title":"松江佳网斯柯达","lon":"121.244108","lat":"31.021317","category":"500","category_name":"未知分类","address":"上海松江区美能达路800号"},{"poiid":"B2094757D468A4FD439B","title":"富春江山里人家","lon":"121.2434284","lat":"31.0254068","category":"76","category_name":"上海菜","address":"松江区沪松路219号"},{"poiid":"B2094757D66FA1FB489F","title":"DQ(易初莲花)","lon":"121.240908467","lat":"31.0176772282","category":"247","category_name":"餐饮美食","address":"上海荣乐东路28号易初莲花一层"},{"poiid":"B2094654DB6EA1FA409E","title":"上海申田经济园区(荣乐中路)","lon":"121.23929","lat":"31.01806","category":"45","category_name":"产业园区","address":"荣乐中路12弄136号"},{"poiid":"B2094757D16DA3FE4298","title":"盛南易初莲花松江店(岳阳店)","lon":"121.23796209","lat":"31.017222512","category":"118","category_name":"超级市场","address":"上海松江区荣乐中路28号"},{"poiid":"B2094757D165AAFF4693","title":"乐都路","lon":"121.23887486","lat":"31.013645639","category":"500","category_name":"未知分类","address":"上海乐都路"},{"poiid":"B2094654DB64A0FD439B","title":"苏宁电器","lon":"121.23989","lat":"31.01764","category":"138","category_name":"家电电子卖场","address":"松江区松江荣乐中路12弄(荣乐东路荣乐中路)"},{"poiid":"B2094654DB6EA1F8469A","title":"宁波象山海鲜","lon":"121.24004","lat":"31.01844","category":"88","category_name":"海鲜酒楼","address":"方塔北路557号"},{"poiid":"B2094757D568A4F4409B","title":"绿地松江商务广场","lon":"121.2372206","lat":"31.01836778","category":"46","category_name":"楼宇","address":"松江区荣乐东路1133弄"},{"poiid":"B2094655D26FABF5499F","title":"小忠羊肉庄","lon":"121.23796","lat":"31.01413","category":"86","category_name":"火锅店","address":"松江区乐都路102弄13号"},{"poiid":"B2094654DB6EA1F94992","title":"好德便利NO.301","lon":"121.23905","lat":"31.01827","category":"117","category_name":"便民商店/便利店","address":"荣乐中路12弄149"},{"poiid":"B2094654DB6EA1F8479C","title":"小姑茶坊","lon":"121.24008","lat":"31.01863","category":"66","category_name":"茶艺馆","address":"荣乐中路12弄193"},{"poiid":"B2094655D265A6F44298","title":"华亭大都会","lon":"121.23899","lat":"31.01712","category":"47","category_name":"住宅区","address":"华亭大都会位于松江荣乐中路18弄"},{"poiid":"B2094757D56CA0FC499C","title":"川流龙虾城","lon":"121.243001054","lat":"31.017556793","category":"71","category_name":"四川菜","address":"松江区荣乐中路12弄313号(近谷阳北路)"},{"poiid":"B2094655D26DA0FB419B","title":"东风日产松江专营店","lon":"121.24272","lat":"31.02215","category":"158","category_name":"汽车销售","address":"沪松路518号"},{"poiid":"B2094655D36CA6FC409E","title":"谷阳北路","lon":"121.23672","lat":"31.01712","category":"38","category_name":"公交车站","address":""},{"poiid":"B2094654DB6EA1F84692","title":"阿诺斯酒吧","lon":"121.23935","lat":"31.01825","category":"172","category_name":"酒吧","address":"荣乐中路12弄139"},{"poiid":"B2094750D664A5FC4099","title":"张记烧烤","lon":"121.236","lat":"31.0173","category":"68","category_name":"快餐厅","address":"松江区谷阳北路188号(近中山二路)"},{"poiid":"B2094655D268A7FA4493","title":"谷水苑","lon":"121.24024","lat":"31.02047","category":"47","category_name":"住宅区","address":"荣乐中路28弄63"},{"poiid":"B2094757D065A1FC4393","title":"巴黎贝甜 荣乐中路店","lon":"121.23647896","lat":"31.021152294","category":"67","category_name":"甜品店","address":"松江区荣乐中路8号(近易初莲花)"},{"poiid":"B2094655D26BA0FF489A","title":"飞利浦苏宁上海荣乐中路店","lon":"121.23931","lat":"31.0191","category":"138","category_name":"家电电子卖场","address":"荣乐中路12弄"},{"poiid":"B2094757D06BA7FF4198","title":"网鱼网咖(九峰店)","lon":"121.2406378","lat":"31.0172025","category":"173","category_name":"游戏厅","address":"松江区荣乐中路12弄方舟广场123-126号1-2楼(近沪松路)"},{"poiid":"B2094654DB6EA1F9469A","title":"良友金伴荣乐中路店","lon":"121.23931","lat":"31.01936","category":"117","category_name":"便民商店/便利店","address":"荣乐中路12弄300"},{"poiid":"B2094654DB6EA1F9499C","title":"安乔形象设计","lon":"121.23905","lat":"31.01838","category":"148","category_name":"美容美发店","address":"荣乐中路12弄148"},{"poiid":"B2094757D16EAAFE489E","title":"比尔造型","lon":"121.23970546","lat":"31.018134238","category":"148","category_name":"美容美发店","address":"上海中山中路196弄42号"},{"poiid":"B2094757D664A1F8489E","title":"七欣天迷宗蟹 松江店","lon":"121.243638054","lat":"31.013775793","category":"86","category_name":"火锅店","address":"松江区环城东路980号(近沪松路)"},{"poiid":"B2094655D268A6FB469E","title":"方舟休闲广场公寓(南门)","lon":"121.23947","lat":"31.01971","category":"47","category_name":"住宅区","address":"荣乐中路28弄"},{"poiid":"B2094757D069A4FD4092","title":"凤凰小区","lon":"121.23508","lat":"31.012119","category":"47","category_name":"住宅区","address":"上海松江区谷阳北路"},{"poiid":"B2094757D164A0FC489E","title":"移动营业厅(荣乐店)","lon":"121.239894","lat":"31.017761","category":"150","category_name":"银行","address":"上海松江荣乐中路12弄40号"},{"poiid":"B2094654DB64A0FD439D","title":"易初莲花购物中心","lon":"121.24114","lat":"31.01773","category":"118","category_name":"超级市场","address":"松江区松江荣乐中路8号"},{"poiid":"B2094654DB6DAAFE489B","title":"松江体育馆","lon":"121.23225","lat":"31.01583","category":"224","category_name":"综合体育馆","address":"松江区九峰路2号(九峰路乐都路)"},{"poiid":"B2094757D068A7FD4099","title":"卜蜂莲花(松江岳阳店)","lon":"121.24351","lat":"31.01668","category":"118","category_name":"超级市场","address":"松江区荣乐中路8号"},{"poiid":"B2094757D06AA4FE469B","title":"肯德基 KFC (方舟店)","lon":"121.240858","lat":"31.017601","category":"500","category_name":"未知分类","address":"松江区荣乐中路8号"},{"poiid":"B2094655D268A2F8459E","title":"绿地伯顿广场","lon":"121.24660055340769","lat":"31.01704298003939","category":"46","category_name":"楼宇","address":"松江区荣乐东路2369弄"},{"poiid":"B2094654DB6EA2FD459D","title":"通波小区(荣乐中路)","lon":"121.23902","lat":"31.01689","category":"47","category_name":"住宅区","address":"荣乐中路32弄"},{"poiid":"B2094655D26FA2FA449B","title":"如家快捷酒店","lon":"121.23883","lat":"31.01902","category":"216","category_name":"经济型连锁酒店","address":"松江区荣乐中路12弄方中广场282号(近沪松路)"},{"poiid":"B2094655D268A5F94598","title":"乐都大厦","lon":"121.2334","lat":"31.01309","category":"46","category_name":"楼宇","address":"乐都路251号"},{"poiid":"B2094654DB6EA1F8429A","title":"迪欧咖啡 松江店 DIO CAFE","lon":"121.24261775159","lat":"31.017687596121","category":"65","category_name":"咖啡厅","address":"松江区荣乐中路2弄110号(荣乐东路荣乐中路)"},{"poiid":"B2094757D66DA7F44499","title":"新石器盘古烤肉","lon":"121.240959767","lat":"31.0177071289","category":"96","category_name":"韩国料理","address":"上海松江区荣乐中路"},{"poiid":"B2094654DB69A4FB429C","title":"重庆鸡公煲(方舟店)","lon":"121.24043","lat":"31.01787","category":"71","category_name":"四川菜","address":"松江区荣乐中路12弄29号(近卜蜂莲花)"},{"poiid":"B2094654DB6EA3F54292","title":"樟馨家园","lon":"121.23857","lat":"31.011311","category":"47","category_name":"住宅区","address":"上海市松江区松乐路88弄"},{"poiid":"B2094757D16EA4F5479B","title":"呷哺呷哺(松江卜蜂莲花荣乐餐厅)","lon":"121.241108053","lat":"31.017171277","category":"86","category_name":"火锅店","address":"松江区荣乐中路8号卜蜂莲花2A-04室"},{"poiid":"B2094654DB6EA2F4469B","title":"高乐小区","lon":"121.23349","lat":"31.018749","category":"47","category_name":"住宅区","address":"谷阳北路525弄"},{"poiid":"B2094654DB64A0FD439C","title":"方舟园三村","lon":"121.23726","lat":"31.018473","category":"47","category_name":"住宅区","address":"上海市松江区荣乐中路30弄"},{"poiid":"B2094757D66BA5FF419C","title":"克莉丝汀 荣乐店","lon":"121.240086054","lat":"31.017999793","category":"112","category_name":"糕饼店","address":"松江区荣乐中路12弄方舟广场10号(近沪松路)"},{"poiid":"B2094655D26FABF94099","title":"方舟园四村","lon":"121.23823","lat":"31.020174","category":"47","category_name":"住宅区","address":"谷阳北路526弄"},{"poiid":"B2094655D36CA1F84092","title":"龙潭苑","lon":"121.239","lat":"31.0157","category":"38","category_name":"公交车站","address":"中山二路182弄"},{"poiid":"B2094757D465A6FB4193","title":"秦庄 荣乐中路店","lon":"121.239281054","lat":"31.017588793","category":"247","category_name":"餐饮美食","address":"松江区荣乐中路12弄方中广场37号(近沪松路)"},{"poiid":"B2094654DB6EA1FF4993","title":"上岛咖啡方舟店","lon":"121.23876","lat":"31.01847","category":"65","category_name":"咖啡厅","address":"松江区荣乐中路30弄27-29号(近沪松路)"},{"poiid":"B2094655D26DA6FD4498","title":"花园浜小区","lon":"121.243","lat":"31.0153","category":"47","category_name":"住宅区","address":"仓汇路400弄"},{"poiid":"B2094757D16FA7FC4792","title":"松江佳网斯柯达","lon":"121.244108","lat":"31.021317","category":"500","category_name":"未知分类","address":"上海松江区美能达路800号"},{"poiid":"B2094757D468A4FD439B","title":"富春江山里人家","lon":"121.2434284","lat":"31.0254068","category":"76","category_name":"上海菜","address":"松江区沪松路219号"},{"poiid":"B2094757D66FA1FB489F","title":"DQ(易初莲花)","lon":"121.240908467","lat":"31.0176772282","category":"247","category_name":"餐饮美食","address":"上海荣乐东路28号易初莲花一层"},{"poiid":"B2094654DB6EA1FA409E","title":"上海申田经济园区(荣乐中路)","lon":"121.23929","lat":"31.01806","category":"45","category_name":"产业园区","address":"荣乐中路12弄136号"},{"poiid":"B2094757D16DA3FE4298","title":"盛南易初莲花松江店(岳阳店)","lon":"121.23796209","lat":"31.017222512","category":"118","category_name":"超级市场","address":"上海松江区荣乐中路28号"},{"poiid":"B2094757D165AAFF4693","title":"乐都路","lon":"121.23887486","lat":"31.013645639","category":"500","category_name":"未知分类","address":"上海乐都路"},{"poiid":"B2094654DB64A0FD439B","title":"苏宁电器","lon":"121.23989","lat":"31.01764","category":"138","category_name":"家电电子卖场","address":"松江区松江荣乐中路12弄(荣乐东路荣乐中路)"},{"poiid":"B2094654DB6EA1F8469A","title":"宁波象山海鲜","lon":"121.24004","lat":"31.01844","category":"88","category_name":"海鲜酒楼","address":"方塔北路557号"},{"poiid":"B2094757D568A4F4409B","title":"绿地松江商务广场","lon":"121.2372206","lat":"31.01836778","category":"46","category_name":"楼宇","address":"松江区荣乐东路1133弄"},{"poiid":"B2094655D26FABF5499F","title":"小忠羊肉庄","lon":"121.23796","lat":"31.01413","category":"86","category_name":"火锅店","address":"松江区乐都路102弄13号"},{"poiid":"B2094654DB6EA1F94992","title":"好德便利NO.301","lon":"121.23905","lat":"31.01827","category":"117","category_name":"便民商店/便利店","address":"荣乐中路12弄149"},{"poiid":"B2094654DB6EA1F8479C","title":"小姑茶坊","lon":"121.24008","lat":"31.01863","category":"66","category_name":"茶艺馆","address":"荣乐中路12弄193"},{"poiid":"B2094655D265A6F44298","title":"华亭大都会","lon":"121.23899","lat":"31.01712","category":"47","category_name":"住宅区","address":"华亭大都会位于松江荣乐中路18弄"},{"poiid":"B2094757D56CA0FC499C","title":"川流龙虾城","lon":"121.243001054","lat":"31.017556793","category":"71","category_name":"四川菜","address":"松江区荣乐中路12弄313号(近谷阳北路)"},{"poiid":"B2094655D26DA0FB419B","title":"东风日产松江专营店","lon":"121.24272","lat":"31.02215","category":"158","category_name":"汽车销售","address":"沪松路518号"},{"poiid":"B2094655D36CA6FC409E","title":"谷阳北路","lon":"121.23672","lat":"31.01712","category":"38","category_name":"公交车站","address":""},{"poiid":"B2094654DB6EA1F84692","title":"阿诺斯酒吧","lon":"121.23935","lat":"31.01825","category":"172","category_name":"酒吧","address":"荣乐中路12弄139"},{"poiid":"B2094750D664A5FC4099","title":"张记烧烤","lon":"121.236","lat":"31.0173","category":"68","category_name":"快餐厅","address":"松江区谷阳北路188号(近中山二路)"},{"poiid":"B2094655D268A7FA4493","title":"谷水苑","lon":"121.24024","lat":"31.02047","category":"47","category_name":"住宅区","address":"荣乐中路28弄63"},{"poiid":"B2094757D065A1FC4393","title":"巴黎贝甜 荣乐中路店","lon":"121.23647896","lat":"31.021152294","category":"67","category_name":"甜品店","address":"松江区荣乐中路8号(近易初莲花)"},{"poiid":"B2094655D26BA0FF489A","title":"飞利浦苏宁上海荣乐中路店","lon":"121.23931","lat":"31.0191","category":"138","category_name":"家电电子卖场","address":"荣乐中路12弄"},{"poiid":"B2094757D06BA7FF4198","title":"网鱼网咖(九峰店)","lon":"121.2406378","lat":"31.0172025","category":"173","category_name":"游戏厅","address":"松江区荣乐中路12弄方舟广场123-126号1-2楼(近沪松路)"},{"poiid":"B2094654DB6EA1F9469A","title":"良友金伴荣乐中路店","lon":"121.23931","lat":"31.01936","category":"117","category_name":"便民商店/便利店","address":"荣乐中路12弄300"},{"poiid":"B2094654DB6EA1F9499C","title":"安乔形象设计","lon":"121.23905","lat":"31.01838","category":"148","category_name":"美容美发店","address":"荣乐中路12弄148"},{"poiid":"B2094757D16EAAFE489E","title":"比尔造型","lon":"121.23970546","lat":"31.018134238","category":"148","category_name":"美容美发店","address":"上海中山中路196弄42号"},{"poiid":"B2094757D664A1F8489E","title":"七欣天迷宗蟹 松江店","lon":"121.243638054","lat":"31.013775793","category":"86","category_name":"火锅店","address":"松江区环城东路980号(近沪松路)"},{"poiid":"B2094655D268A6FB469E","title":"方舟休闲广场公寓(南门)","lon":"121.23947","lat":"31.01971","category":"47","category_name":"住宅区","address":"荣乐中路28弄"},{"poiid":"B2094757D069A4FD4092","title":"凤凰小区","lon":"121.23508","lat":"31.012119","category":"47","category_name":"住宅区","address":"上海松江区谷阳北路"},{"poiid":"B2094757D164A0FC489E","title":"移动营业厅(荣乐店)","lon":"121.239894","lat":"31.017761","category":"150","category_name":"银行","address":"上海松江荣乐中路12弄40号"},{"poiid":"B2094654DB64A0FD439D","title":"易初莲花购物中心","lon":"121.24114","lat":"31.01773","category":"118","category_name":"超级市场","address":"松江区松江荣乐中路8号"},{"poiid":"B2094654DB6DAAFE489B","title":"松江体育馆","lon":"121.23225","lat":"31.01583","category":"224","category_name":"综合体育馆","address":"松江区九峰路2号(九峰路乐都路)"},{"poiid":"B2094757D068A7FD4099","title":"卜蜂莲花(松江岳阳店)","lon":"121.24351","lat":"31.01668","category":"118","category_name":"超级市场","address":"松江区荣乐中路8号"},{"poiid":"B2094757D06AA4FE469B","title":"肯德基 KFC (方舟店)","lon":"121.240858","lat":"31.017601","category":"500","category_name":"未知分类","address":"松江区荣乐中路8号"},{"poiid":"B2094655D268A2F8459E","title":"绿地伯顿广场","lon":"121.24660055340769","lat":"31.01704298003939","category":"46","category_name":"楼宇","address":"松江区荣乐东路2369弄"},{"poiid":"B2094654DB6EA2FD459D","title":"通波小区(荣乐中路)","lon":"121.23902","lat":"31.01689","category":"47","category_name":"住宅区","address":"荣乐中路32弄"},{"poiid":"B2094655D26FA2FA449B","title":"如家快捷酒店","lon":"121.23883","lat":"31.01902","category":"216","category_name":"经济型连锁酒店","address":"松江区荣乐中路12弄方中广场282号(近沪松路)"},{"poiid":"B2094655D268A5F94598","title":"乐都大厦","lon":"121.2334","lat":"31.01309","category":"46","category_name":"楼宇","address":"乐都路251号"},{"poiid":"B2094654DB6EA1F8429A","title":"迪欧咖啡 松江店 DIO CAFE","lon":"121.24261775159","lat":"31.017687596121","category":"65","category_name":"咖啡厅","address":"松江区荣乐中路2弄110号(荣乐东路荣乐中路)"},{"poiid":"B2094757D66DA7F44499","title":"新石器盘古烤肉","lon":"121.240959767","lat":"31.0177071289","category":"96","category_name":"韩国料理","address":"上海松江区荣乐中路"},{"poiid":"B2094654DB69A4FB429C","title":"重庆鸡公煲(方舟店)","lon":"121.24043","lat":"31.01787","category":"71","category_name":"四川菜","address":"松江区荣乐中路12弄29号(近卜蜂莲花)"},{"poiid":"B2094654DB6EA3F54292","title":"樟馨家园","lon":"121.23857","lat":"31.011311","category":"47","category_name":"住宅区","address":"上海市松江区松乐路88弄"},{"poiid":"B2094757D16EA4F5479B","title":"呷哺呷哺(松江卜蜂莲花荣乐餐厅)","lon":"121.241108053","lat":"31.017171277","category":"86","category_name":"火锅店","address":"松江区荣乐中路8号卜蜂莲花2A-04室"},{"poiid":"B2094654DB6EA2F4469B","title":"高乐小区","lon":"121.23349","lat":"31.018749","category":"47","category_name":"住宅区","address":"谷阳北路525弄"},{"poiid":"B2094654DB64A0FD439C","title":"方舟园三村","lon":"121.23726","lat":"31.018473","category":"47","category_name":"住宅区","address":"上海市松江区荣乐中路30弄"},{"poiid":"B2094757D66BA5FF419C","title":"克莉丝汀 荣乐店","lon":"121.240086054","lat":"31.017999793","category":"112","category_name":"糕饼店","address":"松江区荣乐中路12弄方舟广场10号(近沪松路)"},{"poiid":"B2094655D26FABF94099","title":"方舟园四村","lon":"121.23823","lat":"31.020174","category":"47","category_name":"住宅区","address":"谷阳北路526弄"},{"poiid":"B2094655D36CA1F84092","title":"龙潭苑","lon":"121.239","lat":"31.0157","category":"38","category_name":"公交车站","address":"中山二路182弄"},{"poiid":"B2094757D465A6FB4193","title":"秦庄 荣乐中路店","lon":"121.239281054","lat":"31.017588793","category":"247","category_name":"餐饮美食","address":"松江区荣乐中路12弄方中广场37号(近沪松路)"},{"poiid":"B2094654DB6EA1FF4993","title":"上岛咖啡方舟店","lon":"121.23876","lat":"31.01847","category":"65","category_name":"咖啡厅","address":"松江区荣乐中路30弄27-29号(近沪松路)"},{"poiid":"B2094655D26DA6FD4498","title":"花园浜小区","lon":"121.243","lat":"31.0153","category":"47","category_name":"住宅区","address":"仓汇路400弄"},{"poiid":"B2094757D16FA7FC4792","title":"松江佳网斯柯达","lon":"121.244108","lat":"31.021317","category":"500","category_name":"未知分类","address":"上海松江区美能达路800号"},{"poiid":"B2094757D468A4FD439B","title":"富春江山里人家","lon":"121.2434284","lat":"31.0254068","category":"76","category_name":"上海菜","address":"松江区沪松路219号"},{"poiid":"B2094757D66FA1FB489F","title":"DQ(易初莲花)","lon":"121.240908467","lat":"31.0176772282","category":"247","category_name":"餐饮美食","address":"上海荣乐东路28号易初莲花一层"},{"poiid":"B2094654DB6EA1FA409E","title":"上海申田经济园区(荣乐中路)","lon":"121.23929","lat":"31.01806","category":"45","category_name":"产业园区","address":"荣乐中路12弄136号"},{"poiid":"B2094757D16DA3FE4298","title":"盛南易初莲花松江店(岳阳店)","lon":"121.23796209","lat":"31.017222512","category":"118","category_name":"超级市场","address":"上海松江区荣乐中路28号"},{"poiid":"B2094757D165AAFF4693","title":"乐都路","lon":"121.23887486","lat":"31.013645639","category":"500","category_name":"未知分类","address":"上海乐都路"},{"poiid":"B2094654DB64A0FD439B","title":"苏宁电器","lon":"121.23989","lat":"31.01764","category":"138","category_name":"家电电子卖场","address":"松江区松江荣乐中路12弄(荣乐东路荣乐中路)"},{"poiid":"B2094654DB6EA1F8469A","title":"宁波象山海鲜","lon":"121.24004","lat":"31.01844","category":"88","category_name":"海鲜酒楼","address":"方塔北路557号"},{"poiid":"B2094757D568A4F4409B","title":"绿地松江商务广场","lon":"121.2372206","lat":"31.01836778","category":"46","category_name":"楼宇","address":"松江区荣乐东路1133弄"},{"poiid":"B2094655D26FABF5499F","title":"小忠羊肉庄","lon":"121.23796","lat":"31.01413","category":"86","category_name":"火锅店","address":"松江区乐都路102弄13号"},{"poiid":"B2094654DB6EA1F94992","title":"好德便利NO.301","lon":"121.23905","lat":"31.01827","category":"117","category_name":"便民商店/便利店","address":"荣乐中路12弄149"},{"poiid":"B2094654DB6EA1F8479C","title":"小姑茶坊","lon":"121.24008","lat":"31.01863","category":"66","category_name":"茶艺馆","address":"荣乐中路12弄193"},{"poiid":"B2094655D265A6F44298","title":"华亭大都会","lon":"121.23899","lat":"31.01712","category":"47","category_name":"住宅区","address":"华亭大都会位于松江荣乐中路18弄"},{"poiid":"B2094757D56CA0FC499C","title":"川流龙虾城","lon":"121.243001054","lat":"31.017556793","category":"71","category_name":"四川菜","address":"松江区荣乐中路12弄313号(近谷阳北路)"},{"poiid":"B2094655D26DA0FB419B","title":"东风日产松江专营店","lon":"121.24272","lat":"31.02215","category":"158","category_name":"汽车销售","address":"沪松路518号"},{"poiid":"B2094655D36CA6FC409E","title":"谷阳北路","lon":"121.23672","lat":"31.01712","category":"38","category_name":"公交车站","address":""},{"poiid":"B2094654DB6EA1F84692","title":"阿诺斯酒吧","lon":"121.23935","lat":"31.01825","category":"172","category_name":"酒吧","address":"荣乐中路12弄139"},{"poiid":"B2094750D664A5FC4099","title":"张记烧烤","lon":"121.236","lat":"31.0173","category":"68","category_name":"快餐厅","address":"松江区谷阳北路188号(近中山二路)"},{"poiid":"B2094655D268A7FA4493","title":"谷水苑","lon":"121.24024","lat":"31.02047","category":"47","category_name":"住宅区","address":"荣乐中路28弄63"},{"poiid":"B2094757D065A1FC4393","title":"巴黎贝甜 荣乐中路店","lon":"121.23647896","lat":"31.021152294","category":"67","category_name":"甜品店","address":"松江区荣乐中路8号(近易初莲花)"},{"poiid":"B2094655D26BA0FF489A","title":"飞利浦苏宁上海荣乐中路店","lon":"121.23931","lat":"31.0191","category":"138","category_name":"家电电子卖场","address":"荣乐中路12弄"},{"poiid":"B2094757D06BA7FF4198","title":"网鱼网咖(九峰店)","lon":"121.2406378","lat":"31.0172025","category":"173","category_name":"游戏厅","address":"松江区荣乐中路12弄方舟广场123-126号1-2楼(近沪松路)"},{"poiid":"B2094654DB6EA1F9469A","title":"良友金伴荣乐中路店","lon":"121.23931","lat":"31.01936","category":"117","category_name":"便民商店/便利店","address":"荣乐中路12弄300"},{"poiid":"B2094654DB6EA1F9499C","title":"安乔形象设计","lon":"121.23905","lat":"31.01838","category":"148","category_name":"美容美发店","address":"荣乐中路12弄148"},{"poiid":"B2094757D16EAAFE489E","title":"比尔造型","lon":"121.23970546","lat":"31.018134238","category":"148","category_name":"美容美发店","address":"上海中山中路196弄42号"},{"poiid":"B2094757D664A1F8489E","title":"七欣天迷宗蟹 松江店","lon":"121.243638054","lat":"31.013775793","category":"86","category_name":"火锅店","address":"松江区环城东路980号(近沪松路)"},{"poiid":"B2094655D268A6FB469E","title":"方舟休闲广场公寓(南门)","lon":"121.23947","lat":"31.01971","category":"47","category_name":"住宅区","address":"荣乐中路28弄"},{"poiid":"B2094757D069A4FD4092","title":"凤凰小区","lon":"121.23508","lat":"31.012119","category":"47","category_name":"住宅区","address":"上海松江区谷阳北路"},{"poiid":"B2094757D164A0FC489E","title":"移动营业厅(荣乐店)","lon":"121.239894","lat":"31.017761","category":"150","category_name":"银行","address":"上海松江荣乐中路12弄40号"},{"poiid":"B2094654DB64A0FD439D","title":"易初莲花购物中心","lon":"121.24114","lat":"31.01773","category":"118","category_name":"超级市场","address":"松江区松江荣乐中路8号"},{"poiid":"B2094654DB6DAAFE489B","title":"松江体育馆","lon":"121.23225","lat":"31.01583","category":"224","category_name":"综合体育馆","address":"松江区九峰路2号(九峰路乐都路)"},{"poiid":"B2094757D068A7FD4099","title":"卜蜂莲花(松江岳阳店)","lon":"121.24351","lat":"31.01668","category":"118","category_name":"超级市场","address":"松江区荣乐中路8号"},{"poiid":"B2094757D06AA4FE469B","title":"肯德基 KFC (方舟店)","lon":"121.240858","lat":"31.017601","category":"500","category_name":"未知分类","address":"松江区荣乐中路8号"},{"poiid":"B2094655D268A2F8459E","title":"绿地伯顿广场","lon":"121.24660055340769","lat":"31.01704298003939","category":"46","category_name":"楼宇","address":"松江区荣乐东路2369弄"},{"poiid":"B2094654DB6EA2FD459D","title":"通波小区(荣乐中路)","lon":"121.23902","lat":"31.01689","category":"47","category_name":"住宅区","address":"荣乐中路32弄"},{"poiid":"B2094655D26FA2FA449B","title":"如家快捷酒店","lon":"121.23883","lat":"31.01902","category":"216","category_name":"经济型连锁酒店","address":"松江区荣乐中路12弄方中广场282号(近沪松路)"},{"poiid":"B2094655D268A5F94598","title":"乐都大厦","lon":"121.2334","lat":"31.01309","category":"46","category_name":"楼宇","address":"乐都路251号"},{"poiid":"B2094654DB6EA1F8429A","title":"迪欧咖啡 松江店 DIO CAFE","lon":"121.24261775159","lat":"31.017687596121","category":"65","category_name":"咖啡厅","address":"松江区荣乐中路2弄110号(荣乐东路荣乐中路)"},{"poiid":"B2094757D66DA7F44499","title":"新石器盘古烤肉","lon":"121.240959767","lat":"31.0177071289","category":"96","category_name":"韩国料理","address":"上海松江区荣乐中路"},{"poiid":"B2094654DB69A4FB429C","title":"重庆鸡公煲(方舟店)","lon":"121.24043","lat":"31.01787","category":"71","category_name":"四川菜","address":"松江区荣乐中路12弄29号(近卜蜂莲花)"},{"poiid":"B2094654DB6EA3F54292","title":"樟馨家园","lon":"121.23857","lat":"31.011311","category":"47","category_name":"住宅区","address":"上海市松江区松乐路88弄"},{"poiid":"B2094757D16EA4F5479B","title":"呷哺呷哺(松江卜蜂莲花荣乐餐厅)","lon":"121.241108053","lat":"31.017171277","category":"86","category_name":"火锅店","address":"松江区荣乐中路8号卜蜂莲花2A-04室"},{"poiid":"B2094654DB6EA2F4469B","title":"高乐小区","lon":"121.23349","lat":"31.018749","category":"47","category_name":"住宅区","address":"谷阳北路525弄"},{"poiid":"B2094654DB64A0FD439C","title":"方舟园三村","lon":"121.23726","lat":"31.018473","category":"47","category_name":"住宅区","address":"上海市松江区荣乐中路30弄"},{"poiid":"B2094757D66BA5FF419C","title":"克莉丝汀 荣乐店","lon":"121.240086054","lat":"31.017999793","category":"112","category_name":"糕饼店","address":"松江区荣乐中路12弄方舟广场10号(近沪松路)"},{"poiid":"B2094655D26FABF94099","title":"方舟园四村","lon":"121.23823","lat":"31.020174","category":"47","category_name":"住宅区","address":"谷阳北路526弄"},{"poiid":"B2094655D36CA1F84092","title":"龙潭苑","lon":"121.239","lat":"31.0157","category":"38","category_name":"公交车站","address":"中山二路182弄"},{"poiid":"B2094757D465A6FB4193","title":"秦庄 荣乐中路店","lon":"121.239281054","lat":"31.017588793","category":"247","category_name":"餐饮美食","address":"松江区荣乐中路12弄方中广场37号(近沪松路)"},{"poiid":"B2094654DB6EA1FF4993","title":"上岛咖啡方舟店","lon":"121.23876","lat":"31.01847","category":"65","category_name":"咖啡厅","address":"松江区荣乐中路30弄27-29号(近沪松路)"},{"poiid":"B2094655D26DA6FD4498","title":"花园浜小区","lon":"121.243","lat":"31.0153","category":"47","category_name":"住宅区","address":"仓汇路400弄"},{"poiid":"B2094757D16FA7FC4792","title":"松江佳网斯柯达","lon":"121.244108","lat":"31.021317","category":"500","category_name":"未知分类","address":"上海松江区美能达路800号"},{"poiid":"B2094757D468A4FD439B","title":"富春江山里人家","lon":"121.2434284","lat":"31.0254068","category":"76","category_name":"上海菜","address":"松江区沪松路219号"},{"poiid":"B2094757D66FA1FB489F","title":"DQ(易初莲花)","lon":"121.240908467","lat":"31.0176772282","category":"247","category_name":"餐饮美食","address":"上海荣乐东路28号易初莲花一层"},{"poiid":"B2094654DB6EA1FA409E","title":"上海申田经济园区(荣乐中路)","lon":"121.23929","lat":"31.01806","category":"45","category_name":"产业园区","address":"荣乐中路12弄136号"},{"poiid":"B2094757D16DA3FE4298","title":"盛南易初莲花松江店(岳阳店)","lon":"121.23796209","lat":"31.017222512","category":"118","category_name":"超级市场","address":"上海松江区荣乐中路28号"},{"poiid":"B2094757D165AAFF4693","title":"乐都路","lon":"121.23887486","lat":"31.013645639","category":"500","category_name":"未知分类","address":"上海乐都路"},{"poiid":"B2094654DB64A0FD439B","title":"苏宁电器","lon":"121.23989","lat":"31.01764","category":"138","category_name":"家电电子卖场","address":"松江区松江荣乐中路12弄(荣乐东路荣乐中路)"},{"poiid":"B2094654DB6EA1F8469A","title":"宁波象山海鲜","lon":"121.24004","lat":"31.01844","category":"88","category_name":"海鲜酒楼","address":"方塔北路557号"},{"poiid":"B2094757D568A4F4409B","title":"绿地松江商务广场","lon":"121.2372206","lat":"31.01836778","category":"46","category_name":"楼宇","address":"松江区荣乐东路1133弄"},{"poiid":"B2094655D26FABF5499F","title":"小忠羊肉庄","lon":"121.23796","lat":"31.01413","category":"86","category_name":"火锅店","address":"松江区乐都路102弄13号"},{"poiid":"B2094654DB6EA1F94992","title":"好德便利NO.301","lon":"121.23905","lat":"31.01827","category":"117","category_name":"便民商店/便利店","address":"荣乐中路12弄149"},{"poiid":"B2094654DB6EA1F8479C","title":"小姑茶坊","lon":"121.24008","lat":"31.01863","category":"66","category_name":"茶艺馆","address":"荣乐中路12弄193"},{"poiid":"B2094655D265A6F44298","title":"华亭大都会","lon":"121.23899","lat":"31.01712","category":"47","category_name":"住宅区","address":"华亭大都会位于松江荣乐中路18弄"},{"poiid":"B2094757D56CA0FC499C","title":"川流龙虾城","lon":"121.243001054","lat":"31.017556793","category":"71","category_name":"四川菜","address":"松江区荣乐中路12弄313号(近谷阳北路)"},{"poiid":"B2094655D26DA0FB419B","title":"东风日产松江专营店","lon":"121.24272","lat":"31.02215","category":"158","category_name":"汽车销售","address":"沪松路518号"},{"poiid":"B2094655D36CA6FC409E","title":"谷阳北路","lon":"121.23672","lat":"31.01712","category":"38","category_name":"公交车站","address":""},{"poiid":"B2094654DB6EA1F84692","title":"阿诺斯酒吧","lon":"121.23935","lat":"31.01825","category":"172","category_name":"酒吧","address":"荣乐中路12弄139"},{"poiid":"B2094750D664A5FC4099","title":"张记烧烤","lon":"121.236","lat":"31.0173","category":"68","category_name":"快餐厅","address":"松江区谷阳北路188号(近中山二路)"},{"poiid":"B2094655D268A7FA4493","title":"谷水苑","lon":"121.24024","lat":"31.02047","category":"47","category_name":"住宅区","address":"荣乐中路28弄63"},{"poiid":"B2094757D065A1FC4393","title":"巴黎贝甜 荣乐中路店","lon":"121.23647896","lat":"31.021152294","category":"67","category_name":"甜品店","address":"松江区荣乐中路8号(近易初莲花)"},{"poiid":"B2094655D26BA0FF489A","title":"飞利浦苏宁上海荣乐中路店","lon":"121.23931","lat":"31.0191","category":"138","category_name":"家电电子卖场","address":"荣乐中路12弄"},{"poiid":"B2094757D06BA7FF4198","title":"网鱼网咖(九峰店)","lon":"121.2406378","lat":"31.0172025","category":"173","category_name":"游戏厅","address":"松江区荣乐中路12弄方舟广场123-126号1-2楼(近沪松路)"},{"poiid":"B2094654DB6EA1F9469A","title":"良友金伴荣乐中路店","lon":"121.23931","lat":"31.01936","category":"117","category_name":"便民商店/便利店","address":"荣乐中路12弄300"},{"poiid":"B2094654DB6EA1F9499C","title":"安乔形象设计","lon":"121.23905","lat":"31.01838","category":"148","category_name":"美容美发店","address":"荣乐中路12弄148"},{"poiid":"B2094757D16EAAFE489E","title":"比尔造型","lon":"121.23970546","lat":"31.018134238","category":"148","category_name":"美容美发店","address":"上海中山中路196弄42号"},{"poiid":"B2094757D664A1F8489E","title":"七欣天迷宗蟹 松江店","lon":"121.243638054","lat":"31.013775793","category":"86","category_name":"火锅店","address":"松江区环城东路980号(近沪松路)"},{"poiid":"B2094655D268A6FB469E","title":"方舟休闲广场公寓(南门)","lon":"121.23947","lat":"31.01971","category":"47","category_name":"住宅区","address":"荣乐中路28弄"},{"poiid":"B2094757D069A4FD4092","title":"凤凰小区","lon":"121.23508","lat":"31.012119","category":"47","category_name":"住宅区","address":"上海松江区谷阳北路"},{"poiid":"B2094757D164A0FC489E","title":"移动营业厅(荣乐店)","lon":"121.239894","lat":"31.017761","category":"150","category_name":"银行","address":"上海松江荣乐中路12弄40号"}]