[{"poiid":"B2094654DA6DA4FF439A","title":"上海绿地徐汇","lon":"121.4599","lat":"31.18599","category":"159","category_name":"汽车维修","address":"船厂路185号"},{"poiid":"B2094750DA6BA4FA429E","title":"西岸音乐节","lon":"121.456642","lat":"31.185581","category":"248","category_name":"生活娱乐","address":"徐汇滨江龙腾大道"},{"poiid":"B2094757D069A6FB459F","title":"龙腾大道","lon":"121.45933573","lat":"31.175346131","category":"500","category_name":"未知分类","address":"上海龙腾大道"},{"poiid":"B2094752D06CA0F44198","title":"上海华士达东方影城","lon":"121.4572","lat":"31.18539","category":"178","category_name":"电影院","address":"上海市徐汇区东安路599号绿地中心正大乐城1号楼301"},{"poiid":"B2094757D16FAAF84392","title":"龙腾大道","lon":"121.46266273","lat":"31.182472283","category":"500","category_name":"未知分类","address":"上海市徐汇区龙恒路"},{"poiid":"B209475CD76CA3F8459F","title":"maan coffee漫咖啡","lon":"121.458557","lat":"31.186952","category":"500","category_name":"未知分类","address":"上海市 中山南二路699号正大乐城2楼(近东安路)"},{"poiid":"B2094753D664A3FA4792","title":"TOUCH正大乐城","lon":"121.457603","lat":"31.186313","category":"500","category_name":"未知分类","address":"上海市 东安路599号"},{"poiid":"B2094753D165A3F8459E","title":"查理布朗咖啡馆正大乐城店","lon":"121.458608","lat":"31.186094","category":"65","category_name":"咖啡厅","address":"上海市 东安路599号 正大乐城6-101-1号"},{"poiid":"B2094654DA6DA4F9419C","title":"尚海湾豪庭","lon":"121.45771","lat":"31.178894","category":"47","category_name":"住宅区","address":"徐汇区宛平南路1455弄"},{"poiid":"B2094757D06FA1FA4893","title":"盛大花园","lon":"121.45329","lat":"31.179134","category":"47","category_name":"住宅区","address":"上海市徐汇区龙华路2518弄"},{"poiid":"B2094751DA6BA2F4499C","title":"美丽岛意大利餐厅","lon":"121.459256540038","lat":"31.18285984269632","category":"247","category_name":"餐饮美食","address":"徐汇区龙腾大道3222号(东安路口)"},{"poiid":"B2094753DB69A7FF439B","title":"翠華餐廳（正大樂城店）","lon":"121.463157","lat":"31.184999","category":"500","category_name":"未知分类","address":"上海市 上海徐匯區中山南二路"},{"poiid":"B2094757D06FA6FC469A","title":"卜蜂莲花(船厂路店)","lon":"121.45965576","lat":"31.18546145","category":"118","category_name":"超级市场","address":"徐汇区船厂路178号(近中山南二路)"},{"poiid":"B2094753D164A5FC439D","title":"费尼汉堡","lon":"121.457205","lat":"31.186739","category":"247","category_name":"餐饮美食","address":"上海市 中山南二路699号正大乐城2-104室"},{"poiid":"B2094757D06FA3FD4192","title":"船厂路地铁站","lon":"121.46025679","lat":"31.185244349","category":"36","category_name":"地铁站","address":"上海轨道交通 七号线 轨交船厂路站 7"},{"poiid":"B2094757D068A2FA4599","title":"上海市机动车物损交通事故保险理赔服务中心绿地分中心","lon":"121.460469","lat":"31.185364","category":"500","category_name":"未知分类","address":"上海市徐汇区船厂路185号"},{"poiid":"B2094753D664A3FD469E","title":"正大乐城","lon":"121.458213","lat":"31.186937","category":"170","category_name":"KTV","address":"上海市 东安路中山南二路"},{"poiid":"B2094750DA6BA4F44698","title":"上海西岸音乐节","lon":"121.462753","lat":"31.182302","category":"500","category_name":"未知分类","address":null},{"poiid":"B2094757D068A5FF4599","title":"东安公园","lon":"121.454267372","lat":"31.1850510404","category":"196","category_name":"公园","address":"徐汇区中山南二路811号(龙华西路)"},{"poiid":"B2094752D06EAAF94293","title":"正大乐城","lon":"121.456084","lat":"31.185717","category":"170","category_name":"KTV","address":"东安路500号"},{"poiid":"B2094757D069A5FD489C","title":"光头烧烤","lon":"121.45085","lat":"31.18479","category":"68","category_name":"快餐厅","address":"徐汇区宛平南路808号(近中山南二路)"},{"poiid":"B2094757D069A3FD439F","title":"龙兆苑","lon":"121.453078","lat":"31.177168","category":"47","category_name":"住宅区","address":"上海市浦东新区上南路3500弄"},{"poiid":"B2094757D064A0FC4798","title":"徐汇区教育学院","lon":"121.45531","lat":"31.1868","category":"52","category_name":"高等院校","address":"徐汇区中山南二路800号(近东安路)"},{"poiid":"B209475CD364A0FE4199","title":"Fani Burger","lon":"121.4574","lat":"31.1862","category":"94","category_name":"西餐厅","address":"东安路500号正大乐城(近中山南二路)"},{"poiid":"B2094753D768AAFC4499","title":"BBQ 比比客","lon":"121.45932","lat":"31.184492","category":"247","category_name":"餐饮美食","address":"上海市 正大乐城"},{"poiid":"B2094753D56BABFC439D","title":"大众书局(正大乐城店)","lon":"121.457672","lat":"31.185836","category":"249","category_name":"购物服务","address":"上海市 徐汇区中山南二路699号正大乐城2层(近东安路)"},{"poiid":"B2094750D26FA0F44898","title":"上海绿地中心","lon":"121.460937","lat":"31.186069","category":"252","category_name":"楼宇机构","address":"徐汇区 船厂路东安路"},{"poiid":"B2094753D764A1F84899","title":"正大乐城华士达影城","lon":"121.457672","lat":"31.186075","category":"500","category_name":"未知分类","address":"上海市 徐汇区东安路598号绿地中心正大乐城3楼"},{"poiid":"B2094757D168A4FE489D","title":"全家便利 FamilyMart(龙腾大道店)","lon":"121.463484892","lat":"31.1813841005","category":"249","category_name":"购物服务","address":"上海徐汇区龙腾大道／东安路口"},{"poiid":"B2094750DA6AA7FA4992","title":"复旦大学附属眼耳鼻喉科医院","lon":"121.458534","lat":"31.182331","category":"162","category_name":"医院","address":"汾阳路83号"},{"poiid":"B2094753D769A1F54499","title":"茶马颐苑","lon":"121.45903","lat":"31.186122","category":"47","category_name":"住宅区","address":"上海市 上海市徐汇区东安路598号绿地中心正大乐城2楼"},{"poiid":"B2094757D06FA4FA499B","title":"金龙花苑","lon":"121.459503","lat":"31.180959","category":"47","category_name":"住宅区","address":"上海市徐汇区丰谷路225弄1号"},{"poiid":"B2094655D26AA1FF4999","title":"通用雪佛兰绿地4S店","lon":"121.46107","lat":"31.18481","category":"247","category_name":"餐饮美食","address":"徐汇区船厂路187号(近中山南二路)"},{"poiid":"B2094655D36DA7F8469C","title":"中山南二路东安路","lon":"121.45702","lat":"31.18704","category":"38","category_name":"公交车站","address":""},{"poiid":"B2094753DB65A6FE499C","title":"Dazzling Cafe Shanghai No.2","lon":"121.457717","lat":"31.18633","category":"500","category_name":"未知分类","address":"上海市 上海市徐汇区龙华中路602号 7-105铺位"},{"poiid":"B2094654DA6DABF54493","title":"俞一小区","lon":"121.458","lat":"31.1762","category":"47","category_name":"住宅区","address":"龙华西路31弄"},{"poiid":"B2094753DB64A0F94598","title":"一麻一辣","lon":"121.457527","lat":"31.187007","category":"500","category_name":"未知分类","address":"上海市 上海市中山南二路699号2楼"},{"poiid":"B2094654DA6EA1F9489B","title":"盛大花园(2号门)","lon":"121.455","lat":"31.17938","category":"47","category_name":"住宅区","address":"宛平南路1408"},{"poiid":"B2094753D76DA1FE449B","title":"正大乐城","lon":"121.458435","lat":"31.186231","category":"170","category_name":"KTV","address":"上海市 上海市徐汇区龙华中路602号"},{"poiid":"B209475CD16FA1FF459D","title":"小辉哥火锅","lon":"121.458099","lat":"31.186601","category":"247","category_name":"餐饮美食","address":"上海市 正大乐城"},{"poiid":"B2094654DB6BA4FE429F","title":"龙华西路81弄小区","lon":"121.458","lat":"31.178","category":"47","category_name":"住宅区","address":"龙华西路81弄41-66号,70-92号"},{"poiid":"B2094757D06FAAF54499","title":"JEANS日韩店(京世龙华店)","lon":"121.452429","lat":"31.183131","category":"148","category_name":"美容美发店","address":"上海徐汇区宛平南路941号(近龙华西路)"},{"poiid":"B2094753DA64A6F54992","title":"玳思琳蜜糖土司","lon":"121.458007","lat":"31.186092","category":"247","category_name":"餐饮美食","address":"上海市 中山南二路699号 正大乐城"},{"poiid":"B2094757D16AABFA4099","title":"沪闵高架","lon":"121.45958143","lat":"31.179679223","category":"500","category_name":"未知分类","address":"上海虹梅路出口"},{"poiid":"B2094454D36DAAF44293","title":"啡你啡思","lon":"121.457443","lat":"31.186225","category":"247","category_name":"餐饮美食","address":"上海市 东安路599号1-105室"},{"poiid":"B2094753D76DA5FB4192","title":"乐新皇朝","lon":"121.457908","lat":"31.186717","category":"500","category_name":"未知分类","address":"上海市 上海市徐汇区东安路600号正大乐城"},{"poiid":"B2094655D36DA6FD4098","title":"船厂路","lon":"121.46075","lat":"31.18435","category":"38","category_name":"公交车站","address":""},{"poiid":"B2094753DA6FAAF54398","title":"MEET SWEET觅甜記","lon":"121.457168","lat":"31.180727","category":"500","category_name":"未知分类","address":"上海市 上海市徐汇区宛平南路"},{"poiid":"B2094753D56DA5F5479E","title":"复旦大学附属中山医院","lon":"121.459541","lat":"31.184139","category":"162","category_name":"医院","address":"上海市 枫林路180号"},{"poiid":"B2094750D165A3FA459C","title":"Mo-mo 牧场","lon":"121.458381","lat":"31.179075","category":"500","category_name":"未知分类","address":null},{"poiid":"B2094654DA6DA4FF439A","title":"上海绿地徐汇","lon":"121.4599","lat":"31.18599","category":"159","category_name":"汽车维修","address":"船厂路185号"},{"poiid":"B2094750DA6BA4FA429E","title":"西岸音乐节","lon":"121.456642","lat":"31.185581","category":"248","category_name":"生活娱乐","address":"徐汇滨江龙腾大道"},{"poiid":"B2094757D069A6FB459F","title":"龙腾大道","lon":"121.45933573","lat":"31.175346131","category":"500","category_name":"未知分类","address":"上海龙腾大道"},{"poiid":"B2094752D06CA0F44198","title":"上海华士达东方影城","lon":"121.4572","lat":"31.18539","category":"178","category_name":"电影院","address":"上海市徐汇区东安路599号绿地中心正大乐城1号楼301"},{"poiid":"B2094757D16FAAF84392","title":"龙腾大道","lon":"121.46266273","lat":"31.182472283","category":"500","category_name":"未知分类","address":"上海市徐汇区龙恒路"},{"poiid":"B209475CD76CA3F8459F","title":"maan coffee漫咖啡","lon":"121.458557","lat":"31.186952","category":"500","category_name":"未知分类","address":"上海市 中山南二路699号正大乐城2楼(近东安路)"},{"poiid":"B2094753D664A3FA4792","title":"TOUCH正大乐城","lon":"121.457603","lat":"31.186313","category":"500","category_name":"未知分类","address":"上海市 东安路599号"},{"poiid":"B2094753D165A3F8459E","title":"查理布朗咖啡馆正大乐城店","lon":"121.458608","lat":"31.186094","category":"65","category_name":"咖啡厅","address":"上海市 东安路599号 正大乐城6-101-1号"},{"poiid":"B2094654DA6DA4F9419C","title":"尚海湾豪庭","lon":"121.45771","lat":"31.178894","category":"47","category_name":"住宅区","address":"徐汇区宛平南路1455弄"},{"poiid":"B2094757D06FA1FA4893","title":"盛大花园","lon":"121.45329","lat":"31.179134","category":"47","category_name":"住宅区","address":"上海市徐汇区龙华路2518弄"},{"poiid":"B2094751DA6BA2F4499C","title":"美丽岛意大利餐厅","lon":"121.459256540038","lat":"31.18285984269632","category":"247","category_name":"餐饮美食","address":"徐汇区龙腾大道3222号(东安路口)"},{"poiid":"B2094753DB69A7FF439B","title":"翠華餐廳（正大樂城店）","lon":"121.463157","lat":"31.184999","category":"500","category_name":"未知分类","address":"上海市 上海徐匯區中山南二路"},{"poiid":"B2094757D06FA6FC469A","title":"卜蜂莲花(船厂路店)","lon":"121.45965576","lat":"31.18546145","category":"118","category_name":"超级市场","address":"徐汇区船厂路178号(近中山南二路)"},{"poiid":"B2094753D164A5FC439D","title":"费尼汉堡","lon":"121.457205","lat":"31.186739","category":"247","category_name":"餐饮美食","address":"上海市 中山南二路699号正大乐城2-104室"},{"poiid":"B2094757D06FA3FD4192","title":"船厂路地铁站","lon":"121.46025679","lat":"31.185244349","category":"36","category_name":"地铁站","address":"上海轨道交通 七号线 轨交船厂路站 7"},{"poiid":"B2094757D068A2FA4599","title":"上海市机动车物损交通事故保险理赔服务中心绿地分中心","lon":"121.460469","lat":"31.185364","category":"500","category_name":"未知分类","address":"上海市徐汇区船厂路185号"},{"poiid":"B2094753D664A3FD469E","title":"正大乐城","lon":"121.458213","lat":"31.186937","category":"170","category_name":"KTV","address":"上海市 东安路中山南二路"},{"poiid":"B2094750DA6BA4F44698","title":"上海西岸音乐节","lon":"121.462753","lat":"31.182302","category":"500","category_name":"未知分类","address":null},{"poiid":"B2094757D068A5FF4599","title":"东安公园","lon":"121.454267372","lat":"31.1850510404","category":"196","category_name":"公园","address":"徐汇区中山南二路811号(龙华西路)"},{"poiid":"B2094752D06EAAF94293","title":"正大乐城","lon":"121.456084","lat":"31.185717","category":"170","category_name":"KTV","address":"东安路500号"},{"poiid":"B2094757D069A5FD489C","title":"光头烧烤","lon":"121.45085","lat":"31.18479","category":"68","category_name":"快餐厅","address":"徐汇区宛平南路808号(近中山南二路)"},{"poiid":"B2094757D069A3FD439F","title":"龙兆苑","lon":"121.453078","lat":"31.177168","category":"47","category_name":"住宅区","address":"上海市浦东新区上南路3500弄"},{"poiid":"B2094757D064A0FC4798","title":"徐汇区教育学院","lon":"121.45531","lat":"31.1868","category":"52","category_name":"高等院校","address":"徐汇区中山南二路800号(近东安路)"},{"poiid":"B209475CD364A0FE4199","title":"Fani Burger","lon":"121.4574","lat":"31.1862","category":"94","category_name":"西餐厅","address":"东安路500号正大乐城(近中山南二路)"},{"poiid":"B2094753D768AAFC4499","title":"BBQ 比比客","lon":"121.45932","lat":"31.184492","category":"247","category_name":"餐饮美食","address":"上海市 正大乐城"},{"poiid":"B2094753D56BABFC439D","title":"大众书局(正大乐城店)","lon":"121.457672","lat":"31.185836","category":"249","category_name":"购物服务","address":"上海市 徐汇区中山南二路699号正大乐城2层(近东安路)"},{"poiid":"B2094750D26FA0F44898","title":"上海绿地中心","lon":"121.460937","lat":"31.186069","category":"252","category_name":"楼宇机构","address":"徐汇区 船厂路东安路"},{"poiid":"B2094753D764A1F84899","title":"正大乐城华士达影城","lon":"121.457672","lat":"31.186075","category":"500","category_name":"未知分类","address":"上海市 徐汇区东安路598号绿地中心正大乐城3楼"},{"poiid":"B2094757D168A4FE489D","title":"全家便利 FamilyMart(龙腾大道店)","lon":"121.463484892","lat":"31.1813841005","category":"249","category_name":"购物服务","address":"上海徐汇区龙腾大道／东安路口"},{"poiid":"B2094750DA6AA7FA4992","title":"复旦大学附属眼耳鼻喉科医院","lon":"121.458534","lat":"31.182331","category":"162","category_name":"医院","address":"汾阳路83号"},{"poiid":"B2094753D769A1F54499","title":"茶马颐苑","lon":"121.45903","lat":"31.186122","category":"47","category_name":"住宅区","address":"上海市 上海市徐汇区东安路598号绿地中心正大乐城2楼"},{"poiid":"B2094757D06FA4FA499B","title":"金龙花苑","lon":"121.459503","lat":"31.180959","category":"47","category_name":"住宅区","address":"上海市徐汇区丰谷路225弄1号"},{"poiid":"B2094655D26AA1FF4999","title":"通用雪佛兰绿地4S店","lon":"121.46107","lat":"31.18481","category":"247","category_name":"餐饮美食","address":"徐汇区船厂路187号(近中山南二路)"},{"poiid":"B2094655D36DA7F8469C","title":"中山南二路东安路","lon":"121.45702","lat":"31.18704","category":"38","category_name":"公交车站","address":""},{"poiid":"B2094753DB65A6FE499C","title":"Dazzling Cafe Shanghai No.2","lon":"121.457717","lat":"31.18633","category":"500","category_name":"未知分类","address":"上海市 上海市徐汇区龙华中路602号 7-105铺位"},{"poiid":"B2094654DA6DABF54493","title":"俞一小区","lon":"121.458","lat":"31.1762","category":"47","category_name":"住宅区","address":"龙华西路31弄"},{"poiid":"B2094753DB64A0F94598","title":"一麻一辣","lon":"121.457527","lat":"31.187007","category":"500","category_name":"未知分类","address":"上海市 上海市中山南二路699号2楼"},{"poiid":"B2094654DA6EA1F9489B","title":"盛大花园(2号门)","lon":"121.455","lat":"31.17938","category":"47","category_name":"住宅区","address":"宛平南路1408"},{"poiid":"B2094753D76DA1FE449B","title":"正大乐城","lon":"121.458435","lat":"31.186231","category":"170","category_name":"KTV","address":"上海市 上海市徐汇区龙华中路602号"},{"poiid":"B209475CD16FA1FF459D","title":"小辉哥火锅","lon":"121.458099","lat":"31.186601","category":"247","category_name":"餐饮美食","address":"上海市 正大乐城"},{"poiid":"B2094654DB6BA4FE429F","title":"龙华西路81弄小区","lon":"121.458","lat":"31.178","category":"47","category_name":"住宅区","address":"龙华西路81弄41-66号,70-92号"},{"poiid":"B2094757D06FAAF54499","title":"JEANS日韩店(京世龙华店)","lon":"121.452429","lat":"31.183131","category":"148","category_name":"美容美发店","address":"上海徐汇区宛平南路941号(近龙华西路)"},{"poiid":"B2094753DA64A6F54992","title":"玳思琳蜜糖土司","lon":"121.458007","lat":"31.186092","category":"247","category_name":"餐饮美食","address":"上海市 中山南二路699号 正大乐城"},{"poiid":"B2094757D16AABFA4099","title":"沪闵高架","lon":"121.45958143","lat":"31.179679223","category":"500","category_name":"未知分类","address":"上海虹梅路出口"},{"poiid":"B2094454D36DAAF44293","title":"啡你啡思","lon":"121.457443","lat":"31.186225","category":"247","category_name":"餐饮美食","address":"上海市 东安路599号1-105室"},{"poiid":"B2094753D76DA5FB4192","title":"乐新皇朝","lon":"121.457908","lat":"31.186717","category":"500","category_name":"未知分类","address":"上海市 上海市徐汇区东安路600号正大乐城"},{"poiid":"B2094655D36DA6FD4098","title":"船厂路","lon":"121.46075","lat":"31.18435","category":"38","category_name":"公交车站","address":""},{"poiid":"B2094753DA6FAAF54398","title":"MEET SWEET觅甜記","lon":"121.457168","lat":"31.180727","category":"500","category_name":"未知分类","address":"上海市 上海市徐汇区宛平南路"},{"poiid":"B2094753D56DA5F5479E","title":"复旦大学附属中山医院","lon":"121.459541","lat":"31.184139","category":"162","category_name":"医院","address":"上海市 枫林路180号"},{"poiid":"B2094750D165A3FA459C","title":"Mo-mo 牧场","lon":"121.458381","lat":"31.179075","category":"500","category_name":"未知分类","address":null},{"poiid":"B2094654DA6DA4FF439A","title":"上海绿地徐汇","lon":"121.4599","lat":"31.18599","category":"159","category_name":"汽车维修","address":"船厂路185号"},{"poiid":"B2094750DA6BA4FA429E","title":"西岸音乐节","lon":"121.456642","lat":"31.185581","category":"248","category_name":"生活娱乐","address":"徐汇滨江龙腾大道"},{"poiid":"B2094757D069A6FB459F","title":"龙腾大道","lon":"121.45933573","lat":"31.175346131","category":"500","category_name":"未知分类","address":"上海龙腾大道"},{"poiid":"B2094752D06CA0F44198","title":"上海华士达东方影城","lon":"121.4572","lat":"31.18539","category":"178","category_name":"电影院","address":"上海市徐汇区东安路599号绿地中心正大乐城1号楼301"},{"poiid":"B2094757D16FAAF84392","title":"龙腾大道","lon":"121.46266273","lat":"31.182472283","category":"500","category_name":"未知分类","address":"上海市徐汇区龙恒路"},{"poiid":"B209475CD76CA3F8459F","title":"maan coffee漫咖啡","lon":"121.458557","lat":"31.186952","category":"500","category_name":"未知分类","address":"上海市 中山南二路699号正大乐城2楼(近东安路)"},{"poiid":"B2094753D664A3FA4792","title":"TOUCH正大乐城","lon":"121.457603","lat":"31.186313","category":"500","category_name":"未知分类","address":"上海市 东安路599号"},{"poiid":"B2094753D165A3F8459E","title":"查理布朗咖啡馆正大乐城店","lon":"121.458608","lat":"31.186094","category":"65","category_name":"咖啡厅","address":"上海市 东安路599号 正大乐城6-101-1号"},{"poiid":"B2094654DA6DA4F9419C","title":"尚海湾豪庭","lon":"121.45771","lat":"31.178894","category":"47","category_name":"住宅区","address":"徐汇区宛平南路1455弄"},{"poiid":"B2094757D06FA1FA4893","title":"盛大花园","lon":"121.45329","lat":"31.179134","category":"47","category_name":"住宅区","address":"上海市徐汇区龙华路2518弄"},{"poiid":"B2094751DA6BA2F4499C","title":"美丽岛意大利餐厅","lon":"121.459256540038","lat":"31.18285984269632","category":"247","category_name":"餐饮美食","address":"徐汇区龙腾大道3222号(东安路口)"},{"poiid":"B2094753DB69A7FF439B","title":"翠華餐廳（正大樂城店）","lon":"121.463157","lat":"31.184999","category":"500","category_name":"未知分类","address":"上海市 上海徐匯區中山南二路"},{"poiid":"B2094757D06FA6FC469A","title":"卜蜂莲花(船厂路店)","lon":"121.45965576","lat":"31.18546145","category":"118","category_name":"超级市场","address":"徐汇区船厂路178号(近中山南二路)"},{"poiid":"B2094753D164A5FC439D","title":"费尼汉堡","lon":"121.457205","lat":"31.186739","category":"247","category_name":"餐饮美食","address":"上海市 中山南二路699号正大乐城2-104室"},{"poiid":"B2094757D06FA3FD4192","title":"船厂路地铁站","lon":"121.46025679","lat":"31.185244349","category":"36","category_name":"地铁站","address":"上海轨道交通 七号线 轨交船厂路站 7"},{"poiid":"B2094757D068A2FA4599","title":"上海市机动车物损交通事故保险理赔服务中心绿地分中心","lon":"121.460469","lat":"31.185364","category":"500","category_name":"未知分类","address":"上海市徐汇区船厂路185号"},{"poiid":"B2094753D664A3FD469E","title":"正大乐城","lon":"121.458213","lat":"31.186937","category":"170","category_name":"KTV","address":"上海市 东安路中山南二路"},{"poiid":"B2094750DA6BA4F44698","title":"上海西岸音乐节","lon":"121.462753","lat":"31.182302","category":"500","category_name":"未知分类","address":null},{"poiid":"B2094757D068A5FF4599","title":"东安公园","lon":"121.454267372","lat":"31.1850510404","category":"196","category_name":"公园","address":"徐汇区中山南二路811号(龙华西路)"},{"poiid":"B2094752D06EAAF94293","title":"正大乐城","lon":"121.456084","lat":"31.185717","category":"170","category_name":"KTV","address":"东安路500号"},{"poiid":"B2094757D069A5FD489C","title":"光头烧烤","lon":"121.45085","lat":"31.18479","category":"68","category_name":"快餐厅","address":"徐汇区宛平南路808号(近中山南二路)"},{"poiid":"B2094757D069A3FD439F","title":"龙兆苑","lon":"121.453078","lat":"31.177168","category":"47","category_name":"住宅区","address":"上海市浦东新区上南路3500弄"},{"poiid":"B2094757D064A0FC4798","title":"徐汇区教育学院","lon":"121.45531","lat":"31.1868","category":"52","category_name":"高等院校","address":"徐汇区中山南二路800号(近东安路)"},{"poiid":"B209475CD364A0FE4199","title":"Fani Burger","lon":"121.4574","lat":"31.1862","category":"94","category_name":"西餐厅","address":"东安路500号正大乐城(近中山南二路)"},{"poiid":"B2094753D768AAFC4499","title":"BBQ 比比客","lon":"121.45932","lat":"31.184492","category":"247","category_name":"餐饮美食","address":"上海市 正大乐城"},{"poiid":"B2094753D56BABFC439D","title":"大众书局(正大乐城店)","lon":"121.457672","lat":"31.185836","category":"249","category_name":"购物服务","address":"上海市 徐汇区中山南二路699号正大乐城2层(近东安路)"},{"poiid":"B2094750D26FA0F44898","title":"上海绿地中心","lon":"121.460937","lat":"31.186069","category":"252","category_name":"楼宇机构","address":"徐汇区 船厂路东安路"},{"poiid":"B2094753D764A1F84899","title":"正大乐城华士达影城","lon":"121.457672","lat":"31.186075","category":"500","category_name":"未知分类","address":"上海市 徐汇区东安路598号绿地中心正大乐城3楼"},{"poiid":"B2094757D168A4FE489D","title":"全家便利 FamilyMart(龙腾大道店)","lon":"121.463484892","lat":"31.1813841005","category":"249","category_name":"购物服务","address":"上海徐汇区龙腾大道／东安路口"},{"poiid":"B2094750DA6AA7FA4992","title":"复旦大学附属眼耳鼻喉科医院","lon":"121.458534","lat":"31.182331","category":"162","category_name":"医院","address":"汾阳路83号"},{"poiid":"B2094753D769A1F54499","title":"茶马颐苑","lon":"121.45903","lat":"31.186122","category":"47","category_name":"住宅区","address":"上海市 上海市徐汇区东安路598号绿地中心正大乐城2楼"},{"poiid":"B2094757D06FA4FA499B","title":"金龙花苑","lon":"121.459503","lat":"31.180959","category":"47","category_name":"住宅区","address":"上海市徐汇区丰谷路225弄1号"},{"poiid":"B2094655D26AA1FF4999","title":"通用雪佛兰绿地4S店","lon":"121.46107","lat":"31.18481","category":"247","category_name":"餐饮美食","address":"徐汇区船厂路187号(近中山南二路)"},{"poiid":"B2094655D36DA7F8469C","title":"中山南二路东安路","lon":"121.45702","lat":"31.18704","category":"38","category_name":"公交车站","address":""},{"poiid":"B2094753DB65A6FE499C","title":"Dazzling Cafe Shanghai No.2","lon":"121.457717","lat":"31.18633","category":"500","category_name":"未知分类","address":"上海市 上海市徐汇区龙华中路602号 7-105铺位"},{"poiid":"B2094654DA6DABF54493","title":"俞一小区","lon":"121.458","lat":"31.1762","category":"47","category_name":"住宅区","address":"龙华西路31弄"},{"poiid":"B2094753DB64A0F94598","title":"一麻一辣","lon":"121.457527","lat":"31.187007","category":"500","category_name":"未知分类","address":"上海市 上海市中山南二路699号2楼"},{"poiid":"B2094654DA6EA1F9489B","title":"盛大花园(2号门)","lon":"121.455","lat":"31.17938","category":"47","category_name":"住宅区","address":"宛平南路1408"},{"poiid":"B2094753D76DA1FE449B","title":"正大乐城","lon":"121.458435","lat":"31.186231","category":"170","category_name":"KTV","address":"上海市 上海市徐汇区龙华中路602号"},{"poiid":"B209475CD16FA1FF459D","title":"小辉哥火锅","lon":"121.458099","lat":"31.186601","category":"247","category_name":"餐饮美食","address":"上海市 正大乐城"},{"poiid":"B2094654DB6BA4FE429F","title":"龙华西路81弄小区","lon":"121.458","lat":"31.178","category":"47","category_name":"住宅区","address":"龙华西路81弄41-66号,70-92号"},{"poiid":"B2094757D06FAAF54499","title":"JEANS日韩店(京世龙华店)","lon":"121.452429","lat":"31.183131","category":"148","category_name":"美容美发店","address":"上海徐汇区宛平南路941号(近龙华西路)"},{"poiid":"B2094753DA64A6F54992","title":"玳思琳蜜糖土司","lon":"121.458007","lat":"31.186092","category":"247","category_name":"餐饮美食","address":"上海市 中山南二路699号 正大乐城"},{"poiid":"B2094757D16AABFA4099","title":"沪闵高架","lon":"121.45958143","lat":"31.179679223","category":"500","category_name":"未知分类","address":"上海虹梅路出口"},{"poiid":"B2094454D36DAAF44293","title":"啡你啡思","lon":"121.457443","lat":"31.186225","category":"247","category_name":"餐饮美食","address":"上海市 东安路599号1-105室"},{"poiid":"B2094753D76DA5FB4192","title":"乐新皇朝","lon":"121.457908","lat":"31.186717","category":"500","category_name":"未知分类","address":"上海市 上海市徐汇区东安路600号正大乐城"},{"poiid":"B2094655D36DA6FD4098","title":"船厂路","lon":"121.46075","lat":"31.18435","category":"38","category_name":"公交车站","address":""},{"poiid":"B2094753DA6FAAF54398","title":"MEET SWEET觅甜記","lon":"121.457168","lat":"31.180727","category":"500","category_name":"未知分类","address":"上海市 上海市徐汇区宛平南路"},{"poiid":"B2094753D56DA5F5479E","title":"复旦大学附属中山医院","lon":"121.459541","lat":"31.184139","category":"162","category_name":"医院","address":"上海市 枫林路180号"},{"poiid":"B2094750D165A3FA459C","title":"Mo-mo 牧场","lon":"121.458381","lat":"31.179075","category":"500","category_name":"未知分类","address":null},{"poiid":"B2094654DA6DA4FF439A","title":"上海绿地徐汇","lon":"121.4599","lat":"31.18599","category":"159","category_name":"汽车维修","address":"船厂路185号"},{"poiid":"B2094750DA6BA4FA429E","title":"西岸音乐节","lon":"121.456642","lat":"31.185581","category":"248","category_name":"生活娱乐","address":"徐汇滨江龙腾大道"},{"poiid":"B2094757D069A6FB459F","title":"龙腾大道","lon":"121.45933573","lat":"31.175346131","category":"500","category_name":"未知分类","address":"上海龙腾大道"},{"poiid":"B2094752D06CA0F44198","title":"上海华士达东方影城","lon":"121.4572","lat":"31.18539","category":"178","category_name":"电影院","address":"上海市徐汇区东安路599号绿地中心正大乐城1号楼301"},{"poiid":"B2094757D16FAAF84392","title":"龙腾大道","lon":"121.46266273","lat":"31.182472283","category":"500","category_name":"未知分类","address":"上海市徐汇区龙恒路"},{"poiid":"B209475CD76CA3F8459F","title":"maan coffee漫咖啡","lon":"121.458557","lat":"31.186952","category":"500","category_name":"未知分类","address":"上海市 中山南二路699号正大乐城2楼(近东安路)"},{"poiid":"B2094753D664A3FA4792","title":"TOUCH正大乐城","lon":"121.457603","lat":"31.186313","category":"500","category_name":"未知分类","address":"上海市 东安路599号"},{"poiid":"B2094753D165A3F8459E","title":"查理布朗咖啡馆正大乐城店","lon":"121.458608","lat":"31.186094","category":"65","category_name":"咖啡厅","address":"上海市 东安路599号 正大乐城6-101-1号"},{"poiid":"B2094654DA6DA4F9419C","title":"尚海湾豪庭","lon":"121.45771","lat":"31.178894","category":"47","category_name":"住宅区","address":"徐汇区宛平南路1455弄"},{"poiid":"B2094757D06FA1FA4893","title":"盛大花园","lon":"121.45329","lat":"31.179134","category":"47","category_name":"住宅区","address":"上海市徐汇区龙华路2518弄"},{"poiid":"B2094751DA6BA2F4499C","title":"美丽岛意大利餐厅","lon":"121.459256540038","lat":"31.18285984269632","category":"247","category_name":"餐饮美食","address":"徐汇区龙腾大道3222号(东安路口)"},{"poiid":"B2094753DB69A7FF439B","title":"翠華餐廳（正大樂城店）","lon":"121.463157","lat":"31.184999","category":"500","category_name":"未知分类","address":"上海市 上海徐匯區中山南二路"},{"poiid":"B2094757D06FA6FC469A","title":"卜蜂莲花(船厂路店)","lon":"121.45965576","lat":"31.18546145","category":"118","category_name":"超级市场","address":"徐汇区船厂路178号(近中山南二路)"},{"poiid":"B2094753D164A5FC439D","title":"费尼汉堡","lon":"121.457205","lat":"31.186739","category":"247","category_name":"餐饮美食","address":"上海市 中山南二路699号正大乐城2-104室"},{"poiid":"B2094757D06FA3FD4192","title":"船厂路地铁站","lon":"121.46025679","lat":"31.185244349","category":"36","category_name":"地铁站","address":"上海轨道交通 七号线 轨交船厂路站 7"},{"poiid":"B2094757D068A2FA4599","title":"上海市机动车物损交通事故保险理赔服务中心绿地分中心","lon":"121.460469","lat":"31.185364","category":"500","category_name":"未知分类","address":"上海市徐汇区船厂路185号"},{"poiid":"B2094753D664A3FD469E","title":"正大乐城","lon":"121.458213","lat":"31.186937","category":"170","category_name":"KTV","address":"上海市 东安路中山南二路"},{"poiid":"B2094750DA6BA4F44698","title":"上海西岸音乐节","lon":"121.462753","lat":"31.182302","category":"500","category_name":"未知分类","address":null},{"poiid":"B2094757D068A5FF4599","title":"东安公园","lon":"121.454267372","lat":"31.1850510404","category":"196","category_name":"公园","address":"徐汇区中山南二路811号(龙华西路)"},{"poiid":"B2094752D06EAAF94293","title":"正大乐城","lon":"121.456084","lat":"31.185717","category":"170","category_name":"KTV","address":"东安路500号"},{"poiid":"B2094757D069A5FD489C","title":"光头烧烤","lon":"121.45085","lat":"31.18479","category":"68","category_name":"快餐厅","address":"徐汇区宛平南路808号(近中山南二路)"},{"poiid":"B2094757D069A3FD439F","title":"龙兆苑","lon":"121.453078","lat":"31.177168","category":"47","category_name":"住宅区","address":"上海市浦东新区上南路3500弄"},{"poiid":"B2094757D064A0FC4798","title":"徐汇区教育学院","lon":"121.45531","lat":"31.1868","category":"52","category_name":"高等院校","address":"徐汇区中山南二路800号(近东安路)"},{"poiid":"B209475CD364A0FE4199","title":"Fani Burger","lon":"121.4574","lat":"31.1862","category":"94","category_name":"西餐厅","address":"东安路500号正大乐城(近中山南二路)"},{"poiid":"B2094753D768AAFC4499","title":"BBQ 比比客","lon":"121.45932","lat":"31.184492","category":"247","category_name":"餐饮美食","address":"上海市 正大乐城"},{"poiid":"B2094753D56BABFC439D","title":"大众书局(正大乐城店)","lon":"121.457672","lat":"31.185836","category":"249","category_name":"购物服务","address":"上海市 徐汇区中山南二路699号正大乐城2层(近东安路)"},{"poiid":"B2094750D26FA0F44898","title":"上海绿地中心","lon":"121.460937","lat":"31.186069","category":"252","category_name":"楼宇机构","address":"徐汇区 船厂路东安路"},{"poiid":"B2094753D764A1F84899","title":"正大乐城华士达影城","lon":"121.457672","lat":"31.186075","category":"500","category_name":"未知分类","address":"上海市 徐汇区东安路598号绿地中心正大乐城3楼"},{"poiid":"B2094757D168A4FE489D","title":"全家便利 FamilyMart(龙腾大道店)","lon":"121.463484892","lat":"31.1813841005","category":"249","category_name":"购物服务","address":"上海徐汇区龙腾大道／东安路口"},{"poiid":"B2094750DA6AA7FA4992","title":"复旦大学附属眼耳鼻喉科医院","lon":"121.458534","lat":"31.182331","category":"162","category_name":"医院","address":"汾阳路83号"},{"poiid":"B2094753D769A1F54499","title":"茶马颐苑","lon":"121.45903","lat":"31.186122","category":"47","category_name":"住宅区","address":"上海市 上海市徐汇区东安路598号绿地中心正大乐城2楼"},{"poiid":"B2094757D06FA4FA499B","title":"金龙花苑","lon":"121.459503","lat":"31.180959","category":"47","category_name":"住宅区","address":"上海市徐汇区丰谷路225弄1号"},{"poiid":"B2094655D26AA1FF4999","title":"通用雪佛兰绿地4S店","lon":"121.46107","lat":"31.18481","category":"247","category_name":"餐饮美食","address":"徐汇区船厂路187号(近中山南二路)"},{"poiid":"B2094655D36DA7F8469C","title":"中山南二路东安路","lon":"121.45702","lat":"31.18704","category":"38","category_name":"公交车站","address":""},{"poiid":"B2094753DB65A6FE499C","title":"Dazzling Cafe Shanghai No.2","lon":"121.457717","lat":"31.18633","category":"500","category_name":"未知分类","address":"上海市 上海市徐汇区龙华中路602号 7-105铺位"},{"poiid":"B2094654DA6DABF54493","title":"俞一小区","lon":"121.458","lat":"31.1762","category":"47","category_name":"住宅区","address":"龙华西路31弄"},{"poiid":"B2094753DB64A0F94598","title":"一麻一辣","lon":"121.457527","lat":"31.187007","category":"500","category_name":"未知分类","address":"上海市 上海市中山南二路699号2楼"},{"poiid":"B2094654DA6EA1F9489B","title":"盛大花园(2号门)","lon":"121.455","lat":"31.17938","category":"47","category_name":"住宅区","address":"宛平南路1408"},{"poiid":"B2094753D76DA1FE449B","title":"正大乐城","lon":"121.458435","lat":"31.186231","category":"170","category_name":"KTV","address":"上海市 上海市徐汇区龙华中路602号"},{"poiid":"B209475CD16FA1FF459D","title":"小辉哥火锅","lon":"121.458099","lat":"31.186601","category":"247","category_name":"餐饮美食","address":"上海市 正大乐城"},{"poiid":"B2094654DB6BA4FE429F","title":"龙华西路81弄小区","lon":"121.458","lat":"31.178","category":"47","category_name":"住宅区","address":"龙华西路81弄41-66号,70-92号"},{"poiid":"B2094757D06FAAF54499","title":"JEANS日韩店(京世龙华店)","lon":"121.452429","lat":"31.183131","category":"148","category_name":"美容美发店","address":"上海徐汇区宛平南路941号(近龙华西路)"},{"poiid":"B2094753DA64A6F54992","title":"玳思琳蜜糖土司","lon":"121.458007","lat":"31.186092","category":"247","category_name":"餐饮美食","address":"上海市 中山南二路699号 正大乐城"},{"poiid":"B2094757D16AABFA4099","title":"沪闵高架","lon":"121.45958143","lat":"31.179679223","category":"500","category_name":"未知分类","address":"上海虹梅路出口"},{"poiid":"B2094454D36DAAF44293","title":"啡你啡思","lon":"121.457443","lat":"31.186225","category":"247","category_name":"餐饮美食","address":"上海市 东安路599号1-105室"},{"poiid":"B2094753D76DA5FB4192","title":"乐新皇朝","lon":"121.457908","lat":"31.186717","category":"500","category_name":"未知分类","address":"上海市 上海市徐汇区东安路600号正大乐城"},{"poiid":"B2094655D36DA6FD4098","title":"船厂路","lon":"121.46075","lat":"31.18435","category":"38","category_name":"公交车站","address":""},{"poiid":"B2094753DA6FAAF54398","title":"MEET SWEET觅甜記","lon":"121.457168","lat":"31.180727","category":"500","category_name":"未知分类","address":"上海市 上海市徐汇区宛平南路"},{"poiid":"B2094753D56DA5F5479E","title":"复旦大学附属中山医院","lon":"121.459541","lat":"31.184139","category":"162","category_name":"医院","address":"上海市 枫林路180号"},{"poiid":"B2094750D165A3FA459C","title":"Mo-mo 牧场","lon":"121.458381","lat":"31.179075","category":"500","category_name":"未知分类","address":null}]