[{"poiid":"B2094757D06FA3F8479A","title":"上海德国中心","lon":"121.586903","lat":"31.211596","category":"46","category_name":"楼宇","address":"浦东新区科苑路88号德国中心"},{"poiid":"B2094654DA6AA7F54699","title":"上海张江高科技园区","lon":"121.58762","lat":"31.21184","category":"45","category_name":"产业园区","address":"浦东新区科苑路399号"},{"poiid":"B2094757D06FA2F5449B","title":"张江创新园","lon":"121.59543194719","lat":"31.210169439571","category":"46","category_name":"楼宇","address":"上海市虹口区四川北路1318号"},{"poiid":"B2094757D068A2FD499F","title":"汤臣高尔夫别墅","lon":"121.583691175","lat":"31.2121601084","category":"47","category_name":"住宅区","address":"上海市浦东新区龙东大道1号"},{"poiid":"B2094757D06FA7FD4999","title":"交行卡中心","lon":"121.58052","lat":"31.20865","category":"68","category_name":"快餐厅","address":"浦东新区松涛路80号(近张江地铁站)"},{"poiid":"B2094757D06FAAF5429D","title":"汤臣豪园二期","lon":"121.5911142171","lat":"31.215546554135","category":"47","category_name":"住宅区","address":"上海晨晖路825弄"},{"poiid":"B2094654DA6AA6FC4093","title":"中国美术学院上海设计学院","lon":"121.58013","lat":"31.20628","category":"671","category_name":"高校中心点","address":"张江高科园区"},{"poiid":"B2094757D068A3FE4292","title":"罗氏制药","lon":"121.595334109","lat":"31.2138314147","category":"46","category_name":"楼宇","address":"上海浦东新区龙东大道1100号"},{"poiid":"B2094654DB69ABF5489D","title":"星之健身(张江店)","lon":"121.58689","lat":"31.2108","category":"221","category_name":"健身中心","address":"浦东新区张江高科园区科苑路88号(近龙东大道)"},{"poiid":"B2094757D06FA5F9439D","title":"张江大厦","lon":"121.58323621","lat":"31.205565996","category":"46","category_name":"楼宇","address":"上海松涛路560号"},{"poiid":"B2094757D06FA4F4459D","title":"汤臣高尔夫球场","lon":"121.58303475","lat":"31.211591496","category":"260","category_name":"其他","address":"中国上海浦东新区龙东大道1号"},{"poiid":"B2094757D06BA5F9419F","title":"瑞亚湖滨精品酒店","lon":"121.57144497","lat":"31.224963937","category":"217","category_name":"旅馆招待所","address":"上海市浦东新区罗山路1609号"},{"poiid":"B2094757D16CABF84093","title":"东郊宾馆宴会厅","lon":"121.59701","lat":"31.22565","category":"217","category_name":"旅馆招待所","address":"浦东新区金科路1800号东郊宾馆内(近龙乐大道)查看地图"},{"poiid":"B2094757D16AA3F84693","title":"汤臣别墅区","lon":"121.582292975","lat":"31.2247609328","category":"252","category_name":"楼宇机构","address":"上海市浦东新区龙东大道"},{"poiid":"B2094654DA6AA1FA4192","title":"世茂湖滨花园(明月路)","lon":"121.57579","lat":"31.23166","category":"47","category_name":"住宅区","address":"上海市浦东新区昌里东路333弄"},{"poiid":"B2094757D469A3F5429C","title":"瑞亚湖滨酒店多功能厅","lon":"121.570945","lat":"31.226697","category":"76","category_name":"上海菜","address":"罗山路1609号瑞亚湖滨酒店1楼近锦绣路"},{"poiid":"B2094654DA6AA1F5489C","title":"汤臣豪园","lon":"121.58493","lat":"31.21121","category":"47","category_name":"住宅区","address":"上海市浦东新区张家浜路37号"},{"poiid":"B2094757D06AA4FA439B","title":"美再晨运动会馆(松涛路店)","lon":"121.58418","lat":"31.21005","category":"148","category_name":"美容美发店","address":"浦东新区松涛路251号(近碧波路)"},{"poiid":"B2094757D06FA5F44699","title":"龙东大道","lon":"121.59431971","lat":"31.216365261","category":"260","category_name":"其他","address":"上海龙东大道"},{"poiid":"B2094757D068ABFF459F","title":"永达东风日产4s店","lon":"121.570136","lat":"31.226448","category":"158","category_name":"汽车销售","address":"上海罗山路1447号"},{"poiid":"B2094751D569A1FF409F","title":"龍美术馆","lon":"121.573639","lat":"31.215622","category":"248","category_name":"生活娱乐","address":"罗山路2255号"},{"poiid":"B2094757D069AAF4459B","title":"喜月小厨","lon":"121.581248567","lat":"31.2063803798","category":"76","category_name":"上海菜","address":"浦东新区碧波路635号圆环传奇美食广场内(近张江地铁站)"},{"poiid":"B2094655D26FA6FA469A","title":"四季雅苑","lon":"121.575","lat":"31.2222","category":"47","category_name":"住宅区","address":"浦东区花木路1983弄"},{"poiid":"B2094654DA6AA0FA4999","title":"汤臣高尔夫别墅海顿园区","lon":"121.57684","lat":"31.21737","category":"47","category_name":"住宅区","address":""},{"poiid":"B2094655D26FA5F84293","title":"御翠园","lon":"121.5723460187","lat":"31.223593222378","category":"47","category_name":"住宅区","address":"上海市浦东新区花木路1883弄"},{"poiid":"B2094654DA6AA1FA419B","title":"云间绿地别墅","lon":"121.57873","lat":"31.22948","category":"47","category_name":"住宅区","address":"锦绣东路418弄1-296号"},{"poiid":"B2094757D568A0FB439A","title":"汤臣湖庭花园","lon":"121.574922","lat":"31.215573","category":"47","category_name":"住宅区","address":"浦东新区罗山路2255弄(花木路口)"},{"poiid":"B2094654DA6AA5FB4199","title":"汤臣集团(GARDEN VILLA)","lon":"121.58528","lat":"31.218","category":"263","category_name":"公司","address":""},{"poiid":"B2094655D26CA5FD499F","title":"华高新苑","lon":"121.593","lat":"31.2321","category":"47","category_name":"住宅区","address":"金高路1058弄1-40号"},{"poiid":"B2094654DA6AA0FD4492","title":"上海电影艺术学院北校区","lon":"121.57931","lat":"31.20878","category":"52","category_name":"高等院校","address":"浦东新区松涛路11临"},{"poiid":"B2094750DA68A6F4469D","title":"张江高科德国中心","lon":"121.587496","lat":"31.212141","category":"46","category_name":"楼宇","address":"浦东新区科苑路88号"},{"poiid":"B2094654DA6AA7F54999","title":"品粤阁","lon":"121.58396","lat":"31.21021","category":"72","category_name":"广东菜","address":"上海张江高科技园区松涛路251号(汤臣豪园会所)"},{"poiid":"B2094757D06AA0F84293","title":"凯顿酒店","lon":"121.59412","lat":"31.21041","category":"76","category_name":"上海菜","address":"浦东新区郭守敬路277号(近牛顿路)"},{"poiid":"B2094655D36DA0F84993","title":"杨家镇","lon":"121.59553","lat":"31.21676","category":"38","category_name":"公交车站","address":"上海龙东大道122弄"},{"poiid":"B2094654DA6AA1FA419A","title":"上海瑞东医院(瑞金医院浦东分院)","lon":"121.57312","lat":"31.22623","category":"162","category_name":"医院","address":"浦东新区锦绣东路120"},{"poiid":"B2094655D36CA7FD4499","title":"花木路","lon":"121.57282","lat":"31.217","category":"38","category_name":"公交车站","address":""},{"poiid":"B2094757D06AA7F5499E","title":"东风本田汽车冠松4S","lon":"121.571006","lat":"31.226105","category":"158","category_name":"汽车销售","address":"浦东新区罗山路1589号(近锦绣路)"},{"poiid":"B2094655D26EA5FD469E","title":"东郊宾馆自助餐厅","lon":"121.59707","lat":"31.22591","category":"268","category_name":"自助","address":"浦东新区金科路1800号东郊宾馆内(近龙东大道)"},{"poiid":"B2094655D36CA1F54292","title":"科苑路龙东大道","lon":"121.58739","lat":"31.2115","category":"38","category_name":"公交车站","address":""},{"poiid":"B2094757D16CA6FF4898","title":"Le Joli Bistro 周","lon":"121.597072","lat":"31.22591","category":"94","category_name":"西餐厅","address":"浦东新区金科路1800号东郊宾馆克拉克海奇俱乐部内"},{"poiid":"B2094655D36CA1F5439A","title":"科苑路","lon":"121.58584","lat":"31.21225","category":"38","category_name":"公交车站","address":""},{"poiid":"B2094655D36CA1F8459F","title":"龙东大道科苑路","lon":"121.58617","lat":"31.2122","category":"38","category_name":"公交车站","address":""},{"poiid":"B2094757D065A7FF439B","title":"维诗凯亚休闲俱乐部","lon":"121.58228","lat":"31.23295","category":"94","category_name":"西餐厅","address":"浦东新区云山路1988号(近明月路)查看地图"},{"poiid":"B2094757D064A3FB4792","title":"华虹科技园","lon":"121.584495544","lat":"31.2073020935","category":"46","category_name":"楼宇","address":"上海浦东碧波路177号"},{"poiid":"B2094750D26EA3FD4499","title":"招商银行张江支行","lon":"121.582188","lat":"31.213487","category":"150","category_name":"银行","address":null},{"poiid":"B2094757D16FA5FC469A","title":"德国中心地下食堂","lon":"121.58733","lat":"31.21148","category":"68","category_name":"快餐厅","address":"浦东新区科苑路88号地下停车库(近龙东大道)"},{"poiid":"B2094757D16CA1FE439B","title":"张江","lon":"121.591663","lat":"31.212274","category":"500","category_name":"未知分类","address":"上海牛顿路"},{"poiid":"B2094757D469A0F4479E","title":"妃思酒吧 Face","lon":"121.59662","lat":"31.22587","category":"172","category_name":"酒吧","address":"金科路1800号东郊宾馆内近龙东大道"},{"poiid":"B2094757D06BA7F94398","title":"科苑路郭守敬路建设银行","lon":"121.589169","lat":"31.20903","category":"46","category_name":"楼宇","address":"上海郭守敬路科苑路"},{"poiid":"B2094654DA6AA7F4429B","title":"GARDEN VILLA","lon":"121.59279","lat":"31.22044","category":"47","category_name":"住宅区","address":""},{"poiid":"B2094757D06FA3F8479A","title":"上海德国中心","lon":"121.586903","lat":"31.211596","category":"46","category_name":"楼宇","address":"浦东新区科苑路88号德国中心"},{"poiid":"B2094654DA6AA7F54699","title":"上海张江高科技园区","lon":"121.58762","lat":"31.21184","category":"45","category_name":"产业园区","address":"浦东新区科苑路399号"},{"poiid":"B2094757D06FA2F5449B","title":"张江创新园","lon":"121.59543194719","lat":"31.210169439571","category":"46","category_name":"楼宇","address":"上海市虹口区四川北路1318号"},{"poiid":"B2094757D068A2FD499F","title":"汤臣高尔夫别墅","lon":"121.583691175","lat":"31.2121601084","category":"47","category_name":"住宅区","address":"上海市浦东新区龙东大道1号"},{"poiid":"B2094757D06FA7FD4999","title":"交行卡中心","lon":"121.58052","lat":"31.20865","category":"68","category_name":"快餐厅","address":"浦东新区松涛路80号(近张江地铁站)"},{"poiid":"B2094757D06FAAF5429D","title":"汤臣豪园二期","lon":"121.5911142171","lat":"31.215546554135","category":"47","category_name":"住宅区","address":"上海晨晖路825弄"},{"poiid":"B2094654DA6AA6FC4093","title":"中国美术学院上海设计学院","lon":"121.58013","lat":"31.20628","category":"671","category_name":"高校中心点","address":"张江高科园区"},{"poiid":"B2094757D068A3FE4292","title":"罗氏制药","lon":"121.595334109","lat":"31.2138314147","category":"46","category_name":"楼宇","address":"上海浦东新区龙东大道1100号"},{"poiid":"B2094654DB69ABF5489D","title":"星之健身(张江店)","lon":"121.58689","lat":"31.2108","category":"221","category_name":"健身中心","address":"浦东新区张江高科园区科苑路88号(近龙东大道)"},{"poiid":"B2094757D06FA5F9439D","title":"张江大厦","lon":"121.58323621","lat":"31.205565996","category":"46","category_name":"楼宇","address":"上海松涛路560号"},{"poiid":"B2094757D06FA4F4459D","title":"汤臣高尔夫球场","lon":"121.58303475","lat":"31.211591496","category":"260","category_name":"其他","address":"中国上海浦东新区龙东大道1号"},{"poiid":"B2094757D06BA5F9419F","title":"瑞亚湖滨精品酒店","lon":"121.57144497","lat":"31.224963937","category":"217","category_name":"旅馆招待所","address":"上海市浦东新区罗山路1609号"},{"poiid":"B2094757D16CABF84093","title":"东郊宾馆宴会厅","lon":"121.59701","lat":"31.22565","category":"217","category_name":"旅馆招待所","address":"浦东新区金科路1800号东郊宾馆内(近龙乐大道)查看地图"},{"poiid":"B2094757D16AA3F84693","title":"汤臣别墅区","lon":"121.582292975","lat":"31.2247609328","category":"252","category_name":"楼宇机构","address":"上海市浦东新区龙东大道"},{"poiid":"B2094654DA6AA1FA4192","title":"世茂湖滨花园(明月路)","lon":"121.57579","lat":"31.23166","category":"47","category_name":"住宅区","address":"上海市浦东新区昌里东路333弄"},{"poiid":"B2094757D469A3F5429C","title":"瑞亚湖滨酒店多功能厅","lon":"121.570945","lat":"31.226697","category":"76","category_name":"上海菜","address":"罗山路1609号瑞亚湖滨酒店1楼近锦绣路"},{"poiid":"B2094654DA6AA1F5489C","title":"汤臣豪园","lon":"121.58493","lat":"31.21121","category":"47","category_name":"住宅区","address":"上海市浦东新区张家浜路37号"},{"poiid":"B2094757D06AA4FA439B","title":"美再晨运动会馆(松涛路店)","lon":"121.58418","lat":"31.21005","category":"148","category_name":"美容美发店","address":"浦东新区松涛路251号(近碧波路)"},{"poiid":"B2094757D06FA5F44699","title":"龙东大道","lon":"121.59431971","lat":"31.216365261","category":"260","category_name":"其他","address":"上海龙东大道"},{"poiid":"B2094757D068ABFF459F","title":"永达东风日产4s店","lon":"121.570136","lat":"31.226448","category":"158","category_name":"汽车销售","address":"上海罗山路1447号"},{"poiid":"B2094751D569A1FF409F","title":"龍美术馆","lon":"121.573639","lat":"31.215622","category":"248","category_name":"生活娱乐","address":"罗山路2255号"},{"poiid":"B2094757D069AAF4459B","title":"喜月小厨","lon":"121.581248567","lat":"31.2063803798","category":"76","category_name":"上海菜","address":"浦东新区碧波路635号圆环传奇美食广场内(近张江地铁站)"},{"poiid":"B2094655D26FA6FA469A","title":"四季雅苑","lon":"121.575","lat":"31.2222","category":"47","category_name":"住宅区","address":"浦东区花木路1983弄"},{"poiid":"B2094654DA6AA0FA4999","title":"汤臣高尔夫别墅海顿园区","lon":"121.57684","lat":"31.21737","category":"47","category_name":"住宅区","address":""},{"poiid":"B2094655D26FA5F84293","title":"御翠园","lon":"121.5723460187","lat":"31.223593222378","category":"47","category_name":"住宅区","address":"上海市浦东新区花木路1883弄"},{"poiid":"B2094654DA6AA1FA419B","title":"云间绿地别墅","lon":"121.57873","lat":"31.22948","category":"47","category_name":"住宅区","address":"锦绣东路418弄1-296号"},{"poiid":"B2094757D568A0FB439A","title":"汤臣湖庭花园","lon":"121.574922","lat":"31.215573","category":"47","category_name":"住宅区","address":"浦东新区罗山路2255弄(花木路口)"},{"poiid":"B2094654DA6AA5FB4199","title":"汤臣集团(GARDEN VILLA)","lon":"121.58528","lat":"31.218","category":"263","category_name":"公司","address":""},{"poiid":"B2094655D26CA5FD499F","title":"华高新苑","lon":"121.593","lat":"31.2321","category":"47","category_name":"住宅区","address":"金高路1058弄1-40号"},{"poiid":"B2094654DA6AA0FD4492","title":"上海电影艺术学院北校区","lon":"121.57931","lat":"31.20878","category":"52","category_name":"高等院校","address":"浦东新区松涛路11临"},{"poiid":"B2094750DA68A6F4469D","title":"张江高科德国中心","lon":"121.587496","lat":"31.212141","category":"46","category_name":"楼宇","address":"浦东新区科苑路88号"},{"poiid":"B2094654DA6AA7F54999","title":"品粤阁","lon":"121.58396","lat":"31.21021","category":"72","category_name":"广东菜","address":"上海张江高科技园区松涛路251号(汤臣豪园会所)"},{"poiid":"B2094757D06AA0F84293","title":"凯顿酒店","lon":"121.59412","lat":"31.21041","category":"76","category_name":"上海菜","address":"浦东新区郭守敬路277号(近牛顿路)"},{"poiid":"B2094655D36DA0F84993","title":"杨家镇","lon":"121.59553","lat":"31.21676","category":"38","category_name":"公交车站","address":"上海龙东大道122弄"},{"poiid":"B2094654DA6AA1FA419A","title":"上海瑞东医院(瑞金医院浦东分院)","lon":"121.57312","lat":"31.22623","category":"162","category_name":"医院","address":"浦东新区锦绣东路120"},{"poiid":"B2094655D36CA7FD4499","title":"花木路","lon":"121.57282","lat":"31.217","category":"38","category_name":"公交车站","address":""},{"poiid":"B2094757D06AA7F5499E","title":"东风本田汽车冠松4S","lon":"121.571006","lat":"31.226105","category":"158","category_name":"汽车销售","address":"浦东新区罗山路1589号(近锦绣路)"},{"poiid":"B2094655D26EA5FD469E","title":"东郊宾馆自助餐厅","lon":"121.59707","lat":"31.22591","category":"268","category_name":"自助","address":"浦东新区金科路1800号东郊宾馆内(近龙东大道)"},{"poiid":"B2094655D36CA1F54292","title":"科苑路龙东大道","lon":"121.58739","lat":"31.2115","category":"38","category_name":"公交车站","address":""},{"poiid":"B2094757D16CA6FF4898","title":"Le Joli Bistro 周","lon":"121.597072","lat":"31.22591","category":"94","category_name":"西餐厅","address":"浦东新区金科路1800号东郊宾馆克拉克海奇俱乐部内"},{"poiid":"B2094655D36CA1F5439A","title":"科苑路","lon":"121.58584","lat":"31.21225","category":"38","category_name":"公交车站","address":""},{"poiid":"B2094655D36CA1F8459F","title":"龙东大道科苑路","lon":"121.58617","lat":"31.2122","category":"38","category_name":"公交车站","address":""},{"poiid":"B2094757D065A7FF439B","title":"维诗凯亚休闲俱乐部","lon":"121.58228","lat":"31.23295","category":"94","category_name":"西餐厅","address":"浦东新区云山路1988号(近明月路)查看地图"},{"poiid":"B2094757D064A3FB4792","title":"华虹科技园","lon":"121.584495544","lat":"31.2073020935","category":"46","category_name":"楼宇","address":"上海浦东碧波路177号"},{"poiid":"B2094750D26EA3FD4499","title":"招商银行张江支行","lon":"121.582188","lat":"31.213487","category":"150","category_name":"银行","address":null},{"poiid":"B2094757D16FA5FC469A","title":"德国中心地下食堂","lon":"121.58733","lat":"31.21148","category":"68","category_name":"快餐厅","address":"浦东新区科苑路88号地下停车库(近龙东大道)"},{"poiid":"B2094757D16CA1FE439B","title":"张江","lon":"121.591663","lat":"31.212274","category":"500","category_name":"未知分类","address":"上海牛顿路"},{"poiid":"B2094757D469A0F4479E","title":"妃思酒吧 Face","lon":"121.59662","lat":"31.22587","category":"172","category_name":"酒吧","address":"金科路1800号东郊宾馆内近龙东大道"},{"poiid":"B2094757D06BA7F94398","title":"科苑路郭守敬路建设银行","lon":"121.589169","lat":"31.20903","category":"46","category_name":"楼宇","address":"上海郭守敬路科苑路"},{"poiid":"B2094654DA6AA7F4429B","title":"GARDEN VILLA","lon":"121.59279","lat":"31.22044","category":"47","category_name":"住宅区","address":""},{"poiid":"B2094757D06FA3F8479A","title":"上海德国中心","lon":"121.586903","lat":"31.211596","category":"46","category_name":"楼宇","address":"浦东新区科苑路88号德国中心"},{"poiid":"B2094654DA6AA7F54699","title":"上海张江高科技园区","lon":"121.58762","lat":"31.21184","category":"45","category_name":"产业园区","address":"浦东新区科苑路399号"},{"poiid":"B2094757D06FA2F5449B","title":"张江创新园","lon":"121.59543194719","lat":"31.210169439571","category":"46","category_name":"楼宇","address":"上海市虹口区四川北路1318号"},{"poiid":"B2094757D068A2FD499F","title":"汤臣高尔夫别墅","lon":"121.583691175","lat":"31.2121601084","category":"47","category_name":"住宅区","address":"上海市浦东新区龙东大道1号"},{"poiid":"B2094757D06FA7FD4999","title":"交行卡中心","lon":"121.58052","lat":"31.20865","category":"68","category_name":"快餐厅","address":"浦东新区松涛路80号(近张江地铁站)"},{"poiid":"B2094757D06FAAF5429D","title":"汤臣豪园二期","lon":"121.5911142171","lat":"31.215546554135","category":"47","category_name":"住宅区","address":"上海晨晖路825弄"},{"poiid":"B2094654DA6AA6FC4093","title":"中国美术学院上海设计学院","lon":"121.58013","lat":"31.20628","category":"671","category_name":"高校中心点","address":"张江高科园区"},{"poiid":"B2094757D068A3FE4292","title":"罗氏制药","lon":"121.595334109","lat":"31.2138314147","category":"46","category_name":"楼宇","address":"上海浦东新区龙东大道1100号"},{"poiid":"B2094654DB69ABF5489D","title":"星之健身(张江店)","lon":"121.58689","lat":"31.2108","category":"221","category_name":"健身中心","address":"浦东新区张江高科园区科苑路88号(近龙东大道)"},{"poiid":"B2094757D06FA5F9439D","title":"张江大厦","lon":"121.58323621","lat":"31.205565996","category":"46","category_name":"楼宇","address":"上海松涛路560号"},{"poiid":"B2094757D06FA4F4459D","title":"汤臣高尔夫球场","lon":"121.58303475","lat":"31.211591496","category":"260","category_name":"其他","address":"中国上海浦东新区龙东大道1号"},{"poiid":"B2094757D06BA5F9419F","title":"瑞亚湖滨精品酒店","lon":"121.57144497","lat":"31.224963937","category":"217","category_name":"旅馆招待所","address":"上海市浦东新区罗山路1609号"},{"poiid":"B2094757D16CABF84093","title":"东郊宾馆宴会厅","lon":"121.59701","lat":"31.22565","category":"217","category_name":"旅馆招待所","address":"浦东新区金科路1800号东郊宾馆内(近龙乐大道)查看地图"},{"poiid":"B2094757D16AA3F84693","title":"汤臣别墅区","lon":"121.582292975","lat":"31.2247609328","category":"252","category_name":"楼宇机构","address":"上海市浦东新区龙东大道"},{"poiid":"B2094654DA6AA1FA4192","title":"世茂湖滨花园(明月路)","lon":"121.57579","lat":"31.23166","category":"47","category_name":"住宅区","address":"上海市浦东新区昌里东路333弄"},{"poiid":"B2094757D469A3F5429C","title":"瑞亚湖滨酒店多功能厅","lon":"121.570945","lat":"31.226697","category":"76","category_name":"上海菜","address":"罗山路1609号瑞亚湖滨酒店1楼近锦绣路"},{"poiid":"B2094654DA6AA1F5489C","title":"汤臣豪园","lon":"121.58493","lat":"31.21121","category":"47","category_name":"住宅区","address":"上海市浦东新区张家浜路37号"},{"poiid":"B2094757D06AA4FA439B","title":"美再晨运动会馆(松涛路店)","lon":"121.58418","lat":"31.21005","category":"148","category_name":"美容美发店","address":"浦东新区松涛路251号(近碧波路)"},{"poiid":"B2094757D06FA5F44699","title":"龙东大道","lon":"121.59431971","lat":"31.216365261","category":"260","category_name":"其他","address":"上海龙东大道"},{"poiid":"B2094757D068ABFF459F","title":"永达东风日产4s店","lon":"121.570136","lat":"31.226448","category":"158","category_name":"汽车销售","address":"上海罗山路1447号"},{"poiid":"B2094751D569A1FF409F","title":"龍美术馆","lon":"121.573639","lat":"31.215622","category":"248","category_name":"生活娱乐","address":"罗山路2255号"},{"poiid":"B2094757D069AAF4459B","title":"喜月小厨","lon":"121.581248567","lat":"31.2063803798","category":"76","category_name":"上海菜","address":"浦东新区碧波路635号圆环传奇美食广场内(近张江地铁站)"},{"poiid":"B2094655D26FA6FA469A","title":"四季雅苑","lon":"121.575","lat":"31.2222","category":"47","category_name":"住宅区","address":"浦东区花木路1983弄"},{"poiid":"B2094654DA6AA0FA4999","title":"汤臣高尔夫别墅海顿园区","lon":"121.57684","lat":"31.21737","category":"47","category_name":"住宅区","address":""},{"poiid":"B2094655D26FA5F84293","title":"御翠园","lon":"121.5723460187","lat":"31.223593222378","category":"47","category_name":"住宅区","address":"上海市浦东新区花木路1883弄"},{"poiid":"B2094654DA6AA1FA419B","title":"云间绿地别墅","lon":"121.57873","lat":"31.22948","category":"47","category_name":"住宅区","address":"锦绣东路418弄1-296号"},{"poiid":"B2094757D568A0FB439A","title":"汤臣湖庭花园","lon":"121.574922","lat":"31.215573","category":"47","category_name":"住宅区","address":"浦东新区罗山路2255弄(花木路口)"},{"poiid":"B2094654DA6AA5FB4199","title":"汤臣集团(GARDEN VILLA)","lon":"121.58528","lat":"31.218","category":"263","category_name":"公司","address":""},{"poiid":"B2094655D26CA5FD499F","title":"华高新苑","lon":"121.593","lat":"31.2321","category":"47","category_name":"住宅区","address":"金高路1058弄1-40号"},{"poiid":"B2094654DA6AA0FD4492","title":"上海电影艺术学院北校区","lon":"121.57931","lat":"31.20878","category":"52","category_name":"高等院校","address":"浦东新区松涛路11临"},{"poiid":"B2094750DA68A6F4469D","title":"张江高科德国中心","lon":"121.587496","lat":"31.212141","category":"46","category_name":"楼宇","address":"浦东新区科苑路88号"},{"poiid":"B2094654DA6AA7F54999","title":"品粤阁","lon":"121.58396","lat":"31.21021","category":"72","category_name":"广东菜","address":"上海张江高科技园区松涛路251号(汤臣豪园会所)"},{"poiid":"B2094757D06AA0F84293","title":"凯顿酒店","lon":"121.59412","lat":"31.21041","category":"76","category_name":"上海菜","address":"浦东新区郭守敬路277号(近牛顿路)"},{"poiid":"B2094655D36DA0F84993","title":"杨家镇","lon":"121.59553","lat":"31.21676","category":"38","category_name":"公交车站","address":"上海龙东大道122弄"},{"poiid":"B2094654DA6AA1FA419A","title":"上海瑞东医院(瑞金医院浦东分院)","lon":"121.57312","lat":"31.22623","category":"162","category_name":"医院","address":"浦东新区锦绣东路120"},{"poiid":"B2094655D36CA7FD4499","title":"花木路","lon":"121.57282","lat":"31.217","category":"38","category_name":"公交车站","address":""},{"poiid":"B2094757D06AA7F5499E","title":"东风本田汽车冠松4S","lon":"121.571006","lat":"31.226105","category":"158","category_name":"汽车销售","address":"浦东新区罗山路1589号(近锦绣路)"},{"poiid":"B2094655D26EA5FD469E","title":"东郊宾馆自助餐厅","lon":"121.59707","lat":"31.22591","category":"268","category_name":"自助","address":"浦东新区金科路1800号东郊宾馆内(近龙东大道)"},{"poiid":"B2094655D36CA1F54292","title":"科苑路龙东大道","lon":"121.58739","lat":"31.2115","category":"38","category_name":"公交车站","address":""},{"poiid":"B2094757D16CA6FF4898","title":"Le Joli Bistro 周","lon":"121.597072","lat":"31.22591","category":"94","category_name":"西餐厅","address":"浦东新区金科路1800号东郊宾馆克拉克海奇俱乐部内"},{"poiid":"B2094655D36CA1F5439A","title":"科苑路","lon":"121.58584","lat":"31.21225","category":"38","category_name":"公交车站","address":""},{"poiid":"B2094655D36CA1F8459F","title":"龙东大道科苑路","lon":"121.58617","lat":"31.2122","category":"38","category_name":"公交车站","address":""},{"poiid":"B2094757D065A7FF439B","title":"维诗凯亚休闲俱乐部","lon":"121.58228","lat":"31.23295","category":"94","category_name":"西餐厅","address":"浦东新区云山路1988号(近明月路)查看地图"},{"poiid":"B2094757D064A3FB4792","title":"华虹科技园","lon":"121.584495544","lat":"31.2073020935","category":"46","category_name":"楼宇","address":"上海浦东碧波路177号"},{"poiid":"B2094750D26EA3FD4499","title":"招商银行张江支行","lon":"121.582188","lat":"31.213487","category":"150","category_name":"银行","address":null},{"poiid":"B2094757D16FA5FC469A","title":"德国中心地下食堂","lon":"121.58733","lat":"31.21148","category":"68","category_name":"快餐厅","address":"浦东新区科苑路88号地下停车库(近龙东大道)"},{"poiid":"B2094757D16CA1FE439B","title":"张江","lon":"121.591663","lat":"31.212274","category":"500","category_name":"未知分类","address":"上海牛顿路"},{"poiid":"B2094757D469A0F4479E","title":"妃思酒吧 Face","lon":"121.59662","lat":"31.22587","category":"172","category_name":"酒吧","address":"金科路1800号东郊宾馆内近龙东大道"},{"poiid":"B2094757D06BA7F94398","title":"科苑路郭守敬路建设银行","lon":"121.589169","lat":"31.20903","category":"46","category_name":"楼宇","address":"上海郭守敬路科苑路"},{"poiid":"B2094654DA6AA7F4429B","title":"GARDEN VILLA","lon":"121.59279","lat":"31.22044","category":"47","category_name":"住宅区","address":""},{"poiid":"B2094757D06FA3F8479A","title":"上海德国中心","lon":"121.586903","lat":"31.211596","category":"46","category_name":"楼宇","address":"浦东新区科苑路88号德国中心"},{"poiid":"B2094654DA6AA7F54699","title":"上海张江高科技园区","lon":"121.58762","lat":"31.21184","category":"45","category_name":"产业园区","address":"浦东新区科苑路399号"},{"poiid":"B2094757D06FA2F5449B","title":"张江创新园","lon":"121.59543194719","lat":"31.210169439571","category":"46","category_name":"楼宇","address":"上海市虹口区四川北路1318号"},{"poiid":"B2094757D068A2FD499F","title":"汤臣高尔夫别墅","lon":"121.583691175","lat":"31.2121601084","category":"47","category_name":"住宅区","address":"上海市浦东新区龙东大道1号"},{"poiid":"B2094757D06FA7FD4999","title":"交行卡中心","lon":"121.58052","lat":"31.20865","category":"68","category_name":"快餐厅","address":"浦东新区松涛路80号(近张江地铁站)"},{"poiid":"B2094757D06FAAF5429D","title":"汤臣豪园二期","lon":"121.5911142171","lat":"31.215546554135","category":"47","category_name":"住宅区","address":"上海晨晖路825弄"},{"poiid":"B2094654DA6AA6FC4093","title":"中国美术学院上海设计学院","lon":"121.58013","lat":"31.20628","category":"671","category_name":"高校中心点","address":"张江高科园区"},{"poiid":"B2094757D068A3FE4292","title":"罗氏制药","lon":"121.595334109","lat":"31.2138314147","category":"46","category_name":"楼宇","address":"上海浦东新区龙东大道1100号"},{"poiid":"B2094654DB69ABF5489D","title":"星之健身(张江店)","lon":"121.58689","lat":"31.2108","category":"221","category_name":"健身中心","address":"浦东新区张江高科园区科苑路88号(近龙东大道)"},{"poiid":"B2094757D06FA5F9439D","title":"张江大厦","lon":"121.58323621","lat":"31.205565996","category":"46","category_name":"楼宇","address":"上海松涛路560号"},{"poiid":"B2094757D06FA4F4459D","title":"汤臣高尔夫球场","lon":"121.58303475","lat":"31.211591496","category":"260","category_name":"其他","address":"中国上海浦东新区龙东大道1号"},{"poiid":"B2094757D06BA5F9419F","title":"瑞亚湖滨精品酒店","lon":"121.57144497","lat":"31.224963937","category":"217","category_name":"旅馆招待所","address":"上海市浦东新区罗山路1609号"},{"poiid":"B2094757D16CABF84093","title":"东郊宾馆宴会厅","lon":"121.59701","lat":"31.22565","category":"217","category_name":"旅馆招待所","address":"浦东新区金科路1800号东郊宾馆内(近龙乐大道)查看地图"},{"poiid":"B2094757D16AA3F84693","title":"汤臣别墅区","lon":"121.582292975","lat":"31.2247609328","category":"252","category_name":"楼宇机构","address":"上海市浦东新区龙东大道"},{"poiid":"B2094654DA6AA1FA4192","title":"世茂湖滨花园(明月路)","lon":"121.57579","lat":"31.23166","category":"47","category_name":"住宅区","address":"上海市浦东新区昌里东路333弄"},{"poiid":"B2094757D469A3F5429C","title":"瑞亚湖滨酒店多功能厅","lon":"121.570945","lat":"31.226697","category":"76","category_name":"上海菜","address":"罗山路1609号瑞亚湖滨酒店1楼近锦绣路"},{"poiid":"B2094654DA6AA1F5489C","title":"汤臣豪园","lon":"121.58493","lat":"31.21121","category":"47","category_name":"住宅区","address":"上海市浦东新区张家浜路37号"},{"poiid":"B2094757D06AA4FA439B","title":"美再晨运动会馆(松涛路店)","lon":"121.58418","lat":"31.21005","category":"148","category_name":"美容美发店","address":"浦东新区松涛路251号(近碧波路)"},{"poiid":"B2094757D06FA5F44699","title":"龙东大道","lon":"121.59431971","lat":"31.216365261","category":"260","category_name":"其他","address":"上海龙东大道"},{"poiid":"B2094757D068ABFF459F","title":"永达东风日产4s店","lon":"121.570136","lat":"31.226448","category":"158","category_name":"汽车销售","address":"上海罗山路1447号"},{"poiid":"B2094751D569A1FF409F","title":"龍美术馆","lon":"121.573639","lat":"31.215622","category":"248","category_name":"生活娱乐","address":"罗山路2255号"},{"poiid":"B2094757D069AAF4459B","title":"喜月小厨","lon":"121.581248567","lat":"31.2063803798","category":"76","category_name":"上海菜","address":"浦东新区碧波路635号圆环传奇美食广场内(近张江地铁站)"},{"poiid":"B2094655D26FA6FA469A","title":"四季雅苑","lon":"121.575","lat":"31.2222","category":"47","category_name":"住宅区","address":"浦东区花木路1983弄"},{"poiid":"B2094654DA6AA0FA4999","title":"汤臣高尔夫别墅海顿园区","lon":"121.57684","lat":"31.21737","category":"47","category_name":"住宅区","address":""},{"poiid":"B2094655D26FA5F84293","title":"御翠园","lon":"121.5723460187","lat":"31.223593222378","category":"47","category_name":"住宅区","address":"上海市浦东新区花木路1883弄"},{"poiid":"B2094654DA6AA1FA419B","title":"云间绿地别墅","lon":"121.57873","lat":"31.22948","category":"47","category_name":"住宅区","address":"锦绣东路418弄1-296号"},{"poiid":"B2094757D568A0FB439A","title":"汤臣湖庭花园","lon":"121.574922","lat":"31.215573","category":"47","category_name":"住宅区","address":"浦东新区罗山路2255弄(花木路口)"},{"poiid":"B2094654DA6AA5FB4199","title":"汤臣集团(GARDEN VILLA)","lon":"121.58528","lat":"31.218","category":"263","category_name":"公司","address":""},{"poiid":"B2094655D26CA5FD499F","title":"华高新苑","lon":"121.593","lat":"31.2321","category":"47","category_name":"住宅区","address":"金高路1058弄1-40号"},{"poiid":"B2094654DA6AA0FD4492","title":"上海电影艺术学院北校区","lon":"121.57931","lat":"31.20878","category":"52","category_name":"高等院校","address":"浦东新区松涛路11临"},{"poiid":"B2094750DA68A6F4469D","title":"张江高科德国中心","lon":"121.587496","lat":"31.212141","category":"46","category_name":"楼宇","address":"浦东新区科苑路88号"},{"poiid":"B2094654DA6AA7F54999","title":"品粤阁","lon":"121.58396","lat":"31.21021","category":"72","category_name":"广东菜","address":"上海张江高科技园区松涛路251号(汤臣豪园会所)"},{"poiid":"B2094757D06AA0F84293","title":"凯顿酒店","lon":"121.59412","lat":"31.21041","category":"76","category_name":"上海菜","address":"浦东新区郭守敬路277号(近牛顿路)"},{"poiid":"B2094655D36DA0F84993","title":"杨家镇","lon":"121.59553","lat":"31.21676","category":"38","category_name":"公交车站","address":"上海龙东大道122弄"},{"poiid":"B2094654DA6AA1FA419A","title":"上海瑞东医院(瑞金医院浦东分院)","lon":"121.57312","lat":"31.22623","category":"162","category_name":"医院","address":"浦东新区锦绣东路120"},{"poiid":"B2094655D36CA7FD4499","title":"花木路","lon":"121.57282","lat":"31.217","category":"38","category_name":"公交车站","address":""},{"poiid":"B2094757D06AA7F5499E","title":"东风本田汽车冠松4S","lon":"121.571006","lat":"31.226105","category":"158","category_name":"汽车销售","address":"浦东新区罗山路1589号(近锦绣路)"},{"poiid":"B2094655D26EA5FD469E","title":"东郊宾馆自助餐厅","lon":"121.59707","lat":"31.22591","category":"268","category_name":"自助","address":"浦东新区金科路1800号东郊宾馆内(近龙东大道)"},{"poiid":"B2094655D36CA1F54292","title":"科苑路龙东大道","lon":"121.58739","lat":"31.2115","category":"38","category_name":"公交车站","address":""},{"poiid":"B2094757D16CA6FF4898","title":"Le Joli Bistro 周","lon":"121.597072","lat":"31.22591","category":"94","category_name":"西餐厅","address":"浦东新区金科路1800号东郊宾馆克拉克海奇俱乐部内"},{"poiid":"B2094655D36CA1F5439A","title":"科苑路","lon":"121.58584","lat":"31.21225","category":"38","category_name":"公交车站","address":""},{"poiid":"B2094655D36CA1F8459F","title":"龙东大道科苑路","lon":"121.58617","lat":"31.2122","category":"38","category_name":"公交车站","address":""},{"poiid":"B2094757D065A7FF439B","title":"维诗凯亚休闲俱乐部","lon":"121.58228","lat":"31.23295","category":"94","category_name":"西餐厅","address":"浦东新区云山路1988号(近明月路)查看地图"},{"poiid":"B2094757D064A3FB4792","title":"华虹科技园","lon":"121.584495544","lat":"31.2073020935","category":"46","category_name":"楼宇","address":"上海浦东碧波路177号"},{"poiid":"B2094750D26EA3FD4499","title":"招商银行张江支行","lon":"121.582188","lat":"31.213487","category":"150","category_name":"银行","address":null},{"poiid":"B2094757D16FA5FC469A","title":"德国中心地下食堂","lon":"121.58733","lat":"31.21148","category":"68","category_name":"快餐厅","address":"浦东新区科苑路88号地下停车库(近龙东大道)"},{"poiid":"B2094757D16CA1FE439B","title":"张江","lon":"121.591663","lat":"31.212274","category":"500","category_name":"未知分类","address":"上海牛顿路"},{"poiid":"B2094757D469A0F4479E","title":"妃思酒吧 Face","lon":"121.59662","lat":"31.22587","category":"172","category_name":"酒吧","address":"金科路1800号东郊宾馆内近龙东大道"},{"poiid":"B2094757D06BA7F94398","title":"科苑路郭守敬路建设银行","lon":"121.589169","lat":"31.20903","category":"46","category_name":"楼宇","address":"上海郭守敬路科苑路"},{"poiid":"B2094654DA6AA7F4429B","title":"GARDEN VILLA","lon":"121.59279","lat":"31.22044","category":"47","category_name":"住宅区","address":""}]