[{"poiid":"B2094757D065ABFB439D","title":"绿地万豪酒店","lon":"121.47298469159864","lat":"31.192103398628525","category":"213","category_name":"五星级宾馆","address":"卢湾区江滨路99号(近打浦路)"},{"poiid":"B2094757D06FAAFE419F","title":"后滩公园","lon":"121.4758535","lat":"31.184998305","category":"196","category_name":"公园","address":"上海浦东新区世博会园B片区"},{"poiid":"B2094655D265A6F5429C","title":"海外滩中心","lon":"121.47417","lat":"31.19376","category":"46","category_name":"楼宇","address":"卢湾区龙华东路886号"},{"poiid":"B2094757D06FA2FA449D","title":"上海世博会博物馆 - 上海世博会纪念展","lon":"121.48130635","lat":"31.1936099525","category":"182","category_name":"博物馆","address":"卢湾区局门路原世博会城市足迹馆内(近龙华东路)"},{"poiid":"B2094752D264A0FC479C","title":"巧克力开心乐园","lon":"121.475159","lat":"31.181213","category":"248","category_name":"生活娱乐","address":"博成路100号"},{"poiid":"B2094757D06FA3F8479F","title":"世博会意大利馆","lon":"121.47576","lat":"31.1841","category":"260","category_name":"其他","address":"上海浦东新区世博大道上钢路口(原上海世博会C片区)"},{"poiid":"B2094757D06FA0FA499E","title":"世博会非洲联合馆","lon":"121.47401428","lat":"31.182336807","category":"260","category_name":"其他","address":"上海浦东新区博成路上钢路口(原上海世博会C片区)"},{"poiid":"B2094655D26EA7F84093","title":"卢浦大桥","lon":"121.48255","lat":"31.18603","category":"250","category_name":"公园户外","address":"卢湾区鲁班路909号"},{"poiid":"B2094753D76BA0FD4593","title":"K11购物艺术中心","lon":"121.474906","lat":"31.194225","category":"500","category_name":"未知分类","address":"上海市 上海市淮海中路300号"},{"poiid":"B2094757D06FA7F5409F","title":"南园公园","lon":"121.4752825","lat":"31.193345331","category":"196","category_name":"公园","address":"上海卢湾区龙华东路800号(打浦路口)"},{"poiid":"B2094757D068A7F4479A","title":"南园滨江绿地","lon":"121.47228412","lat":"31.194327672","category":"500","category_name":"未知分类","address":"卢湾区龙华东路800号(打浦路口)"},{"poiid":"B2094757D06AA3F9449C","title":"江滨路观江平台～","lon":"121.47499573","lat":"31.192089987","category":"500","category_name":"未知分类","address":"上海卢湾区"},{"poiid":"B2094757D068A2FC439C","title":"星港酒楼","lon":"121.47484","lat":"31.19505","category":"76","category_name":"上海菜","address":"卢湾区打浦路603号农工商超市5楼(近中山南一路)"},{"poiid":"B2094655D269ABFC469F","title":"大浪淘沙(卢湾店)","lon":"121.47199","lat":"31.19591","category":"247","category_name":"餐饮美食","address":"卢湾区中山南一路1065号(近打浦路)"},{"poiid":"B2094757D064A4FE4198","title":"海外滩","lon":"121.472043738","lat":"31.1922194905","category":"500","category_name":"未知分类","address":"上海龙华东路868号"},{"poiid":"B2094751D16CABFE4593","title":"海外滩舒适堡","lon":"121.473662","lat":"31.193563","category":"248","category_name":"生活娱乐","address":"徐汇区龙华东路868号绿地海外滩中心B1楼(近打浦路)"},{"poiid":"B2094757D56DAAFD4998","title":"冰星飞扬（世博）羽毛球馆","lon":"121.47396326065063","lat":"31.180634737769793","category":"248","category_name":"生活娱乐","address":"浦东新区后滩路139号(近国展路)"},{"poiid":"B2094752D26EA5F8479E","title":"世博希腊馆","lon":"121.477208","lat":"31.185743","category":"500","category_name":"未知分类","address":null},{"poiid":"B2094757D66CA1FF4692","title":"南滨江","lon":"121.46897173","lat":"31.184909334","category":"500","category_name":"未知分类","address":"上海市徐汇区瑞宁路"},{"poiid":"B2094757D06FA0FA469A","title":"打浦桥隧道","lon":"121.47177124","lat":"31.194749832","category":"500","category_name":"未知分类","address":"上海打浦桥隧道"},{"poiid":"B2094654DA6DA4FA419D","title":"卢湾城市花园","lon":"121.4775","lat":"31.19385","category":"47","category_name":"住宅区","address":"上海市卢湾区鲁班路738弄"},{"poiid":"B2094750DB64A5FE459B","title":"Rose Queen Coffee","lon":"121.47404","lat":"31.19128","category":"260","category_name":"其他","address":"卢湾区打浦路688号(近江滨路)"},{"poiid":"B2094757D168A0FE4393","title":"绿地万豪28楼行政餐厅","lon":"121.472935738","lat":"31.1918104818","category":"500","category_name":"未知分类","address":"上海市卢湾区江滨路99号"},{"poiid":"B2094654DA6DA4FA429B","title":"紫荆新苑","lon":"121.47836","lat":"31.192335","category":"47","category_name":"住宅区","address":"紫荆新苑位于卢湾鲁班路797号"},{"poiid":"B2094655D26FA5F44792","title":"农工商超市No.0119","lon":"121.4751","lat":"31.19522","category":"118","category_name":"超级市场","address":"打浦路603"},{"poiid":"B209475CD66DA6FC4198","title":"辣府","lon":"121.474594","lat":"31.19452","category":"247","category_name":"餐饮美食","address":"上海市 打浦路603号"},{"poiid":"B2094757D069A2FE449B","title":"Level-T撞球公社","lon":"121.4738576","lat":"31.1959885","category":"171","category_name":"台球厅","address":"上海卢湾区中山南一路937号(近打浦路)"},{"poiid":"B2094757D068ABFD429C","title":"半盆菜酒家","lon":"121.47602","lat":"31.19694","category":"76","category_name":"上海菜","address":"卢湾区中山南一路893号(鲁班路口)"},{"poiid":"B2094757D06AA5FD499D","title":"四号线大木桥路站","lon":"121.473038838","lat":"31.1900380441","category":"500","category_name":"未知分类","address":"上海四号线"},{"poiid":"B2094757D069A2FA469F","title":"肯德基 KFC (五里桥店)","lon":"121.474865","lat":"31.195255","category":"68","category_name":"快餐厅","address":"卢湾区打浦路603号农工商超市(近中山南一路)"},{"poiid":"B2094757D464ABF9439F","title":"棒约翰比萨 打浦店 Papa John's Pizza","lon":"121.47492980957","lat":"31.194774627686","category":"101","category_name":"美式风味","address":"卢湾区打浦路603号农工商超市1楼(近中山南一路)"},{"poiid":"B2094752D06DA3F9459D","title":"飞行家主题园","lon":"121.475925","lat":"31.180498","category":"250","category_name":"公园户外","address":"上海市浦东新区国展路311号"},{"poiid":"B2094757D16DA6F4479D","title":"绿地滨江CBD","lon":"121.4735559","lat":"31.1914703","category":"47","category_name":"住宅区","address":"上海卢湾区江滨路99号"},{"poiid":"B2094753D768A2FF469F","title":"小辉哥火锅（乐城店）","lon":"121.47583","lat":"31.182259","category":"247","category_name":"餐饮美食","address":"上海市徐汇区中山南二路699号2栋304—305"},{"poiid":"B2094757DA69A2FE429B","title":"海外滩-卢湾绿地商业","lon":"121.47404291225","lat":"31.193181193841","category":"119","category_name":"商场","address":"上海市黄浦区龙华东路810号海外滩?名品汇"},{"poiid":"B2094750D365A3FB489B","title":"上海意大利中心","lon":"121.47582388308","lat":"31.183763362212","category":"646","category_name":"文化体育类公司","address":"浦东新区世博大道2095号(近塘子泾路)"},{"poiid":"B2094757D16DA4F5419D","title":"內環高架瑞金路","lon":"121.468390738","lat":"31.1940535295","category":"500","category_name":"未知分类","address":"上海市徐汇区零陵北路"},{"poiid":"B2094753D568ABFE479F","title":"风云电竞馆","lon":"121.479003","lat":"31.194408","category":"500","category_name":"未知分类","address":"上海市 鲁班路899号"},{"poiid":"B2094752DA6BA2FE4898","title":"上海八万人体育场","lon":"121.477028","lat":"31.192318","category":"500","category_name":"未知分类","address":"上海市 中山南二路"},{"poiid":"B2094757D16EA6F4449B","title":"卢浦大桥拱顶","lon":"121.471820738","lat":"31.192571498","category":"500","category_name":"未知分类","address":"上海卢浦大桥拱顶"},{"poiid":"B2094752D364A4FF4992","title":"COSTA,COFFEE(海外滩店)","lon":"121.47264","lat":"31.19226","category":"65","category_name":"咖啡厅","address":"卢湾区龙华东路868号绿地海外滩中心内(近打浦路)"},{"poiid":"B2094655D26BA0FA409C","title":"中心广场(意大利馆东)","lon":"121.47659","lat":"31.18368","category":"201","category_name":"城市广场","address":"上海世博园区"},{"poiid":"B2094655D36CA3FA4293","title":"海珀·日晖","lon":"121.47398","lat":"31.1926","category":"47","category_name":"住宅区","address":"龙华东路886号"},{"poiid":"B2094757D069A2F9429A","title":"786路公交","lon":"121.47825758","lat":"31.188280152","category":"38","category_name":"公交车站","address":"上海文化广场—南码头路昌里东路"},{"poiid":"B2094751D56BA4FA479F","title":"上海歌城","lon":"121.480165","lat":"31.191962","category":"170","category_name":"KTV","address":"昌里路337号浦东商场4层"},{"poiid":"B2094655D26EA1FB439F","title":"卢浦大桥观光平台","lon":"121.47928","lat":"31.19279","category":"250","category_name":"公园户外","address":"鲁班路909"},{"poiid":"B2094654DA6DAAF54093","title":"上海第二医科大学学生公寓一区","lon":"121.47491","lat":"31.19697","category":"47","category_name":"住宅区","address":"上海市卢湾区中山南一路937号"},{"poiid":"B2094750D16BA6FC4898","title":"徐汇滨江城市规划中心","lon":"121.470481","lat":"31.18835","category":"500","category_name":"未知分类","address":"瑞宁路99号"},{"poiid":"B209475DDA6FA3FD439B","title":"辣府(打浦路旗舰店)","lon":"121.474662","lat":"31.196044","category":"247","category_name":"餐饮美食","address":"上海市 黄浦区打浦路603号"},{"poiid":"B209475CD16EA4F8419E","title":"辣府","lon":"121.478958","lat":"31.1928","category":"247","category_name":"餐饮美食","address":"上海市 打浦路603号"},{"poiid":"B2094757D065ABFB439D","title":"绿地万豪酒店","lon":"121.47298469159864","lat":"31.192103398628525","category":"213","category_name":"五星级宾馆","address":"卢湾区江滨路99号(近打浦路)"},{"poiid":"B2094757D06FAAFE419F","title":"后滩公园","lon":"121.4758535","lat":"31.184998305","category":"196","category_name":"公园","address":"上海浦东新区世博会园B片区"},{"poiid":"B2094655D265A6F5429C","title":"海外滩中心","lon":"121.47417","lat":"31.19376","category":"46","category_name":"楼宇","address":"卢湾区龙华东路886号"},{"poiid":"B2094757D06FA2FA449D","title":"上海世博会博物馆 - 上海世博会纪念展","lon":"121.48130635","lat":"31.1936099525","category":"182","category_name":"博物馆","address":"卢湾区局门路原世博会城市足迹馆内(近龙华东路)"},{"poiid":"B2094752D264A0FC479C","title":"巧克力开心乐园","lon":"121.475159","lat":"31.181213","category":"248","category_name":"生活娱乐","address":"博成路100号"},{"poiid":"B2094757D06FA3F8479F","title":"世博会意大利馆","lon":"121.47576","lat":"31.1841","category":"260","category_name":"其他","address":"上海浦东新区世博大道上钢路口(原上海世博会C片区)"},{"poiid":"B2094757D06FA0FA499E","title":"世博会非洲联合馆","lon":"121.47401428","lat":"31.182336807","category":"260","category_name":"其他","address":"上海浦东新区博成路上钢路口(原上海世博会C片区)"},{"poiid":"B2094655D26EA7F84093","title":"卢浦大桥","lon":"121.48255","lat":"31.18603","category":"250","category_name":"公园户外","address":"卢湾区鲁班路909号"},{"poiid":"B2094753D76BA0FD4593","title":"K11购物艺术中心","lon":"121.474906","lat":"31.194225","category":"500","category_name":"未知分类","address":"上海市 上海市淮海中路300号"},{"poiid":"B2094757D06FA7F5409F","title":"南园公园","lon":"121.4752825","lat":"31.193345331","category":"196","category_name":"公园","address":"上海卢湾区龙华东路800号(打浦路口)"},{"poiid":"B2094757D068A7F4479A","title":"南园滨江绿地","lon":"121.47228412","lat":"31.194327672","category":"500","category_name":"未知分类","address":"卢湾区龙华东路800号(打浦路口)"},{"poiid":"B2094757D06AA3F9449C","title":"江滨路观江平台～","lon":"121.47499573","lat":"31.192089987","category":"500","category_name":"未知分类","address":"上海卢湾区"},{"poiid":"B2094757D068A2FC439C","title":"星港酒楼","lon":"121.47484","lat":"31.19505","category":"76","category_name":"上海菜","address":"卢湾区打浦路603号农工商超市5楼(近中山南一路)"},{"poiid":"B2094655D269ABFC469F","title":"大浪淘沙(卢湾店)","lon":"121.47199","lat":"31.19591","category":"247","category_name":"餐饮美食","address":"卢湾区中山南一路1065号(近打浦路)"},{"poiid":"B2094757D064A4FE4198","title":"海外滩","lon":"121.472043738","lat":"31.1922194905","category":"500","category_name":"未知分类","address":"上海龙华东路868号"},{"poiid":"B2094751D16CABFE4593","title":"海外滩舒适堡","lon":"121.473662","lat":"31.193563","category":"248","category_name":"生活娱乐","address":"徐汇区龙华东路868号绿地海外滩中心B1楼(近打浦路)"},{"poiid":"B2094757D56DAAFD4998","title":"冰星飞扬（世博）羽毛球馆","lon":"121.47396326065063","lat":"31.180634737769793","category":"248","category_name":"生活娱乐","address":"浦东新区后滩路139号(近国展路)"},{"poiid":"B2094752D26EA5F8479E","title":"世博希腊馆","lon":"121.477208","lat":"31.185743","category":"500","category_name":"未知分类","address":null},{"poiid":"B2094757D66CA1FF4692","title":"南滨江","lon":"121.46897173","lat":"31.184909334","category":"500","category_name":"未知分类","address":"上海市徐汇区瑞宁路"},{"poiid":"B2094757D06FA0FA469A","title":"打浦桥隧道","lon":"121.47177124","lat":"31.194749832","category":"500","category_name":"未知分类","address":"上海打浦桥隧道"},{"poiid":"B2094654DA6DA4FA419D","title":"卢湾城市花园","lon":"121.4775","lat":"31.19385","category":"47","category_name":"住宅区","address":"上海市卢湾区鲁班路738弄"},{"poiid":"B2094750DB64A5FE459B","title":"Rose Queen Coffee","lon":"121.47404","lat":"31.19128","category":"260","category_name":"其他","address":"卢湾区打浦路688号(近江滨路)"},{"poiid":"B2094757D168A0FE4393","title":"绿地万豪28楼行政餐厅","lon":"121.472935738","lat":"31.1918104818","category":"500","category_name":"未知分类","address":"上海市卢湾区江滨路99号"},{"poiid":"B2094654DA6DA4FA429B","title":"紫荆新苑","lon":"121.47836","lat":"31.192335","category":"47","category_name":"住宅区","address":"紫荆新苑位于卢湾鲁班路797号"},{"poiid":"B2094655D26FA5F44792","title":"农工商超市No.0119","lon":"121.4751","lat":"31.19522","category":"118","category_name":"超级市场","address":"打浦路603"},{"poiid":"B209475CD66DA6FC4198","title":"辣府","lon":"121.474594","lat":"31.19452","category":"247","category_name":"餐饮美食","address":"上海市 打浦路603号"},{"poiid":"B2094757D069A2FE449B","title":"Level-T撞球公社","lon":"121.4738576","lat":"31.1959885","category":"171","category_name":"台球厅","address":"上海卢湾区中山南一路937号(近打浦路)"},{"poiid":"B2094757D068ABFD429C","title":"半盆菜酒家","lon":"121.47602","lat":"31.19694","category":"76","category_name":"上海菜","address":"卢湾区中山南一路893号(鲁班路口)"},{"poiid":"B2094757D06AA5FD499D","title":"四号线大木桥路站","lon":"121.473038838","lat":"31.1900380441","category":"500","category_name":"未知分类","address":"上海四号线"},{"poiid":"B2094757D069A2FA469F","title":"肯德基 KFC (五里桥店)","lon":"121.474865","lat":"31.195255","category":"68","category_name":"快餐厅","address":"卢湾区打浦路603号农工商超市(近中山南一路)"},{"poiid":"B2094757D464ABF9439F","title":"棒约翰比萨 打浦店 Papa John's Pizza","lon":"121.47492980957","lat":"31.194774627686","category":"101","category_name":"美式风味","address":"卢湾区打浦路603号农工商超市1楼(近中山南一路)"},{"poiid":"B2094752D06DA3F9459D","title":"飞行家主题园","lon":"121.475925","lat":"31.180498","category":"250","category_name":"公园户外","address":"上海市浦东新区国展路311号"},{"poiid":"B2094757D16DA6F4479D","title":"绿地滨江CBD","lon":"121.4735559","lat":"31.1914703","category":"47","category_name":"住宅区","address":"上海卢湾区江滨路99号"},{"poiid":"B2094753D768A2FF469F","title":"小辉哥火锅（乐城店）","lon":"121.47583","lat":"31.182259","category":"247","category_name":"餐饮美食","address":"上海市徐汇区中山南二路699号2栋304—305"},{"poiid":"B2094757DA69A2FE429B","title":"海外滩-卢湾绿地商业","lon":"121.47404291225","lat":"31.193181193841","category":"119","category_name":"商场","address":"上海市黄浦区龙华东路810号海外滩?名品汇"},{"poiid":"B2094750D365A3FB489B","title":"上海意大利中心","lon":"121.47582388308","lat":"31.183763362212","category":"646","category_name":"文化体育类公司","address":"浦东新区世博大道2095号(近塘子泾路)"},{"poiid":"B2094757D16DA4F5419D","title":"內環高架瑞金路","lon":"121.468390738","lat":"31.1940535295","category":"500","category_name":"未知分类","address":"上海市徐汇区零陵北路"},{"poiid":"B2094753D568ABFE479F","title":"风云电竞馆","lon":"121.479003","lat":"31.194408","category":"500","category_name":"未知分类","address":"上海市 鲁班路899号"},{"poiid":"B2094752DA6BA2FE4898","title":"上海八万人体育场","lon":"121.477028","lat":"31.192318","category":"500","category_name":"未知分类","address":"上海市 中山南二路"},{"poiid":"B2094757D16EA6F4449B","title":"卢浦大桥拱顶","lon":"121.471820738","lat":"31.192571498","category":"500","category_name":"未知分类","address":"上海卢浦大桥拱顶"},{"poiid":"B2094752D364A4FF4992","title":"COSTA,COFFEE(海外滩店)","lon":"121.47264","lat":"31.19226","category":"65","category_name":"咖啡厅","address":"卢湾区龙华东路868号绿地海外滩中心内(近打浦路)"},{"poiid":"B2094655D26BA0FA409C","title":"中心广场(意大利馆东)","lon":"121.47659","lat":"31.18368","category":"201","category_name":"城市广场","address":"上海世博园区"},{"poiid":"B2094655D36CA3FA4293","title":"海珀·日晖","lon":"121.47398","lat":"31.1926","category":"47","category_name":"住宅区","address":"龙华东路886号"},{"poiid":"B2094757D069A2F9429A","title":"786路公交","lon":"121.47825758","lat":"31.188280152","category":"38","category_name":"公交车站","address":"上海文化广场—南码头路昌里东路"},{"poiid":"B2094751D56BA4FA479F","title":"上海歌城","lon":"121.480165","lat":"31.191962","category":"170","category_name":"KTV","address":"昌里路337号浦东商场4层"},{"poiid":"B2094655D26EA1FB439F","title":"卢浦大桥观光平台","lon":"121.47928","lat":"31.19279","category":"250","category_name":"公园户外","address":"鲁班路909"},{"poiid":"B2094654DA6DAAF54093","title":"上海第二医科大学学生公寓一区","lon":"121.47491","lat":"31.19697","category":"47","category_name":"住宅区","address":"上海市卢湾区中山南一路937号"},{"poiid":"B2094750D16BA6FC4898","title":"徐汇滨江城市规划中心","lon":"121.470481","lat":"31.18835","category":"500","category_name":"未知分类","address":"瑞宁路99号"},{"poiid":"B209475DDA6FA3FD439B","title":"辣府(打浦路旗舰店)","lon":"121.474662","lat":"31.196044","category":"247","category_name":"餐饮美食","address":"上海市 黄浦区打浦路603号"},{"poiid":"B209475CD16EA4F8419E","title":"辣府","lon":"121.478958","lat":"31.1928","category":"247","category_name":"餐饮美食","address":"上海市 打浦路603号"},{"poiid":"B2094757D065ABFB439D","title":"绿地万豪酒店","lon":"121.47298469159864","lat":"31.192103398628525","category":"213","category_name":"五星级宾馆","address":"卢湾区江滨路99号(近打浦路)"},{"poiid":"B2094757D06FAAFE419F","title":"后滩公园","lon":"121.4758535","lat":"31.184998305","category":"196","category_name":"公园","address":"上海浦东新区世博会园B片区"},{"poiid":"B2094655D265A6F5429C","title":"海外滩中心","lon":"121.47417","lat":"31.19376","category":"46","category_name":"楼宇","address":"卢湾区龙华东路886号"},{"poiid":"B2094757D06FA2FA449D","title":"上海世博会博物馆 - 上海世博会纪念展","lon":"121.48130635","lat":"31.1936099525","category":"182","category_name":"博物馆","address":"卢湾区局门路原世博会城市足迹馆内(近龙华东路)"},{"poiid":"B2094752D264A0FC479C","title":"巧克力开心乐园","lon":"121.475159","lat":"31.181213","category":"248","category_name":"生活娱乐","address":"博成路100号"},{"poiid":"B2094757D06FA3F8479F","title":"世博会意大利馆","lon":"121.47576","lat":"31.1841","category":"260","category_name":"其他","address":"上海浦东新区世博大道上钢路口(原上海世博会C片区)"},{"poiid":"B2094757D06FA0FA499E","title":"世博会非洲联合馆","lon":"121.47401428","lat":"31.182336807","category":"260","category_name":"其他","address":"上海浦东新区博成路上钢路口(原上海世博会C片区)"},{"poiid":"B2094655D26EA7F84093","title":"卢浦大桥","lon":"121.48255","lat":"31.18603","category":"250","category_name":"公园户外","address":"卢湾区鲁班路909号"},{"poiid":"B2094753D76BA0FD4593","title":"K11购物艺术中心","lon":"121.474906","lat":"31.194225","category":"500","category_name":"未知分类","address":"上海市 上海市淮海中路300号"},{"poiid":"B2094757D06FA7F5409F","title":"南园公园","lon":"121.4752825","lat":"31.193345331","category":"196","category_name":"公园","address":"上海卢湾区龙华东路800号(打浦路口)"},{"poiid":"B2094757D068A7F4479A","title":"南园滨江绿地","lon":"121.47228412","lat":"31.194327672","category":"500","category_name":"未知分类","address":"卢湾区龙华东路800号(打浦路口)"},{"poiid":"B2094757D06AA3F9449C","title":"江滨路观江平台～","lon":"121.47499573","lat":"31.192089987","category":"500","category_name":"未知分类","address":"上海卢湾区"},{"poiid":"B2094757D068A2FC439C","title":"星港酒楼","lon":"121.47484","lat":"31.19505","category":"76","category_name":"上海菜","address":"卢湾区打浦路603号农工商超市5楼(近中山南一路)"},{"poiid":"B2094655D269ABFC469F","title":"大浪淘沙(卢湾店)","lon":"121.47199","lat":"31.19591","category":"247","category_name":"餐饮美食","address":"卢湾区中山南一路1065号(近打浦路)"},{"poiid":"B2094757D064A4FE4198","title":"海外滩","lon":"121.472043738","lat":"31.1922194905","category":"500","category_name":"未知分类","address":"上海龙华东路868号"},{"poiid":"B2094751D16CABFE4593","title":"海外滩舒适堡","lon":"121.473662","lat":"31.193563","category":"248","category_name":"生活娱乐","address":"徐汇区龙华东路868号绿地海外滩中心B1楼(近打浦路)"},{"poiid":"B2094757D56DAAFD4998","title":"冰星飞扬（世博）羽毛球馆","lon":"121.47396326065063","lat":"31.180634737769793","category":"248","category_name":"生活娱乐","address":"浦东新区后滩路139号(近国展路)"},{"poiid":"B2094752D26EA5F8479E","title":"世博希腊馆","lon":"121.477208","lat":"31.185743","category":"500","category_name":"未知分类","address":null},{"poiid":"B2094757D66CA1FF4692","title":"南滨江","lon":"121.46897173","lat":"31.184909334","category":"500","category_name":"未知分类","address":"上海市徐汇区瑞宁路"},{"poiid":"B2094757D06FA0FA469A","title":"打浦桥隧道","lon":"121.47177124","lat":"31.194749832","category":"500","category_name":"未知分类","address":"上海打浦桥隧道"},{"poiid":"B2094654DA6DA4FA419D","title":"卢湾城市花园","lon":"121.4775","lat":"31.19385","category":"47","category_name":"住宅区","address":"上海市卢湾区鲁班路738弄"},{"poiid":"B2094750DB64A5FE459B","title":"Rose Queen Coffee","lon":"121.47404","lat":"31.19128","category":"260","category_name":"其他","address":"卢湾区打浦路688号(近江滨路)"},{"poiid":"B2094757D168A0FE4393","title":"绿地万豪28楼行政餐厅","lon":"121.472935738","lat":"31.1918104818","category":"500","category_name":"未知分类","address":"上海市卢湾区江滨路99号"},{"poiid":"B2094654DA6DA4FA429B","title":"紫荆新苑","lon":"121.47836","lat":"31.192335","category":"47","category_name":"住宅区","address":"紫荆新苑位于卢湾鲁班路797号"},{"poiid":"B2094655D26FA5F44792","title":"农工商超市No.0119","lon":"121.4751","lat":"31.19522","category":"118","category_name":"超级市场","address":"打浦路603"},{"poiid":"B209475CD66DA6FC4198","title":"辣府","lon":"121.474594","lat":"31.19452","category":"247","category_name":"餐饮美食","address":"上海市 打浦路603号"},{"poiid":"B2094757D069A2FE449B","title":"Level-T撞球公社","lon":"121.4738576","lat":"31.1959885","category":"171","category_name":"台球厅","address":"上海卢湾区中山南一路937号(近打浦路)"},{"poiid":"B2094757D068ABFD429C","title":"半盆菜酒家","lon":"121.47602","lat":"31.19694","category":"76","category_name":"上海菜","address":"卢湾区中山南一路893号(鲁班路口)"},{"poiid":"B2094757D06AA5FD499D","title":"四号线大木桥路站","lon":"121.473038838","lat":"31.1900380441","category":"500","category_name":"未知分类","address":"上海四号线"},{"poiid":"B2094757D069A2FA469F","title":"肯德基 KFC (五里桥店)","lon":"121.474865","lat":"31.195255","category":"68","category_name":"快餐厅","address":"卢湾区打浦路603号农工商超市(近中山南一路)"},{"poiid":"B2094757D464ABF9439F","title":"棒约翰比萨 打浦店 Papa John's Pizza","lon":"121.47492980957","lat":"31.194774627686","category":"101","category_name":"美式风味","address":"卢湾区打浦路603号农工商超市1楼(近中山南一路)"},{"poiid":"B2094752D06DA3F9459D","title":"飞行家主题园","lon":"121.475925","lat":"31.180498","category":"250","category_name":"公园户外","address":"上海市浦东新区国展路311号"},{"poiid":"B2094757D16DA6F4479D","title":"绿地滨江CBD","lon":"121.4735559","lat":"31.1914703","category":"47","category_name":"住宅区","address":"上海卢湾区江滨路99号"},{"poiid":"B2094753D768A2FF469F","title":"小辉哥火锅（乐城店）","lon":"121.47583","lat":"31.182259","category":"247","category_name":"餐饮美食","address":"上海市徐汇区中山南二路699号2栋304—305"},{"poiid":"B2094757DA69A2FE429B","title":"海外滩-卢湾绿地商业","lon":"121.47404291225","lat":"31.193181193841","category":"119","category_name":"商场","address":"上海市黄浦区龙华东路810号海外滩?名品汇"},{"poiid":"B2094750D365A3FB489B","title":"上海意大利中心","lon":"121.47582388308","lat":"31.183763362212","category":"646","category_name":"文化体育类公司","address":"浦东新区世博大道2095号(近塘子泾路)"},{"poiid":"B2094757D16DA4F5419D","title":"內環高架瑞金路","lon":"121.468390738","lat":"31.1940535295","category":"500","category_name":"未知分类","address":"上海市徐汇区零陵北路"},{"poiid":"B2094753D568ABFE479F","title":"风云电竞馆","lon":"121.479003","lat":"31.194408","category":"500","category_name":"未知分类","address":"上海市 鲁班路899号"},{"poiid":"B2094752DA6BA2FE4898","title":"上海八万人体育场","lon":"121.477028","lat":"31.192318","category":"500","category_name":"未知分类","address":"上海市 中山南二路"},{"poiid":"B2094757D16EA6F4449B","title":"卢浦大桥拱顶","lon":"121.471820738","lat":"31.192571498","category":"500","category_name":"未知分类","address":"上海卢浦大桥拱顶"},{"poiid":"B2094752D364A4FF4992","title":"COSTA,COFFEE(海外滩店)","lon":"121.47264","lat":"31.19226","category":"65","category_name":"咖啡厅","address":"卢湾区龙华东路868号绿地海外滩中心内(近打浦路)"},{"poiid":"B2094655D26BA0FA409C","title":"中心广场(意大利馆东)","lon":"121.47659","lat":"31.18368","category":"201","category_name":"城市广场","address":"上海世博园区"},{"poiid":"B2094655D36CA3FA4293","title":"海珀·日晖","lon":"121.47398","lat":"31.1926","category":"47","category_name":"住宅区","address":"龙华东路886号"},{"poiid":"B2094757D069A2F9429A","title":"786路公交","lon":"121.47825758","lat":"31.188280152","category":"38","category_name":"公交车站","address":"上海文化广场—南码头路昌里东路"},{"poiid":"B2094751D56BA4FA479F","title":"上海歌城","lon":"121.480165","lat":"31.191962","category":"170","category_name":"KTV","address":"昌里路337号浦东商场4层"},{"poiid":"B2094655D26EA1FB439F","title":"卢浦大桥观光平台","lon":"121.47928","lat":"31.19279","category":"250","category_name":"公园户外","address":"鲁班路909"},{"poiid":"B2094654DA6DAAF54093","title":"上海第二医科大学学生公寓一区","lon":"121.47491","lat":"31.19697","category":"47","category_name":"住宅区","address":"上海市卢湾区中山南一路937号"},{"poiid":"B2094750D16BA6FC4898","title":"徐汇滨江城市规划中心","lon":"121.470481","lat":"31.18835","category":"500","category_name":"未知分类","address":"瑞宁路99号"},{"poiid":"B209475DDA6FA3FD439B","title":"辣府(打浦路旗舰店)","lon":"121.474662","lat":"31.196044","category":"247","category_name":"餐饮美食","address":"上海市 黄浦区打浦路603号"},{"poiid":"B209475CD16EA4F8419E","title":"辣府","lon":"121.478958","lat":"31.1928","category":"247","category_name":"餐饮美食","address":"上海市 打浦路603号"},{"poiid":"B2094757D065ABFB439D","title":"绿地万豪酒店","lon":"121.47298469159864","lat":"31.192103398628525","category":"213","category_name":"五星级宾馆","address":"卢湾区江滨路99号(近打浦路)"},{"poiid":"B2094757D06FAAFE419F","title":"后滩公园","lon":"121.4758535","lat":"31.184998305","category":"196","category_name":"公园","address":"上海浦东新区世博会园B片区"},{"poiid":"B2094655D265A6F5429C","title":"海外滩中心","lon":"121.47417","lat":"31.19376","category":"46","category_name":"楼宇","address":"卢湾区龙华东路886号"},{"poiid":"B2094757D06FA2FA449D","title":"上海世博会博物馆 - 上海世博会纪念展","lon":"121.48130635","lat":"31.1936099525","category":"182","category_name":"博物馆","address":"卢湾区局门路原世博会城市足迹馆内(近龙华东路)"},{"poiid":"B2094752D264A0FC479C","title":"巧克力开心乐园","lon":"121.475159","lat":"31.181213","category":"248","category_name":"生活娱乐","address":"博成路100号"},{"poiid":"B2094757D06FA3F8479F","title":"世博会意大利馆","lon":"121.47576","lat":"31.1841","category":"260","category_name":"其他","address":"上海浦东新区世博大道上钢路口(原上海世博会C片区)"},{"poiid":"B2094757D06FA0FA499E","title":"世博会非洲联合馆","lon":"121.47401428","lat":"31.182336807","category":"260","category_name":"其他","address":"上海浦东新区博成路上钢路口(原上海世博会C片区)"},{"poiid":"B2094655D26EA7F84093","title":"卢浦大桥","lon":"121.48255","lat":"31.18603","category":"250","category_name":"公园户外","address":"卢湾区鲁班路909号"},{"poiid":"B2094753D76BA0FD4593","title":"K11购物艺术中心","lon":"121.474906","lat":"31.194225","category":"500","category_name":"未知分类","address":"上海市 上海市淮海中路300号"},{"poiid":"B2094757D06FA7F5409F","title":"南园公园","lon":"121.4752825","lat":"31.193345331","category":"196","category_name":"公园","address":"上海卢湾区龙华东路800号(打浦路口)"},{"poiid":"B2094757D068A7F4479A","title":"南园滨江绿地","lon":"121.47228412","lat":"31.194327672","category":"500","category_name":"未知分类","address":"卢湾区龙华东路800号(打浦路口)"},{"poiid":"B2094757D06AA3F9449C","title":"江滨路观江平台～","lon":"121.47499573","lat":"31.192089987","category":"500","category_name":"未知分类","address":"上海卢湾区"},{"poiid":"B2094757D068A2FC439C","title":"星港酒楼","lon":"121.47484","lat":"31.19505","category":"76","category_name":"上海菜","address":"卢湾区打浦路603号农工商超市5楼(近中山南一路)"},{"poiid":"B2094655D269ABFC469F","title":"大浪淘沙(卢湾店)","lon":"121.47199","lat":"31.19591","category":"247","category_name":"餐饮美食","address":"卢湾区中山南一路1065号(近打浦路)"},{"poiid":"B2094757D064A4FE4198","title":"海外滩","lon":"121.472043738","lat":"31.1922194905","category":"500","category_name":"未知分类","address":"上海龙华东路868号"},{"poiid":"B2094751D16CABFE4593","title":"海外滩舒适堡","lon":"121.473662","lat":"31.193563","category":"248","category_name":"生活娱乐","address":"徐汇区龙华东路868号绿地海外滩中心B1楼(近打浦路)"},{"poiid":"B2094757D56DAAFD4998","title":"冰星飞扬（世博）羽毛球馆","lon":"121.47396326065063","lat":"31.180634737769793","category":"248","category_name":"生活娱乐","address":"浦东新区后滩路139号(近国展路)"},{"poiid":"B2094752D26EA5F8479E","title":"世博希腊馆","lon":"121.477208","lat":"31.185743","category":"500","category_name":"未知分类","address":null},{"poiid":"B2094757D66CA1FF4692","title":"南滨江","lon":"121.46897173","lat":"31.184909334","category":"500","category_name":"未知分类","address":"上海市徐汇区瑞宁路"},{"poiid":"B2094757D06FA0FA469A","title":"打浦桥隧道","lon":"121.47177124","lat":"31.194749832","category":"500","category_name":"未知分类","address":"上海打浦桥隧道"},{"poiid":"B2094654DA6DA4FA419D","title":"卢湾城市花园","lon":"121.4775","lat":"31.19385","category":"47","category_name":"住宅区","address":"上海市卢湾区鲁班路738弄"},{"poiid":"B2094750DB64A5FE459B","title":"Rose Queen Coffee","lon":"121.47404","lat":"31.19128","category":"260","category_name":"其他","address":"卢湾区打浦路688号(近江滨路)"},{"poiid":"B2094757D168A0FE4393","title":"绿地万豪28楼行政餐厅","lon":"121.472935738","lat":"31.1918104818","category":"500","category_name":"未知分类","address":"上海市卢湾区江滨路99号"},{"poiid":"B2094654DA6DA4FA429B","title":"紫荆新苑","lon":"121.47836","lat":"31.192335","category":"47","category_name":"住宅区","address":"紫荆新苑位于卢湾鲁班路797号"},{"poiid":"B2094655D26FA5F44792","title":"农工商超市No.0119","lon":"121.4751","lat":"31.19522","category":"118","category_name":"超级市场","address":"打浦路603"},{"poiid":"B209475CD66DA6FC4198","title":"辣府","lon":"121.474594","lat":"31.19452","category":"247","category_name":"餐饮美食","address":"上海市 打浦路603号"},{"poiid":"B2094757D069A2FE449B","title":"Level-T撞球公社","lon":"121.4738576","lat":"31.1959885","category":"171","category_name":"台球厅","address":"上海卢湾区中山南一路937号(近打浦路)"},{"poiid":"B2094757D068ABFD429C","title":"半盆菜酒家","lon":"121.47602","lat":"31.19694","category":"76","category_name":"上海菜","address":"卢湾区中山南一路893号(鲁班路口)"},{"poiid":"B2094757D06AA5FD499D","title":"四号线大木桥路站","lon":"121.473038838","lat":"31.1900380441","category":"500","category_name":"未知分类","address":"上海四号线"},{"poiid":"B2094757D069A2FA469F","title":"肯德基 KFC (五里桥店)","lon":"121.474865","lat":"31.195255","category":"68","category_name":"快餐厅","address":"卢湾区打浦路603号农工商超市(近中山南一路)"},{"poiid":"B2094757D464ABF9439F","title":"棒约翰比萨 打浦店 Papa John's Pizza","lon":"121.47492980957","lat":"31.194774627686","category":"101","category_name":"美式风味","address":"卢湾区打浦路603号农工商超市1楼(近中山南一路)"},{"poiid":"B2094752D06DA3F9459D","title":"飞行家主题园","lon":"121.475925","lat":"31.180498","category":"250","category_name":"公园户外","address":"上海市浦东新区国展路311号"},{"poiid":"B2094757D16DA6F4479D","title":"绿地滨江CBD","lon":"121.4735559","lat":"31.1914703","category":"47","category_name":"住宅区","address":"上海卢湾区江滨路99号"},{"poiid":"B2094753D768A2FF469F","title":"小辉哥火锅（乐城店）","lon":"121.47583","lat":"31.182259","category":"247","category_name":"餐饮美食","address":"上海市徐汇区中山南二路699号2栋304—305"},{"poiid":"B2094757DA69A2FE429B","title":"海外滩-卢湾绿地商业","lon":"121.47404291225","lat":"31.193181193841","category":"119","category_name":"商场","address":"上海市黄浦区龙华东路810号海外滩?名品汇"},{"poiid":"B2094750D365A3FB489B","title":"上海意大利中心","lon":"121.47582388308","lat":"31.183763362212","category":"646","category_name":"文化体育类公司","address":"浦东新区世博大道2095号(近塘子泾路)"},{"poiid":"B2094757D16DA4F5419D","title":"內環高架瑞金路","lon":"121.468390738","lat":"31.1940535295","category":"500","category_name":"未知分类","address":"上海市徐汇区零陵北路"},{"poiid":"B2094753D568ABFE479F","title":"风云电竞馆","lon":"121.479003","lat":"31.194408","category":"500","category_name":"未知分类","address":"上海市 鲁班路899号"},{"poiid":"B2094752DA6BA2FE4898","title":"上海八万人体育场","lon":"121.477028","lat":"31.192318","category":"500","category_name":"未知分类","address":"上海市 中山南二路"},{"poiid":"B2094757D16EA6F4449B","title":"卢浦大桥拱顶","lon":"121.471820738","lat":"31.192571498","category":"500","category_name":"未知分类","address":"上海卢浦大桥拱顶"},{"poiid":"B2094752D364A4FF4992","title":"COSTA,COFFEE(海外滩店)","lon":"121.47264","lat":"31.19226","category":"65","category_name":"咖啡厅","address":"卢湾区龙华东路868号绿地海外滩中心内(近打浦路)"},{"poiid":"B2094655D26BA0FA409C","title":"中心广场(意大利馆东)","lon":"121.47659","lat":"31.18368","category":"201","category_name":"城市广场","address":"上海世博园区"},{"poiid":"B2094655D36CA3FA4293","title":"海珀·日晖","lon":"121.47398","lat":"31.1926","category":"47","category_name":"住宅区","address":"龙华东路886号"},{"poiid":"B2094757D069A2F9429A","title":"786路公交","lon":"121.47825758","lat":"31.188280152","category":"38","category_name":"公交车站","address":"上海文化广场—南码头路昌里东路"},{"poiid":"B2094751D56BA4FA479F","title":"上海歌城","lon":"121.480165","lat":"31.191962","category":"170","category_name":"KTV","address":"昌里路337号浦东商场4层"},{"poiid":"B2094655D26EA1FB439F","title":"卢浦大桥观光平台","lon":"121.47928","lat":"31.19279","category":"250","category_name":"公园户外","address":"鲁班路909"},{"poiid":"B2094654DA6DAAF54093","title":"上海第二医科大学学生公寓一区","lon":"121.47491","lat":"31.19697","category":"47","category_name":"住宅区","address":"上海市卢湾区中山南一路937号"},{"poiid":"B2094750D16BA6FC4898","title":"徐汇滨江城市规划中心","lon":"121.470481","lat":"31.18835","category":"500","category_name":"未知分类","address":"瑞宁路99号"},{"poiid":"B209475DDA6FA3FD439B","title":"辣府(打浦路旗舰店)","lon":"121.474662","lat":"31.196044","category":"247","category_name":"餐饮美食","address":"上海市 黄浦区打浦路603号"},{"poiid":"B209475CD16EA4F8419E","title":"辣府","lon":"121.478958","lat":"31.1928","category":"247","category_name":"餐饮美食","address":"上海市 打浦路603号"}]