[{"poiid":"B2094757D16CA6FA479B","title":"徐汇滨江龙腾大道","lon":"121.46242978","lat":"31.171125424","category":"500","category_name":"未知分类","address":"上海龙腾大道丰谷路"},{"poiid":"B2094757D069A6FB459F","title":"龙腾大道","lon":"121.45933573","lat":"31.175346131","category":"500","category_name":"未知分类","address":"上海龙腾大道"},{"poiid":"B2094757D06FA1F84098","title":"绍兴饭店(龙华西路店)","lon":"121.45392","lat":"31.16961","category":"75","category_name":"浙江菜","address":"徐汇区龙华西路1号(近龙华机场大门)"},{"poiid":"B2094757D169A6FA489C","title":"魔都","lon":"121.48171873","lat":"31.169546008","category":"500","category_name":"未知分类","address":"上海"},{"poiid":"B2094752D264A0FC479C","title":"巧克力开心乐园","lon":"121.475159","lat":"31.181213","category":"248","category_name":"生活娱乐","address":"博成路100号"},{"poiid":"B2094654DA6DAAFC4193","title":"中国民用航空学院职业技术学院","lon":"121.45514","lat":"31.17076","category":"54","category_name":"职业技术学校","address":""},{"poiid":"B2094757D06FA3FD499E","title":"晟豪驾校","lon":"121.45466","lat":"31.16915","category":"68","category_name":"快餐厅","address":"徐汇区龙华西路1号(云锦路口)"},{"poiid":"B2094757D06FA6FD4293","title":"龙腾大道","lon":"121.46263851","lat":"31.171261612","category":"260","category_name":"其他","address":"上海徐汇滨江亲水区"},{"poiid":"B2094757D16FAAF84392","title":"龙腾大道","lon":"121.46266273","lat":"31.182472283","category":"500","category_name":"未知分类","address":"上海市徐汇区龙恒路"},{"poiid":"B2094757D06FA4F8499B","title":"龙华机场","lon":"121.45366","lat":"31.16978","category":"21","category_name":"飞机场","address":"徐汇区龙华西路1号(近龙华机场)"},{"poiid":"B2094654DA6DA4F9419C","title":"尚海湾豪庭","lon":"121.45771","lat":"31.178894","category":"47","category_name":"住宅区","address":"徐汇区宛平南路1455弄"},{"poiid":"B2094757D06FABF9439D","title":"上海民航中专","lon":"121.45486666","lat":"31.170237367","category":"253","category_name":"校园生活","address":"上海龙华西路1号"},{"poiid":"B2094757D06FA2FA4293","title":"后滩地铁站","lon":"121.46936755","lat":"31.174126931","category":"36","category_name":"地铁站","address":"上海轨道交通 七号线 轨交后滩站 7"},{"poiid":"B2094757D069A7FF4598","title":"上海世博园冰雕艺术展","lon":"121.469558038","lat":"31.1745844152","category":"500","category_name":"未知分类","address":"浦东新区世博大道1200号梅赛德斯奔驰文化中心"},{"poiid":"B2094654DB65A6FA4592","title":"新世纪花苑(南门)","lon":"121.48059","lat":"31.17204","category":"656","category_name":"大门","address":"耀华路579弄1-127号"},{"poiid":"B2094757D56DAAFD4998","title":"冰星飞扬（世博）羽毛球馆","lon":"121.47396326065063","lat":"31.180634737769793","category":"248","category_name":"生活娱乐","address":"浦东新区后滩路139号(近国展路)"},{"poiid":"B2094757D06AA1F8459F","title":"卢浦大桥耀华路下匝道","lon":"121.481870571","lat":"31.1688133424","category":"500","category_name":"未知分类","address":"上海耀华路西营路"},{"poiid":"B2094750DA6BA4F44698","title":"上海西岸音乐节","lon":"121.462753","lat":"31.182302","category":"500","category_name":"未知分类","address":null},{"poiid":"B2094752DA69A1F5449B","title":"博大汽车公园","lon":"121.472341","lat":"31.179505","category":"500","category_name":"未知分类","address":"上海市 国展路189号"},{"poiid":"B2094757D06FAAF4429D","title":"麦盛莉(耀华店)","lon":"121.4763831","lat":"31.176898854","category":"76","category_name":"上海菜","address":"浦东新区耀华路488号(西营路口)"},{"poiid":"B2094750D565A2FE4692","title":"上海民航职业技术学院","lon":"121.457061","lat":"31.17053","category":"671","category_name":"高校中心点","address":"上海市徐汇区龙华西路1号"},{"poiid":"B2094757D068A7FD4893","title":"济阳公园","lon":"121.47993589","lat":"31.169316816","category":"196","category_name":"公园","address":"浦东新区耀华路600号(济阳路口)"},{"poiid":"B2094753D265AAFC4493","title":"Isola,Bella美丽岛意大利餐厅(龙腾大道店)","lon":"121.462697","lat":"31.171052","category":"98","category_name":"意式菜品餐厅","address":"滨江龙腾大道3222号(东安路路口)"},{"poiid":"B2094752D76FA4F5459A","title":"梅赛德斯奔驰文化中心","lon":"121.461502","lat":"31.166077","category":"500","category_name":"未知分类","address":"梅赛德斯奔驰文化中心"},{"poiid":"B2094655D36CA1F84399","title":"龙华西路","lon":"121.45296","lat":"31.17074","category":"38","category_name":"公交车站","address":""},{"poiid":"B2094654DA6DAAFC409E","title":"上海晟豪机动车驾驶员培训有限公司","lon":"121.45805","lat":"31.17028","category":"192","category_name":"驾校","address":"机场东一路1"},{"poiid":"B2094750DA69A3FC489A","title":"台北纯K（打浦桥店）","lon":"121.461555","lat":"31.166128","category":"248","category_name":"生活娱乐","address":"徐家汇路618号日月光中心广场3楼(近瑞金二路)"},{"poiid":"B2094757D16FA6FD4492","title":"香港海港城starbucks","lon":"121.46558113","lat":"31.172269899","category":"500","category_name":"未知分类","address":"上海九龙尖沙咀广东道3-27号"},{"poiid":"B2094757D16EA4FA4692","title":"上海大众燃气输配部管线巡检站","lon":"121.46472073","lat":"31.170357025","category":"500","category_name":"未知分类","address":"上海市徐汇区龙腾大道"},{"poiid":"B2094654DA6DAAFC409F","title":"民苑小区","lon":"121.45907","lat":"31.17126","category":"47","category_name":"住宅区","address":"上海云锦路201弄"},{"poiid":"B2094655D26AA0F9469C","title":"地铁浦江耀华站","lon":"121.47117","lat":"31.17349","category":"36","category_name":"地铁站","address":""},{"poiid":"B2094753D06AA3F5429A","title":"全家便利店(龙腾大道店)","lon":"121.4626","lat":"31.16612","category":"117","category_name":"便民商店/便利店","address":"徐汇区龙腾大道(东安路口)"},{"poiid":"B2094757D66CA6F4489E","title":"工行号","lon":"121.46302032","lat":"31.170089721","category":"500","category_name":"未知分类","address":"上海黄浦江"},{"poiid":"B2094753D164A0F9499F","title":"华东理工大学","lon":"121.471017","lat":"31.160169","category":"500","category_name":"未知分类","address":"上海市 上海市徐汇区梅陇路130号"},{"poiid":"B2094654DA6DAAFC4192","title":"中国交通职业技术学院南校区","lon":"121.45514","lat":"31.17075","category":"54","category_name":"职业技术学校","address":""},{"poiid":"B2094654DA65ABFA479F","title":"上海市第42机动车安全检测站(徐汇)","lon":"121.46109","lat":"31.15756","category":"250","category_name":"公园户外","address":"龙水南路95号"},{"poiid":"B2094655D264ABFB4893","title":"徐汇滨江开发投资建设有限公司","lon":"121.46281","lat":"31.16892","category":"263","category_name":"公司","address":"丰溪路666"},{"poiid":"B2094655D26BA2FF4798","title":"通耀路耀龙路","lon":"121.4746","lat":"31.16836","category":"38","category_name":"公交车站","address":""},{"poiid":"B2094757D069A0FC479C","title":"百匯園","lon":"121.45893307","lat":"31.17263744","category":"500","category_name":"未知分类","address":"上海市卢湾区济南路8号"},{"poiid":"B2094757D068A4FD4592","title":"上海飞机设计研究院","lon":"121.457473516","lat":"31.1714706279","category":"191","category_name":"科研机构","address":"上海云锦路5号"},{"poiid":"B2094654DA6DAAFC429F","title":"上海侨泰高尔夫俱乐部龙华练习场","lon":"121.46215","lat":"31.16647","category":"206","category_name":"高尔夫相关","address":"徐汇区龙华西路8号(机场东一路8号)"},{"poiid":"B2094654DA6DAAFC419A","title":"华龙新苑小区","lon":"121.45664","lat":"31.17359","category":"47","category_name":"住宅区","address":"上海徐汇区云锦路50弄"},{"poiid":"B209475CD76EA1FC429F","title":"stayreal cafe","lon":"121.466125","lat":"31.164196","category":"500","category_name":"未知分类","address":"上海市 上海徐汇区环贸iapm"},{"poiid":"B2094752D06DA3F9459D","title":"飞行家主题园","lon":"121.475925","lat":"31.180498","category":"250","category_name":"公园户外","address":"上海市浦东新区国展路311号"},{"poiid":"B2094654DB6BA5FB4599","title":"上海市申江两岸开发建设投资集团","lon":"121.47288","lat":"31.16833","category":"263","category_name":"公司","address":"耀华路699"},{"poiid":"B2094654DA6DABF54493","title":"俞一小区","lon":"121.458","lat":"31.1762","category":"47","category_name":"住宅区","address":"龙华西路31弄"},{"poiid":"B209475CD56DA3F9499A","title":"西岸2013建筑与当代艺术双年展","lon":"121.462661","lat":"31.164426","category":"500","category_name":"未知分类","address":"上海市 上海市徐汇区龙腾大道2350号(近龙耀路)"},{"poiid":"B2094757D165AAFE459A","title":"龙耀路隧道","lon":"121.45982573","lat":"31.161783842","category":"500","category_name":"未知分类","address":"上海市徐汇区龙耀路"},{"poiid":"B2094752DA6FA4F4429C","title":"新天地","lon":"121.461569","lat":"31.166135","category":"500","category_name":"未知分类","address":"上海市 复兴中路"},{"poiid":"B2094655D264A2FB489F","title":"徐汇车辆检测站","lon":"121.45964","lat":"31.17044","category":"250","category_name":"公园户外","address":""},{"poiid":"B2094757D16CA6FA479B","title":"徐汇滨江龙腾大道","lon":"121.46242978","lat":"31.171125424","category":"500","category_name":"未知分类","address":"上海龙腾大道丰谷路"},{"poiid":"B2094757D069A6FB459F","title":"龙腾大道","lon":"121.45933573","lat":"31.175346131","category":"500","category_name":"未知分类","address":"上海龙腾大道"},{"poiid":"B2094757D06FA1F84098","title":"绍兴饭店(龙华西路店)","lon":"121.45392","lat":"31.16961","category":"75","category_name":"浙江菜","address":"徐汇区龙华西路1号(近龙华机场大门)"},{"poiid":"B2094757D169A6FA489C","title":"魔都","lon":"121.48171873","lat":"31.169546008","category":"500","category_name":"未知分类","address":"上海"},{"poiid":"B2094752D264A0FC479C","title":"巧克力开心乐园","lon":"121.475159","lat":"31.181213","category":"248","category_name":"生活娱乐","address":"博成路100号"},{"poiid":"B2094654DA6DAAFC4193","title":"中国民用航空学院职业技术学院","lon":"121.45514","lat":"31.17076","category":"54","category_name":"职业技术学校","address":""},{"poiid":"B2094757D06FA3FD499E","title":"晟豪驾校","lon":"121.45466","lat":"31.16915","category":"68","category_name":"快餐厅","address":"徐汇区龙华西路1号(云锦路口)"},{"poiid":"B2094757D06FA6FD4293","title":"龙腾大道","lon":"121.46263851","lat":"31.171261612","category":"260","category_name":"其他","address":"上海徐汇滨江亲水区"},{"poiid":"B2094757D16FAAF84392","title":"龙腾大道","lon":"121.46266273","lat":"31.182472283","category":"500","category_name":"未知分类","address":"上海市徐汇区龙恒路"},{"poiid":"B2094757D06FA4F8499B","title":"龙华机场","lon":"121.45366","lat":"31.16978","category":"21","category_name":"飞机场","address":"徐汇区龙华西路1号(近龙华机场)"},{"poiid":"B2094654DA6DA4F9419C","title":"尚海湾豪庭","lon":"121.45771","lat":"31.178894","category":"47","category_name":"住宅区","address":"徐汇区宛平南路1455弄"},{"poiid":"B2094757D06FABF9439D","title":"上海民航中专","lon":"121.45486666","lat":"31.170237367","category":"253","category_name":"校园生活","address":"上海龙华西路1号"},{"poiid":"B2094757D06FA2FA4293","title":"后滩地铁站","lon":"121.46936755","lat":"31.174126931","category":"36","category_name":"地铁站","address":"上海轨道交通 七号线 轨交后滩站 7"},{"poiid":"B2094757D069A7FF4598","title":"上海世博园冰雕艺术展","lon":"121.469558038","lat":"31.1745844152","category":"500","category_name":"未知分类","address":"浦东新区世博大道1200号梅赛德斯奔驰文化中心"},{"poiid":"B2094654DB65A6FA4592","title":"新世纪花苑(南门)","lon":"121.48059","lat":"31.17204","category":"656","category_name":"大门","address":"耀华路579弄1-127号"},{"poiid":"B2094757D56DAAFD4998","title":"冰星飞扬（世博）羽毛球馆","lon":"121.47396326065063","lat":"31.180634737769793","category":"248","category_name":"生活娱乐","address":"浦东新区后滩路139号(近国展路)"},{"poiid":"B2094757D06AA1F8459F","title":"卢浦大桥耀华路下匝道","lon":"121.481870571","lat":"31.1688133424","category":"500","category_name":"未知分类","address":"上海耀华路西营路"},{"poiid":"B2094750DA6BA4F44698","title":"上海西岸音乐节","lon":"121.462753","lat":"31.182302","category":"500","category_name":"未知分类","address":null},{"poiid":"B2094752DA69A1F5449B","title":"博大汽车公园","lon":"121.472341","lat":"31.179505","category":"500","category_name":"未知分类","address":"上海市 国展路189号"},{"poiid":"B2094757D06FAAF4429D","title":"麦盛莉(耀华店)","lon":"121.4763831","lat":"31.176898854","category":"76","category_name":"上海菜","address":"浦东新区耀华路488号(西营路口)"},{"poiid":"B2094750D565A2FE4692","title":"上海民航职业技术学院","lon":"121.457061","lat":"31.17053","category":"671","category_name":"高校中心点","address":"上海市徐汇区龙华西路1号"},{"poiid":"B2094757D068A7FD4893","title":"济阳公园","lon":"121.47993589","lat":"31.169316816","category":"196","category_name":"公园","address":"浦东新区耀华路600号(济阳路口)"},{"poiid":"B2094753D265AAFC4493","title":"Isola,Bella美丽岛意大利餐厅(龙腾大道店)","lon":"121.462697","lat":"31.171052","category":"98","category_name":"意式菜品餐厅","address":"滨江龙腾大道3222号(东安路路口)"},{"poiid":"B2094752D76FA4F5459A","title":"梅赛德斯奔驰文化中心","lon":"121.461502","lat":"31.166077","category":"500","category_name":"未知分类","address":"梅赛德斯奔驰文化中心"},{"poiid":"B2094655D36CA1F84399","title":"龙华西路","lon":"121.45296","lat":"31.17074","category":"38","category_name":"公交车站","address":""},{"poiid":"B2094654DA6DAAFC409E","title":"上海晟豪机动车驾驶员培训有限公司","lon":"121.45805","lat":"31.17028","category":"192","category_name":"驾校","address":"机场东一路1"},{"poiid":"B2094750DA69A3FC489A","title":"台北纯K（打浦桥店）","lon":"121.461555","lat":"31.166128","category":"248","category_name":"生活娱乐","address":"徐家汇路618号日月光中心广场3楼(近瑞金二路)"},{"poiid":"B2094757D16FA6FD4492","title":"香港海港城starbucks","lon":"121.46558113","lat":"31.172269899","category":"500","category_name":"未知分类","address":"上海九龙尖沙咀广东道3-27号"},{"poiid":"B2094757D16EA4FA4692","title":"上海大众燃气输配部管线巡检站","lon":"121.46472073","lat":"31.170357025","category":"500","category_name":"未知分类","address":"上海市徐汇区龙腾大道"},{"poiid":"B2094654DA6DAAFC409F","title":"民苑小区","lon":"121.45907","lat":"31.17126","category":"47","category_name":"住宅区","address":"上海云锦路201弄"},{"poiid":"B2094655D26AA0F9469C","title":"地铁浦江耀华站","lon":"121.47117","lat":"31.17349","category":"36","category_name":"地铁站","address":""},{"poiid":"B2094753D06AA3F5429A","title":"全家便利店(龙腾大道店)","lon":"121.4626","lat":"31.16612","category":"117","category_name":"便民商店/便利店","address":"徐汇区龙腾大道(东安路口)"},{"poiid":"B2094757D66CA6F4489E","title":"工行号","lon":"121.46302032","lat":"31.170089721","category":"500","category_name":"未知分类","address":"上海黄浦江"},{"poiid":"B2094753D164A0F9499F","title":"华东理工大学","lon":"121.471017","lat":"31.160169","category":"500","category_name":"未知分类","address":"上海市 上海市徐汇区梅陇路130号"},{"poiid":"B2094654DA6DAAFC4192","title":"中国交通职业技术学院南校区","lon":"121.45514","lat":"31.17075","category":"54","category_name":"职业技术学校","address":""},{"poiid":"B2094654DA65ABFA479F","title":"上海市第42机动车安全检测站(徐汇)","lon":"121.46109","lat":"31.15756","category":"250","category_name":"公园户外","address":"龙水南路95号"},{"poiid":"B2094655D264ABFB4893","title":"徐汇滨江开发投资建设有限公司","lon":"121.46281","lat":"31.16892","category":"263","category_name":"公司","address":"丰溪路666"},{"poiid":"B2094655D26BA2FF4798","title":"通耀路耀龙路","lon":"121.4746","lat":"31.16836","category":"38","category_name":"公交车站","address":""},{"poiid":"B2094757D069A0FC479C","title":"百匯園","lon":"121.45893307","lat":"31.17263744","category":"500","category_name":"未知分类","address":"上海市卢湾区济南路8号"},{"poiid":"B2094757D068A4FD4592","title":"上海飞机设计研究院","lon":"121.457473516","lat":"31.1714706279","category":"191","category_name":"科研机构","address":"上海云锦路5号"},{"poiid":"B2094654DA6DAAFC429F","title":"上海侨泰高尔夫俱乐部龙华练习场","lon":"121.46215","lat":"31.16647","category":"206","category_name":"高尔夫相关","address":"徐汇区龙华西路8号(机场东一路8号)"},{"poiid":"B2094654DA6DAAFC419A","title":"华龙新苑小区","lon":"121.45664","lat":"31.17359","category":"47","category_name":"住宅区","address":"上海徐汇区云锦路50弄"},{"poiid":"B209475CD76EA1FC429F","title":"stayreal cafe","lon":"121.466125","lat":"31.164196","category":"500","category_name":"未知分类","address":"上海市 上海徐汇区环贸iapm"},{"poiid":"B2094752D06DA3F9459D","title":"飞行家主题园","lon":"121.475925","lat":"31.180498","category":"250","category_name":"公园户外","address":"上海市浦东新区国展路311号"},{"poiid":"B2094654DB6BA5FB4599","title":"上海市申江两岸开发建设投资集团","lon":"121.47288","lat":"31.16833","category":"263","category_name":"公司","address":"耀华路699"},{"poiid":"B2094654DA6DABF54493","title":"俞一小区","lon":"121.458","lat":"31.1762","category":"47","category_name":"住宅区","address":"龙华西路31弄"},{"poiid":"B209475CD56DA3F9499A","title":"西岸2013建筑与当代艺术双年展","lon":"121.462661","lat":"31.164426","category":"500","category_name":"未知分类","address":"上海市 上海市徐汇区龙腾大道2350号(近龙耀路)"},{"poiid":"B2094757D165AAFE459A","title":"龙耀路隧道","lon":"121.45982573","lat":"31.161783842","category":"500","category_name":"未知分类","address":"上海市徐汇区龙耀路"},{"poiid":"B2094752DA6FA4F4429C","title":"新天地","lon":"121.461569","lat":"31.166135","category":"500","category_name":"未知分类","address":"上海市 复兴中路"},{"poiid":"B2094655D264A2FB489F","title":"徐汇车辆检测站","lon":"121.45964","lat":"31.17044","category":"250","category_name":"公园户外","address":""},{"poiid":"B2094757D16CA6FA479B","title":"徐汇滨江龙腾大道","lon":"121.46242978","lat":"31.171125424","category":"500","category_name":"未知分类","address":"上海龙腾大道丰谷路"},{"poiid":"B2094757D069A6FB459F","title":"龙腾大道","lon":"121.45933573","lat":"31.175346131","category":"500","category_name":"未知分类","address":"上海龙腾大道"},{"poiid":"B2094757D06FA1F84098","title":"绍兴饭店(龙华西路店)","lon":"121.45392","lat":"31.16961","category":"75","category_name":"浙江菜","address":"徐汇区龙华西路1号(近龙华机场大门)"},{"poiid":"B2094757D169A6FA489C","title":"魔都","lon":"121.48171873","lat":"31.169546008","category":"500","category_name":"未知分类","address":"上海"},{"poiid":"B2094752D264A0FC479C","title":"巧克力开心乐园","lon":"121.475159","lat":"31.181213","category":"248","category_name":"生活娱乐","address":"博成路100号"},{"poiid":"B2094654DA6DAAFC4193","title":"中国民用航空学院职业技术学院","lon":"121.45514","lat":"31.17076","category":"54","category_name":"职业技术学校","address":""},{"poiid":"B2094757D06FA3FD499E","title":"晟豪驾校","lon":"121.45466","lat":"31.16915","category":"68","category_name":"快餐厅","address":"徐汇区龙华西路1号(云锦路口)"},{"poiid":"B2094757D06FA6FD4293","title":"龙腾大道","lon":"121.46263851","lat":"31.171261612","category":"260","category_name":"其他","address":"上海徐汇滨江亲水区"},{"poiid":"B2094757D16FAAF84392","title":"龙腾大道","lon":"121.46266273","lat":"31.182472283","category":"500","category_name":"未知分类","address":"上海市徐汇区龙恒路"},{"poiid":"B2094757D06FA4F8499B","title":"龙华机场","lon":"121.45366","lat":"31.16978","category":"21","category_name":"飞机场","address":"徐汇区龙华西路1号(近龙华机场)"},{"poiid":"B2094654DA6DA4F9419C","title":"尚海湾豪庭","lon":"121.45771","lat":"31.178894","category":"47","category_name":"住宅区","address":"徐汇区宛平南路1455弄"},{"poiid":"B2094757D06FABF9439D","title":"上海民航中专","lon":"121.45486666","lat":"31.170237367","category":"253","category_name":"校园生活","address":"上海龙华西路1号"},{"poiid":"B2094757D06FA2FA4293","title":"后滩地铁站","lon":"121.46936755","lat":"31.174126931","category":"36","category_name":"地铁站","address":"上海轨道交通 七号线 轨交后滩站 7"},{"poiid":"B2094757D069A7FF4598","title":"上海世博园冰雕艺术展","lon":"121.469558038","lat":"31.1745844152","category":"500","category_name":"未知分类","address":"浦东新区世博大道1200号梅赛德斯奔驰文化中心"},{"poiid":"B2094654DB65A6FA4592","title":"新世纪花苑(南门)","lon":"121.48059","lat":"31.17204","category":"656","category_name":"大门","address":"耀华路579弄1-127号"},{"poiid":"B2094757D56DAAFD4998","title":"冰星飞扬（世博）羽毛球馆","lon":"121.47396326065063","lat":"31.180634737769793","category":"248","category_name":"生活娱乐","address":"浦东新区后滩路139号(近国展路)"},{"poiid":"B2094757D06AA1F8459F","title":"卢浦大桥耀华路下匝道","lon":"121.481870571","lat":"31.1688133424","category":"500","category_name":"未知分类","address":"上海耀华路西营路"},{"poiid":"B2094750DA6BA4F44698","title":"上海西岸音乐节","lon":"121.462753","lat":"31.182302","category":"500","category_name":"未知分类","address":null},{"poiid":"B2094752DA69A1F5449B","title":"博大汽车公园","lon":"121.472341","lat":"31.179505","category":"500","category_name":"未知分类","address":"上海市 国展路189号"},{"poiid":"B2094757D06FAAF4429D","title":"麦盛莉(耀华店)","lon":"121.4763831","lat":"31.176898854","category":"76","category_name":"上海菜","address":"浦东新区耀华路488号(西营路口)"},{"poiid":"B2094750D565A2FE4692","title":"上海民航职业技术学院","lon":"121.457061","lat":"31.17053","category":"671","category_name":"高校中心点","address":"上海市徐汇区龙华西路1号"},{"poiid":"B2094757D068A7FD4893","title":"济阳公园","lon":"121.47993589","lat":"31.169316816","category":"196","category_name":"公园","address":"浦东新区耀华路600号(济阳路口)"},{"poiid":"B2094753D265AAFC4493","title":"Isola,Bella美丽岛意大利餐厅(龙腾大道店)","lon":"121.462697","lat":"31.171052","category":"98","category_name":"意式菜品餐厅","address":"滨江龙腾大道3222号(东安路路口)"},{"poiid":"B2094752D76FA4F5459A","title":"梅赛德斯奔驰文化中心","lon":"121.461502","lat":"31.166077","category":"500","category_name":"未知分类","address":"梅赛德斯奔驰文化中心"},{"poiid":"B2094655D36CA1F84399","title":"龙华西路","lon":"121.45296","lat":"31.17074","category":"38","category_name":"公交车站","address":""},{"poiid":"B2094654DA6DAAFC409E","title":"上海晟豪机动车驾驶员培训有限公司","lon":"121.45805","lat":"31.17028","category":"192","category_name":"驾校","address":"机场东一路1"},{"poiid":"B2094750DA69A3FC489A","title":"台北纯K（打浦桥店）","lon":"121.461555","lat":"31.166128","category":"248","category_name":"生活娱乐","address":"徐家汇路618号日月光中心广场3楼(近瑞金二路)"},{"poiid":"B2094757D16FA6FD4492","title":"香港海港城starbucks","lon":"121.46558113","lat":"31.172269899","category":"500","category_name":"未知分类","address":"上海九龙尖沙咀广东道3-27号"},{"poiid":"B2094757D16EA4FA4692","title":"上海大众燃气输配部管线巡检站","lon":"121.46472073","lat":"31.170357025","category":"500","category_name":"未知分类","address":"上海市徐汇区龙腾大道"},{"poiid":"B2094654DA6DAAFC409F","title":"民苑小区","lon":"121.45907","lat":"31.17126","category":"47","category_name":"住宅区","address":"上海云锦路201弄"},{"poiid":"B2094655D26AA0F9469C","title":"地铁浦江耀华站","lon":"121.47117","lat":"31.17349","category":"36","category_name":"地铁站","address":""},{"poiid":"B2094753D06AA3F5429A","title":"全家便利店(龙腾大道店)","lon":"121.4626","lat":"31.16612","category":"117","category_name":"便民商店/便利店","address":"徐汇区龙腾大道(东安路口)"},{"poiid":"B2094757D66CA6F4489E","title":"工行号","lon":"121.46302032","lat":"31.170089721","category":"500","category_name":"未知分类","address":"上海黄浦江"},{"poiid":"B2094753D164A0F9499F","title":"华东理工大学","lon":"121.471017","lat":"31.160169","category":"500","category_name":"未知分类","address":"上海市 上海市徐汇区梅陇路130号"},{"poiid":"B2094654DA6DAAFC4192","title":"中国交通职业技术学院南校区","lon":"121.45514","lat":"31.17075","category":"54","category_name":"职业技术学校","address":""},{"poiid":"B2094654DA65ABFA479F","title":"上海市第42机动车安全检测站(徐汇)","lon":"121.46109","lat":"31.15756","category":"250","category_name":"公园户外","address":"龙水南路95号"},{"poiid":"B2094655D264ABFB4893","title":"徐汇滨江开发投资建设有限公司","lon":"121.46281","lat":"31.16892","category":"263","category_name":"公司","address":"丰溪路666"},{"poiid":"B2094655D26BA2FF4798","title":"通耀路耀龙路","lon":"121.4746","lat":"31.16836","category":"38","category_name":"公交车站","address":""},{"poiid":"B2094757D069A0FC479C","title":"百匯園","lon":"121.45893307","lat":"31.17263744","category":"500","category_name":"未知分类","address":"上海市卢湾区济南路8号"},{"poiid":"B2094757D068A4FD4592","title":"上海飞机设计研究院","lon":"121.457473516","lat":"31.1714706279","category":"191","category_name":"科研机构","address":"上海云锦路5号"},{"poiid":"B2094654DA6DAAFC429F","title":"上海侨泰高尔夫俱乐部龙华练习场","lon":"121.46215","lat":"31.16647","category":"206","category_name":"高尔夫相关","address":"徐汇区龙华西路8号(机场东一路8号)"},{"poiid":"B2094654DA6DAAFC419A","title":"华龙新苑小区","lon":"121.45664","lat":"31.17359","category":"47","category_name":"住宅区","address":"上海徐汇区云锦路50弄"},{"poiid":"B209475CD76EA1FC429F","title":"stayreal cafe","lon":"121.466125","lat":"31.164196","category":"500","category_name":"未知分类","address":"上海市 上海徐汇区环贸iapm"},{"poiid":"B2094752D06DA3F9459D","title":"飞行家主题园","lon":"121.475925","lat":"31.180498","category":"250","category_name":"公园户外","address":"上海市浦东新区国展路311号"},{"poiid":"B2094654DB6BA5FB4599","title":"上海市申江两岸开发建设投资集团","lon":"121.47288","lat":"31.16833","category":"263","category_name":"公司","address":"耀华路699"},{"poiid":"B2094654DA6DABF54493","title":"俞一小区","lon":"121.458","lat":"31.1762","category":"47","category_name":"住宅区","address":"龙华西路31弄"},{"poiid":"B209475CD56DA3F9499A","title":"西岸2013建筑与当代艺术双年展","lon":"121.462661","lat":"31.164426","category":"500","category_name":"未知分类","address":"上海市 上海市徐汇区龙腾大道2350号(近龙耀路)"},{"poiid":"B2094757D165AAFE459A","title":"龙耀路隧道","lon":"121.45982573","lat":"31.161783842","category":"500","category_name":"未知分类","address":"上海市徐汇区龙耀路"},{"poiid":"B2094752DA6FA4F4429C","title":"新天地","lon":"121.461569","lat":"31.166135","category":"500","category_name":"未知分类","address":"上海市 复兴中路"},{"poiid":"B2094655D264A2FB489F","title":"徐汇车辆检测站","lon":"121.45964","lat":"31.17044","category":"250","category_name":"公园户外","address":""},{"poiid":"B2094757D16CA6FA479B","title":"徐汇滨江龙腾大道","lon":"121.46242978","lat":"31.171125424","category":"500","category_name":"未知分类","address":"上海龙腾大道丰谷路"},{"poiid":"B2094757D069A6FB459F","title":"龙腾大道","lon":"121.45933573","lat":"31.175346131","category":"500","category_name":"未知分类","address":"上海龙腾大道"},{"poiid":"B2094757D06FA1F84098","title":"绍兴饭店(龙华西路店)","lon":"121.45392","lat":"31.16961","category":"75","category_name":"浙江菜","address":"徐汇区龙华西路1号(近龙华机场大门)"},{"poiid":"B2094757D169A6FA489C","title":"魔都","lon":"121.48171873","lat":"31.169546008","category":"500","category_name":"未知分类","address":"上海"},{"poiid":"B2094752D264A0FC479C","title":"巧克力开心乐园","lon":"121.475159","lat":"31.181213","category":"248","category_name":"生活娱乐","address":"博成路100号"},{"poiid":"B2094654DA6DAAFC4193","title":"中国民用航空学院职业技术学院","lon":"121.45514","lat":"31.17076","category":"54","category_name":"职业技术学校","address":""},{"poiid":"B2094757D06FA3FD499E","title":"晟豪驾校","lon":"121.45466","lat":"31.16915","category":"68","category_name":"快餐厅","address":"徐汇区龙华西路1号(云锦路口)"},{"poiid":"B2094757D06FA6FD4293","title":"龙腾大道","lon":"121.46263851","lat":"31.171261612","category":"260","category_name":"其他","address":"上海徐汇滨江亲水区"},{"poiid":"B2094757D16FAAF84392","title":"龙腾大道","lon":"121.46266273","lat":"31.182472283","category":"500","category_name":"未知分类","address":"上海市徐汇区龙恒路"},{"poiid":"B2094757D06FA4F8499B","title":"龙华机场","lon":"121.45366","lat":"31.16978","category":"21","category_name":"飞机场","address":"徐汇区龙华西路1号(近龙华机场)"},{"poiid":"B2094654DA6DA4F9419C","title":"尚海湾豪庭","lon":"121.45771","lat":"31.178894","category":"47","category_name":"住宅区","address":"徐汇区宛平南路1455弄"},{"poiid":"B2094757D06FABF9439D","title":"上海民航中专","lon":"121.45486666","lat":"31.170237367","category":"253","category_name":"校园生活","address":"上海龙华西路1号"},{"poiid":"B2094757D06FA2FA4293","title":"后滩地铁站","lon":"121.46936755","lat":"31.174126931","category":"36","category_name":"地铁站","address":"上海轨道交通 七号线 轨交后滩站 7"},{"poiid":"B2094757D069A7FF4598","title":"上海世博园冰雕艺术展","lon":"121.469558038","lat":"31.1745844152","category":"500","category_name":"未知分类","address":"浦东新区世博大道1200号梅赛德斯奔驰文化中心"},{"poiid":"B2094654DB65A6FA4592","title":"新世纪花苑(南门)","lon":"121.48059","lat":"31.17204","category":"656","category_name":"大门","address":"耀华路579弄1-127号"},{"poiid":"B2094757D56DAAFD4998","title":"冰星飞扬（世博）羽毛球馆","lon":"121.47396326065063","lat":"31.180634737769793","category":"248","category_name":"生活娱乐","address":"浦东新区后滩路139号(近国展路)"},{"poiid":"B2094757D06AA1F8459F","title":"卢浦大桥耀华路下匝道","lon":"121.481870571","lat":"31.1688133424","category":"500","category_name":"未知分类","address":"上海耀华路西营路"},{"poiid":"B2094750DA6BA4F44698","title":"上海西岸音乐节","lon":"121.462753","lat":"31.182302","category":"500","category_name":"未知分类","address":null},{"poiid":"B2094752DA69A1F5449B","title":"博大汽车公园","lon":"121.472341","lat":"31.179505","category":"500","category_name":"未知分类","address":"上海市 国展路189号"},{"poiid":"B2094757D06FAAF4429D","title":"麦盛莉(耀华店)","lon":"121.4763831","lat":"31.176898854","category":"76","category_name":"上海菜","address":"浦东新区耀华路488号(西营路口)"},{"poiid":"B2094750D565A2FE4692","title":"上海民航职业技术学院","lon":"121.457061","lat":"31.17053","category":"671","category_name":"高校中心点","address":"上海市徐汇区龙华西路1号"},{"poiid":"B2094757D068A7FD4893","title":"济阳公园","lon":"121.47993589","lat":"31.169316816","category":"196","category_name":"公园","address":"浦东新区耀华路600号(济阳路口)"},{"poiid":"B2094753D265AAFC4493","title":"Isola,Bella美丽岛意大利餐厅(龙腾大道店)","lon":"121.462697","lat":"31.171052","category":"98","category_name":"意式菜品餐厅","address":"滨江龙腾大道3222号(东安路路口)"},{"poiid":"B2094752D76FA4F5459A","title":"梅赛德斯奔驰文化中心","lon":"121.461502","lat":"31.166077","category":"500","category_name":"未知分类","address":"梅赛德斯奔驰文化中心"},{"poiid":"B2094655D36CA1F84399","title":"龙华西路","lon":"121.45296","lat":"31.17074","category":"38","category_name":"公交车站","address":""},{"poiid":"B2094654DA6DAAFC409E","title":"上海晟豪机动车驾驶员培训有限公司","lon":"121.45805","lat":"31.17028","category":"192","category_name":"驾校","address":"机场东一路1"},{"poiid":"B2094750DA69A3FC489A","title":"台北纯K（打浦桥店）","lon":"121.461555","lat":"31.166128","category":"248","category_name":"生活娱乐","address":"徐家汇路618号日月光中心广场3楼(近瑞金二路)"},{"poiid":"B2094757D16FA6FD4492","title":"香港海港城starbucks","lon":"121.46558113","lat":"31.172269899","category":"500","category_name":"未知分类","address":"上海九龙尖沙咀广东道3-27号"},{"poiid":"B2094757D16EA4FA4692","title":"上海大众燃气输配部管线巡检站","lon":"121.46472073","lat":"31.170357025","category":"500","category_name":"未知分类","address":"上海市徐汇区龙腾大道"},{"poiid":"B2094654DA6DAAFC409F","title":"民苑小区","lon":"121.45907","lat":"31.17126","category":"47","category_name":"住宅区","address":"上海云锦路201弄"},{"poiid":"B2094655D26AA0F9469C","title":"地铁浦江耀华站","lon":"121.47117","lat":"31.17349","category":"36","category_name":"地铁站","address":""},{"poiid":"B2094753D06AA3F5429A","title":"全家便利店(龙腾大道店)","lon":"121.4626","lat":"31.16612","category":"117","category_name":"便民商店/便利店","address":"徐汇区龙腾大道(东安路口)"},{"poiid":"B2094757D66CA6F4489E","title":"工行号","lon":"121.46302032","lat":"31.170089721","category":"500","category_name":"未知分类","address":"上海黄浦江"},{"poiid":"B2094753D164A0F9499F","title":"华东理工大学","lon":"121.471017","lat":"31.160169","category":"500","category_name":"未知分类","address":"上海市 上海市徐汇区梅陇路130号"},{"poiid":"B2094654DA6DAAFC4192","title":"中国交通职业技术学院南校区","lon":"121.45514","lat":"31.17075","category":"54","category_name":"职业技术学校","address":""},{"poiid":"B2094654DA65ABFA479F","title":"上海市第42机动车安全检测站(徐汇)","lon":"121.46109","lat":"31.15756","category":"250","category_name":"公园户外","address":"龙水南路95号"},{"poiid":"B2094655D264ABFB4893","title":"徐汇滨江开发投资建设有限公司","lon":"121.46281","lat":"31.16892","category":"263","category_name":"公司","address":"丰溪路666"},{"poiid":"B2094655D26BA2FF4798","title":"通耀路耀龙路","lon":"121.4746","lat":"31.16836","category":"38","category_name":"公交车站","address":""},{"poiid":"B2094757D069A0FC479C","title":"百匯園","lon":"121.45893307","lat":"31.17263744","category":"500","category_name":"未知分类","address":"上海市卢湾区济南路8号"},{"poiid":"B2094757D068A4FD4592","title":"上海飞机设计研究院","lon":"121.457473516","lat":"31.1714706279","category":"191","category_name":"科研机构","address":"上海云锦路5号"},{"poiid":"B2094654DA6DAAFC429F","title":"上海侨泰高尔夫俱乐部龙华练习场","lon":"121.46215","lat":"31.16647","category":"206","category_name":"高尔夫相关","address":"徐汇区龙华西路8号(机场东一路8号)"},{"poiid":"B2094654DA6DAAFC419A","title":"华龙新苑小区","lon":"121.45664","lat":"31.17359","category":"47","category_name":"住宅区","address":"上海徐汇区云锦路50弄"},{"poiid":"B209475CD76EA1FC429F","title":"stayreal cafe","lon":"121.466125","lat":"31.164196","category":"500","category_name":"未知分类","address":"上海市 上海徐汇区环贸iapm"},{"poiid":"B2094752D06DA3F9459D","title":"飞行家主题园","lon":"121.475925","lat":"31.180498","category":"250","category_name":"公园户外","address":"上海市浦东新区国展路311号"},{"poiid":"B2094654DB6BA5FB4599","title":"上海市申江两岸开发建设投资集团","lon":"121.47288","lat":"31.16833","category":"263","category_name":"公司","address":"耀华路699"},{"poiid":"B2094654DA6DABF54493","title":"俞一小区","lon":"121.458","lat":"31.1762","category":"47","category_name":"住宅区","address":"龙华西路31弄"},{"poiid":"B209475CD56DA3F9499A","title":"西岸2013建筑与当代艺术双年展","lon":"121.462661","lat":"31.164426","category":"500","category_name":"未知分类","address":"上海市 上海市徐汇区龙腾大道2350号(近龙耀路)"},{"poiid":"B2094757D165AAFE459A","title":"龙耀路隧道","lon":"121.45982573","lat":"31.161783842","category":"500","category_name":"未知分类","address":"上海市徐汇区龙耀路"},{"poiid":"B2094752DA6FA4F4429C","title":"新天地","lon":"121.461569","lat":"31.166135","category":"500","category_name":"未知分类","address":"上海市 复兴中路"},{"poiid":"B2094655D264A2FB489F","title":"徐汇车辆检测站","lon":"121.45964","lat":"31.17044","category":"250","category_name":"公园户外","address":""}]