[{"poiid":"B2094654DB64A4FC469D","title":"上海交通大学(闵行校区)","lon":"121.43073","lat":"31.01765","category":"671","category_name":"高校中心点","address":"闵行区东川路800号上海交通大学内(近永平路)"},{"poiid":"B2094655D36DA6FF4593","title":"西渡","lon":"121.42959","lat":"30.99559","category":"38","category_name":"公交车站","address":"上海市奉贤区西渡"},{"poiid":"B2094757D06FA4FA4499","title":"上海交通大学菁菁堂","lon":"121.42978692","lat":"31.017888915","category":"178","category_name":"电影院","address":"闵行区东川路800号上海交通大学校区"},{"poiid":"B2094757D06FA2F5429F","title":"上海交大闵行校区拖鞋门","lon":"121.43095039","lat":"31.017577126","category":"500","category_name":"未知分类","address":"上海市东川路800号"},{"poiid":"B2094757D06FA6FF4293","title":"微软 上海","lon":"121.45035963","lat":"31.019618749","category":"46","category_name":"楼宇","address":"上海紫星路999号"},{"poiid":"B2094757D068A0F8409B","title":"奉浦大桥","lon":"121.4420166","lat":"31.005385894","category":"260","category_name":"其他","address":"上海奉浦大桥"},{"poiid":"B2094757D068A3F8439B","title":"新南家园","lon":"121.445030212","lat":"30.9941864014","category":"47","category_name":"住宅区","address":"上海市奉贤区西渡镇西闸公路1118号"},{"poiid":"B2094757D064A6FC4098","title":"英特尔亚太研发有限公司","lon":"121.448820678","lat":"31.0199671956","category":"46","category_name":"楼宇","address":"上海闵行区紫竹科学园区紫星路880号"},{"poiid":"B2094654DB6EAAFD449C","title":"闵行中学","lon":"121.42591","lat":"31.00709","category":"55","category_name":"中学","address":"闵行区江川东路950号(近沪闵路)"},{"poiid":"B2094750D664A5FB409E","title":"大学路韩国料理","lon":"121.432","lat":"31.0172","category":"96","category_name":"韩国料理","address":"闵行区东川路(安宁路东川路)"},{"poiid":"B2094757D66DA3F5479F","title":"天使的礼物咖啡店","lon":"121.43254852","lat":"31.014183044","category":"65","category_name":"咖啡厅","address":"闵行区永平路142号(近交通大学)"},{"poiid":"B2094654DB69A6FD4199","title":"星河景苑","lon":"121.427932","lat":"31.003178","category":"47","category_name":"住宅区","address":"上海市闵行区新闵路481弄"},{"poiid":"B2094757D069A2F94598","title":"院儿咖啡","lon":"121.43259079","lat":"31.01356043","category":"260","category_name":"其他","address":"闵行区永平路90号(近德宏路)"},{"poiid":"B2094655D36DA3F5439D","title":"奉浦大桥","lon":"121.43934","lat":"31.0111","category":"250","category_name":"公园户外","address":""},{"poiid":"B2094757D068ABFA4599","title":"浦江花苑","lon":"121.42805","lat":"31.000284","category":"47","category_name":"住宅区","address":"上海市闵行区浦江路58弄"},{"poiid":"B2094757D068A6FD479D","title":"晟碟半导体有限公司","lon":"121.44475757","lat":"31.013914181","category":"263","category_name":"公司","address":"上海江川东路388号"},{"poiid":"B2094757D169A4F9419D","title":"御陕坊","lon":"121.432984128","lat":"31.0129414512","category":"84","category_name":"西北菜","address":"闵行区永平路41号(近交通大学)"},{"poiid":"B2094757D165A5FE409C","title":"可口可乐中国总部","lon":"121.436242228","lat":"31.0205795082","category":"500","category_name":"未知分类","address":"上海闵行区东川路800号"},{"poiid":"B2094655D26BA2FD4299","title":"文怡花园","lon":"121.44049","lat":"30.993238","category":"47","category_name":"住宅区","address":"上海市奉贤区西渡镇西闸路"},{"poiid":"B2094655D36DA7FB4299","title":"紫竹园科学园区","lon":"121.43945","lat":"31.01075","category":"38","category_name":"公交车站","address":""},{"poiid":"B2094655D264A0FF429A","title":"微软中国上海科技园区","lon":"121.45018","lat":"31.02005","category":"45","category_name":"产业园区","address":"紫星路999"},{"poiid":"B2094757D068A0F44892","title":"蜀香村川菜(东川路店)","lon":"121.43301","lat":"31.0167","category":"71","category_name":"四川菜","address":"闵行区东川路811弄1号(近交通大学)"},{"poiid":"B2094654DB6EAAF9449D","title":"奉浦木材码头南区","lon":"121.44136","lat":"31.01025","category":"34","category_name":"港口码头","address":""},{"poiid":"B2094757D16CA3FF4593","title":"可囗可乐饮料(上海)有限公司","lon":"121.44061028","lat":"31.008793796","category":"500","category_name":"未知分类","address":"上海紫月路1188号"},{"poiid":"B2094750D76FA3F4459C","title":"小雨点围着锅台吃","lon":"121.432","lat":"31.0154","category":"82","category_name":"东北菜","address":"闵行区永平路114号"},{"poiid":"B2094757D168A5FC439E","title":"上海交通大学微电子楼","lon":"121.44608151","lat":"31.006939436","category":"500","category_name":"未知分类","address":"上海交通大学闵行校区"},{"poiid":"B2094757D66CA2FA4193","title":"上海交通大学学术活动中心宾馆","lon":"121.43309783","lat":"31.01861763","category":"76","category_name":"上海菜","address":"闵行区东川路800号上海交通大学校区内(近永平路)"},{"poiid":"B2094654DB65A7F4499A","title":"阿康烧烤 交大店","lon":"121.430010054","lat":"31.017358793","category":"68","category_name":"快餐厅","address":"闵行区永平路194号"},{"poiid":"B2094757D16DAAFA409B","title":"真康自助乐烤","lon":"121.43182","lat":"31.01564","category":"68","category_name":"快餐厅","address":"闵行区永平路200-204号(近交通大学)"},{"poiid":"B2094757D16CA1FC499D","title":"金榜世家","lon":"121.42746912","lat":"31.012706446","category":"500","category_name":"未知分类","address":"上海市闵行区沧源路676-684号"},{"poiid":"B2094654DB6FA3FC4499","title":"北欧丽景","lon":"121.42962","lat":"31.01656","category":"47","category_name":"住宅区","address":"北欧丽景-东川花园二期位于闵行东川路755弄"},{"poiid":"B2094655D36CA0F9459C","title":"江川东路","lon":"121.44138","lat":"31.01314","category":"38","category_name":"公交车站","address":""},{"poiid":"B2094654DB6AA7FF419F","title":"留园","lon":"121.43172","lat":"31.01908","category":"76","category_name":"上海菜","address":"闵行区东川路880号上海交大校内(近交通大学)"},{"poiid":"B2094757D06BA5F54392","title":"可口可乐闵行工厂","lon":"121.44213632","lat":"31.01633112","category":"500","category_name":"未知分类","address":"上海紫月路"},{"poiid":"B2094654DB6EAAFF439C","title":"龙音寺","lon":"121.43091","lat":"31.00261","category":"244","category_name":"寺庙道观","address":"华坪路"},{"poiid":"B2094750D76FA6F4469E","title":"炫锅坊麻辣香锅(永平路店)","lon":"121.432","lat":"31.0136","category":"77","category_name":"湖南菜","address":"闵行区永平路43号"},{"poiid":"B2094757D16AA1FE459B","title":"新闵小区","lon":"121.4259","lat":"31.004814","category":"47","category_name":"住宅区","address":"上海江川东路沪闵路口"},{"poiid":"B2094757D06BABFB499F","title":"闵浦二桥","lon":"121.440742128","lat":"30.9908854981","category":"500","category_name":"未知分类","address":"上海闵浦二桥"},{"poiid":"B2094655D265AAF5429F","title":"S4西闸公路收费站","lon":"121.44742","lat":"30.99569","category":"267","category_name":"收费站","address":""},{"poiid":"B2094757D16EA3FD409A","title":"思源小菜","lon":"121.43322","lat":"31.01294","category":"76","category_name":"上海菜","address":"闵行区永平路118号(德宏路永平路)"},{"poiid":"B2094654DB6EAAF5469F","title":"沧源新村","lon":"121.42841","lat":"31.01457","category":"47","category_name":"住宅区","address":"沧源路770弄、925弄"},{"poiid":"B2094757D06BA7FA4193","title":"鸿宝一村","lon":"121.43936852311","lat":"30.993740562007","category":"500","category_name":"未知分类","address":"沪杭公路66弄"},{"poiid":"B2094757D06BA5F94198","title":"四海游龙(永平店)","lon":"121.432143","lat":"31.015132","category":"68","category_name":"快餐厅","address":"闵行区永平路(近交大闵行校区)"},{"poiid":"B2094655D36CA5FB4299","title":"沧源小区","lon":"121.43663","lat":"31.01392","category":"47","category_name":"住宅区","address":""},{"poiid":"B2094654DB6EAAFA409B","title":"好第坊","lon":"121.43308","lat":"31.01494","category":"47","category_name":"住宅区","address":"东川路865弄"},{"poiid":"B2094654DB6FA0FC409C","title":"西南商城","lon":"121.432","lat":"31.0085","category":"119","category_name":"商场","address":"新闵路573号"},{"poiid":"B2094750D76FA4FC439A","title":"朴氏韩国料理","lon":"121.431","lat":"31.0164","category":"96","category_name":"韩国料理","address":"闵行区永平路233-235号(近东川路)"},{"poiid":"B2094757D464AAF54398","title":"西部高地 HIGH LAND","lon":"121.429608","lat":"31.016678","category":"47","category_name":"住宅区","address":"闵行区东川路847号(交大拖鞋门斜对面)"},{"poiid":"B2094757D76CA0FF4699","title":"东北春饼王","lon":"121.43266","lat":"31.01412","category":"82","category_name":"东北菜","address":"闵行区永平路150号(近闵行交大)"},{"poiid":"B2094757D16EA7F84692","title":"村夫烤鱼(永平路店)","lon":"121.43231","lat":"31.01511","category":"71","category_name":"四川菜","address":"闵行区永平路"},{"poiid":"B2094654DB64A4FC469D","title":"上海交通大学(闵行校区)","lon":"121.43073","lat":"31.01765","category":"671","category_name":"高校中心点","address":"闵行区东川路800号上海交通大学内(近永平路)"},{"poiid":"B2094655D36DA6FF4593","title":"西渡","lon":"121.42959","lat":"30.99559","category":"38","category_name":"公交车站","address":"上海市奉贤区西渡"},{"poiid":"B2094757D06FA4FA4499","title":"上海交通大学菁菁堂","lon":"121.42978692","lat":"31.017888915","category":"178","category_name":"电影院","address":"闵行区东川路800号上海交通大学校区"},{"poiid":"B2094757D06FA2F5429F","title":"上海交大闵行校区拖鞋门","lon":"121.43095039","lat":"31.017577126","category":"500","category_name":"未知分类","address":"上海市东川路800号"},{"poiid":"B2094757D06FA6FF4293","title":"微软 上海","lon":"121.45035963","lat":"31.019618749","category":"46","category_name":"楼宇","address":"上海紫星路999号"},{"poiid":"B2094757D068A0F8409B","title":"奉浦大桥","lon":"121.4420166","lat":"31.005385894","category":"260","category_name":"其他","address":"上海奉浦大桥"},{"poiid":"B2094757D068A3F8439B","title":"新南家园","lon":"121.445030212","lat":"30.9941864014","category":"47","category_name":"住宅区","address":"上海市奉贤区西渡镇西闸公路1118号"},{"poiid":"B2094757D064A6FC4098","title":"英特尔亚太研发有限公司","lon":"121.448820678","lat":"31.0199671956","category":"46","category_name":"楼宇","address":"上海闵行区紫竹科学园区紫星路880号"},{"poiid":"B2094654DB6EAAFD449C","title":"闵行中学","lon":"121.42591","lat":"31.00709","category":"55","category_name":"中学","address":"闵行区江川东路950号(近沪闵路)"},{"poiid":"B2094750D664A5FB409E","title":"大学路韩国料理","lon":"121.432","lat":"31.0172","category":"96","category_name":"韩国料理","address":"闵行区东川路(安宁路东川路)"},{"poiid":"B2094757D66DA3F5479F","title":"天使的礼物咖啡店","lon":"121.43254852","lat":"31.014183044","category":"65","category_name":"咖啡厅","address":"闵行区永平路142号(近交通大学)"},{"poiid":"B2094654DB69A6FD4199","title":"星河景苑","lon":"121.427932","lat":"31.003178","category":"47","category_name":"住宅区","address":"上海市闵行区新闵路481弄"},{"poiid":"B2094757D069A2F94598","title":"院儿咖啡","lon":"121.43259079","lat":"31.01356043","category":"260","category_name":"其他","address":"闵行区永平路90号(近德宏路)"},{"poiid":"B2094655D36DA3F5439D","title":"奉浦大桥","lon":"121.43934","lat":"31.0111","category":"250","category_name":"公园户外","address":""},{"poiid":"B2094757D068ABFA4599","title":"浦江花苑","lon":"121.42805","lat":"31.000284","category":"47","category_name":"住宅区","address":"上海市闵行区浦江路58弄"},{"poiid":"B2094757D068A6FD479D","title":"晟碟半导体有限公司","lon":"121.44475757","lat":"31.013914181","category":"263","category_name":"公司","address":"上海江川东路388号"},{"poiid":"B2094757D169A4F9419D","title":"御陕坊","lon":"121.432984128","lat":"31.0129414512","category":"84","category_name":"西北菜","address":"闵行区永平路41号(近交通大学)"},{"poiid":"B2094757D165A5FE409C","title":"可口可乐中国总部","lon":"121.436242228","lat":"31.0205795082","category":"500","category_name":"未知分类","address":"上海闵行区东川路800号"},{"poiid":"B2094655D26BA2FD4299","title":"文怡花园","lon":"121.44049","lat":"30.993238","category":"47","category_name":"住宅区","address":"上海市奉贤区西渡镇西闸路"},{"poiid":"B2094655D36DA7FB4299","title":"紫竹园科学园区","lon":"121.43945","lat":"31.01075","category":"38","category_name":"公交车站","address":""},{"poiid":"B2094655D264A0FF429A","title":"微软中国上海科技园区","lon":"121.45018","lat":"31.02005","category":"45","category_name":"产业园区","address":"紫星路999"},{"poiid":"B2094757D068A0F44892","title":"蜀香村川菜(东川路店)","lon":"121.43301","lat":"31.0167","category":"71","category_name":"四川菜","address":"闵行区东川路811弄1号(近交通大学)"},{"poiid":"B2094654DB6EAAF9449D","title":"奉浦木材码头南区","lon":"121.44136","lat":"31.01025","category":"34","category_name":"港口码头","address":""},{"poiid":"B2094757D16CA3FF4593","title":"可囗可乐饮料(上海)有限公司","lon":"121.44061028","lat":"31.008793796","category":"500","category_name":"未知分类","address":"上海紫月路1188号"},{"poiid":"B2094750D76FA3F4459C","title":"小雨点围着锅台吃","lon":"121.432","lat":"31.0154","category":"82","category_name":"东北菜","address":"闵行区永平路114号"},{"poiid":"B2094757D168A5FC439E","title":"上海交通大学微电子楼","lon":"121.44608151","lat":"31.006939436","category":"500","category_name":"未知分类","address":"上海交通大学闵行校区"},{"poiid":"B2094757D66CA2FA4193","title":"上海交通大学学术活动中心宾馆","lon":"121.43309783","lat":"31.01861763","category":"76","category_name":"上海菜","address":"闵行区东川路800号上海交通大学校区内(近永平路)"},{"poiid":"B2094654DB65A7F4499A","title":"阿康烧烤 交大店","lon":"121.430010054","lat":"31.017358793","category":"68","category_name":"快餐厅","address":"闵行区永平路194号"},{"poiid":"B2094757D16DAAFA409B","title":"真康自助乐烤","lon":"121.43182","lat":"31.01564","category":"68","category_name":"快餐厅","address":"闵行区永平路200-204号(近交通大学)"},{"poiid":"B2094757D16CA1FC499D","title":"金榜世家","lon":"121.42746912","lat":"31.012706446","category":"500","category_name":"未知分类","address":"上海市闵行区沧源路676-684号"},{"poiid":"B2094654DB6FA3FC4499","title":"北欧丽景","lon":"121.42962","lat":"31.01656","category":"47","category_name":"住宅区","address":"北欧丽景-东川花园二期位于闵行东川路755弄"},{"poiid":"B2094655D36CA0F9459C","title":"江川东路","lon":"121.44138","lat":"31.01314","category":"38","category_name":"公交车站","address":""},{"poiid":"B2094654DB6AA7FF419F","title":"留园","lon":"121.43172","lat":"31.01908","category":"76","category_name":"上海菜","address":"闵行区东川路880号上海交大校内(近交通大学)"},{"poiid":"B2094757D06BA5F54392","title":"可口可乐闵行工厂","lon":"121.44213632","lat":"31.01633112","category":"500","category_name":"未知分类","address":"上海紫月路"},{"poiid":"B2094654DB6EAAFF439C","title":"龙音寺","lon":"121.43091","lat":"31.00261","category":"244","category_name":"寺庙道观","address":"华坪路"},{"poiid":"B2094750D76FA6F4469E","title":"炫锅坊麻辣香锅(永平路店)","lon":"121.432","lat":"31.0136","category":"77","category_name":"湖南菜","address":"闵行区永平路43号"},{"poiid":"B2094757D16AA1FE459B","title":"新闵小区","lon":"121.4259","lat":"31.004814","category":"47","category_name":"住宅区","address":"上海江川东路沪闵路口"},{"poiid":"B2094757D06BABFB499F","title":"闵浦二桥","lon":"121.440742128","lat":"30.9908854981","category":"500","category_name":"未知分类","address":"上海闵浦二桥"},{"poiid":"B2094655D265AAF5429F","title":"S4西闸公路收费站","lon":"121.44742","lat":"30.99569","category":"267","category_name":"收费站","address":""},{"poiid":"B2094757D16EA3FD409A","title":"思源小菜","lon":"121.43322","lat":"31.01294","category":"76","category_name":"上海菜","address":"闵行区永平路118号(德宏路永平路)"},{"poiid":"B2094654DB6EAAF5469F","title":"沧源新村","lon":"121.42841","lat":"31.01457","category":"47","category_name":"住宅区","address":"沧源路770弄、925弄"},{"poiid":"B2094757D06BA7FA4193","title":"鸿宝一村","lon":"121.43936852311","lat":"30.993740562007","category":"500","category_name":"未知分类","address":"沪杭公路66弄"},{"poiid":"B2094757D06BA5F94198","title":"四海游龙(永平店)","lon":"121.432143","lat":"31.015132","category":"68","category_name":"快餐厅","address":"闵行区永平路(近交大闵行校区)"},{"poiid":"B2094655D36CA5FB4299","title":"沧源小区","lon":"121.43663","lat":"31.01392","category":"47","category_name":"住宅区","address":""},{"poiid":"B2094654DB6EAAFA409B","title":"好第坊","lon":"121.43308","lat":"31.01494","category":"47","category_name":"住宅区","address":"东川路865弄"},{"poiid":"B2094654DB6FA0FC409C","title":"西南商城","lon":"121.432","lat":"31.0085","category":"119","category_name":"商场","address":"新闵路573号"},{"poiid":"B2094750D76FA4FC439A","title":"朴氏韩国料理","lon":"121.431","lat":"31.0164","category":"96","category_name":"韩国料理","address":"闵行区永平路233-235号(近东川路)"},{"poiid":"B2094757D464AAF54398","title":"西部高地 HIGH LAND","lon":"121.429608","lat":"31.016678","category":"47","category_name":"住宅区","address":"闵行区东川路847号(交大拖鞋门斜对面)"},{"poiid":"B2094757D76CA0FF4699","title":"东北春饼王","lon":"121.43266","lat":"31.01412","category":"82","category_name":"东北菜","address":"闵行区永平路150号(近闵行交大)"},{"poiid":"B2094757D16EA7F84692","title":"村夫烤鱼(永平路店)","lon":"121.43231","lat":"31.01511","category":"71","category_name":"四川菜","address":"闵行区永平路"},{"poiid":"B2094654DB64A4FC469D","title":"上海交通大学(闵行校区)","lon":"121.43073","lat":"31.01765","category":"671","category_name":"高校中心点","address":"闵行区东川路800号上海交通大学内(近永平路)"},{"poiid":"B2094655D36DA6FF4593","title":"西渡","lon":"121.42959","lat":"30.99559","category":"38","category_name":"公交车站","address":"上海市奉贤区西渡"},{"poiid":"B2094757D06FA4FA4499","title":"上海交通大学菁菁堂","lon":"121.42978692","lat":"31.017888915","category":"178","category_name":"电影院","address":"闵行区东川路800号上海交通大学校区"},{"poiid":"B2094757D06FA2F5429F","title":"上海交大闵行校区拖鞋门","lon":"121.43095039","lat":"31.017577126","category":"500","category_name":"未知分类","address":"上海市东川路800号"},{"poiid":"B2094757D06FA6FF4293","title":"微软 上海","lon":"121.45035963","lat":"31.019618749","category":"46","category_name":"楼宇","address":"上海紫星路999号"},{"poiid":"B2094757D068A0F8409B","title":"奉浦大桥","lon":"121.4420166","lat":"31.005385894","category":"260","category_name":"其他","address":"上海奉浦大桥"},{"poiid":"B2094757D068A3F8439B","title":"新南家园","lon":"121.445030212","lat":"30.9941864014","category":"47","category_name":"住宅区","address":"上海市奉贤区西渡镇西闸公路1118号"},{"poiid":"B2094757D064A6FC4098","title":"英特尔亚太研发有限公司","lon":"121.448820678","lat":"31.0199671956","category":"46","category_name":"楼宇","address":"上海闵行区紫竹科学园区紫星路880号"},{"poiid":"B2094654DB6EAAFD449C","title":"闵行中学","lon":"121.42591","lat":"31.00709","category":"55","category_name":"中学","address":"闵行区江川东路950号(近沪闵路)"},{"poiid":"B2094750D664A5FB409E","title":"大学路韩国料理","lon":"121.432","lat":"31.0172","category":"96","category_name":"韩国料理","address":"闵行区东川路(安宁路东川路)"},{"poiid":"B2094757D66DA3F5479F","title":"天使的礼物咖啡店","lon":"121.43254852","lat":"31.014183044","category":"65","category_name":"咖啡厅","address":"闵行区永平路142号(近交通大学)"},{"poiid":"B2094654DB69A6FD4199","title":"星河景苑","lon":"121.427932","lat":"31.003178","category":"47","category_name":"住宅区","address":"上海市闵行区新闵路481弄"},{"poiid":"B2094757D069A2F94598","title":"院儿咖啡","lon":"121.43259079","lat":"31.01356043","category":"260","category_name":"其他","address":"闵行区永平路90号(近德宏路)"},{"poiid":"B2094655D36DA3F5439D","title":"奉浦大桥","lon":"121.43934","lat":"31.0111","category":"250","category_name":"公园户外","address":""},{"poiid":"B2094757D068ABFA4599","title":"浦江花苑","lon":"121.42805","lat":"31.000284","category":"47","category_name":"住宅区","address":"上海市闵行区浦江路58弄"},{"poiid":"B2094757D068A6FD479D","title":"晟碟半导体有限公司","lon":"121.44475757","lat":"31.013914181","category":"263","category_name":"公司","address":"上海江川东路388号"},{"poiid":"B2094757D169A4F9419D","title":"御陕坊","lon":"121.432984128","lat":"31.0129414512","category":"84","category_name":"西北菜","address":"闵行区永平路41号(近交通大学)"},{"poiid":"B2094757D165A5FE409C","title":"可口可乐中国总部","lon":"121.436242228","lat":"31.0205795082","category":"500","category_name":"未知分类","address":"上海闵行区东川路800号"},{"poiid":"B2094655D26BA2FD4299","title":"文怡花园","lon":"121.44049","lat":"30.993238","category":"47","category_name":"住宅区","address":"上海市奉贤区西渡镇西闸路"},{"poiid":"B2094655D36DA7FB4299","title":"紫竹园科学园区","lon":"121.43945","lat":"31.01075","category":"38","category_name":"公交车站","address":""},{"poiid":"B2094655D264A0FF429A","title":"微软中国上海科技园区","lon":"121.45018","lat":"31.02005","category":"45","category_name":"产业园区","address":"紫星路999"},{"poiid":"B2094757D068A0F44892","title":"蜀香村川菜(东川路店)","lon":"121.43301","lat":"31.0167","category":"71","category_name":"四川菜","address":"闵行区东川路811弄1号(近交通大学)"},{"poiid":"B2094654DB6EAAF9449D","title":"奉浦木材码头南区","lon":"121.44136","lat":"31.01025","category":"34","category_name":"港口码头","address":""},{"poiid":"B2094757D16CA3FF4593","title":"可囗可乐饮料(上海)有限公司","lon":"121.44061028","lat":"31.008793796","category":"500","category_name":"未知分类","address":"上海紫月路1188号"},{"poiid":"B2094750D76FA3F4459C","title":"小雨点围着锅台吃","lon":"121.432","lat":"31.0154","category":"82","category_name":"东北菜","address":"闵行区永平路114号"},{"poiid":"B2094757D168A5FC439E","title":"上海交通大学微电子楼","lon":"121.44608151","lat":"31.006939436","category":"500","category_name":"未知分类","address":"上海交通大学闵行校区"},{"poiid":"B2094757D66CA2FA4193","title":"上海交通大学学术活动中心宾馆","lon":"121.43309783","lat":"31.01861763","category":"76","category_name":"上海菜","address":"闵行区东川路800号上海交通大学校区内(近永平路)"},{"poiid":"B2094654DB65A7F4499A","title":"阿康烧烤 交大店","lon":"121.430010054","lat":"31.017358793","category":"68","category_name":"快餐厅","address":"闵行区永平路194号"},{"poiid":"B2094757D16DAAFA409B","title":"真康自助乐烤","lon":"121.43182","lat":"31.01564","category":"68","category_name":"快餐厅","address":"闵行区永平路200-204号(近交通大学)"},{"poiid":"B2094757D16CA1FC499D","title":"金榜世家","lon":"121.42746912","lat":"31.012706446","category":"500","category_name":"未知分类","address":"上海市闵行区沧源路676-684号"},{"poiid":"B2094654DB6FA3FC4499","title":"北欧丽景","lon":"121.42962","lat":"31.01656","category":"47","category_name":"住宅区","address":"北欧丽景-东川花园二期位于闵行东川路755弄"},{"poiid":"B2094655D36CA0F9459C","title":"江川东路","lon":"121.44138","lat":"31.01314","category":"38","category_name":"公交车站","address":""},{"poiid":"B2094654DB6AA7FF419F","title":"留园","lon":"121.43172","lat":"31.01908","category":"76","category_name":"上海菜","address":"闵行区东川路880号上海交大校内(近交通大学)"},{"poiid":"B2094757D06BA5F54392","title":"可口可乐闵行工厂","lon":"121.44213632","lat":"31.01633112","category":"500","category_name":"未知分类","address":"上海紫月路"},{"poiid":"B2094654DB6EAAFF439C","title":"龙音寺","lon":"121.43091","lat":"31.00261","category":"244","category_name":"寺庙道观","address":"华坪路"},{"poiid":"B2094750D76FA6F4469E","title":"炫锅坊麻辣香锅(永平路店)","lon":"121.432","lat":"31.0136","category":"77","category_name":"湖南菜","address":"闵行区永平路43号"},{"poiid":"B2094757D16AA1FE459B","title":"新闵小区","lon":"121.4259","lat":"31.004814","category":"47","category_name":"住宅区","address":"上海江川东路沪闵路口"},{"poiid":"B2094757D06BABFB499F","title":"闵浦二桥","lon":"121.440742128","lat":"30.9908854981","category":"500","category_name":"未知分类","address":"上海闵浦二桥"},{"poiid":"B2094655D265AAF5429F","title":"S4西闸公路收费站","lon":"121.44742","lat":"30.99569","category":"267","category_name":"收费站","address":""},{"poiid":"B2094757D16EA3FD409A","title":"思源小菜","lon":"121.43322","lat":"31.01294","category":"76","category_name":"上海菜","address":"闵行区永平路118号(德宏路永平路)"},{"poiid":"B2094654DB6EAAF5469F","title":"沧源新村","lon":"121.42841","lat":"31.01457","category":"47","category_name":"住宅区","address":"沧源路770弄、925弄"},{"poiid":"B2094757D06BA7FA4193","title":"鸿宝一村","lon":"121.43936852311","lat":"30.993740562007","category":"500","category_name":"未知分类","address":"沪杭公路66弄"},{"poiid":"B2094757D06BA5F94198","title":"四海游龙(永平店)","lon":"121.432143","lat":"31.015132","category":"68","category_name":"快餐厅","address":"闵行区永平路(近交大闵行校区)"},{"poiid":"B2094655D36CA5FB4299","title":"沧源小区","lon":"121.43663","lat":"31.01392","category":"47","category_name":"住宅区","address":""},{"poiid":"B2094654DB6EAAFA409B","title":"好第坊","lon":"121.43308","lat":"31.01494","category":"47","category_name":"住宅区","address":"东川路865弄"},{"poiid":"B2094654DB6FA0FC409C","title":"西南商城","lon":"121.432","lat":"31.0085","category":"119","category_name":"商场","address":"新闵路573号"},{"poiid":"B2094750D76FA4FC439A","title":"朴氏韩国料理","lon":"121.431","lat":"31.0164","category":"96","category_name":"韩国料理","address":"闵行区永平路233-235号(近东川路)"},{"poiid":"B2094757D464AAF54398","title":"西部高地 HIGH LAND","lon":"121.429608","lat":"31.016678","category":"47","category_name":"住宅区","address":"闵行区东川路847号(交大拖鞋门斜对面)"},{"poiid":"B2094757D76CA0FF4699","title":"东北春饼王","lon":"121.43266","lat":"31.01412","category":"82","category_name":"东北菜","address":"闵行区永平路150号(近闵行交大)"},{"poiid":"B2094757D16EA7F84692","title":"村夫烤鱼(永平路店)","lon":"121.43231","lat":"31.01511","category":"71","category_name":"四川菜","address":"闵行区永平路"},{"poiid":"B2094654DB64A4FC469D","title":"上海交通大学(闵行校区)","lon":"121.43073","lat":"31.01765","category":"671","category_name":"高校中心点","address":"闵行区东川路800号上海交通大学内(近永平路)"},{"poiid":"B2094655D36DA6FF4593","title":"西渡","lon":"121.42959","lat":"30.99559","category":"38","category_name":"公交车站","address":"上海市奉贤区西渡"},{"poiid":"B2094757D06FA4FA4499","title":"上海交通大学菁菁堂","lon":"121.42978692","lat":"31.017888915","category":"178","category_name":"电影院","address":"闵行区东川路800号上海交通大学校区"},{"poiid":"B2094757D06FA2F5429F","title":"上海交大闵行校区拖鞋门","lon":"121.43095039","lat":"31.017577126","category":"500","category_name":"未知分类","address":"上海市东川路800号"},{"poiid":"B2094757D06FA6FF4293","title":"微软 上海","lon":"121.45035963","lat":"31.019618749","category":"46","category_name":"楼宇","address":"上海紫星路999号"},{"poiid":"B2094757D068A0F8409B","title":"奉浦大桥","lon":"121.4420166","lat":"31.005385894","category":"260","category_name":"其他","address":"上海奉浦大桥"},{"poiid":"B2094757D068A3F8439B","title":"新南家园","lon":"121.445030212","lat":"30.9941864014","category":"47","category_name":"住宅区","address":"上海市奉贤区西渡镇西闸公路1118号"},{"poiid":"B2094757D064A6FC4098","title":"英特尔亚太研发有限公司","lon":"121.448820678","lat":"31.0199671956","category":"46","category_name":"楼宇","address":"上海闵行区紫竹科学园区紫星路880号"},{"poiid":"B2094654DB6EAAFD449C","title":"闵行中学","lon":"121.42591","lat":"31.00709","category":"55","category_name":"中学","address":"闵行区江川东路950号(近沪闵路)"},{"poiid":"B2094750D664A5FB409E","title":"大学路韩国料理","lon":"121.432","lat":"31.0172","category":"96","category_name":"韩国料理","address":"闵行区东川路(安宁路东川路)"},{"poiid":"B2094757D66DA3F5479F","title":"天使的礼物咖啡店","lon":"121.43254852","lat":"31.014183044","category":"65","category_name":"咖啡厅","address":"闵行区永平路142号(近交通大学)"},{"poiid":"B2094654DB69A6FD4199","title":"星河景苑","lon":"121.427932","lat":"31.003178","category":"47","category_name":"住宅区","address":"上海市闵行区新闵路481弄"},{"poiid":"B2094757D069A2F94598","title":"院儿咖啡","lon":"121.43259079","lat":"31.01356043","category":"260","category_name":"其他","address":"闵行区永平路90号(近德宏路)"},{"poiid":"B2094655D36DA3F5439D","title":"奉浦大桥","lon":"121.43934","lat":"31.0111","category":"250","category_name":"公园户外","address":""},{"poiid":"B2094757D068ABFA4599","title":"浦江花苑","lon":"121.42805","lat":"31.000284","category":"47","category_name":"住宅区","address":"上海市闵行区浦江路58弄"},{"poiid":"B2094757D068A6FD479D","title":"晟碟半导体有限公司","lon":"121.44475757","lat":"31.013914181","category":"263","category_name":"公司","address":"上海江川东路388号"},{"poiid":"B2094757D169A4F9419D","title":"御陕坊","lon":"121.432984128","lat":"31.0129414512","category":"84","category_name":"西北菜","address":"闵行区永平路41号(近交通大学)"},{"poiid":"B2094757D165A5FE409C","title":"可口可乐中国总部","lon":"121.436242228","lat":"31.0205795082","category":"500","category_name":"未知分类","address":"上海闵行区东川路800号"},{"poiid":"B2094655D26BA2FD4299","title":"文怡花园","lon":"121.44049","lat":"30.993238","category":"47","category_name":"住宅区","address":"上海市奉贤区西渡镇西闸路"},{"poiid":"B2094655D36DA7FB4299","title":"紫竹园科学园区","lon":"121.43945","lat":"31.01075","category":"38","category_name":"公交车站","address":""},{"poiid":"B2094655D264A0FF429A","title":"微软中国上海科技园区","lon":"121.45018","lat":"31.02005","category":"45","category_name":"产业园区","address":"紫星路999"},{"poiid":"B2094757D068A0F44892","title":"蜀香村川菜(东川路店)","lon":"121.43301","lat":"31.0167","category":"71","category_name":"四川菜","address":"闵行区东川路811弄1号(近交通大学)"},{"poiid":"B2094654DB6EAAF9449D","title":"奉浦木材码头南区","lon":"121.44136","lat":"31.01025","category":"34","category_name":"港口码头","address":""},{"poiid":"B2094757D16CA3FF4593","title":"可囗可乐饮料(上海)有限公司","lon":"121.44061028","lat":"31.008793796","category":"500","category_name":"未知分类","address":"上海紫月路1188号"},{"poiid":"B2094750D76FA3F4459C","title":"小雨点围着锅台吃","lon":"121.432","lat":"31.0154","category":"82","category_name":"东北菜","address":"闵行区永平路114号"},{"poiid":"B2094757D168A5FC439E","title":"上海交通大学微电子楼","lon":"121.44608151","lat":"31.006939436","category":"500","category_name":"未知分类","address":"上海交通大学闵行校区"},{"poiid":"B2094757D66CA2FA4193","title":"上海交通大学学术活动中心宾馆","lon":"121.43309783","lat":"31.01861763","category":"76","category_name":"上海菜","address":"闵行区东川路800号上海交通大学校区内(近永平路)"},{"poiid":"B2094654DB65A7F4499A","title":"阿康烧烤 交大店","lon":"121.430010054","lat":"31.017358793","category":"68","category_name":"快餐厅","address":"闵行区永平路194号"},{"poiid":"B2094757D16DAAFA409B","title":"真康自助乐烤","lon":"121.43182","lat":"31.01564","category":"68","category_name":"快餐厅","address":"闵行区永平路200-204号(近交通大学)"},{"poiid":"B2094757D16CA1FC499D","title":"金榜世家","lon":"121.42746912","lat":"31.012706446","category":"500","category_name":"未知分类","address":"上海市闵行区沧源路676-684号"},{"poiid":"B2094654DB6FA3FC4499","title":"北欧丽景","lon":"121.42962","lat":"31.01656","category":"47","category_name":"住宅区","address":"北欧丽景-东川花园二期位于闵行东川路755弄"},{"poiid":"B2094655D36CA0F9459C","title":"江川东路","lon":"121.44138","lat":"31.01314","category":"38","category_name":"公交车站","address":""},{"poiid":"B2094654DB6AA7FF419F","title":"留园","lon":"121.43172","lat":"31.01908","category":"76","category_name":"上海菜","address":"闵行区东川路880号上海交大校内(近交通大学)"},{"poiid":"B2094757D06BA5F54392","title":"可口可乐闵行工厂","lon":"121.44213632","lat":"31.01633112","category":"500","category_name":"未知分类","address":"上海紫月路"},{"poiid":"B2094654DB6EAAFF439C","title":"龙音寺","lon":"121.43091","lat":"31.00261","category":"244","category_name":"寺庙道观","address":"华坪路"},{"poiid":"B2094750D76FA6F4469E","title":"炫锅坊麻辣香锅(永平路店)","lon":"121.432","lat":"31.0136","category":"77","category_name":"湖南菜","address":"闵行区永平路43号"},{"poiid":"B2094757D16AA1FE459B","title":"新闵小区","lon":"121.4259","lat":"31.004814","category":"47","category_name":"住宅区","address":"上海江川东路沪闵路口"},{"poiid":"B2094757D06BABFB499F","title":"闵浦二桥","lon":"121.440742128","lat":"30.9908854981","category":"500","category_name":"未知分类","address":"上海闵浦二桥"},{"poiid":"B2094655D265AAF5429F","title":"S4西闸公路收费站","lon":"121.44742","lat":"30.99569","category":"267","category_name":"收费站","address":""},{"poiid":"B2094757D16EA3FD409A","title":"思源小菜","lon":"121.43322","lat":"31.01294","category":"76","category_name":"上海菜","address":"闵行区永平路118号(德宏路永平路)"},{"poiid":"B2094654DB6EAAF5469F","title":"沧源新村","lon":"121.42841","lat":"31.01457","category":"47","category_name":"住宅区","address":"沧源路770弄、925弄"},{"poiid":"B2094757D06BA7FA4193","title":"鸿宝一村","lon":"121.43936852311","lat":"30.993740562007","category":"500","category_name":"未知分类","address":"沪杭公路66弄"},{"poiid":"B2094757D06BA5F94198","title":"四海游龙(永平店)","lon":"121.432143","lat":"31.015132","category":"68","category_name":"快餐厅","address":"闵行区永平路(近交大闵行校区)"},{"poiid":"B2094655D36CA5FB4299","title":"沧源小区","lon":"121.43663","lat":"31.01392","category":"47","category_name":"住宅区","address":""},{"poiid":"B2094654DB6EAAFA409B","title":"好第坊","lon":"121.43308","lat":"31.01494","category":"47","category_name":"住宅区","address":"东川路865弄"},{"poiid":"B2094654DB6FA0FC409C","title":"西南商城","lon":"121.432","lat":"31.0085","category":"119","category_name":"商场","address":"新闵路573号"},{"poiid":"B2094750D76FA4FC439A","title":"朴氏韩国料理","lon":"121.431","lat":"31.0164","category":"96","category_name":"韩国料理","address":"闵行区永平路233-235号(近东川路)"},{"poiid":"B2094757D464AAF54398","title":"西部高地 HIGH LAND","lon":"121.429608","lat":"31.016678","category":"47","category_name":"住宅区","address":"闵行区东川路847号(交大拖鞋门斜对面)"},{"poiid":"B2094757D76CA0FF4699","title":"东北春饼王","lon":"121.43266","lat":"31.01412","category":"82","category_name":"东北菜","address":"闵行区永平路150号(近闵行交大)"},{"poiid":"B2094757D16EA7F84692","title":"村夫烤鱼(永平路店)","lon":"121.43231","lat":"31.01511","category":"71","category_name":"四川菜","address":"闵行区永平路"}]