[{"poiid":"B2094757D06FA7F5489D","title":"唐镇地铁站","lon":"121.655261389","lat":"31.2132715098","category":"36","category_name":"地铁站","address":"上海轨道交通 二号线 轨交塘镇站 2"},{"poiid":"B2094655D36DA6FE4698","title":"唐镇","lon":"121.65525","lat":"31.21328","category":"38","category_name":"公交车站","address":""},{"poiid":"B2094757D06FABFD439A","title":"张江集电港二期","lon":"121.635397","lat":"31.216483","category":"47","category_name":"住宅区","address":"浦东新区张东路1387号"},{"poiid":"B2094757D06EAAFD469C","title":"泛亚汽车技术中心有限公司","lon":"121.65544891","lat":"31.228515625","category":"46","category_name":"楼宇","address":"浦东新区龙东大道3999号(近龙新路)"},{"poiid":"B2094654DA6AAAFD489D","title":"绿波城","lon":"121.66481","lat":"31.209545","category":"47","category_name":"住宅区","address":"创新中路258号"},{"poiid":"B2094757D068A3F9499E","title":"毕加索小镇","lon":"121.64792633","lat":"31.221918106","category":"500","category_name":"未知分类","address":"上海市浦东新区春泉路45弄"},{"poiid":"B2094757D068A4F8469C","title":"唐园大酒店","lon":"121.64786","lat":"31.22455","category":"76","category_name":"上海菜","address":"浦东新区唐陆路2400号(近龙东大道)"},{"poiid":"B2094655D265ABF9499B","title":"保利金爵公寓(一期)","lon":"121.651128","lat":"31.206772","category":"47","category_name":"住宅区","address":"浦东新区创新西路75弄131号B座"},{"poiid":"B2094750DA6DA0FB429E","title":"张江家乐福","lon":"121.638771","lat":"31.203567","category":"249","category_name":"购物服务","address":"浦东新区张江高科中路2860号(近张东路)"},{"poiid":"B2094654DA6AAAFD4699","title":"上海民远职业技术学院","lon":"121.66107","lat":"31.19932","category":"671","category_name":"高校中心点","address":"浦东新区唐陆公路3892号(近华夏东路)"},{"poiid":"B2094757D068A7FA469F","title":"金唐公寓","lon":"121.65786","lat":"31.202555","category":"500","category_name":"未知分类","address":"创新西路75弄1-136号"},{"poiid":"B2094757D06AA4FA4692","title":"展讯中心","lon":"121.634","lat":"31.2169","category":"500","category_name":"未知分类","address":"上海浦东新区张江高科祖冲之路2288弄1号楼"},{"poiid":"B2094654DA6AAAFD429D","title":"唐人苑","lon":"121.64923","lat":"31.208265","category":"47","category_name":"住宅区","address":"唐镇路127弄"},{"poiid":"B2094757D069A3F9479C","title":"唐镇天主教堂","lon":"121.65758514","lat":"31.201940536","category":"245","category_name":"教堂","address":"上海唐陆路"},{"poiid":"B2094757D06FA5FF4692","title":"金利公寓","lon":"121.66344","lat":"31.2026","category":"47","category_name":"住宅区","address":"上海南曹路901弄"},{"poiid":"B2094757D66CAAF9499C","title":"绿城玉兰花园","lon":"121.65719056928992","lat":"31.219996063475424","category":"47","category_name":"住宅区","address":"上海市浦东新区齐爱路99弄"},{"poiid":"B2094757D06BA3FD459D","title":"圣马力诺.桥语别墅","lon":"121.64949023","lat":"31.217492672","category":"47","category_name":"住宅区","address":"上海唐安路199弄"},{"poiid":"B2094757D06BA5FD4499","title":"永和大王(张江家乐福店)","lon":"121.63938","lat":"31.20406","category":"68","category_name":"快餐厅","address":"浦东新区高科中路2860号家乐福2楼"},{"poiid":"B2094757D164AAF54999","title":"肯德基","lon":"121.63701427","lat":"31.203571737","category":"68","category_name":"快餐厅","address":"浦东新区高科中路2860号家乐福(近外环线)"},{"poiid":"B2094654DA6AAAF5439C","title":"东唐苑","lon":"121.65368","lat":"31.209255","category":"47","category_name":"住宅区","address":"上海唐镇路320弄"},{"poiid":"B2094757D068AAFD4392","title":"创新中路地铁站","lon":"121.664993","lat":"31.214909","category":"36","category_name":"地铁站","address":"上海轨道交通,二号线,轨交创新中路站,2"},{"poiid":"B2094655D26BA2F9489C","title":"唐陆公路春泉路","lon":"121.65226","lat":"31.21636","category":"38","category_name":"公交车站","address":""},{"poiid":"B2094750D76CA4FC479C","title":"妈妈糖2.0(张东路店)","lon":"121.634","lat":"31.2187","category":"94","category_name":"西餐厅","address":"浦东新区张东路1387号集电子社区中心2楼"},{"poiid":"B2094654DA6BA2F4489B","title":"得利酒家","lon":"121.65172","lat":"31.21082","category":"257","category_name":"中餐厅","address":"浦东新区顾唐路6号(近创新中路)"},{"poiid":"B2094750D56AA0FF449A","title":"保利御樽苑","lon":"121.65776","lat":"31.210739","category":"47","category_name":"住宅区","address":"上海市浦东新区唐兴路"},{"poiid":"B2094757D06BA3FD409E","title":"瀚盛家园","lon":"121.65532","lat":"31.200581","category":"47","category_name":"住宅区","address":"上海浦东新区创新西路199弄"},{"poiid":"B2094655D26EA0F8409C","title":"强生千亩园林餐厅","lon":"121.63900116319462","lat":"31.22349341978972","category":"87","category_name":"特色／地方风味餐厅","address":"上海市浦东新区龙东大道3166号"},{"poiid":"B2094757D768AAFB4393","title":"Venice面包蛋糕咖啡","lon":"121.654439","lat":"31.209447","category":"67","category_name":"甜品店","address":"浦东新区唐镇路354号(唐镇路邮局对面)"},{"poiid":"B2094654DB69A7F84692","title":"桥语别墅","lon":"121.64859","lat":"31.21681","category":"47","category_name":"住宅区","address":"桥语别墅位于浦东龙东大道唐安路199弄"},{"poiid":"B2094757D06BA4FB439E","title":"外环线龙东大道口","lon":"121.64317097","lat":"31.210425597","category":"500","category_name":"未知分类","address":"上海市浦东新区新前路"},{"poiid":"B2094757D164A2FF4298","title":"来伊份唐镇店","lon":"121.651732","lat":"31.21778","category":"247","category_name":"餐饮美食","address":"上海唐镇"},{"poiid":"B2094757D66CA2F8489A","title":"唐镇文化广场","lon":"121.654360285","lat":"31.2121828858","category":"500","category_name":"未知分类","address":"上海唐镇路唐安路口"},{"poiid":"B2094750D768A3F84399","title":"川悦食空","lon":"121.655","lat":"31.2048","category":"71","category_name":"四川菜","address":"浦东新区唐安路1008号(唐兴路口)"},{"poiid":"B2094654DA6AAAFD4499","title":"浦东唐墓桥露德圣母堂","lon":"121.65727","lat":"31.20935","category":"244","category_name":"寺庙道观","address":"浦东新区东唐镇40号"},{"poiid":"B2094654DA6BA2FB489A","title":"圣马丽诺·桥","lon":"121.6486","lat":"31.21903","category":"47","category_name":"住宅区","address":"圣马丽诺桥位于浦东唐安路199弄(近龙东大道唐陆路)"},{"poiid":"B2094654DA6AAAFD439D","title":"唐镇工程公司","lon":"121.65417","lat":"31.21281","category":"263","category_name":"公司","address":""},{"poiid":"B2094654DA6AAAFD449D","title":"浦东唐镇佳丽百货商场","lon":"121.65575","lat":"31.20956","category":"119","category_name":"商场","address":"唐镇"},{"poiid":"B2094757D065A7F44792","title":"张江集团","lon":"121.64575403","lat":"31.216166675","category":"263","category_name":"公司","address":"上海张东路1387号16幢C楼"},{"poiid":"B2094655D26BA2F9499E","title":"唐安路唐镇路","lon":"121.64924","lat":"31.20925","category":"38","category_name":"公交车站","address":""},{"poiid":"B2094655D264A6FD449A","title":"齐爱佳苑","lon":"121.6618","lat":"31.206957","category":"47","category_name":"住宅区","address":"上海市宝山区新二路183弄"},{"poiid":"B2094654DA6AAAFD449E","title":"唐镇小学","lon":"121.65505","lat":"31.20651","category":"56","category_name":"小学","address":"唐兴路439号"},{"poiid":"B2094757D66EA1F5419E","title":"唐镇夜排档","lon":"121.65201797","lat":"31.208919562","category":"247","category_name":"餐饮美食","address":"上海市浦东新区唐镇唐安路路口"},{"poiid":"B2094757D66CA7F84692","title":"工商银行 通用汽车支行","lon":"121.65375897","lat":"31.211594624","category":"500","category_name":"未知分类","address":"上海申江路1500号行政楼一楼！"},{"poiid":"B2094757D16EA3FB479C","title":"玉兰香苑四期","lon":"121.64327000318","lat":"31.206748315762","category":"500","category_name":"未知分类","address":"上海市浦东新区张江镇张东路"},{"poiid":"B2094655D36CA6FE4399","title":"高科东路","lon":"121.64929","lat":"31.20931","category":"38","category_name":"公交车站","address":""},{"poiid":"B2094654DA6AAAF5419B","title":"快客(唐镇路)","lon":"121.65409","lat":"31.20907","category":"117","category_name":"便民商店/便利店","address":""},{"poiid":"B2094750D76DAAFA469B","title":"吉阿婆麻辣烫(唐安路店)","lon":"121.652","lat":"31.2088","category":"68","category_name":"快餐厅","address":"浦东新区唐安路(近唐镇路)"},{"poiid":"B2094654DA6AA4FD4992","title":"中国农业银行唐镇支行","lon":"121.65527","lat":"31.21067","category":"150","category_name":"银行","address":"浦东新区唐陆路3201号(龙东大道唐陆公路)"},{"poiid":"B2094655D26BA7FC459D","title":"保利金利公寓","lon":"121.665","lat":"31.2106","category":"47","category_name":"住宅区","address":"创新西路唐陆路口"},{"poiid":"B2094654DA6AAAFD419F","title":"福乐家超市(唐四小学东)","lon":"121.65895","lat":"31.21654","category":"118","category_name":"超级市场","address":""},{"poiid":"B2094757D06FA7F5489D","title":"唐镇地铁站","lon":"121.655261389","lat":"31.2132715098","category":"36","category_name":"地铁站","address":"上海轨道交通 二号线 轨交塘镇站 2"},{"poiid":"B2094655D36DA6FE4698","title":"唐镇","lon":"121.65525","lat":"31.21328","category":"38","category_name":"公交车站","address":""},{"poiid":"B2094757D06FABFD439A","title":"张江集电港二期","lon":"121.635397","lat":"31.216483","category":"47","category_name":"住宅区","address":"浦东新区张东路1387号"},{"poiid":"B2094757D06EAAFD469C","title":"泛亚汽车技术中心有限公司","lon":"121.65544891","lat":"31.228515625","category":"46","category_name":"楼宇","address":"浦东新区龙东大道3999号(近龙新路)"},{"poiid":"B2094654DA6AAAFD489D","title":"绿波城","lon":"121.66481","lat":"31.209545","category":"47","category_name":"住宅区","address":"创新中路258号"},{"poiid":"B2094757D068A3F9499E","title":"毕加索小镇","lon":"121.64792633","lat":"31.221918106","category":"500","category_name":"未知分类","address":"上海市浦东新区春泉路45弄"},{"poiid":"B2094757D068A4F8469C","title":"唐园大酒店","lon":"121.64786","lat":"31.22455","category":"76","category_name":"上海菜","address":"浦东新区唐陆路2400号(近龙东大道)"},{"poiid":"B2094655D265ABF9499B","title":"保利金爵公寓(一期)","lon":"121.651128","lat":"31.206772","category":"47","category_name":"住宅区","address":"浦东新区创新西路75弄131号B座"},{"poiid":"B2094750DA6DA0FB429E","title":"张江家乐福","lon":"121.638771","lat":"31.203567","category":"249","category_name":"购物服务","address":"浦东新区张江高科中路2860号(近张东路)"},{"poiid":"B2094654DA6AAAFD4699","title":"上海民远职业技术学院","lon":"121.66107","lat":"31.19932","category":"671","category_name":"高校中心点","address":"浦东新区唐陆公路3892号(近华夏东路)"},{"poiid":"B2094757D068A7FA469F","title":"金唐公寓","lon":"121.65786","lat":"31.202555","category":"500","category_name":"未知分类","address":"创新西路75弄1-136号"},{"poiid":"B2094757D06AA4FA4692","title":"展讯中心","lon":"121.634","lat":"31.2169","category":"500","category_name":"未知分类","address":"上海浦东新区张江高科祖冲之路2288弄1号楼"},{"poiid":"B2094654DA6AAAFD429D","title":"唐人苑","lon":"121.64923","lat":"31.208265","category":"47","category_name":"住宅区","address":"唐镇路127弄"},{"poiid":"B2094757D069A3F9479C","title":"唐镇天主教堂","lon":"121.65758514","lat":"31.201940536","category":"245","category_name":"教堂","address":"上海唐陆路"},{"poiid":"B2094757D06FA5FF4692","title":"金利公寓","lon":"121.66344","lat":"31.2026","category":"47","category_name":"住宅区","address":"上海南曹路901弄"},{"poiid":"B2094757D66CAAF9499C","title":"绿城玉兰花园","lon":"121.65719056928992","lat":"31.219996063475424","category":"47","category_name":"住宅区","address":"上海市浦东新区齐爱路99弄"},{"poiid":"B2094757D06BA3FD459D","title":"圣马力诺.桥语别墅","lon":"121.64949023","lat":"31.217492672","category":"47","category_name":"住宅区","address":"上海唐安路199弄"},{"poiid":"B2094757D06BA5FD4499","title":"永和大王(张江家乐福店)","lon":"121.63938","lat":"31.20406","category":"68","category_name":"快餐厅","address":"浦东新区高科中路2860号家乐福2楼"},{"poiid":"B2094757D164AAF54999","title":"肯德基","lon":"121.63701427","lat":"31.203571737","category":"68","category_name":"快餐厅","address":"浦东新区高科中路2860号家乐福(近外环线)"},{"poiid":"B2094654DA6AAAF5439C","title":"东唐苑","lon":"121.65368","lat":"31.209255","category":"47","category_name":"住宅区","address":"上海唐镇路320弄"},{"poiid":"B2094757D068AAFD4392","title":"创新中路地铁站","lon":"121.664993","lat":"31.214909","category":"36","category_name":"地铁站","address":"上海轨道交通,二号线,轨交创新中路站,2"},{"poiid":"B2094655D26BA2F9489C","title":"唐陆公路春泉路","lon":"121.65226","lat":"31.21636","category":"38","category_name":"公交车站","address":""},{"poiid":"B2094750D76CA4FC479C","title":"妈妈糖2.0(张东路店)","lon":"121.634","lat":"31.2187","category":"94","category_name":"西餐厅","address":"浦东新区张东路1387号集电子社区中心2楼"},{"poiid":"B2094654DA6BA2F4489B","title":"得利酒家","lon":"121.65172","lat":"31.21082","category":"257","category_name":"中餐厅","address":"浦东新区顾唐路6号(近创新中路)"},{"poiid":"B2094750D56AA0FF449A","title":"保利御樽苑","lon":"121.65776","lat":"31.210739","category":"47","category_name":"住宅区","address":"上海市浦东新区唐兴路"},{"poiid":"B2094757D06BA3FD409E","title":"瀚盛家园","lon":"121.65532","lat":"31.200581","category":"47","category_name":"住宅区","address":"上海浦东新区创新西路199弄"},{"poiid":"B2094655D26EA0F8409C","title":"强生千亩园林餐厅","lon":"121.63900116319462","lat":"31.22349341978972","category":"87","category_name":"特色／地方风味餐厅","address":"上海市浦东新区龙东大道3166号"},{"poiid":"B2094757D768AAFB4393","title":"Venice面包蛋糕咖啡","lon":"121.654439","lat":"31.209447","category":"67","category_name":"甜品店","address":"浦东新区唐镇路354号(唐镇路邮局对面)"},{"poiid":"B2094654DB69A7F84692","title":"桥语别墅","lon":"121.64859","lat":"31.21681","category":"47","category_name":"住宅区","address":"桥语别墅位于浦东龙东大道唐安路199弄"},{"poiid":"B2094757D06BA4FB439E","title":"外环线龙东大道口","lon":"121.64317097","lat":"31.210425597","category":"500","category_name":"未知分类","address":"上海市浦东新区新前路"},{"poiid":"B2094757D164A2FF4298","title":"来伊份唐镇店","lon":"121.651732","lat":"31.21778","category":"247","category_name":"餐饮美食","address":"上海唐镇"},{"poiid":"B2094757D66CA2F8489A","title":"唐镇文化广场","lon":"121.654360285","lat":"31.2121828858","category":"500","category_name":"未知分类","address":"上海唐镇路唐安路口"},{"poiid":"B2094750D768A3F84399","title":"川悦食空","lon":"121.655","lat":"31.2048","category":"71","category_name":"四川菜","address":"浦东新区唐安路1008号(唐兴路口)"},{"poiid":"B2094654DA6AAAFD4499","title":"浦东唐墓桥露德圣母堂","lon":"121.65727","lat":"31.20935","category":"244","category_name":"寺庙道观","address":"浦东新区东唐镇40号"},{"poiid":"B2094654DA6BA2FB489A","title":"圣马丽诺·桥","lon":"121.6486","lat":"31.21903","category":"47","category_name":"住宅区","address":"圣马丽诺桥位于浦东唐安路199弄(近龙东大道唐陆路)"},{"poiid":"B2094654DA6AAAFD439D","title":"唐镇工程公司","lon":"121.65417","lat":"31.21281","category":"263","category_name":"公司","address":""},{"poiid":"B2094654DA6AAAFD449D","title":"浦东唐镇佳丽百货商场","lon":"121.65575","lat":"31.20956","category":"119","category_name":"商场","address":"唐镇"},{"poiid":"B2094757D065A7F44792","title":"张江集团","lon":"121.64575403","lat":"31.216166675","category":"263","category_name":"公司","address":"上海张东路1387号16幢C楼"},{"poiid":"B2094655D26BA2F9499E","title":"唐安路唐镇路","lon":"121.64924","lat":"31.20925","category":"38","category_name":"公交车站","address":""},{"poiid":"B2094655D264A6FD449A","title":"齐爱佳苑","lon":"121.6618","lat":"31.206957","category":"47","category_name":"住宅区","address":"上海市宝山区新二路183弄"},{"poiid":"B2094654DA6AAAFD449E","title":"唐镇小学","lon":"121.65505","lat":"31.20651","category":"56","category_name":"小学","address":"唐兴路439号"},{"poiid":"B2094757D66EA1F5419E","title":"唐镇夜排档","lon":"121.65201797","lat":"31.208919562","category":"247","category_name":"餐饮美食","address":"上海市浦东新区唐镇唐安路路口"},{"poiid":"B2094757D66CA7F84692","title":"工商银行 通用汽车支行","lon":"121.65375897","lat":"31.211594624","category":"500","category_name":"未知分类","address":"上海申江路1500号行政楼一楼！"},{"poiid":"B2094757D16EA3FB479C","title":"玉兰香苑四期","lon":"121.64327000318","lat":"31.206748315762","category":"500","category_name":"未知分类","address":"上海市浦东新区张江镇张东路"},{"poiid":"B2094655D36CA6FE4399","title":"高科东路","lon":"121.64929","lat":"31.20931","category":"38","category_name":"公交车站","address":""},{"poiid":"B2094654DA6AAAF5419B","title":"快客(唐镇路)","lon":"121.65409","lat":"31.20907","category":"117","category_name":"便民商店/便利店","address":""},{"poiid":"B2094750D76DAAFA469B","title":"吉阿婆麻辣烫(唐安路店)","lon":"121.652","lat":"31.2088","category":"68","category_name":"快餐厅","address":"浦东新区唐安路(近唐镇路)"},{"poiid":"B2094654DA6AA4FD4992","title":"中国农业银行唐镇支行","lon":"121.65527","lat":"31.21067","category":"150","category_name":"银行","address":"浦东新区唐陆路3201号(龙东大道唐陆公路)"},{"poiid":"B2094655D26BA7FC459D","title":"保利金利公寓","lon":"121.665","lat":"31.2106","category":"47","category_name":"住宅区","address":"创新西路唐陆路口"},{"poiid":"B2094654DA6AAAFD419F","title":"福乐家超市(唐四小学东)","lon":"121.65895","lat":"31.21654","category":"118","category_name":"超级市场","address":""},{"poiid":"B2094757D06FA7F5489D","title":"唐镇地铁站","lon":"121.655261389","lat":"31.2132715098","category":"36","category_name":"地铁站","address":"上海轨道交通 二号线 轨交塘镇站 2"},{"poiid":"B2094655D36DA6FE4698","title":"唐镇","lon":"121.65525","lat":"31.21328","category":"38","category_name":"公交车站","address":""},{"poiid":"B2094757D06FABFD439A","title":"张江集电港二期","lon":"121.635397","lat":"31.216483","category":"47","category_name":"住宅区","address":"浦东新区张东路1387号"},{"poiid":"B2094757D06EAAFD469C","title":"泛亚汽车技术中心有限公司","lon":"121.65544891","lat":"31.228515625","category":"46","category_name":"楼宇","address":"浦东新区龙东大道3999号(近龙新路)"},{"poiid":"B2094654DA6AAAFD489D","title":"绿波城","lon":"121.66481","lat":"31.209545","category":"47","category_name":"住宅区","address":"创新中路258号"},{"poiid":"B2094757D068A3F9499E","title":"毕加索小镇","lon":"121.64792633","lat":"31.221918106","category":"500","category_name":"未知分类","address":"上海市浦东新区春泉路45弄"},{"poiid":"B2094757D068A4F8469C","title":"唐园大酒店","lon":"121.64786","lat":"31.22455","category":"76","category_name":"上海菜","address":"浦东新区唐陆路2400号(近龙东大道)"},{"poiid":"B2094655D265ABF9499B","title":"保利金爵公寓(一期)","lon":"121.651128","lat":"31.206772","category":"47","category_name":"住宅区","address":"浦东新区创新西路75弄131号B座"},{"poiid":"B2094750DA6DA0FB429E","title":"张江家乐福","lon":"121.638771","lat":"31.203567","category":"249","category_name":"购物服务","address":"浦东新区张江高科中路2860号(近张东路)"},{"poiid":"B2094654DA6AAAFD4699","title":"上海民远职业技术学院","lon":"121.66107","lat":"31.19932","category":"671","category_name":"高校中心点","address":"浦东新区唐陆公路3892号(近华夏东路)"},{"poiid":"B2094757D068A7FA469F","title":"金唐公寓","lon":"121.65786","lat":"31.202555","category":"500","category_name":"未知分类","address":"创新西路75弄1-136号"},{"poiid":"B2094757D06AA4FA4692","title":"展讯中心","lon":"121.634","lat":"31.2169","category":"500","category_name":"未知分类","address":"上海浦东新区张江高科祖冲之路2288弄1号楼"},{"poiid":"B2094654DA6AAAFD429D","title":"唐人苑","lon":"121.64923","lat":"31.208265","category":"47","category_name":"住宅区","address":"唐镇路127弄"},{"poiid":"B2094757D069A3F9479C","title":"唐镇天主教堂","lon":"121.65758514","lat":"31.201940536","category":"245","category_name":"教堂","address":"上海唐陆路"},{"poiid":"B2094757D06FA5FF4692","title":"金利公寓","lon":"121.66344","lat":"31.2026","category":"47","category_name":"住宅区","address":"上海南曹路901弄"},{"poiid":"B2094757D66CAAF9499C","title":"绿城玉兰花园","lon":"121.65719056928992","lat":"31.219996063475424","category":"47","category_name":"住宅区","address":"上海市浦东新区齐爱路99弄"},{"poiid":"B2094757D06BA3FD459D","title":"圣马力诺.桥语别墅","lon":"121.64949023","lat":"31.217492672","category":"47","category_name":"住宅区","address":"上海唐安路199弄"},{"poiid":"B2094757D06BA5FD4499","title":"永和大王(张江家乐福店)","lon":"121.63938","lat":"31.20406","category":"68","category_name":"快餐厅","address":"浦东新区高科中路2860号家乐福2楼"},{"poiid":"B2094757D164AAF54999","title":"肯德基","lon":"121.63701427","lat":"31.203571737","category":"68","category_name":"快餐厅","address":"浦东新区高科中路2860号家乐福(近外环线)"},{"poiid":"B2094654DA6AAAF5439C","title":"东唐苑","lon":"121.65368","lat":"31.209255","category":"47","category_name":"住宅区","address":"上海唐镇路320弄"},{"poiid":"B2094757D068AAFD4392","title":"创新中路地铁站","lon":"121.664993","lat":"31.214909","category":"36","category_name":"地铁站","address":"上海轨道交通,二号线,轨交创新中路站,2"},{"poiid":"B2094655D26BA2F9489C","title":"唐陆公路春泉路","lon":"121.65226","lat":"31.21636","category":"38","category_name":"公交车站","address":""},{"poiid":"B2094750D76CA4FC479C","title":"妈妈糖2.0(张东路店)","lon":"121.634","lat":"31.2187","category":"94","category_name":"西餐厅","address":"浦东新区张东路1387号集电子社区中心2楼"},{"poiid":"B2094654DA6BA2F4489B","title":"得利酒家","lon":"121.65172","lat":"31.21082","category":"257","category_name":"中餐厅","address":"浦东新区顾唐路6号(近创新中路)"},{"poiid":"B2094750D56AA0FF449A","title":"保利御樽苑","lon":"121.65776","lat":"31.210739","category":"47","category_name":"住宅区","address":"上海市浦东新区唐兴路"},{"poiid":"B2094757D06BA3FD409E","title":"瀚盛家园","lon":"121.65532","lat":"31.200581","category":"47","category_name":"住宅区","address":"上海浦东新区创新西路199弄"},{"poiid":"B2094655D26EA0F8409C","title":"强生千亩园林餐厅","lon":"121.63900116319462","lat":"31.22349341978972","category":"87","category_name":"特色／地方风味餐厅","address":"上海市浦东新区龙东大道3166号"},{"poiid":"B2094757D768AAFB4393","title":"Venice面包蛋糕咖啡","lon":"121.654439","lat":"31.209447","category":"67","category_name":"甜品店","address":"浦东新区唐镇路354号(唐镇路邮局对面)"},{"poiid":"B2094654DB69A7F84692","title":"桥语别墅","lon":"121.64859","lat":"31.21681","category":"47","category_name":"住宅区","address":"桥语别墅位于浦东龙东大道唐安路199弄"},{"poiid":"B2094757D06BA4FB439E","title":"外环线龙东大道口","lon":"121.64317097","lat":"31.210425597","category":"500","category_name":"未知分类","address":"上海市浦东新区新前路"},{"poiid":"B2094757D164A2FF4298","title":"来伊份唐镇店","lon":"121.651732","lat":"31.21778","category":"247","category_name":"餐饮美食","address":"上海唐镇"},{"poiid":"B2094757D66CA2F8489A","title":"唐镇文化广场","lon":"121.654360285","lat":"31.2121828858","category":"500","category_name":"未知分类","address":"上海唐镇路唐安路口"},{"poiid":"B2094750D768A3F84399","title":"川悦食空","lon":"121.655","lat":"31.2048","category":"71","category_name":"四川菜","address":"浦东新区唐安路1008号(唐兴路口)"},{"poiid":"B2094654DA6AAAFD4499","title":"浦东唐墓桥露德圣母堂","lon":"121.65727","lat":"31.20935","category":"244","category_name":"寺庙道观","address":"浦东新区东唐镇40号"},{"poiid":"B2094654DA6BA2FB489A","title":"圣马丽诺·桥","lon":"121.6486","lat":"31.21903","category":"47","category_name":"住宅区","address":"圣马丽诺桥位于浦东唐安路199弄(近龙东大道唐陆路)"},{"poiid":"B2094654DA6AAAFD439D","title":"唐镇工程公司","lon":"121.65417","lat":"31.21281","category":"263","category_name":"公司","address":""},{"poiid":"B2094654DA6AAAFD449D","title":"浦东唐镇佳丽百货商场","lon":"121.65575","lat":"31.20956","category":"119","category_name":"商场","address":"唐镇"},{"poiid":"B2094757D065A7F44792","title":"张江集团","lon":"121.64575403","lat":"31.216166675","category":"263","category_name":"公司","address":"上海张东路1387号16幢C楼"},{"poiid":"B2094655D26BA2F9499E","title":"唐安路唐镇路","lon":"121.64924","lat":"31.20925","category":"38","category_name":"公交车站","address":""},{"poiid":"B2094655D264A6FD449A","title":"齐爱佳苑","lon":"121.6618","lat":"31.206957","category":"47","category_name":"住宅区","address":"上海市宝山区新二路183弄"},{"poiid":"B2094654DA6AAAFD449E","title":"唐镇小学","lon":"121.65505","lat":"31.20651","category":"56","category_name":"小学","address":"唐兴路439号"},{"poiid":"B2094757D66EA1F5419E","title":"唐镇夜排档","lon":"121.65201797","lat":"31.208919562","category":"247","category_name":"餐饮美食","address":"上海市浦东新区唐镇唐安路路口"},{"poiid":"B2094757D66CA7F84692","title":"工商银行 通用汽车支行","lon":"121.65375897","lat":"31.211594624","category":"500","category_name":"未知分类","address":"上海申江路1500号行政楼一楼！"},{"poiid":"B2094757D16EA3FB479C","title":"玉兰香苑四期","lon":"121.64327000318","lat":"31.206748315762","category":"500","category_name":"未知分类","address":"上海市浦东新区张江镇张东路"},{"poiid":"B2094655D36CA6FE4399","title":"高科东路","lon":"121.64929","lat":"31.20931","category":"38","category_name":"公交车站","address":""},{"poiid":"B2094654DA6AAAF5419B","title":"快客(唐镇路)","lon":"121.65409","lat":"31.20907","category":"117","category_name":"便民商店/便利店","address":""},{"poiid":"B2094750D76DAAFA469B","title":"吉阿婆麻辣烫(唐安路店)","lon":"121.652","lat":"31.2088","category":"68","category_name":"快餐厅","address":"浦东新区唐安路(近唐镇路)"},{"poiid":"B2094654DA6AA4FD4992","title":"中国农业银行唐镇支行","lon":"121.65527","lat":"31.21067","category":"150","category_name":"银行","address":"浦东新区唐陆路3201号(龙东大道唐陆公路)"},{"poiid":"B2094655D26BA7FC459D","title":"保利金利公寓","lon":"121.665","lat":"31.2106","category":"47","category_name":"住宅区","address":"创新西路唐陆路口"},{"poiid":"B2094654DA6AAAFD419F","title":"福乐家超市(唐四小学东)","lon":"121.65895","lat":"31.21654","category":"118","category_name":"超级市场","address":""},{"poiid":"B2094757D06FA7F5489D","title":"唐镇地铁站","lon":"121.655261389","lat":"31.2132715098","category":"36","category_name":"地铁站","address":"上海轨道交通 二号线 轨交塘镇站 2"},{"poiid":"B2094655D36DA6FE4698","title":"唐镇","lon":"121.65525","lat":"31.21328","category":"38","category_name":"公交车站","address":""},{"poiid":"B2094757D06FABFD439A","title":"张江集电港二期","lon":"121.635397","lat":"31.216483","category":"47","category_name":"住宅区","address":"浦东新区张东路1387号"},{"poiid":"B2094757D06EAAFD469C","title":"泛亚汽车技术中心有限公司","lon":"121.65544891","lat":"31.228515625","category":"46","category_name":"楼宇","address":"浦东新区龙东大道3999号(近龙新路)"},{"poiid":"B2094654DA6AAAFD489D","title":"绿波城","lon":"121.66481","lat":"31.209545","category":"47","category_name":"住宅区","address":"创新中路258号"},{"poiid":"B2094757D068A3F9499E","title":"毕加索小镇","lon":"121.64792633","lat":"31.221918106","category":"500","category_name":"未知分类","address":"上海市浦东新区春泉路45弄"},{"poiid":"B2094757D068A4F8469C","title":"唐园大酒店","lon":"121.64786","lat":"31.22455","category":"76","category_name":"上海菜","address":"浦东新区唐陆路2400号(近龙东大道)"},{"poiid":"B2094655D265ABF9499B","title":"保利金爵公寓(一期)","lon":"121.651128","lat":"31.206772","category":"47","category_name":"住宅区","address":"浦东新区创新西路75弄131号B座"},{"poiid":"B2094750DA6DA0FB429E","title":"张江家乐福","lon":"121.638771","lat":"31.203567","category":"249","category_name":"购物服务","address":"浦东新区张江高科中路2860号(近张东路)"},{"poiid":"B2094654DA6AAAFD4699","title":"上海民远职业技术学院","lon":"121.66107","lat":"31.19932","category":"671","category_name":"高校中心点","address":"浦东新区唐陆公路3892号(近华夏东路)"},{"poiid":"B2094757D068A7FA469F","title":"金唐公寓","lon":"121.65786","lat":"31.202555","category":"500","category_name":"未知分类","address":"创新西路75弄1-136号"},{"poiid":"B2094757D06AA4FA4692","title":"展讯中心","lon":"121.634","lat":"31.2169","category":"500","category_name":"未知分类","address":"上海浦东新区张江高科祖冲之路2288弄1号楼"},{"poiid":"B2094654DA6AAAFD429D","title":"唐人苑","lon":"121.64923","lat":"31.208265","category":"47","category_name":"住宅区","address":"唐镇路127弄"},{"poiid":"B2094757D069A3F9479C","title":"唐镇天主教堂","lon":"121.65758514","lat":"31.201940536","category":"245","category_name":"教堂","address":"上海唐陆路"},{"poiid":"B2094757D06FA5FF4692","title":"金利公寓","lon":"121.66344","lat":"31.2026","category":"47","category_name":"住宅区","address":"上海南曹路901弄"},{"poiid":"B2094757D66CAAF9499C","title":"绿城玉兰花园","lon":"121.65719056928992","lat":"31.219996063475424","category":"47","category_name":"住宅区","address":"上海市浦东新区齐爱路99弄"},{"poiid":"B2094757D06BA3FD459D","title":"圣马力诺.桥语别墅","lon":"121.64949023","lat":"31.217492672","category":"47","category_name":"住宅区","address":"上海唐安路199弄"},{"poiid":"B2094757D06BA5FD4499","title":"永和大王(张江家乐福店)","lon":"121.63938","lat":"31.20406","category":"68","category_name":"快餐厅","address":"浦东新区高科中路2860号家乐福2楼"},{"poiid":"B2094757D164AAF54999","title":"肯德基","lon":"121.63701427","lat":"31.203571737","category":"68","category_name":"快餐厅","address":"浦东新区高科中路2860号家乐福(近外环线)"},{"poiid":"B2094654DA6AAAF5439C","title":"东唐苑","lon":"121.65368","lat":"31.209255","category":"47","category_name":"住宅区","address":"上海唐镇路320弄"},{"poiid":"B2094757D068AAFD4392","title":"创新中路地铁站","lon":"121.664993","lat":"31.214909","category":"36","category_name":"地铁站","address":"上海轨道交通,二号线,轨交创新中路站,2"},{"poiid":"B2094655D26BA2F9489C","title":"唐陆公路春泉路","lon":"121.65226","lat":"31.21636","category":"38","category_name":"公交车站","address":""},{"poiid":"B2094750D76CA4FC479C","title":"妈妈糖2.0(张东路店)","lon":"121.634","lat":"31.2187","category":"94","category_name":"西餐厅","address":"浦东新区张东路1387号集电子社区中心2楼"},{"poiid":"B2094654DA6BA2F4489B","title":"得利酒家","lon":"121.65172","lat":"31.21082","category":"257","category_name":"中餐厅","address":"浦东新区顾唐路6号(近创新中路)"},{"poiid":"B2094750D56AA0FF449A","title":"保利御樽苑","lon":"121.65776","lat":"31.210739","category":"47","category_name":"住宅区","address":"上海市浦东新区唐兴路"},{"poiid":"B2094757D06BA3FD409E","title":"瀚盛家园","lon":"121.65532","lat":"31.200581","category":"47","category_name":"住宅区","address":"上海浦东新区创新西路199弄"},{"poiid":"B2094655D26EA0F8409C","title":"强生千亩园林餐厅","lon":"121.63900116319462","lat":"31.22349341978972","category":"87","category_name":"特色／地方风味餐厅","address":"上海市浦东新区龙东大道3166号"},{"poiid":"B2094757D768AAFB4393","title":"Venice面包蛋糕咖啡","lon":"121.654439","lat":"31.209447","category":"67","category_name":"甜品店","address":"浦东新区唐镇路354号(唐镇路邮局对面)"},{"poiid":"B2094654DB69A7F84692","title":"桥语别墅","lon":"121.64859","lat":"31.21681","category":"47","category_name":"住宅区","address":"桥语别墅位于浦东龙东大道唐安路199弄"},{"poiid":"B2094757D06BA4FB439E","title":"外环线龙东大道口","lon":"121.64317097","lat":"31.210425597","category":"500","category_name":"未知分类","address":"上海市浦东新区新前路"},{"poiid":"B2094757D164A2FF4298","title":"来伊份唐镇店","lon":"121.651732","lat":"31.21778","category":"247","category_name":"餐饮美食","address":"上海唐镇"},{"poiid":"B2094757D66CA2F8489A","title":"唐镇文化广场","lon":"121.654360285","lat":"31.2121828858","category":"500","category_name":"未知分类","address":"上海唐镇路唐安路口"},{"poiid":"B2094750D768A3F84399","title":"川悦食空","lon":"121.655","lat":"31.2048","category":"71","category_name":"四川菜","address":"浦东新区唐安路1008号(唐兴路口)"},{"poiid":"B2094654DA6AAAFD4499","title":"浦东唐墓桥露德圣母堂","lon":"121.65727","lat":"31.20935","category":"244","category_name":"寺庙道观","address":"浦东新区东唐镇40号"},{"poiid":"B2094654DA6BA2FB489A","title":"圣马丽诺·桥","lon":"121.6486","lat":"31.21903","category":"47","category_name":"住宅区","address":"圣马丽诺桥位于浦东唐安路199弄(近龙东大道唐陆路)"},{"poiid":"B2094654DA6AAAFD439D","title":"唐镇工程公司","lon":"121.65417","lat":"31.21281","category":"263","category_name":"公司","address":""},{"poiid":"B2094654DA6AAAFD449D","title":"浦东唐镇佳丽百货商场","lon":"121.65575","lat":"31.20956","category":"119","category_name":"商场","address":"唐镇"},{"poiid":"B2094757D065A7F44792","title":"张江集团","lon":"121.64575403","lat":"31.216166675","category":"263","category_name":"公司","address":"上海张东路1387号16幢C楼"},{"poiid":"B2094655D26BA2F9499E","title":"唐安路唐镇路","lon":"121.64924","lat":"31.20925","category":"38","category_name":"公交车站","address":""},{"poiid":"B2094655D264A6FD449A","title":"齐爱佳苑","lon":"121.6618","lat":"31.206957","category":"47","category_name":"住宅区","address":"上海市宝山区新二路183弄"},{"poiid":"B2094654DA6AAAFD449E","title":"唐镇小学","lon":"121.65505","lat":"31.20651","category":"56","category_name":"小学","address":"唐兴路439号"},{"poiid":"B2094757D66EA1F5419E","title":"唐镇夜排档","lon":"121.65201797","lat":"31.208919562","category":"247","category_name":"餐饮美食","address":"上海市浦东新区唐镇唐安路路口"},{"poiid":"B2094757D66CA7F84692","title":"工商银行 通用汽车支行","lon":"121.65375897","lat":"31.211594624","category":"500","category_name":"未知分类","address":"上海申江路1500号行政楼一楼！"},{"poiid":"B2094757D16EA3FB479C","title":"玉兰香苑四期","lon":"121.64327000318","lat":"31.206748315762","category":"500","category_name":"未知分类","address":"上海市浦东新区张江镇张东路"},{"poiid":"B2094655D36CA6FE4399","title":"高科东路","lon":"121.64929","lat":"31.20931","category":"38","category_name":"公交车站","address":""},{"poiid":"B2094654DA6AAAF5419B","title":"快客(唐镇路)","lon":"121.65409","lat":"31.20907","category":"117","category_name":"便民商店/便利店","address":""},{"poiid":"B2094750D76DAAFA469B","title":"吉阿婆麻辣烫(唐安路店)","lon":"121.652","lat":"31.2088","category":"68","category_name":"快餐厅","address":"浦东新区唐安路(近唐镇路)"},{"poiid":"B2094654DA6AA4FD4992","title":"中国农业银行唐镇支行","lon":"121.65527","lat":"31.21067","category":"150","category_name":"银行","address":"浦东新区唐陆路3201号(龙东大道唐陆公路)"},{"poiid":"B2094655D26BA7FC459D","title":"保利金利公寓","lon":"121.665","lat":"31.2106","category":"47","category_name":"住宅区","address":"创新西路唐陆路口"},{"poiid":"B2094654DA6AAAFD419F","title":"福乐家超市(唐四小学东)","lon":"121.65895","lat":"31.21654","category":"118","category_name":"超级市场","address":""}]